#------------------------------------------------------------------------------
# Created by    : vladimir.rabinovich
# Created on    : 09/19/2023 17:19:55
#------------------------------------------------------------------------------
~Version Information Section
VERS.           2.0     :   CWLS log ASCII Standard - VERSION 2.0
WRAP.           NO      :   One line per depth step
~Well Information Section
#MNEM       .UNIT                                         VALUE :DESCRIPTION
#------------------------------------------------------------------------------
STRT        .FT                                            1601 :START DEPTH
STOP        .FT                                            6340 :STOP DEPTH
STEP        .FT                                             0.5 :STEP      
NULL        .                                           -999.25 :NULL      
COMP        .                 FAIRWAYS OFFSHORE EXPLORATION INC :COMPANY   
WELL        .                                ST TR 00629-L SE/4 :WELL      
FLD         .                                       BLOCK 630-L :FIELD     
LOC         .                                                   :LOCATION  
CNTY        .                      MATAGORDA ISLAND LARGE BLOCK :LOCATION  
STAT        .                                             TEXAS :STATE     
CTRY        .                                     UNITED STATES :COUNTRY   
SRVC        .                                                   :SERVICE COMPANY
DATE        .                             9/13/2023 11:19:05 AM :LOG DATE  
API         .                                    42703302840100 :API NUMBER
UWI         .                                    42703302840100 :UNIQUE WELL ID
XCOORD      .                                  449566.970470722 :SURFACE X 
YCOORD      .                                  10204940.3648147 :SURFACE Y 
LAT         .                                        28.0716107 :LATITUDE  
LON         .                                       -96.6925833 :LONGITUDE 
ELEV        .FT                                              82 :ELEVATION VALUE
ELEV_TYPE   .                                                KB :ELEVATION REFERENCE TYPE
~Curve Information Section
#MNEM       .UNIT                                      API CODE :CURVE DESCRIPTION
#------------------------------------------------------------------------------
DEPT        .FT                                                 :DEPTH     
ASFL        .OHMM                                               :          
CILD        .MMHO                                               :          
GR          .GAPI                                               :          
GR_NORM     .GAPI                                               :GammaRay Normalized
ILD         .OHMM                                               :          
SP          .MV                                                 :          
SP_NORM     .MV                                                 :SP Normalized
VSH_GR      .V/V                                                :Volume of Shale from GR
VSH_SP      .V/V                                                :Volume of Shale from SP
~A        DEPTH           ASFL           CILD             GR        GR_NORM            ILD             SP        SP_NORM         VSH_GR         VSH_SP
# ...
      6318.0000         0.7595       1443.621        98.3285       87.71557         0.6998       -39.4235     0.09745789              1              1
      6318.5000         0.7582       1496.926        97.4489        86.2216         0.6744       -39.4814     0.03955841              1              1
      6319.0000         0.7524       1540.326         97.604       86.42513         0.6519       -39.5394    -0.01844025              1              1
      6319.5000         0.7419       1578.381        99.3906       89.30509         0.6339       -39.5975     -0.0765419              1              1
      6320.0000         0.7314       1616.434       100.6495       91.31937         0.6158       -39.7438     -0.2228432              1              1
      6320.5000         0.7203       1654.488       100.7725        91.4702         0.5997        -39.926     -0.4050407              1              1
      6321.0000          0.701       1692.494        99.4589       89.26428         0.5949       -40.1083     -0.5873413              1              1
      6321.5000         0.6964       1711.816         98.514       87.66324           0.59       -40.1948     -0.6738434              1              1
      6322.0000         0.6929       1731.014        97.1744       85.41468         0.5852       -40.2242     -0.7032433              1              1
      6322.5000         0.6914       1750.213        95.1433        82.0317         0.5821       -40.2535     -0.7325439              1              1
      6323.0000         0.6955       1768.799         98.473       87.44313         0.5905        -40.203     -0.6820412              1              1
      6323.5000         0.7025       1780.471        99.9443       89.80585          0.599       -40.1218     -0.6008415              1              1
      6324.0000         0.7121       1728.881       100.4882       90.64718         0.6074       -40.0406     -0.5196419              1              1
      6324.5000         0.7217       1677.293        99.7928       89.45544          0.621       -39.9595     -0.4385414              1              1
      6325.0000         0.7313       1628.693        98.9852       88.07962         0.6353       -39.8784     -0.3574409              1              1
      6325.5000         0.7422       1583.088        98.1776        86.7038         0.6496       -39.7972     -0.2762413              1              1
      6326.0000         0.7564       1540.031        95.9775        83.0436         0.6639       -39.7839     -0.2629433              1              1
      6326.5000         0.7705       1515.365        96.0968       83.18835         0.6758       -39.8354     -0.3144417              1              1
      6327.0000         0.7842       1490.699        97.1831       84.91946         0.6878        -39.887     -0.3660431              1              1
      6327.5000         0.7957       1466.008         97.833       85.93468         0.6997       -39.9385     -0.4175415              1              1
      6328.0000         0.8072       1446.195        98.4384       86.87691         0.7116       -39.9901     -0.4691429              1              1
      6328.5000         0.8131       1427.535        98.9498       87.66491         0.7199       -40.0417     -0.5207405              1              1
      6329.0000         0.8163       1408.877        99.4862       88.49393         0.7234       -40.2044     -0.6834412              1              1
      6329.5000         0.8195       1390.217        98.9846       87.62009         0.7268       -40.3793     -0.8583412              1              1
      6330.0000         0.8226       1374.623        98.1404       86.18426         0.7303       -40.5542      -1.033241              1      0.9994639
      6330.5000         0.8204       1364.043        97.9529        85.8257         0.7262       -40.7292      -1.208241              1      0.9966413
      6331.0000         0.8183       1374.611        98.3573       86.43818         0.7219       -40.9082      -1.387241              1      0.9937541
      6331.5000         0.8161       1389.996        98.7142       86.97274         0.7177        -41.131      -1.610043              1      0.9901606
      6332.0000         0.8124       1406.191        99.0492       87.47136         0.7139       -41.3539      -1.832943              1      0.9865654
      6332.5000         0.8064       1422.375        97.8412       85.43867          0.711       -41.5201      -1.999142              1      0.9838848
      6333.0000         0.8004        1438.57        96.8529        83.7664         0.7081       -41.5939      -2.072941              1      0.9826945
      6333.5000         0.7923       1452.582        95.7317       81.87614         0.7053       -41.6678      -2.146843              1      0.9815025
      6334.0000         0.7826       1461.961        94.5026       79.80885         0.7016       -41.7417      -2.220741      0.9959329      0.9803106
      6334.5000         0.7729        1471.34        93.2511       77.70481         0.6963       -41.7369      -2.215942      0.9511662       0.980388
      6335.0000         0.7662       1488.172        91.1194       74.15679          0.691       -41.6569      -2.135941      0.8756764      0.9816784
      6335.5000         0.7598       1508.916        92.8986       77.02464         0.6857       -41.5771      -2.056141      0.9366944      0.9829655
      6336.0000         0.7534       1522.119        95.6473       81.48293         0.6804       -41.4972      -1.976242              1      0.9842542
      6336.5000         0.7503       1533.092        97.4897       84.45446         0.6785       -41.3574      -1.836441              1       0.986509
      6337.0000         0.7478       1544.053        98.1633       85.50855         0.6768       -41.1823      -1.661343              1      0.9893332
      6337.5000         0.7453        1547.24        97.5308       84.41998          0.675       -41.0072       -1.48624              1      0.9921574
      6338.0000         0.7416       1549.775        96.8231       83.25538         0.6733       -40.9507      -1.429741              1      0.9930687
      6338.5000         0.7362       1552.311        96.1198       82.10162         0.6714       -40.9419       -1.42094              1      0.9932106
      6339.0000         0.7309       1554.209        95.4673       81.03121         0.6693        -40.933      -1.412041              1      0.9933542
      6339.5000         0.7251        1554.58        94.5548       79.53425         0.6673       -40.9281      -1.407143      0.9900904      0.9934332
      6340.0000         0.7186       1554.953        94.6075       79.62069         0.6652       -41.0408       -1.51984      0.9919296      0.9916155
