#------------------------------------------------------------------------------
# Created by    : vladimir.rabinovich
# Created on    : 09/19/2023 17:21:34
#------------------------------------------------------------------------------
~Version Information Section
VERS.           2.0     :   CWLS log ASCII Standard - VERSION 2.0
WRAP.           NO      :   One line per depth step
~Well Information Section
#MNEM       .UNIT                                         VALUE :DESCRIPTION
#------------------------------------------------------------------------------
STRT        .FT                                            4495 :START DEPTH
STOP        .FT                                            9058 :STOP DEPTH
STEP        .FT                                             0.5 :STEP      
NULL        .                                           -999.25 :NULL      
COMP        .                          SEAGULL ENERGY E & P INC :COMPANY   
WELL        .                               OCS G11322 ST00BP00 :WELL      
FLD         .                                           WILDCAT :FIELD     
LOC         .                                                   :LOCATION  
CNTY        .                             GALVESTON LARGE BLOCK :LOCATION  
STAT        .                                             TEXAS :STATE     
CTRY        .                                     UNITED STATES :COUNTRY   
SRVC        .                                                   :SERVICE COMPANY
DATE        .                             9/13/2023 11:19:34 AM :LOG DATE  
API         .                                    42706402570000 :API NUMBER
UWI         .                                    42706402570000 :UNIQUE WELL ID
XCOORD      .                                  1032943.49501878 :SURFACE X 
YCOORD      .                                  10418025.6284813 :SURFACE Y 
LAT         .                                         28.694364 :LATITUDE  
LON         .                                        -94.895236 :LONGITUDE 
ELEV        .FT                                              97 :ELEVATION VALUE
ELEV_TYPE   .                                                KB :ELEVATION REFERENCE TYPE
~Curve Information Section
#MNEM       .UNIT                                      API CODE :CURVE DESCRIPTION
#------------------------------------------------------------------------------
DEPT        .FT                                                 :DEPTH     
CALI        .IN                                                 :          
DCAL        .IN                                                 :          
DPHI        .%                                                  :          
DRHO        .G/C3                                               :          
GR          .GAPI                                               :          
GR_1        .GAPI                                               :          
GR_NORM     .GAPI                                               :GammaRay Normalized
ILD         .OHMM                                               :          
ILM         .OHMM                                               :          
NPHI        .%                                                  :          
SGRD        .OHMM                                               :          
SP          .MV                                                 :          
SP_NORM     .MV                                                 :SP Normalized
VSH_GR      .V/V                                                :Volume of Shale from GR
VSH_SP      .V/V                                                :Volume of Shale from SP
~A        DEPTH           CALI           DCAL           DPHI           DRHO             GR           GR_1        GR_NORM            ILD            ILM           NPHI           SGRD             SP        SP_NORM         VSH_GR         VSH_SP
# ...
      5702.0000        -999.25         1.0298        20.8669        -0.0324        -999.25        65.0347       69.56462          0.766         0.7884         41.616          0.987       -43.8483      -1.626076      0.7779707      0.9728987
      5702.5000        -999.25         1.0768        21.0363        -0.0246        -999.25             67       72.03595          0.762         0.7781        42.3028         0.9664       -43.5736      -1.351376      0.8305521      0.9774771
      5703.0000        -999.25         1.1116         21.074        -0.0162        -999.25        68.9021       74.42782         0.7587         0.7697        42.7453         0.9423       -43.3786      -1.156376       0.881443      0.9807271
      5703.5000        -999.25         1.1326        21.1865        -0.0092        -999.25        69.6263       75.33847         0.7597         0.7682        42.8566         0.9165        -43.298      -1.075775      0.9008185      0.9820704
      5704.0000        -999.25         1.1459        21.1156        -0.0072        -999.25        69.7085       75.44185          0.762         0.7696        42.5064         0.8961       -43.5756      -1.353374      0.9030181      0.9774438
      5704.5000        -999.25         1.1484        21.3687        -0.0083        -999.25        70.0364       75.85417         0.7646         0.7726        41.9765         0.8989       -44.0775      -1.855274      0.9117909      0.9690788
      5705.0000        -999.25         1.1404        21.7407        -0.0112        -999.25        70.1844       76.04028         0.7674         0.7773        41.5192          0.934       -44.6493      -2.427074      0.9157506      0.9595488
      5705.5000        -999.25         1.1453        21.8693         -0.016        -999.25        70.0323       75.84901          0.771         0.7822        41.0697         0.9769       -45.1185      -2.896275      0.9116812      0.9517288
      5706.0000        -999.25         1.1541        21.8515        -0.0208        -999.25        70.8463        76.8726         0.7759         0.7852        40.7791         1.0187       -45.5126      -3.290375      0.9334596      0.9451604
      5706.5000        -999.25          1.162        21.7816        -0.0254        -999.25        72.1014       78.45087         0.7805          0.787        40.6957         1.0467       -45.6763      -3.454075      0.9670399      0.9424321
      5707.0000        -999.25          1.167        21.7193        -0.0274        -999.25        72.5848       79.05875         0.7821         0.7902        40.7812         1.0347       -45.6144      -3.392174      0.9799733      0.9434637
      5707.5000        -999.25         1.1694        21.7725        -0.0269        -999.25        71.1154       77.21099         0.7836         0.7942        40.9683         0.9997       -45.4428      -3.220573      0.9406594      0.9463238
      5708.0000        -999.25         1.1672        22.0412        -0.0249        -999.25        68.6172       74.06955         0.7848         0.7957        41.1808         0.9599       -45.3607      -3.138474      0.8738202      0.9476921
      5708.5000        -999.25         1.1679         22.325        -0.0227        -999.25        64.6257       69.05032          0.786         0.7967        41.0004         0.9291        -45.508      -3.285774       0.767028      0.9452371
      5709.0000        -999.25         1.1707        22.5208        -0.0211        -999.25        62.9585       66.95384         0.7885         0.7954        40.7139         0.9289       -45.8044      -3.582176      0.7224222      0.9402971
      5709.5000        -999.25         1.1735        22.6031        -0.0204        -999.25         62.361       66.20249         0.7912         0.7952        40.3047         0.9713       -46.0251      -3.802876       0.706436      0.9366187
      5710.0000        -999.25         1.1764        22.5907        -0.0206        -999.25        64.3831       68.74525          0.791         0.7966        40.0452         1.0007       -46.0522      -3.829975      0.7605373      0.9361671
      5710.5000        -999.25         1.1794        22.5101        -0.0219        -999.25         66.566       71.49021         0.7906         0.7972        40.0287         1.0059       -45.9871      -3.764874      0.8189407      0.9372521
      5711.0000        -999.25         1.1787        22.3656         -0.024        -999.25        67.9642       73.24841         0.7902         0.7976        40.0464         0.9933       -45.7817      -3.559475      0.8563492      0.9406754
      5711.5000        -999.25         1.1764        22.1768        -0.0234        -999.25        71.6245       77.85117         0.7898         0.7974        39.8693         0.9863       -45.5886      -3.366375      0.9542803      0.9438937
      5712.0000        -999.25         1.1742        21.9656        -0.0228        -999.25        73.9698       80.80035          0.791          0.797        39.5605         0.9895       -45.4733      -3.251076              1      0.9458154
      5712.5000        -999.25         1.1678         21.827        -0.0224        -999.25        75.6094       82.86212         0.7926         0.7974        39.5282         0.9856       -45.5228      -3.300575              1      0.9449904
      5713.0000        -999.25         1.1628        21.9709        -0.0243        -999.25        78.0114       85.88259         0.7925         0.8022        39.9081         0.9738       -45.7705      -3.548275              1      0.9408621
      5713.5000        -999.25         1.1663        22.1806        -0.0266        -999.25         78.444       86.42658         0.7912         0.8093        40.4158         0.9568        -46.214      -3.991776              1      0.9334704
      5714.0000        -999.25         1.1613        22.4514        -0.0291        -999.25        74.8114       81.85865         0.7897         0.8166         40.889         0.9358       -46.6879      -4.465675              1      0.9255721
      5714.5000        -999.25         1.1549        22.6101        -0.0322        -999.25        70.8463        76.8726         0.7881         0.8228        41.1274         0.9484       -47.1459      -4.923676      0.9334596      0.9179388
      5715.0000        -999.25         1.1566        22.5728        -0.0345        -999.25        67.2611       72.36428         0.7866         0.8274        41.1443         0.9889       -47.2696      -5.047375      0.8375379      0.9158771
      5715.5000        -999.25         1.1583        22.4211        -0.0363        -999.25        64.2036       68.51953         0.7851         0.8279        41.3328         1.0251       -46.8726      -4.650375      0.7557347      0.9224938
      5716.0000        -999.25         1.1562        22.1769        -0.0377        -999.25        62.9954       67.00024         0.7856         0.8211        41.3419         1.0464       -46.2836      -4.061375      0.7234095      0.9323104
      5716.5000        -999.25         1.1546        22.0839        -0.0385        -999.25        64.8868       69.37865         0.7862         0.8075        42.4008         1.0132       -45.7988      -3.576576      0.7740138      0.9403904
      5717.0000        -999.25          1.157        22.2618        -0.0388        -999.25        66.5422       71.46027         0.7872         0.8008        43.4412         0.9673        -45.515      -3.292774      0.8183037      0.9451205
      5717.5000        -999.25         1.1578        22.2325        -0.0433        -999.25         68.071       73.38272         0.7896         0.8067        43.7774         0.9387       -46.0844      -3.862175      0.8592069      0.9356304
      5718.0000        -999.25         1.1555        21.8474        -0.0546        -999.25        68.6211       74.07446         0.7914         0.8167        43.8514           0.94       -46.5768      -4.354576      0.8739247      0.9274237
      5718.5000        -999.25         1.1533         21.765        -0.0655        -999.25        67.4788       72.63803         0.7928         0.8256        43.4186          0.998       -46.8848      -4.662575      0.8433624      0.9222904
