#------------------------------------------------------------------------------
# Created by    : vladimir.rabinovich
# Created on    : 09/19/2023 17:22:54
#------------------------------------------------------------------------------
~Version Information Section
VERS.           2.0     :   CWLS log ASCII Standard - VERSION 2.0
WRAP.           NO      :   One line per depth step
~Well Information Section
#MNEM       .UNIT                                         VALUE :DESCRIPTION
#------------------------------------------------------------------------------
STRT        .FT                                            1705 :START DEPTH
STOP        .FT                                           10298 :STOP DEPTH
STEP        .FT                                             0.5 :STEP      
NULL        .                                           -999.25 :NULL      
COMP        .                            STANOLIND OIL & GAS CO :COMPANY   
WELL        .                                       ST TR 00219 :WELL      
FLD         .                                           WILDCAT :FIELD     
LOC         .                                                   :LOCATION  
CNTY        .                             GALVESTON LARGE BLOCK :LOCATION  
STAT        .                                             TEXAS :STATE     
CTRY        .                                     UNITED STATES :COUNTRY   
SRVC        .                                                   :SERVICE COMPANY
DATE        .                             9/13/2023 11:19:42 AM :LOG DATE  
API         .                                    42706000170000 :API NUMBER
UWI         .                                    42706000170000 :UNIQUE WELL ID
XCOORD      .                                  1024804.26554262 :SURFACE X 
YCOORD      .                                  10549089.4715911 :SURFACE Y 
LAT         .                                        29.0543948 :LATITUDE  
LON         .                                       -94.9272588 :LONGITUDE 
ELEV        .FT                                              60 :ELEVATION VALUE
ELEV_TYPE   .                                                GL :ELEVATION REFERENCE TYPE
~Curve Information Section
#MNEM       .UNIT                                      API CODE :CURVE DESCRIPTION
#------------------------------------------------------------------------------
DEPT        .FT                                                 :DEPTH     
LAT         .OHMM                                               :          
LN          .OHMM                                               :          
SN          .OHMM                                               :          
SP          .MV                                                 :          
SP_NORM     .MV                                                 :SP Normalized
VSH_SP      .V/V                                                :Volume of Shale from SP
~A        DEPTH            LAT             LN             SN             SP        SP_NORM         VSH_SP
# ...
      9115.0000         3.2957         2.9704         2.8035       -53.8587      -1.513557      0.9855852
      9115.5000          3.255         2.8947         2.6943       -54.1695      -1.830719      0.9825646
      9116.0000         3.2607         2.7812          2.613       -54.6573      -2.324886      0.9778582
      9116.5000         3.2665         2.6843         2.5335       -55.2361      -2.910049      0.9722853
      9117.0000         3.2583          2.601         2.4565       -55.8138      -3.494118      0.9667227
      9117.5000         3.2111         2.5242         2.4021       -56.2842      -3.970879      0.9621821
      9118.0000         3.1639         2.5074         2.3476       -55.9476      -3.640648      0.9653271
      9118.5000         3.1743         2.4905         2.3209        -55.611       -3.31041      0.9684723
      9119.0000         3.1957         2.4736         2.3177       -55.2878      -2.993576      0.9714897
      9119.5000         3.2152          2.458         2.3144       -55.0147      -2.726841      0.9740301
      9120.0000         3.2166          2.444         2.3154       -54.7422      -2.460705      0.9765647
      9120.5000         3.1456         2.4299         2.3827       -54.4691       -2.19397      0.9791051
      9121.0000         3.0746         2.4158           2.45       -53.7222      -1.453434      0.9861578
      9121.5000         3.0271         2.4018          2.521       -52.9286     -0.6661987      0.9936553
      9122.0000         2.9924         2.3869         2.5953       -52.1363      0.1197357              1
      9122.5000         2.9577          2.372         2.6694       -51.4911      0.7585716              1
      9123.0000         2.9776         2.3571         2.7301       -50.8887       1.354607              1
      9123.5000         3.0572          2.331         2.6774       -51.3472      0.8897438              1
      9124.0000          3.222         2.2763         2.6054       -52.3487     -0.1181259       0.998875
      9124.5000         3.4329         2.2216         2.5077       -53.2172     -0.9929886      0.9905429
      9125.0000         3.6728         2.1696         2.4302        -53.131     -0.9131546      0.9913033
      9125.5000         3.9058         2.1229         2.3598       -53.0449      -0.833416      0.9920627
      9126.0000          4.026         2.0761          2.306       -52.9729     -0.7677841      0.9926878
      9126.5000         4.1462         2.0452         2.2309       -52.9952     -0.7964478      0.9924148
      9127.0000         4.2298          2.015         2.1266       -53.0175     -0.8251152      0.9921418
      9127.5000         4.2332         1.9847         2.0687       -53.0398      -0.853775      0.9918688
      9128.0000         4.1618         1.9545         2.0128       -53.0621     -0.8824425      0.9915958
      9128.5000         4.0953          1.947         2.0229       -53.0845     -0.9112053      0.9913219
      9129.0000          4.035         1.9624         2.0341        -53.204      -1.037071      0.9901232
      9129.5000         3.9875         1.9779         2.0484       -53.6019      -1.441334       0.986273
      9130.0000         3.9492         1.9933         2.0936       -54.0231      -1.868904      0.9822009
      9130.5000          3.911         1.9966         2.1378       -53.3349      -1.187065      0.9886946
      9131.0000         3.8723          1.992         2.1807       -53.0569      -0.915432      0.9912816
      9131.5000         3.8336           1.93         2.2237       -53.0892     -0.9540939      0.9909134
      9132.0000         3.8158         1.8143         2.2619       -53.0753     -0.9465599      0.9909852
      9132.5000         3.8099         1.6476         2.2908       -52.9374     -0.8150253      0.9922379
      9133.0000         3.8041         1.4691         2.2165       -52.2174     -0.1013908      0.9990343
      9133.5000         3.8181         1.2959         2.1116       -51.1302      0.9794464              1
      9134.0000         3.8355         1.2001         1.9354       -50.2187       1.884579              1
      9134.5000         3.8638         1.1307           1.77       -49.8225       2.274418              1
      9135.0000         4.0812         1.0956          1.624       -51.0661       1.024448              1
      9135.5000         4.7215         1.0605         1.4882       -52.6226      -0.538414      0.9948723
      9136.0000         4.9124         1.0254         1.3727        -55.956      -3.878181      0.9630649
      9136.5000         4.6186         0.9903         1.2674       -64.6891      -12.61765       0.879832
      9137.0000         3.7092         0.9875         1.1775       -75.3311      -23.26601       0.778419
      9137.5000         3.0272         0.9908         1.0888       -86.8011      -34.74237      0.6691203
      9138.0000          2.679         0.9941         1.0375      -102.3228      -50.27044      0.5212339
      9138.5000         2.3111         1.0492         0.9862      -117.8264      -65.78041      0.3735199
      9139.0000         1.9584         1.1315          0.935      -133.3479      -81.30827      0.2256355
      9139.5000         1.6376         1.2048         0.8911      -145.2864      -93.25314      0.1118748
      9140.0000         1.4177         1.2595         0.8484       -151.377       -99.3501     0.05380859
      9140.5000         1.2438         1.3133         0.8056      -155.3699      -103.3494     0.01572033
      9141.0000         1.1562         1.3081         0.7865      -150.8774      -98.86322     0.05844552
      9141.5000         1.1139         1.2939         0.8007      -144.4941      -92.48629      0.1191782
      9142.0000         1.1417          1.249          0.815      -138.4077      -86.40626      0.1770833
      9142.5000         1.2202         1.2056         0.8292      -133.0779      -81.08282      0.2277826
      9143.0000         1.2987         1.1666         0.8462      -127.9911      -76.00238      0.2761678
      9143.5000         1.3771         1.1276         0.8727      -122.6342      -70.65186      0.3271252
      9144.0000         1.4557         1.1215         0.8992      -115.0354      -63.05942      0.3994341
      9144.5000         1.5508         1.1247         0.8877      -108.1749      -56.20528      0.4647116
      9145.0000         1.6467         1.1279         0.8533      -101.4495      -49.48625      0.5287024
      9145.5000         1.7247         1.1181         0.8189      -111.4882      -59.53131      0.4330351
      9146.0000         1.6686         1.0948         0.7902      -120.1312      -68.18068      0.3506602
      9146.5000         1.6126         1.0694         0.7919      -128.2971      -76.35295       0.272829
      9147.0000         1.6774          1.036         0.7936      -128.5671       -76.6293      0.2701971
      9147.5000         1.8061         1.0025         0.7953      -122.7242      -70.79277      0.3257831
      9148.0000         1.9377         0.9727          0.797      -111.4161      -59.49104      0.4334187
      9148.5000         2.0763         0.9461         0.8059       -82.5336       -30.6149      0.7084295
      9149.0000         2.2147         0.9195         0.8473       -54.0113      -2.098965      0.9800099
      9149.5000         2.3533         0.8929         0.8887       -49.2531       2.652866              1
      9150.0000         2.4939         0.8788         0.9301       -47.6831       4.216503              1
      9150.5000         2.6348          0.874         0.9857       -46.9055        4.98774              1
      9151.0000          2.674         0.8691         1.0574       -48.9965       2.890377              1
      9151.5000         2.5885         0.8642          1.129       -52.6113      -0.730793      0.9930401
      9152.0000         2.4618         0.8594         1.2007       -56.5682      -4.694054      0.9552947
      9152.5000         2.3404         0.8545         1.2724       -62.3663      -10.49852      0.9000141
