#------------------------------------------------------------------------------
# Created by    : vladimir.rabinovich
# Created on    : 09/19/2023 17:22:18
#------------------------------------------------------------------------------
~Version Information Section
VERS.           2.0     :   CWLS log ASCII Standard - VERSION 2.0
WRAP.           NO      :   One line per depth step
~Well Information Section
#MNEM       .UNIT                                         VALUE :DESCRIPTION
#------------------------------------------------------------------------------
STRT        .FT                                            4012 :START DEPTH
STOP        .FT                                            9352 :STOP DEPTH
STEP        .FT                                             0.5 :STEP      
NULL        .                                           -999.25 :NULL      
COMP        .                                   KERR-MCGEE CORP :COMPANY   
WELL        .                                ST TR 00007-L SE/4 :WELL      
FLD         .                                           WILDCAT :FIELD     
LOC         .                                                   :LOCATION  
CNTY        .                           HIGH ISLAND LARGE BLOCK :LOCATION  
STAT        .                                             TEXAS :STATE     
CTRY        .                                     UNITED STATES :COUNTRY   
SRVC        .                                                   :SERVICE COMPANY
DATE        .                             9/13/2023 11:19:15 AM :LOG DATE  
API         .                                    42708302700000 :API NUMBER
UWI         .                                    42708302700000 :UNIQUE WELL ID
XCOORD      .                                   1285759.2062487 :SURFACE X 
YCOORD      .                                  10728779.4927599 :SURFACE Y 
LAT         .                                        29.5578886 :LATITUDE  
LON         .                                       -94.1158411 :LONGITUDE 
ELEV        .FT                                             125 :ELEVATION VALUE
ELEV_TYPE   .                                                KB :ELEVATION REFERENCE TYPE
~Curve Information Section
#MNEM       .UNIT                                      API CODE :CURVE DESCRIPTION
#------------------------------------------------------------------------------
DEPT        .FT                                                 :DEPTH     
CALI        .IN                                                 :          
CILD        .MMHO                                               :          
DPHI        .%                                                  :          
ILD         .OHMM                                               :          
ILM         .OHMM                                               :          
SFL         .OHMM                                               :          
SP          .MV                                                 :          
SP_NORM     .MV                                                 :SP Normalized
VSH_SP      .V/V                                                :Volume of Shale from SP
~A        DEPTH           CALI           CILD           DPHI            ILD            ILM            SFL             SP        SP_NORM         VSH_SP
# ...
      7907.5000        12.8002       3608.457        26.7181         0.2609         0.3042          0.533      -109.6196       -49.3474      0.2950371
      7908.0000        12.7992           3824        26.7815         0.2526         0.2981         0.5312       -109.033       -48.7675      0.3033214
      7908.5000        12.7982       3804.645        26.6516         0.2516         0.3032         0.5157      -108.4388       -48.1801      0.3117129
      7909.0000        12.7984       3720.438        25.9945         0.2614         0.3084         0.4944      -107.5983       -47.3463      0.3236243
      7909.5000         12.801       3528.777        23.8978          0.274         0.3205         0.4778      -106.6281       -46.3828      0.3373885
      7910.0000        12.8036       3344.555        22.1799         0.2952         0.3365         0.4741       -105.238       -44.9994      0.3571514
      7910.5000        12.8062       3186.566        20.5648         0.3137         0.3511         0.5308      -104.0635       -43.8316      0.3738343
      7911.0000        12.8089       3072.727        19.9439         0.3237          0.362         0.7027      -102.9586       -42.7334      0.3895229
      7911.5000        12.8053       2990.992        20.1493          0.334         0.3677         0.7538      -102.4744       -42.2559      0.3963443
      7912.0000        12.8009       2937.352        21.1433         0.3398         0.3686         0.7807      -104.1149       -43.9031      0.3728129
      7912.5000        12.7965       2888.188        22.2504         0.3428         0.3669         0.7515      -105.9991        -45.794         0.3458
      7913.0000        12.7921       2872.918        23.9389         0.3458         0.3652          0.695      -108.2921       -48.0937      0.3129471
      7913.5000         12.786       2897.559        24.0608         0.3477         0.3609         0.6284      -110.2546       -50.0629      0.2848157
      7914.0000        12.7777       2921.297        23.8776         0.3496         0.3562         0.5815      -111.8954       -51.7104        0.26128
      7914.5000        12.7693        2915.23        23.1974         0.3518         0.3516         0.5768      -112.9049       -52.7266      0.2467628
      7915.0000        12.7612       2858.457        22.5389         0.3564         0.3588         0.5662      -112.1487       -51.9771        0.25747
      7915.5000        12.7665       2746.082        21.9325          0.361         0.3754         0.5488      -106.4077       -46.2428      0.3393885
      7916.0000        12.7717       2623.727        21.4421         0.3669         0.3948         0.5439      -102.0029       -41.8448      0.4022171
      7916.5000         12.777       2511.156        21.6307         0.3744         0.4103         0.6042       -98.1805       -38.0291      0.4567272
      7917.0000        12.7812       2403.188        22.1109          0.382         0.4227         0.6818      -100.7745       -40.6298      0.4195743
      7917.5000         12.784       2317.293        22.5917         0.3897         0.4289         0.7592        -103.76        -43.622      0.3768286
      7918.0000        12.7869       2304.398        22.8571          0.391         0.4271         0.7066      -105.0704       -44.9391      0.3580129
      7918.5000        12.7897       2325.172        23.0722         0.3907         0.4214         0.6372      -103.6865       -43.5619      0.3776871
      7919.0000        12.7924       2427.367        23.5057         0.3904          0.415         0.5745      -100.6423       -40.5244        0.42108
      7919.5000         12.795       2607.184        24.0497          0.384         0.4085         0.5377       -98.0485       -37.9373      0.4580385
      7920.0000        12.7976       2670.023        23.6654         0.3773         0.4012         0.6738       -96.5165        -36.412      0.4798286
      7920.5000        12.8002       2712.359         23.218         0.3706         0.3941         0.6648      -100.5493       -40.4515      0.4221214
      7921.0000        12.8028       2766.836        22.6079         0.3624         0.3832         0.6478      -104.2494       -44.1583      0.3691672
      7921.5000        12.8052       2878.621        22.3177         0.3514         0.3715          0.585      -108.5955       -48.5111      0.3069843
      7922.0000        12.8075       2991.578        22.5954         0.3408         0.3588         0.5301      -110.9496       -50.8719      0.2732586
      7922.5000        12.8099       3104.344        23.0132         0.3304          0.343         0.6048       -112.714        -52.643      0.2479571
      7923.0000        12.8123       3224.938        23.5182          0.317         0.3278         0.6672      -113.9742       -53.9099      0.2298586
      7923.5000        12.8146       3292.871        24.1004         0.3041         0.3177         0.6139      -114.9348       -54.8773      0.2160386
      7924.0000        12.8069       3323.656        24.4304         0.2935         0.3121         0.5361      -115.3929       -55.3421      0.2093986
      7924.5000        12.7966       3348.961         24.606         0.2864         0.3111         0.5209      -115.6106       -55.5665      0.2061928
      7925.0000        12.7863       3371.305        24.5222         0.2917         0.3127         0.5372      -115.8721       -55.8347      0.2023614
      7925.5000        12.7761        3356.84        24.2461         0.2988         0.3181          0.539      -116.4043       -56.3736      0.1946629
      7926.0000        12.7658        3222.59        22.9654         0.3105         0.3275         0.5132      -117.0393       -57.0153      0.1854957
      7926.5000        12.7624       2944.398        21.9993         0.3227         0.3422         0.4753      -116.6172       -56.5999        0.19143
      7927.0000        12.7601       2792.527        21.3871         0.3353         0.3692         0.4638      -113.5779       -53.5673      0.2347529
      7927.5000        12.7577       2763.801        21.5133         0.3404         0.3939         0.5383      -105.6345       -45.6306      0.3481343
      7928.0000        12.7553       2763.254        22.3297         0.3453          0.401         0.7099      -103.1299       -43.1327      0.3838185
      7928.5000         12.753       2750.363        23.0836         0.3502         0.3933            0.8      -103.0253       -43.0348      0.3852171
      7929.0000        12.7525       2736.602        23.7524          0.348         0.3759         0.7904      -104.5504       -44.5666      0.3633343
      7929.5000         12.752       2746.938        24.3225         0.3441         0.3593         0.7466      -106.6647       -46.6876      0.3330343
      7930.0000        12.7514       2776.426        24.5398         0.3402         0.3498         0.7046      -109.0898       -49.1194      0.2982943
      7930.5000        12.7509        2810.59        24.5429         0.3382          0.342         0.6335      -110.8444       -50.8807      0.2731329
      7931.0000        12.7504       2808.496        24.3719         0.3384         0.3493         0.5813      -112.2258       -52.2688      0.2533029
      7931.5000         12.751        2785.48        24.3344         0.3385         0.3595         0.5974      -112.9943       -53.0441      0.2422271
      7932.0000        12.7534       2727.094        24.3261         0.3387         0.3737         0.6176      -113.7087       -53.7652      0.2319257
      7932.5000        12.7558       2675.422        24.7054           0.34         0.3842         0.6351      -114.3407       -54.4039      0.2228014
      7933.0000        12.7582       2715.152         25.177         0.3415         0.3865         0.6483      -114.9727       -55.0426      0.2136772
      7933.5000        12.7606       2773.391        25.2126         0.3431         0.3737         0.6647      -115.4315       -55.5081      0.2070272
