#------------------------------------------------------------------------------
# Created by    : vladimir.rabinovich
# Created on    : 09/19/2023 17:19:48
#------------------------------------------------------------------------------
~Version Information Section
VERS.           2.0     :   CWLS log ASCII Standard - VERSION 2.0
WRAP.           NO      :   One line per depth step
~Well Information Section
#MNEM       .UNIT                                         VALUE :DESCRIPTION
#------------------------------------------------------------------------------
STRT        .FT                                             960 :START DEPTH
STOP        .FT                                            9172 :STOP DEPTH
STEP        .FT                                             0.5 :STEP      
NULL        .                                           -999.25 :NULL      
COMP        .                                ODECO OIL & GAS CO :COMPANY   
WELL        .                               OCS G06101 ST00BP00 :WELL      
FLD         .                                           WILDCAT :FIELD     
LOC         .                                                   :LOCATION  
CNTY        .                             GALVESTON LARGE BLOCK :LOCATION  
STAT        .                                             TEXAS :STATE     
CTRY        .                                     UNITED STATES :COUNTRY   
SRVC        .                                                   :SERVICE COMPANY
DATE        .                             9/13/2023 11:19:27 AM :LOG DATE  
API         .                                    42706401070000 :API NUMBER
UWI         .                                    42706401070000 :UNIQUE WELL ID
XCOORD      .                                  1041316.87817256 :SURFACE X 
YCOORD      .                                  10447909.9182991 :SURFACE Y 
LAT         .                                         28.776905 :LATITUDE  
LON         .                                        -94.870587 :LONGITUDE 
ELEV        .FT                                              92 :ELEVATION VALUE
ELEV_TYPE   .                                                KB :ELEVATION REFERENCE TYPE
~Curve Information Section
#MNEM       .UNIT                                      API CODE :CURVE DESCRIPTION
#------------------------------------------------------------------------------
DEPT        .FT                                                 :DEPTH     
ASFL        .OHMM                                               :          
GR          .GAPI                                               :          
GR_NORM     .GAPI                                               :GammaRay Normalized
ILD         .OHMM                                               :          
SP          .MV                                                 :          
SP_NORM     .MV                                                 :SP Normalized
VSH_GR      .V/V                                                :Volume of Shale from GR
VSH_SP      .V/V                                                :Volume of Shale from SP
~A        DEPTH           ASFL             GR        GR_NORM            ILD             SP        SP_NORM         VSH_GR         VSH_SP
       960.0000         2.6266        44.3986       68.76063         0.9523       -88.6139      -8.463137      0.7608644      0.8589477
       960.5000         2.6434        44.5679       69.00945         0.9506       -88.4415      -8.221774      0.7661586      0.8629704
       961.0000         2.9254        44.4519       68.83896         0.9489        -88.269      -7.980273       0.762531      0.8669955
       961.5000         3.3338        44.1437       68.38599         0.9472       -88.0929      -7.733742      0.7528935      0.8711043
       962.0000         3.5549        43.8356       67.93318         0.9469       -87.7645      -7.273982      0.7432592       0.878767
       962.5000         3.7282        43.5275       67.48035         0.9531       -87.4362      -6.814362      0.7336244      0.8864273
       963.0000         3.8792        43.2194       67.02751         0.9594       -87.1077      -6.620595      0.7239896      0.8896567
       963.5000         4.1779        42.8593       66.49828         0.9656       -86.7119      -6.561507      0.7127293      0.8906416
       964.0000         4.9133        42.4137       65.84337         0.9719       -86.1781      -6.309218      0.6987951      0.8948464
       964.5000         5.3831        41.9682       65.18861         0.9812       -85.6442      -6.056779      0.6848641      0.8990537
       965.0000         5.6439        41.5226        64.5337          1.021       -84.5157      -4.971906      0.6709298      0.9171349
       965.5000         5.9248         41.077       63.87878         1.0608        -82.995      -3.337956      0.6569954      0.9443674
       966.0000         6.4867        40.7145       63.34602         1.1006       -81.7024      -2.023341      0.6456599      0.9662777
       966.5000         7.6791        40.4195       62.91245         1.1405       -80.5306     -0.8778412       0.636435      0.9853693
       967.0000         9.0587        40.2563        62.6726         1.1803       -79.7085      -0.221933       0.631332      0.9963011
       967.5000         9.6136        40.5336       63.08015         1.2201       -78.8864      0.4339859      0.6400031              1
       968.0000         9.9891        40.8109        63.4877         1.3545       -77.1498       2.370201      0.6486745              1
       968.5000         9.9899        41.1987       64.05767         1.5205       -75.5193       4.157874      0.6608015              1
       969.0000         9.9907        41.6933       64.78459         1.7259        -74.061       5.704473      0.6762679              1
       969.5000         9.9916        42.1879       65.51151         1.9804       -72.9515        6.76275      0.6917341              1
       970.0000         9.9924        42.6825       66.23843         2.4338        -73.725       5.184824      0.7072006              1
       970.5000         9.9824        43.1771       66.96535         1.8804       -74.7501       3.254654       0.722667              1
       971.0000         9.8602        43.6718       67.67587          1.107       -75.3569         1.9101      0.7377844              1
       971.5000         9.7379        44.2985       68.48685         1.0433       -75.7582      0.8532639      0.7550393              1
       972.0000         7.2957        44.9471       69.33004         1.0067       -76.1594     -0.2034439      0.7729796      0.9966093
       972.5000          6.521        45.5957       70.17322         0.9871       -76.4758      -1.141431      0.7909195      0.9809762
       973.0000         4.4716        46.2444       71.01655         0.9765       -76.6637      -1.899504      0.8088627      0.9683416
       973.5000         4.6383        46.8829       71.84488         0.9658       -77.0317      -2.404851      0.8264868      0.9599192
       974.0000          4.561        47.4736       72.60297         0.9552       -77.4546      -2.845213      0.8426163      0.9525798
       974.5000         4.4837        48.0643       73.36106         0.9514       -78.0099      -3.470937       0.858746      0.9421511
       975.0000         4.4065         48.655       74.11913         0.9521       -78.5873      -4.127593       0.874875      0.9312068
       975.5000         4.3292        49.1569       74.74671         0.9528       -79.2035      -4.838562      0.8882279      0.9193573
       976.0000          4.252        49.4235       75.02846         0.9536       -79.8198      -5.549692      0.8942225      0.9075052
       976.5000         4.1441        49.6901       75.31021         0.9543       -80.4463      -6.275081      0.9002172      0.8954153
       977.0000         4.0117        50.0743       75.76479          0.955        -81.084       -7.01616       0.909889       0.883064
       977.5000         3.8698        50.6113       76.44395         0.9543       -81.7217      -7.757251      0.9243395      0.8707125
       978.0000         3.6835        51.0153       76.92764          0.953       -82.3593      -8.498181      0.9346307      0.8583636
       978.5000         3.5638        51.4192       77.41119         0.9517       -82.9325      -9.148962      0.9449189      0.8475173
       979.0000         3.4611        50.9851       76.66309         0.9503       -83.4906      -9.778595      0.9290018      0.8370234
       979.5000         3.4378        49.9774       75.07198          0.949       -84.0428      -10.39998      0.8951484       0.826667
       980.0000         3.5617        48.9525       73.45557         0.9477       -84.5482      -10.95584      0.8607568      0.8174027
       980.5000         3.6863        48.0778       72.05992         0.9464       -85.0536      -11.51169      0.8310621      0.8081385
       981.0000         3.8109        47.4362       71.00687         0.9451       -85.3278      -11.74387      0.8086568      0.8042688
       981.5000         3.9354        46.7944       69.95351         0.9438       -85.5688      -11.92958       0.786245      0.8011737
       982.0000         4.0438        46.2788       69.08565         0.9432       -85.2772      -11.36963      0.7677797      0.8105062
       982.5000         4.0942        46.0455       68.63268         0.9426       -84.9856      -10.80969      0.7581422      0.8198385
       983.0000         4.1445        45.8124       68.18002          0.942        -84.694      -10.24975       0.748511      0.8291708
       983.5000         4.0805        45.5791       67.72704         0.9414       -84.4025      -9.689941      0.7388731       0.838501
       984.0000         3.8361        45.4221       67.38622         0.9408       -84.1467       -9.18012      0.7316216       0.846998
       984.5000         3.4409        45.2811       67.06891         0.9402       -83.9481      -8.750384      0.7248704      0.8541602
       985.0000         3.2385        45.1402       66.75174         0.9396       -83.7494        -8.3205      0.7181221       0.861325
       985.5000         3.0691        44.9993       66.43457         0.9389       -83.5508      -7.890755      0.7113739      0.8684874
       986.0000         2.8998        44.8583       66.11726         0.9383       -83.3522       -7.46102      0.7046226      0.8756497
       986.5000         2.7667        44.6766       65.74014         0.9377       -83.1534      -7.030997      0.6965986      0.8828167
       987.0000         2.6376        44.4842       65.34727         0.9371       -83.1797      -6.916121      0.6882399      0.8847313
       987.5000         2.5046        44.2917       64.95427         0.9365       -83.2186      -6.818869      0.6798781      0.8863522
       988.0000         2.2305        44.0992       64.56126         0.9342       -83.2574      -6.721499      0.6715162       0.887975
       988.5000         1.9445        44.5007       65.04128         0.9319       -83.2963      -6.624259      0.6817294      0.8895957
       989.0000         1.8524        45.4216       66.28467         0.9297       -83.3351      -6.526868      0.7081844      0.8912188
