#------------------------------------------------------------------------------
# Created by    : vladimir.rabinovich
# Created on    : 09/19/2023 17:22:50
#------------------------------------------------------------------------------
~Version Information Section
VERS.           2.0     :   CWLS log ASCII Standard - VERSION 2.0
WRAP.           NO      :   One line per depth step
~Well Information Section
#MNEM       .UNIT                                         VALUE :DESCRIPTION
#------------------------------------------------------------------------------
STRT        .FT                                            1142 :START DEPTH
STOP        .FT                                           15630 :STOP DEPTH
STEP        .FT                                             0.5 :STEP      
NULL        .                                           -999.25 :NULL      
COMP        .                                     PRIMARY FUELS :COMPANY   
WELL        .                                ST TR 00520-L SE/4 :WELL      
FLD         .                                          EL GORDO :FIELD     
LOC         .                                                   :LOCATION  
CNTY        .                      MATAGORDA ISLAND LARGE BLOCK :LOCATION  
STAT        .                                             TEXAS :STATE     
CTRY        .                                     UNITED STATES :COUNTRY   
SRVC        .                                                   :SERVICE COMPANY
DATE        .                             9/13/2023 11:19:05 AM :LOG DATE  
API         .                                    42703303520000 :API NUMBER
UWI         .                                    42703303520000 :UNIQUE WELL ID
XCOORD      .                                  629148.716839967 :SURFACE X 
YCOORD      .                                   10306131.761235 :SURFACE Y 
LAT         .                                        28.3634759 :LATITUDE  
LON         .                                       -96.1446235 :LONGITUDE 
ELEV        .FT                                             101 :ELEVATION VALUE
ELEV_TYPE   .                                                KB :ELEVATION REFERENCE TYPE
~Curve Information Section
#MNEM       .UNIT                                      API CODE :CURVE DESCRIPTION
#------------------------------------------------------------------------------
DEPT        .FT                                                 :DEPTH     
DT          .US/F                                               :          
ILD         .OHMM                                               :          
SP          .MV                                                 :          
SP_NORM     .MV                                                 :SP Normalized
VSH_SP      .V/V                                                :Volume of Shale from SP
~A        DEPTH             DT            ILD             SP        SP_NORM         VSH_SP
# ...
      4970.0000       131.6838         0.5739        75.9806      -30.60623      0.6052502
      4970.5000        131.729         0.6023          81.16      -25.42683       0.674309
      4971.0000       130.2046         0.6321        84.6379      -21.94893       0.720681
      4971.5000       126.1478         0.6535        87.4248      -19.16203      0.7578396
      4972.0000       122.0582         0.6749        89.9696      -16.61723      0.7917702
      4972.5000        119.391         0.6901        92.2998      -14.28703      0.8228396
      4973.0000        121.988         0.6872        92.6666      -13.92023      0.8277303
      4973.5000       126.6122         0.6628        90.6295      -15.95733      0.8005689
      4974.0000       130.9426         0.6366        88.5836      -18.00323      0.7732903
      4974.5000       133.6965         0.6128         86.715      -19.87183      0.7483755
      4975.0000       136.1367         0.6005        87.2365      -19.35033       0.755329
      4975.5000       138.3435         0.5981        88.6704      -17.91643      0.7744476
      4976.0000       138.3184          0.608        89.1777      -17.40913      0.7812116
      4976.5000       134.8865          0.618        88.9934      -17.59343      0.7787543
      4977.0000       125.9395         0.6346        88.5699      -18.01693      0.7731076
      4977.5000       117.3688         0.6535        88.7527      -17.83413      0.7755449
      4978.0000       113.7386         0.6791        90.1317      -16.45513      0.7939316
      4978.5000        114.313         0.7304        91.7285      -14.85833      0.8152223
      4979.0000        114.886         0.7991        93.0758      -13.51103      0.8331862
      4979.5000       115.4596         0.8888        91.7634      -14.82343      0.8156875
      4980.0000       111.8107         0.9899         89.296      -17.29083      0.7827889
      4980.5000       105.7906          1.094        87.1478      -19.43903      0.7541462
      4981.0000         99.399         1.1899        86.3956      -20.19123      0.7441169
      4981.5000        91.1648          1.268        88.0223      -18.56453      0.7658063
      4982.0000        85.8778         1.3402         89.649      -16.93783      0.7874956
      4982.5000        88.4335         1.3922        92.2899      -14.29693      0.8227076
      4983.0000        94.4335         1.4201        95.0317      -11.55513      0.8592649
      4983.5000       103.1145         1.3421        96.6747      -9.912132      0.8811716
      4984.0000       113.6483         1.2537        98.0942       -8.49263      0.9000983
      4984.5000       118.3165          1.131        98.8502      -7.736633      0.9101782
      4985.0000       119.2173         1.0081        99.1522      -7.434631      0.9142049
      4985.5000       120.7177          0.881        99.0712      -7.515633      0.9131249
      4986.0000       126.6223         0.8202        98.4067       -8.18013      0.9042649
      4986.5000       134.9268         0.7635        98.0381      -8.548729      0.8993503
      4987.0000       148.2219         0.7161        98.8129      -7.773933      0.9096809
      4987.5000       154.2571         0.6737        99.5881      -6.998734      0.9200169
      4988.0000        158.467         0.6461        99.8835      -6.703331      0.9239556
      4988.5000       161.1609         0.6256       100.1379      -6.448929      0.9273476
      4989.0000       156.5039         0.6137       100.3512      -6.235634      0.9301916
      4989.5000       152.7056         0.6043       100.5142      -6.072632      0.9323649
      4990.0000       149.7759         0.5973       100.7972      -5.789627      0.9361383
      4990.5000       147.5969         0.5952       101.1846      -5.402229      0.9413036
      4991.0000       146.4014          0.597       101.5715      -5.015327      0.9464623
      4991.5000       145.4819         0.5974       102.0818      -4.505028      0.9532663
      4992.0000       145.2354          0.594       102.6263      -3.960533      0.9605262
      4992.5000       145.3713         0.5906       103.1708      -3.416031      0.9677863
      4993.0000       146.2336          0.585       103.7677       -2.81913       0.975745
      4993.5000       147.2065         0.5778        104.369      -2.217827      0.9837623
      4994.0000       149.2275         0.5707       104.8542      -1.732628      0.9902316
      4994.5000       151.1479         0.5645       105.2229       -1.36393      0.9951476
      4995.0000       152.8738         0.5592       105.3414       -1.24543      0.9967276
      4995.5000       154.0537         0.5538       105.1725       -1.41433      0.9944756
      4996.0000       154.8777         0.5519       105.0037       -1.58313      0.9922249
      4996.5000        154.699         0.5528       104.8907      -1.696129      0.9907183
      4997.0000       153.0735         0.5537       104.7917      -1.795128      0.9893983
      4997.5000        151.448         0.5581       104.6927      -1.894127      0.9880783
      4998.0000       149.9077         0.5661       104.6255      -1.961327      0.9871823
      4998.5000       148.3738         0.5741       104.5634       -2.02343      0.9863543
      4999.0000       147.1099         0.5825       104.5365      -2.050331      0.9859956
      4999.5000       146.1917         0.5918        104.778       -1.80883      0.9892156
      5000.0000       145.8816         0.6012       105.0199      -1.566933      0.9924409
      5000.5000       145.7031         0.6108       105.3289      -1.257927       0.996561
      5001.0000       145.9312         0.6175       105.4968      -1.090027      0.9987996
      5001.5000       146.2524         0.6236       105.5129      -1.073929      0.9990143
      5002.0000       147.3245         0.6282       105.6464     -0.9404297              1
      5002.5000       148.3865         0.6276       105.8414       -0.74543              1
      5003.0000       149.4382         0.6271       106.0031     -0.5837326              1
      5003.5000       150.1199         0.6265       106.0746     -0.5122299              1
      5004.0000       149.5081         0.6216       106.1271     -0.4597321              1
      5004.5000       148.6802         0.6167       106.1058     -0.4810333              1
      5005.0000       147.9482         0.6119       106.0845      -0.502327              1
      5005.5000       147.3157          0.607       106.0485     -0.5383301              1
      5006.0000       147.9697          0.602       106.0034     -0.5834274              1
      5006.5000       148.6614         0.5971       105.9585     -0.6283264              1
      5007.0000       149.2908         0.5922       105.8105      -0.776329              1
      5007.5000       149.9197          0.588       105.5851      -1.001732      0.9999769
      5008.0000       150.0937         0.5837       105.3596      -1.227234      0.9969702
      5008.5000       150.2581         0.5824       105.1465      -1.440331      0.9941289
      5009.0000       150.2175         0.5846       104.9464      -1.640427       0.991461
      5009.5000       150.1675         0.5869       104.7743      -1.812531      0.9891663
      5010.0000       149.7917         0.5894       104.7014      -1.885429      0.9881943
      5010.5000       149.2671         0.5919       104.6285      -1.958328      0.9872223
      5011.0000       148.2522         0.5929       104.5154      -2.071426      0.9857143
      5011.5000       147.2373         0.5904       104.3945      -2.192329      0.9841022
      5012.0000       146.7202         0.5879       104.2748      -2.312027      0.9825063
      5012.5000       146.2983         0.5855       104.1722      -2.414627      0.9811383
      5013.0000       146.4656         0.6013       104.0693      -2.517532      0.9797662
      5013.5000       146.6511         0.6177       103.8116       -2.77523      0.9763303
