#------------------------------------------------------------------------------
# Created by    : vladimir.rabinovich
# Created on    : 09/19/2023 17:22:15
#------------------------------------------------------------------------------
~Version Information Section
VERS.           2.0     :   CWLS log ASCII Standard - VERSION 2.0
WRAP.           NO      :   One line per depth step
~Well Information Section
#MNEM       .UNIT                                         VALUE :DESCRIPTION
#------------------------------------------------------------------------------
STRT        .FT                                             712 :START DEPTH
STOP        .FT                                            8940 :STOP DEPTH
STEP        .FT                                             0.5 :STEP      
NULL        .                                           -999.25 :NULL      
COMP        .                                      SHELL OIL CO :COMPANY   
WELL        .                               OCS G03086 ST00BP00 :WELL      
FLD         .                                           WILDCAT :FIELD     
LOC         .                                                   :LOCATION  
CNTY        .                      MATAGORDA ISLAND LARGE BLOCK :LOCATION  
STAT        .                                             TEXAS :STATE     
CTRY        .                                     UNITED STATES :COUNTRY   
SRVC        .                                                   :SERVICE COMPANY
DATE        .                             9/13/2023 11:19:05 AM :LOG DATE  
API         .                                    42703400050000 :API NUMBER
UWI         .                                    42703400050000 :UNIQUE WELL ID
XCOORD      .                                  597395.628989583 :SURFACE X 
YCOORD      .                                    10217429.66268 :SURFACE Y 
LAT         .                                         28.117488 :LATITUDE  
LON         .                                        -96.235866 :LONGITUDE 
ELEV        .FT                                              93 :ELEVATION VALUE
ELEV_TYPE   .                                                KB :ELEVATION REFERENCE TYPE
~Curve Information Section
#MNEM       .UNIT                                      API CODE :CURVE DESCRIPTION
#------------------------------------------------------------------------------
DEPT        .FT                                                 :DEPTH     
CALI        .IN                                                 :          
DRHO        .G/C3                                               :          
DT          .US/F                                               :          
GR          .GAPI                                               :          
GR_1        .GAPI                                               :          
GR_NORM     .GAPI                                               :GammaRay Normalized
ILD         .OHMM                                               :          
NPHI        .%                                                  :          
RHOB        .G/C3                                               :          
SFL         .OHMM                                               :          
SP          .MV                                                 :          
SP_NORM     .MV                                                 :SP Normalized
VSH_GR      .V/V                                                :Volume of Shale from GR
VSH_SP      .V/V                                                :Volume of Shale from SP
~A        DEPTH           CALI           DRHO             DT             GR           GR_1        GR_NORM            ILD           NPHI           RHOB            SFL             SP        SP_NORM         VSH_GR         VSH_SP
# ...
      4006.0000         14.991         0.0572       127.6145        56.9004        46.0156        64.7905         0.6891        -999.25         1.9431         0.4568       -72.3352      -4.071724      0.6763937      0.8618851
      4006.5000        14.2789         0.0492       127.8765        56.0875        46.3024       65.29017         0.7011        -999.25         1.9382         0.4511       -73.5375      -5.274025      0.6870249      0.7817317
      4007.0000        13.8171         0.0248       129.5735        53.9767        46.1168       64.96537         0.7265        -999.25         1.9421         0.4502       -73.9854      -5.721924      0.6801143      0.7518718
      4007.5000        14.2706         0.0543       128.4839        52.8484         45.546       63.96837         0.7563        -999.25          1.971         0.4472       -72.9626      -4.699127      0.6589015      0.8200582
      4008.0000        13.7395          0.088       125.7183        54.2535        45.5472       63.96957         0.8016        -999.25         2.0158         0.4824       -71.8792       -3.61573       0.658927      0.8922846
      4008.5000        14.5963         0.1161       120.9001        57.0413        45.9398       64.65385         0.8528        -999.25         2.0309         0.5181       -71.1656       -2.90213      0.6734863       0.939858
      4009.0000        14.2086         0.1192       116.1335          58.23        46.4116       65.47639         0.9149        -999.25         2.0808         0.5595        -70.606      -2.342529      0.6909871      0.9771647
      4009.5000        13.9841         0.1201       110.3292        58.1238        46.8974       66.32333         0.9959        -999.25         2.0846         0.6142       -70.2189      -1.955429       0.709007              1
      4010.0000        14.6599         0.1035         105.27         57.626           46.7       65.97799          1.077        -999.25         2.1633         0.6398       -69.9393      -1.675827      0.7016593              1
      4010.5000        14.7767         0.0973       101.9694        56.8618        46.2959       65.27186         1.1606        -999.25         2.1882         0.6446       -69.8702      -1.606728      0.6866353              1
      4011.0000        13.9788         0.0644       100.5601        56.0121         45.161       63.29032         1.2401        -999.25         2.1717         0.6573       -69.8834      -1.619926      0.6444749              1
      4011.5000        13.9065         0.0488         99.484        55.5974        44.2662       61.72785         1.2964        -999.25         2.1848         0.6762       -70.0201       -1.75663      0.6112308              1
      4012.0000        13.9867         0.0628        98.5037        55.8771        44.4126       61.98249          1.335        -999.25         2.2249         0.6819       -70.3949      -2.131424      0.6166487      0.9912384
      4012.5000        14.0193         0.0644         98.121        56.8199         45.309         63.546         1.3655        -999.25         2.2223         0.6817       -70.5172      -2.255737      0.6499149      0.9829509
      4013.0000        14.2912         0.0526        98.1996        57.5281          46.33       65.32702         1.3653        -999.25         2.1788         0.6797       -70.1057      -1.856209      0.6878089              1
      4013.5000        14.0891         0.0259        98.6377        57.8613        47.3058       67.02914         1.3148        -999.25         2.1637         0.6798       -69.4031      -1.165581      0.7240242              1
      4014.0000        14.1268         0.0603        99.2584        58.5567        47.7504       67.80417         1.2289        -999.25          2.163         0.6809       -69.0602     -0.8346558      0.7405142              1
      4014.5000        13.8059         0.0787       100.5477        59.1747        47.1115       66.68828         1.1445        -999.25         2.1529          0.682       -69.6428      -1.429214      0.7167719              1
      4015.0000        13.7284         0.0516       102.1722        58.7998        46.4382       65.51237         1.0331        -999.25         2.1219         0.6674       -70.6564      -2.454788      0.6917525      0.9696808
      4015.5000        13.8122         0.0147       104.0083         57.444        45.6127       64.07083         0.9085        -999.25         2.1341         0.6431       -71.5574       -3.36776      0.6610815       0.908816
      4016.0000        13.7687          0.041       106.1284        52.5829        44.7984       62.64882         0.7661        -999.25         2.1586          0.616       -72.3062      -4.128517      0.6308259      0.8580989
      4016.5000        13.6912         0.0451       109.1683        50.1642        43.0089       59.52487         0.6115        -999.25         2.1408         0.5713        -73.457       -5.29129      0.5643589      0.7805806
      4017.0000        14.0637          0.042       115.8335        47.8789        39.7045       53.75712          0.501        -999.25         2.0877         0.4989       -76.1451      -7.991364      0.4416408      0.6005757
      4017.5000        14.4415         0.0597       123.1382        43.3669        35.8927       47.10383         0.4173        -999.25         2.0709         0.4306       -78.5831      -10.44132      0.3000816      0.4372452
      4018.0000        17.1093         0.1157       127.7941        39.2875        31.5265         39.483         0.3683        -999.25         2.0408         0.3815       -80.1315      -12.00169      0.1379361      0.3332204
      4018.5000        17.1152         0.0417       130.8105        37.3738        29.2351       35.48314         0.3303        -999.25         1.8826         0.3373       -80.6843      -12.56647     0.05283266      0.2955689
      4019.0000        16.4666          0.033       132.4917        35.4488        28.2027        33.6805         0.3123        -999.25         1.8361         0.3004       -80.9783      -12.87244     0.01447872      0.2751709
      4019.5000        18.0369         0.0642        137.177        35.3759        28.7493       34.63357         0.3158        -999.25          1.799         0.2753       -81.1084       -13.0145     0.03475684      0.2657003
      4020.0000        19.5746         0.0383       144.0735        36.9721        30.6527       37.95454         0.3375        -999.25        -999.25         0.2819        -81.033      -12.95107      0.1054158       0.269929
      4020.5000        19.7249         0.0329       148.0405        40.3164        32.8086       41.71619         0.3638        -999.25        -999.25         0.3267       -80.7688      -12.69884      0.1854508      0.2867442
      4021.0000        19.7335         0.0592       143.0847        43.7532        34.6935       45.00487         0.3938        -999.25        -999.25         0.3725       -80.0813       -12.0233      0.2554228        0.33178
      4021.5000        19.7325         0.0681        133.168        47.7548        36.9583       48.95657         0.4251        -999.25         1.7175         0.4221         -79.02      -10.97397      0.3395014      0.4017354
      4022.0000         19.612         0.0541       120.9985        51.5765        39.2552       52.96427         0.4476        -999.25         1.8157         0.5419       -77.7877      -9.753639      0.4247717      0.4830907
      4022.5000        15.3847         0.0373       109.9504        53.1968        41.1314        56.2378         0.4659        -999.25         1.9461         0.5763       -77.9948      -9.972702      0.4944212      0.4684865
      4023.0000        13.5528         0.0184       106.5022        53.6825        41.4409       56.77707         0.4816        -999.25         2.0676         0.5294       -78.7706      -10.76048      0.5058951      0.4159683
      4023.5000        13.2875         0.0226       105.5258        53.3574        40.7007       55.48437         0.4854        -999.25         2.1617         0.4769       -79.6252      -11.62704      0.4783908       0.358197
