#------------------------------------------------------------------------------
# Created by    : vladimir.rabinovich
# Created on    : 09/19/2023 17:20:23
#------------------------------------------------------------------------------
~Version Information Section
VERS.           2.0     :   CWLS log ASCII Standard - VERSION 2.0
WRAP.           NO      :   One line per depth step
~Well Information Section
#MNEM       .UNIT                                         VALUE :DESCRIPTION
#------------------------------------------------------------------------------
STRT        .FT                                            3532 :START DEPTH
STOP        .FT                                           13690 :STOP DEPTH
STEP        .FT                                             0.5 :STEP      
NULL        .                                           -999.25 :NULL      
COMP        .                              VASTAR RESOURCES INC :COMPANY   
WELL        .                                     ST TR 00023-L :WELL      
FLD         .                          HIGH ISLAND BLOCK 0024-L :FIELD     
LOC         .                                                   :LOCATION  
CNTY        .                           HIGH ISLAND LARGE BLOCK :LOCATION  
STAT        .                                             TEXAS :STATE     
CTRY        .                                     UNITED STATES :COUNTRY   
SRVC        .                                                   :SERVICE COMPANY
DATE        .                             9/13/2023 11:19:15 AM :LOG DATE  
API         .                                    42708300330000 :API NUMBER
UWI         .                                    42708300330000 :UNIQUE WELL ID
XCOORD      .                                  1290562.53578251 :SURFACE X 
YCOORD      .                                  10712997.1214806 :SURFACE Y 
LAT         .                                        29.5146054 :LATITUDE  
LON         .                                       -94.1002609 :LONGITUDE 
ELEV        .FT                                              79 :ELEVATION VALUE
ELEV_TYPE   .                                                KB :ELEVATION REFERENCE TYPE
~Curve Information Section
#MNEM       .UNIT                                      API CODE :CURVE DESCRIPTION
#------------------------------------------------------------------------------
DEPT        .FT                                                 :DEPTH     
ASN         .OHMM                                               :          
CILD        .MMHO                                               :          
ILD         .OHMM                                               :          
SP          .MV                                                 :          
SP_NORM     .MV                                                 :SP Normalized
VSH_SP      .V/V                                                :Volume of Shale from SP
~A        DEPTH            ASN           CILD            ILD             SP        SP_NORM         VSH_SP
# ...
     13640.0000         0.4369        3015.43         0.4384       -42.1474       4.393478              1
     13640.5000         0.4299       3051.207         0.4287       -42.8529       3.687977              1
     13641.0000         0.4229       3066.059          0.419       -43.5572       2.983677              1
     13641.5000         0.4159       3076.953         0.4092       -44.0192       2.521679              1
     13642.0000         0.4089       3083.574         0.3995       -44.3912       2.149677              1
     13642.5000         0.4019       3065.145         0.3924       -44.7639       1.776978              1
     13643.0000         0.3949       3046.762         0.3937       -44.9949       1.545979              1
     13643.5000         0.3879       3028.328         0.3951       -44.6403       1.900578              1
     13644.0000         0.3809       3009.945         0.3965       -44.2856        2.25528              1
     13644.5000         0.3804       2990.031         0.3979        -43.931       2.609879              1
     13645.0000          0.382       2941.898         0.3992       -43.5764       2.964478              1
     13645.5000         0.3836       2893.766         0.4006       -43.2218       3.319077              1
     13646.0000         0.3852       2845.637          0.402       -42.8672       3.673679              1
     13646.5000         0.3869       2794.738         0.4033       -42.5126       4.028278              1
     13647.0000         0.3885       2742.453         0.4047        -42.158       4.382877              1
     13647.5000         0.3901       2690.172         0.4061       -41.8033       4.737579              1
     13648.0000         0.3917       2626.031         0.4075       -41.4487       5.092178              1
     13648.5000         0.3933        2546.57         0.4088       -41.0942       5.446678              1
     13649.0000          0.395       2547.707         0.4102       -40.7482       5.792679              1
     13649.5000         0.3966        2570.09         0.4115        -40.799       5.741879              1
     13650.0000         0.3982       2601.125         0.4111       -40.8499       5.690979              1
     13650.5000         0.3998       2632.156         0.4106       -41.1488       5.392078              1
     13651.0000         0.4014       2663.289         0.4102       -41.6071       4.933777              1
     13651.5000         0.4016       2694.324         0.4097       -42.0642       4.476677              1
     13652.0000          0.401       2725.457         0.4093       -42.5213       4.019577              1
     13652.5000         0.4005        2753.77         0.4089       -42.9783        3.56258              1
     13653.0000         0.3999       2781.641         0.4084       -43.4367       3.104179              1
     13653.5000         0.3994       2809.512          0.408       -43.8937       2.647179              1
     13654.0000         0.3988       2834.469         0.4075       -44.3508       2.190079              1
     13654.5000         0.3982       2846.328         0.4071       -44.8079       1.732979              1
     13655.0000         0.3977       2827.648         0.4067       -45.2662       1.274677              1
     13655.5000         0.3971        2809.02         0.4062       -45.2023       1.338577              1
     13656.0000         0.3966        2790.34         0.4058       -45.0476       1.493279              1
     13656.5000          0.396       2771.711         0.4053       -44.8927       1.648178              1
     13657.0000         0.3955       2749.422         0.4049       -44.6533       1.887577              1
     13657.5000         0.3949       2725.555         0.4045       -44.3931       2.147778              1
     13658.0000         0.3944       2701.734         0.4041       -44.1323       2.408577              1
     13658.5000         0.3938       2677.918         0.4038        -43.872       2.668877              1
     13659.0000         0.3933       2683.402         0.4036       -44.0124       2.528477              1
     13659.5000         0.3927       2694.742         0.4033       -44.3254       2.215477              1
     13660.0000         0.3922       2706.086         0.4031       -44.6384       1.902477              1
     13660.5000         0.3912       2717.426         0.4028       -44.9507       1.590179              1
     13661.0000         0.3897       2728.766         0.4026       -45.2637        1.27718              1
     13661.5000         0.3882       2740.109         0.4023       -45.5768       0.964077              1
     13662.0000         0.3868       2751.473         0.4021       -45.7811      0.7597771              1
     13662.5000         0.3853       2762.813         0.4018       -45.5308       1.010078              1
     13663.0000         0.3838       2777.789         0.4016       -45.2805        1.26038              1
     13663.5000         0.3824       2795.727         0.4013       -45.0309       1.509979              1
     13664.0000         0.3809       2813.613         0.4011       -44.7806       1.760277              1
     13664.5000         0.3795       2831.504         0.4008       -44.5303       2.010578              1
     13665.0000          0.378       2849.441         0.4006       -44.3263       2.214577              1
     13665.5000         0.3765       2867.328         0.4003       -44.1462        2.39468              1
     13666.0000         0.3751       2885.219            0.4       -43.9661        2.57478              1
     13666.5000         0.3736       2904.785         0.3997       -43.7857       2.755177              1
     13667.0000         0.3721       2925.148         0.3994       -43.6056        2.93528              1
     13667.5000         0.3707       2945.508         0.3991       -43.4255       3.115379              1
     13668.0000         0.3692       2965.914         0.3988       -43.4339       3.106979              1
     13668.5000         0.3685        2985.93         0.3985       -43.5056       3.035278              1
     13669.0000         0.3689       3005.895         0.3982       -43.5773       2.963577              1
     13669.5000         0.3694       3021.484         0.3979        -43.649        2.89188              1
     13670.0000         0.3698       3028.066         0.3976       -43.7208        2.82008              1
     13670.5000         0.3702       3029.531         0.3973       -43.7925       2.748379              1
     13671.0000         0.3707           3031          0.397       -43.8378       2.703079              1
     13671.5000         0.3711       3032.465         0.3967       -43.8604       2.680477              1
     13672.0000         0.3715        3033.93         0.3964       -43.8829       2.657978              1
     13672.5000         0.3721       3035.395         0.3961       -43.9054       2.635479              1
     13673.0000         0.3749       3040.434          0.398       -43.9279        2.61298              1
     13673.5000         0.3776       3045.648         0.4001       -43.9504       2.590477              1
     13674.0000         0.3804       3050.848         0.4022       -43.9802       2.560677              1
     13674.5000         0.3831       3056.051         0.4043       -44.0109        2.52998              1
     13675.0000         0.3858       3040.828         0.4065       -44.0415       2.499378              1
     13675.5000         0.3886       3020.617         0.4086       -44.0721       2.468777              1
     13676.0000         0.3913       2982.418         0.4107       -44.1028        2.43808              1
     13676.5000         0.3941       2910.668         0.4129       -43.8342       2.706676              1
     13677.0000         0.3975       2838.719          0.415       -43.2479        3.29298              1
     13677.5000         0.4011       2767.953         0.4171       -42.6616        3.87928              1
