#------------------------------------------------------------------------------
# Created by    : vladimir.rabinovich
# Created on    : 09/19/2023 17:19:44
#------------------------------------------------------------------------------
~Version Information Section
VERS.           2.0     :   CWLS log ASCII Standard - VERSION 2.0
WRAP.           NO      :   One line per depth step
~Well Information Section
#MNEM       .UNIT                                         VALUE :DESCRIPTION
#------------------------------------------------------------------------------
STRT        .FT                                            2932 :START DEPTH
STOP        .FT                                           14530 :STOP DEPTH
STEP        .FT                                             0.5 :STEP      
NULL        .                                           -999.25 :NULL      
COMP        .                                 MESA PETROLEUM CO :COMPANY   
WELL        .                                 ST TR 00022-L W/2 :WELL      
FLD         .                                           WILDCAT :FIELD     
LOC         .                                                   :LOCATION  
CNTY        .                           HIGH ISLAND LARGE BLOCK :LOCATION  
STAT        .                                             TEXAS :STATE     
CTRY        .                                     UNITED STATES :COUNTRY   
SRVC        .                                                   :SERVICE COMPANY
DATE        .                             9/13/2023 11:19:15 AM :LOG DATE  
API         .                                    42708300770000 :API NUMBER
UWI         .                                    42708300770000 :UNIQUE WELL ID
XCOORD      .                                  1307803.37781852 :SURFACE X 
YCOORD      .                                  10713200.3443699 :SURFACE Y 
LAT         .                                         29.515602 :LATITUDE  
LON         .                                       -94.0460534 :LONGITUDE 
ELEV        .FT                                              85 :ELEVATION VALUE
ELEV_TYPE   .                                                KB :ELEVATION REFERENCE TYPE
~Curve Information Section
#MNEM       .UNIT                                      API CODE :CURVE DESCRIPTION
#------------------------------------------------------------------------------
DEPT        .FT                                                 :DEPTH     
ASFL        .OHMM                                               :          
CILD        .MMHO                                               :          
ILD         .OHMM                                               :          
SP          .MV                                                 :          
SP_NORM     .MV                                                 :SP Normalized
VSH_SP      .V/V                                                :Volume of Shale from SP
~A        DEPTH           ASFL           CILD            ILD             SP        SP_NORM         VSH_SP
# ...
      3692.0000         0.5592        3023.75         0.5283       -82.6992      -22.52309      0.5607532
      3692.5000         0.5875         2739.5         0.5773       -81.7839      -21.57063      0.5801913
      3693.0000         0.6091         1851.5         0.6316        -82.293      -22.04258      0.5705597
      3693.5000         0.6285       1671.625         0.6572       -82.8022      -22.51462      0.5609261
      3694.0000         0.6317         1558.5         0.6275       -82.3086      -21.98387      0.5717578
      3694.5000         0.6271       1510.438         0.5979         -80.46      -20.09811      0.6102427
      3695.0000         0.6224       1597.188         0.5683       -78.7627      -18.36366      0.6456396
      3695.5000         0.6178         1724.5         0.5386       -77.0664       -16.6302      0.6810163
      3696.0000         0.6131       1851.813          0.509       -75.0137      -14.54035      0.7236664
      3696.5000         0.6089       1979.063         0.4794       -75.0156      -14.50509      0.7243859
      3697.0000         0.6049       2106.375         0.4497        -79.002      -18.45433      0.6437892
      3697.5000         0.6009       2233.688           0.42       -83.0195      -22.43468      0.5625576
      3698.0000         0.5969       2360.938         0.3904       -85.8945      -25.27252      0.5046424
      3698.5000          0.583        2488.25         0.3607       -88.5605      -27.90137      0.4509925
      3699.0000         0.5647       2591.875         0.3311       -90.1953      -29.49901      0.4183876
      3699.5000         0.5463       2700.313         0.3014        -91.709      -30.97556       0.388254
      3700.0000         0.5279        2838.25         0.2773       -91.6982       -30.9276      0.3892327
      3700.5000         0.5096       3051.563         0.2577       -90.1895      -29.38174      0.4207807
      3701.0000         0.4958       3333.117         0.2473        -88.877      -28.03209      0.4483248
      3701.5000          0.483       3326.086         0.2564       -87.5645      -26.68243      0.4758688
      3702.0000          0.471       3299.594         0.2654        -86.251      -25.33178      0.5034332
      3702.5000         0.4636           3263         0.2754       -83.8516      -22.89522      0.5531588
      3703.0000         0.4583       3226.406         0.2913       -81.5811      -20.58757      0.6002538
      3703.5000         0.4729       3189.844         0.3072       -80.6436      -19.61291      0.6201447
      3704.0000         0.4875       3142.125         0.3231        -82.042      -20.97416      0.5923642
      3704.5000         0.5021       3069.438         0.3389       -83.5361       -22.4311      0.5626305
      3705.0000         0.5167       2996.688         0.3548       -85.0313      -23.88914      0.5328746
      3705.5000         0.5309       2923.938         0.3707       -85.9307      -24.75139      0.5152778
      3706.0000         0.5448       2851.188         0.3866       -84.6182      -23.40173      0.5428218
      3706.5000         0.5587       2755.375         0.4025       -83.3047      -22.05108      0.5703862
      3707.0000         0.5726       2659.438         0.4184       -81.9922      -20.70142      0.5979301
      3707.5000          0.576         2564.5         0.4343       -80.9438      -19.61587      0.6200843
      3708.0000         0.5763           2462         0.4509       -80.2754      -18.91031      0.6344835
      3708.5000         0.5766         2341.5          0.468       -79.4004      -17.99815      0.6530989
      3709.0000         0.5772        2136.25         0.4851       -75.8086       -14.3692      0.7271592
      3709.5000         0.5794         2069.5         0.5015       -73.3145      -11.83794      0.7788175
      3710.0000         0.5816       1986.063         0.4893       -73.1855      -11.67179      0.7822084
      3710.5000         0.5839       1983.125         0.4771       -76.5039      -14.95303      0.7152443
      3711.0000         0.5861       2046.719          0.465       -81.3359      -19.74788      0.6173903
      3711.5000         0.5934       2114.313         0.4528       -84.8877      -23.26252      0.5456628
      3712.0000         0.6085       2181.938         0.4406       -86.7354      -25.07306       0.508713
      3712.5000         0.6236       2250.969         0.4249       -87.9922      -26.29271      0.4838222
      3713.0000         0.6387       2321.219         0.4066        -88.759      -27.02236      0.4689315
      3713.5000         0.6442       2391.469         0.3883       -89.3206       -27.5468      0.4582286
      3714.0000         0.6317       2460.125           0.37       -89.9067      -28.09574      0.4470257
      3714.5000         0.6193       2528.625         0.3518       -90.5771      -28.72899      0.4341023
      3715.0000         0.6078       2580.063         0.3335       -90.9229      -29.03763      0.4278035
      3715.5000         0.5965       2623.781         0.3152       -89.6855      -27.76308      0.4538147
      3716.0000         0.5851       2657.813          0.334       -88.4482      -26.48862      0.4798242
      3716.5000         0.5738        2613.75         0.3561         -87.29      -25.29327      0.5042191
      3717.0000         0.5625       2569.688         0.3781       -86.1035      -24.06961      0.5291916
      3717.5000         0.5511       2486.125         0.4002       -84.6563      -22.58525      0.5594846
      3718.0000         0.5407         2214.5         0.4222       -78.4375       -16.3293      0.6871572
      3718.5000         0.5308       2006.844          0.451       -73.6172      -11.47184      0.7862889
      3719.0000         0.5208           1909         0.4817       -68.9397      -6.757183      0.8825065
      3719.5000         0.5262       1773.938         0.5124       -69.3499       -7.13023      0.8748932
      3720.0000         0.5389       1689.375         0.5431       -69.7598      -7.502979      0.8672861
      3720.5000         0.5523       1632.125         0.5732       -70.1697      -7.875721      0.8596792
      3721.0000         0.5658       1593.813         0.5846       -70.5798      -8.248669       0.852068
      3721.5000         0.5792       1558.563         0.5961       -69.9541      -7.585808      0.8655958
      3722.0000         0.5926       1529.328         0.6076       -68.6006      -6.195152      0.8939765
      3722.5000         0.5921       1509.047         0.6182       -67.4111      -4.968498      0.9190102
      3723.0000         0.5914       1488.766         0.6279       -66.3877      -3.907944      0.9406542
      3723.5000         0.5907       1463.375         0.6376       -65.6913      -3.174385      0.9556248
      3724.0000         0.5933       1426.156         0.6344       -65.5183      -2.964233      0.9599136
      3724.5000         0.5961       1396.703         0.6162       -65.0698      -2.478577       0.969825
      3725.0000         0.5988       1431.563         0.5979       -64.6191      -1.990723      0.9797812
      3725.5000          0.597       1466.406         0.5797       -64.1685      -1.502968      0.9897354
      3726.0000         0.5881        1500.25         0.5615       -63.3545     -0.6518059              1
      3726.5000         0.5792       1533.719         0.5432       -61.4727       1.267151              1
      3727.0000         0.5681       1567.172          0.525       -59.7676       3.009403              1
      3727.5000         0.5548       1614.094         0.5253        -58.731        4.08316              1
      3728.0000         0.5415       1658.828         0.5256       -57.6938       5.157513              1
      3728.5000         0.5282       1690.484         0.5526       -56.4863       6.402168              1
      3729.0000         0.5156       1721.797         0.5797       -55.3926       7.533024              1
      3729.5000          0.522       1752.641         0.6068       -58.5937        4.36908              1
