#------------------------------------------------------------------------------
# Created by    : vladimir.rabinovich
# Created on    : 09/19/2023 17:21:15
#------------------------------------------------------------------------------
~Version Information Section
VERS.           2.0     :   CWLS log ASCII Standard - VERSION 2.0
WRAP.           NO      :   One line per depth step
~Well Information Section
#MNEM       .UNIT                                         VALUE :DESCRIPTION
#------------------------------------------------------------------------------
STRT        .FT                                            2893 :START DEPTH
STOP        .FT                                           11505 :STOP DEPTH
STEP        .FT                                             0.5 :STEP      
NULL        .                                           -999.25 :NULL      
COMP        .                               SEAGULL ENERGY CORP :COMPANY   
WELL        .                               OCS G06105 ST00BP00 :WELL      
FLD         .                              GALVESTON BLOCK 0343 :FIELD     
LOC         .                                                   :LOCATION  
CNTY        .                             GALVESTON LARGE BLOCK :LOCATION  
STAT        .                                             TEXAS :STATE     
CTRY        .                                     UNITED STATES :COUNTRY   
SRVC        .                                                   :SERVICE COMPANY
DATE        .                             9/13/2023 11:19:54 AM :LOG DATE  
API         .                                    42706403720000 :API NUMBER
UWI         .                                    42706403720000 :UNIQUE WELL ID
XCOORD      .                                  915246.934514234 :SURFACE X 
YCOORD      .                                  10428990.3748243 :SURFACE Y 
LAT         .                                         28.718869 :LATITUDE  
LON         .                                        -95.262866 :LONGITUDE 
ELEV        .FT                                              96 :ELEVATION VALUE
ELEV_TYPE   .                                                KB :ELEVATION REFERENCE TYPE
~Curve Information Section
#MNEM       .UNIT                                      API CODE :CURVE DESCRIPTION
#------------------------------------------------------------------------------
DEPT        .FT                                                 :DEPTH     
CAL         .IN                                                 :          
CNCSS       .%                                                  :          
CORR        .G/CM3                                              :          
DT24        .US/FT                                              :          
GR_NORM     .GAPI                                               :GammaRay Normalized
GRR         .GAPI                                               :          
ILD         .OHMM                                               :          
ILM         .OHMM                                               :          
PORDSS      .%                                                  :          
RFOC        .OHMM                                               :          
SP          .MV                                                 :          
SP_NORM     .MV                                                 :SP Normalized
VSH_GR      .V/V                                                :Volume of Shale from GR
VSH_SP      .V/V                                                :Volume of Shale from SP
~A        DEPTH            CAL          CNCSS           CORR           DT24        GR_NORM            GRR            ILD            ILM         PORDSS           RFOC             SP        SP_NORM         VSH_GR         VSH_SP
# ...
      9751.0000         7.3627         43.169        -0.0517       130.5851       83.32983           83.4         0.3253         0.3195          23.76         0.4685        -2.0387        -2.9883              1      0.9708757
      9751.5000         7.3627        43.1642        -0.0555       131.3778        88.1132             87         0.3282         0.3224          23.76         0.4685         -2.026        -2.9776              1      0.9710571
      9752.0000          7.402        43.1595        -0.0553       131.1685       92.36038        90.1968         0.3312         0.3253          23.64         0.4729        -2.0134        -2.9669              1      0.9712371
      9752.5000          7.402        43.1548        -0.0551       130.1552       94.45211        91.7727         0.3342         0.3282           23.4         0.4817        -2.2961        -3.2516              1      0.9671986
      9753.0000         7.4412        43.0318        -0.0509       129.1446       91.29305           89.4         0.3372         0.3312          23.04         0.4908        -2.2837        -3.2412              1      0.9673757
      9753.5000          7.402        42.9085        -0.0587       127.9347       87.56577           86.6         0.3402         0.3312          23.04         0.4954        -2.5673        -3.5268              1      0.9633243
      9754.0000          7.402        43.1406        -0.0625       127.5248        85.7002           85.2         0.3433         0.3282          23.04         0.4954        -2.5551        -3.5166              1      0.9634986
      9754.5000         7.4412        43.2544        -0.0583       128.5149       87.29207           86.4         0.3464         0.3282          22.56         0.4862        -2.8395         -3.803              1      0.9594357
      9755.0000          7.402        43.3685        -0.0541        128.905        89.1499           87.8         0.3495         0.3282          21.84         0.4773        -3.1244        -4.0899              1      0.9553657
      9755.5000          7.402         43.364        -0.0499       129.4931       87.55027           86.6         0.3495         0.3282          21.36         0.4685        -3.1127        -4.0802              1      0.9555328
      9756.0000          7.402        43.3594        -0.0577       129.4832       86.21661           85.6         0.3495         0.3282          21.36         0.4685        -3.3985         -4.368              1        0.95145
      9756.5000          7.402        43.3548        -0.0535       129.4733       85.41486             85         0.3495         0.3282           21.6         0.4685        -4.2803        -5.2518              1      0.9388528
      9757.0000          7.402        43.3493        -0.0493       129.4634       86.47482           85.8         0.3495         0.3312          21.72         0.4685        -4.2697        -5.2431              1      0.9390043
      9757.5000         7.4412        43.4641        -0.0571       129.8535       87.80073           86.8         0.3495         0.3342          21.96         0.4685        -3.9586         -4.934              1      0.9434485
      9758.0000         7.4412        43.3401        -0.0769       130.2474       89.12664           87.8         0.3464         0.3312          22.44         0.4685        -3.9477        -4.9251              1      0.9436043
      9758.5000         7.4412        42.9768        -0.0847       130.6443       88.32489           87.2         0.3464         0.3282          22.92         0.4773        -3.3388        -4.3182              1      0.9523029
      9759.0000         7.4412        42.3733        -0.0805        131.042       86.99122           86.2         0.3464         0.3253          23.52         0.4773        -2.7288        -3.7102              1      0.9610171
      9759.5000         7.4412        41.7636        -0.0603       131.4404       86.98735           86.2         0.3464         0.3224          23.76         0.4729        -2.4171        -3.4005              1        0.96547
      9760.0000         7.4412        41.2677        -0.0481       131.4318       88.31326           87.2         0.3433         0.3224          23.52         0.4729        -2.1048        -3.0902              1      0.9699314
      9760.5000         7.4412        41.3878          -0.06       131.6327       88.57536           87.4         0.3402         0.3224        22.7993         0.4685           -1.8        -2.7874              1      0.9742857
      9761.0000         7.4412        41.5102         -0.076       131.8367       87.24169           86.4         0.3372         0.3195        22.3173         0.4599           -1.8        -2.7894              1      0.9742857
      9761.5000         7.4412        41.6327         -0.084       131.8367       86.43995           85.8         0.3312         0.3195         22.075         0.4556           -1.8        -2.7914              1      0.9742857
      9762.0000         7.4804        41.6327         -0.092       131.8367       86.70203             86         0.3224         0.3166        22.1936         0.4599           -2.1        -3.0933              1           0.97
      9762.5000         7.4804        41.2653         -0.084       131.6327       87.23007           86.4         0.3166         0.3138        22.7945         0.4642           -2.1        -3.0953              1           0.97
      9763.0000         7.4412        41.0204          -0.06       130.8163       87.75811           86.8         0.3166         0.3082        23.3967         0.4599           -2.1        -3.0973              1           0.97
      9763.5000         7.4412        41.3878         -0.036       130.6122       87.75423           86.8         0.3166          0.311        23.5168         0.4514           -1.8        -2.7993              1      0.9742857
      9764.0000         7.4412        41.3878         -0.032       131.4286        85.6227           85.2         0.3166          0.311        23.3955         0.4431           -1.5        -2.5013              1      0.9785714
      9764.5000         7.4412        41.1429         -0.048        132.449       83.49117           83.6         0.3166          0.311        23.1528         0.4431           -0.9        -1.9033              1      0.9871429
      9765.0000         7.4412        41.1429         -0.044       133.2653       83.75325           83.8         0.3166          0.311        23.1519         0.4472           -0.6        -1.6053              1      0.9914286
      9765.5000         7.4412        41.7551         -0.032       132.8571       86.94085           86.2         0.3166          0.311        22.9083         0.4514           -0.6        -1.6073              1      0.9914286
      9766.0000         7.4412          42.24         -0.024        132.449       87.20294           86.4         0.3195         0.3138        22.7858         0.4556           -0.9        -1.9093              1      0.9871429
      9766.5000         7.4412          42.36         -0.036       132.2449       86.66715             86         0.3224         0.3166        22.7846         0.4514           -0.9        -1.9113              1      0.9871429
      9767.0000          7.402           42.6         -0.032       131.8367       86.39732           85.8         0.3282         0.3224        22.7834         0.4472           -0.9        -1.9132              1      0.9871429
      9767.5000          7.402           42.6         -0.024       131.6327       86.39344           85.8         0.3342         0.3282        22.5386         0.4472           -0.9        -1.9152              1      0.9871429
      9768.0000          7.402           42.6         -0.028       131.2245       86.65552             86         0.3402         0.3342        22.5371         0.4514           -0.9        -1.9172              1      0.9871429
      9768.5000         7.4412          42.24         -0.036            127        88.7793           87.6         0.3464         0.3372        22.6577         0.4642           -0.3        -1.3192              1      0.9957143
