#------------------------------------------------------------------------------
# Created by    : vladimir.rabinovich
# Created on    : 09/19/2023 17:19:44
#------------------------------------------------------------------------------
~Version Information Section
VERS.           2.0     :   CWLS log ASCII Standard - VERSION 2.0
WRAP.           NO      :   One line per depth step
~Well Information Section
#MNEM       .UNIT                                         VALUE :DESCRIPTION
#------------------------------------------------------------------------------
STRT        .FT                                            3520 :START DEPTH
STOP        .FT                                           13769 :STOP DEPTH
STEP        .FT                                             0.5 :STEP      
NULL        .                                           -999.25 :NULL      
COMP        .                           WILLIAMS EXPLORATION CO :COMPANY   
WELL        .                                          SL 73414 :WELL      
FLD         .                                           WILDCAT :FIELD     
LOC         .                                                   :LOCATION  
CNTY        .                           HIGH ISLAND LARGE BLOCK :LOCATION  
STAT        .                                             TEXAS :STATE     
CTRY        .                                     UNITED STATES :COUNTRY   
SRVC        .                                                   :SERVICE COMPANY
DATE        .                             9/13/2023 11:19:15 AM :LOG DATE  
API         .                                    42708301040000 :API NUMBER
UWI         .                                    42708301040000 :UNIQUE WELL ID
XCOORD      .                                  1272749.25589155 :SURFACE X 
YCOORD      .                                  10699068.0748216 :SURFACE Y 
LAT         .                                        29.4758188 :LATITUDE  
LON         .                                       -94.1558378 :LONGITUDE 
ELEV        .FT                                             106 :ELEVATION VALUE
ELEV_TYPE   .                                                KB :ELEVATION REFERENCE TYPE
~Curve Information Section
#MNEM       .UNIT                                      API CODE :CURVE DESCRIPTION
#------------------------------------------------------------------------------
DEPT        .FT                                                 :DEPTH     
ASFL        .OHMM                                               :          
CILD        .MMHO                                               :          
ILD         .OHMM                                               :          
SP          .MV                                                 :          
SP_NORM     .MV                                                 :SP Normalized
VSH_SP      .V/V                                                :Volume of Shale from SP
~A        DEPTH           ASFL           CILD            ILD             SP        SP_NORM         VSH_SP
# ...
      7624.0000         0.5462       5838.086         0.2116      -129.4883       -49.9294     0.05905005
      7624.5000         0.5369       5797.969         0.2096      -129.1455      -49.58614     0.06565109
      7625.0000         0.5327       5759.398         0.2077      -129.3342       -49.7744     0.06203079
      7625.5000         0.5286       5859.539           0.21      -129.6941      -50.13386     0.05511812
      7626.0000         0.5244       5980.375         0.2177      -130.0676       -50.5069     0.04794429
      7626.5000         0.5203       6130.078         0.2254      -130.5066      -50.94546     0.03951043
      7627.0000         0.5161       6274.211         0.2331      -130.9456        -51.384     0.03107687
      7627.5000         0.5122       6381.914         0.2408      -131.3845      -51.82246     0.02264507
      7628.0000         0.5096       6425.953         0.2486      -130.5039      -50.94141     0.03958834
      7628.5000          0.507       6468.805         0.2563      -127.6978      -48.13485     0.09356058
      7629.0000         0.5045       6505.789          0.271      -124.6796       -45.1162      0.1516115
      7629.5000         0.5019       5439.086         0.2888      -122.1479      -42.58405      0.2003067
      7630.0000         0.4993       4142.711         0.3066      -119.6162      -40.05191      0.2490017
      7630.5000         0.4968       3933.109         0.3244      -117.7645      -38.19976        0.28462
      7631.0000          0.502       3882.246         0.3421      -116.1652      -36.60001      0.3153845
      7631.5000         0.5116       3806.496           0.36      -115.4673      -35.90166      0.3288143
      7632.0000         0.5291       3194.141         0.3777      -115.0444      -35.47831      0.3369556
      7632.5000         0.5466       2723.129         0.3905      -114.6219      -35.05536      0.3450893
      7633.0000         0.5638       2573.023         0.4018       -114.324        -34.757      0.3508269
      7633.5000         0.5775       2489.813          0.413      -114.0563      -34.48885      0.3559836
      7634.0000         0.5845        2442.48         0.4243      -113.7882      -34.22031      0.3611479
      7634.5000         0.5921       2460.547         0.4355      -113.7638      -34.19546      0.3616258
      7635.0000         0.6024       2518.078         0.4357      -114.0549      -34.48611      0.3560364
      7635.5000         0.6127       2584.672         0.4332      -121.6854      -42.11616      0.2093047
      7636.0000         0.6221       2651.262         0.4307      -123.4709      -43.90121      0.1749768
      7636.5000         0.6289       2717.852         0.4282      -125.8257      -46.25555      0.1297009
      7637.0000         0.6358       2776.879         0.4233      -128.6172      -49.04661     0.07602677
      7637.5000         0.6389       2833.414         0.4097      -128.7275      -49.15646      0.0739143
      7638.0000         0.6403       2932.953         0.3961        -127.39      -47.81851       0.099644
      7638.5000         0.6341        3254.66         0.3826      -126.0524      -46.48046      0.1253757
      7639.0000         0.6205       3556.855          0.369      -124.7699      -45.19751      0.1500479
      7639.5000         0.6046       3649.227         0.3554      -123.5648      -43.99196      0.1732316
      7640.0000         0.5816       3740.305         0.3418      -122.3599      -42.78661      0.1964113
      7640.5000         0.5585       3855.469         0.3282      -121.1548      -41.58106       0.219595
      7641.0000         0.5388        4267.93         0.3145      -120.0216      -40.44741       0.241396
      7641.5000         0.5268       3950.727         0.3009      -118.8995      -39.32486      0.2629835
      7642.0000         0.5182       3839.742         0.2926      -117.4236      -37.84851      0.2913748
      7642.5000         0.5194       3643.652         0.2844      -118.5586      -38.98306      0.2695565
      7643.0000          0.524       3682.969         0.2763      -120.3422      -40.76621      0.2352652
      7643.5000         0.5377       3787.387         0.2681       -122.124      -42.54756      0.2010084
      7644.0000         0.5454       4145.695         0.2599      -123.9076      -44.33071      0.1667171
      7644.5000         0.5532       4307.938         0.2517      -126.1426      -46.56526       0.123745
      7645.0000         0.5587       5197.016         0.2485      -128.8291      -49.25132        0.07209
      7645.5000         0.5635       6121.125         0.2467      -131.5522      -51.97397     0.01973137
      7646.0000         0.5571       6285.555          0.245      -130.7205      -51.14182     0.03573418
      7646.5000         0.5428       6487.125         0.2432      -129.8894      -50.31027     0.05172553
      7647.0000         0.5162       6477.266         0.2494        -128.28      -48.70042     0.08268429
      7647.5000         0.4888       6266.445         0.2613      -124.8933      -45.31327      0.1478217
      7648.0000         0.4825       5079.156         0.2732      -121.5104      -41.92992      0.2128862
      7648.5000         0.4831       4497.859         0.2851      -118.4518      -38.87086      0.2717142
      7649.0000         0.4894       3949.035         0.2974      -115.9846      -36.40321       0.319169
      7649.5000         0.4958       3851.488          0.311      -115.0817      -35.49987       0.336541
      7650.0000         0.5021       3255.457         0.3247      -114.2677      -34.68542      0.3522035
      7650.5000         0.5085       3135.016         0.3383      -114.5593      -34.97657      0.3466044
      7651.0000          0.515       3050.207          0.352      -116.0416      -36.45842      0.3181073
      7651.5000         0.5231       2967.094          0.362      -117.6815      -38.09787      0.2865794
      7652.0000         0.5312       2937.582         0.3621      -119.3214      -39.73733      0.2550514
      7652.5000         0.5393       2913.543         0.3622      -121.1198      -41.53527      0.2204756
      7653.0000         0.5437       2947.285         0.3623      -123.3677      -43.78272      0.1772553
      7653.5000          0.548       3060.758          0.357      -125.6119      -46.02647      0.1341063
      7654.0000         0.5523       3204.293         0.3462      -127.2565      -47.67062       0.102488
      7654.5000         0.5509       3397.594         0.3353      -128.1169      -48.53057     0.08595056
      7655.0000         0.5482       5104.641         0.3245      -128.9773      -49.39052     0.06941311
      7655.5000         0.5419       5329.594         0.3029       -129.564      -49.97677     0.05813907
      7656.0000         0.5346       5730.539         0.2798      -129.7961      -50.20842     0.05368423
      7656.5000         0.5274       7006.805         0.2638      -130.0286      -50.44047     0.04922177
      7657.0000         0.5201       7069.117         0.2513      -130.2607      -50.67212     0.04476694
      7657.5000         0.5128        7120.43         0.2419      -130.4929      -50.90388     0.04031005
      7658.0000         0.5056       6931.359          0.236      -130.6936      -51.10413     0.03645911
      7658.5000         0.4989       6518.875         0.2338      -130.8582      -51.26827     0.03330245
      7659.0000         0.4924        5065.82         0.2359      -131.0225      -51.43213     0.03015137
      7659.5000         0.4986       4904.969         0.2442      -130.6421      -51.05128     0.03747529
      7660.0000         0.5369       4278.078         0.2596        -130.01      -50.41872     0.04963992
      7660.5000          0.609       3425.066         0.2751      -130.0332      -50.44148     0.04920226
      7661.0000         0.6771       3329.313          0.287      -130.3247      -50.73254     0.04360507
      7661.5000         0.7078       3314.281         0.2985      -130.7227      -51.13008     0.03595998
