#------------------------------------------------------------------------------
# Created by    : vladimir.rabinovich
# Created on    : 09/19/2023 17:19:48
#------------------------------------------------------------------------------
~Version Information Section
VERS.           2.0     :   CWLS log ASCII Standard - VERSION 2.0
WRAP.           NO      :   One line per depth step
~Well Information Section
#MNEM       .UNIT                                         VALUE :DESCRIPTION
#------------------------------------------------------------------------------
STRT        .FT                                             130 :START DEPTH
STOP        .FT                                            9502 :STOP DEPTH
STEP        .FT                                             0.5 :STEP      
NULL        .                                           -999.25 :NULL      
COMP        .            MOBIL PRODUCING TEXAS & NEW MEXICO INC :COMPANY   
WELL        .                               OCS G07243 ST00BP00 :WELL      
FLD         .                                           WILDCAT :FIELD     
LOC         .                                                   :LOCATION  
CNTY        .                             GALVESTON LARGE BLOCK :LOCATION  
STAT        .                                             TEXAS :STATE     
CTRY        .                                     UNITED STATES :COUNTRY   
SRVC        .                                                   :SERVICE COMPANY
DATE        .                             9/13/2023 11:19:36 AM :LOG DATE  
API         .                                    42706401330000 :API NUMBER
UWI         .                                    42706401330000 :UNIQUE WELL ID
XCOORD      .                                  993943.906145108 :SURFACE X 
YCOORD      .                                  10496155.9223708 :SURFACE Y 
LAT         .                                         28.907432 :LATITUDE  
LON         .                                        -95.020991 :LONGITUDE 
ELEV        .FT                                              92 :ELEVATION VALUE
ELEV_TYPE   .                                                KB :ELEVATION REFERENCE TYPE
~Curve Information Section
#MNEM       .UNIT                                      API CODE :CURVE DESCRIPTION
#------------------------------------------------------------------------------
DEPT        .FT                                                 :DEPTH     
ASFL        .OHMM                                               :          
CILD        .MMHO                                               :          
DT          .US/F                                               :          
GR          .GAPI                                               :          
GR_NORM     .GAPI                                               :GammaRay Normalized
ILD         .OHMM                                               :          
SP          .MV                                                 :          
SP_NORM     .GAPI                                               :SP Normalized
VSH_GR      .V/V                                                :Volume of Shale from GR
VSH_SP      .V/V                                                :Volume of Shale from SP
~A        DEPTH           ASFL           CILD             DT             GR        GR_NORM            ILD             SP        SP_NORM         VSH_GR         VSH_SP
# ...
      7627.0000         0.8845       1698.146       117.6613        87.3051       86.31087         0.5595        85.3483      -3.152912              1      0.9474515
      7627.5000         0.8878       1704.914       118.0341        87.5428       86.62306         0.5555        85.3807      -3.118847              1      0.9480192
      7628.0000         0.8905       1711.928       118.0981        87.7808       86.93564         0.5584        85.5422      -2.945755              1      0.9509041
      7628.5000         0.8931       1719.797       118.6338        88.1233       87.38548         0.5626        85.7039      -2.772441              1      0.9537926
      7629.0000         0.8956       1727.654       117.9402        88.2166         87.508         0.5668        85.9106      -2.550676              1      0.9574887
      7629.5000         0.8993       1735.512        117.449        87.1819       86.14906         0.5698        86.1184      -2.327719              1      0.9612047
      7630.0000         0.9115       1699.664       117.1495        85.7206       84.22984         0.5716        86.2588      -2.177353              1      0.9637108
      7630.5000         0.9238       1651.836        117.064        86.0271       84.63239         0.5906        86.1117      -2.336592              1      0.9610568
      7631.0000         0.9464       1603.957       117.0652        86.5376       85.30286         0.6163        85.9647      -2.495725              1      0.9584046
      7631.5000         0.9748       1539.141       117.0664        87.0476       85.97268         0.6419        85.8176      -2.654973              1      0.9557505
      7632.0000         0.9948       1456.896       117.2712        87.5582       86.64328         0.6685        85.6707      -2.813999              1         0.9531
      7632.5000         1.0138       1416.217       114.6624         87.807       86.97005         0.6954        85.5785      -2.914122              1      0.9514313
      7633.0000         1.0308       1384.689        112.468        86.5493       85.31823         0.7224        85.5306      -2.966534              1      0.9505578
      7633.5000         1.0429       1353.162       109.8837        85.2817        83.6534         0.7493        85.6492      -2.839642              1      0.9526727
      7634.0000         1.0356        1323.52       107.6869        84.0129       81.98699         0.7672        85.8094      -2.667946              1      0.9555342
      7634.5000         1.0272       1299.092       108.1512        82.9316       80.56686         0.7812          85.97      -2.495824              1      0.9584029
      7635.0000         1.0188       1274.688       108.3157         81.946       79.27239         0.7952        86.1302      -2.324128       0.984519      0.9612646
      7635.5000         1.0103       1283.818       108.7659        82.3076       79.74731         0.7937        86.2905      -2.152326      0.9946237      0.9641279
      7636.0000         1.0036       1307.463       108.7865        82.6436        80.1886         0.7861        86.4507      -1.980631              1      0.9669895
      7636.5000         1.0074       1331.084       104.4979        81.5844       78.79748         0.7785        86.6013      -1.819271      0.9744144      0.9696788
      7637.0000         1.0151       1354.729       105.7222        80.5239       77.40465          0.771        86.4972      -1.932212      0.9447798      0.9677964
      7637.5000         1.0227       1376.488       108.3484        79.4231       75.95889         0.7638         85.644      -2.851876      0.9140188      0.9524688
      7638.0000         1.0355       1387.736       108.6754        78.1127       74.23785         0.7568        84.7908      -3.771532      0.8774012      0.9371411
      7638.5000         1.0538       1398.971       109.1506        76.8206       72.54086         0.7498        83.9105      -4.720379      0.8412948       0.921327
      7639.0000         1.0752       1410.207       110.9303        75.8018       71.20279         0.7427        82.9789      -5.724473      0.8128253      0.9045921
      7639.5000         1.0545       1421.453       104.9471        74.7831       69.86485         0.7357        81.7089      -7.092992      0.7843584      0.8817835
      7640.0000         1.0366       1432.689       100.5536        73.9979        68.8336         0.7286         82.019      -6.759863      0.7624169      0.8873356
      7640.5000         1.0216       1443.691        99.4734        75.8423       71.25597         0.7216        82.6957      -6.031934      0.8139569      0.8994678
      7641.0000         1.0066       1451.598         99.516        78.3505       74.55018         0.7143        83.3712      -5.305304      0.8840464      0.9115783
      7641.5000         0.9917       1459.516       103.3575        82.2954       79.73129         0.7069        84.0479      -4.577383      0.9942827      0.9237103
      7642.0000         0.9825       1467.422       106.3516        85.4583       83.88534         0.6995        84.7159      -3.858829              1      0.9356862
      7642.5000         0.9733       1475.342       107.3191        87.1169       86.06369         0.6921        85.2659      -3.267348              1      0.9455442
      7643.0000         0.9642       1483.248       108.3744         87.823       86.99107         0.6847        85.8033       -2.68944              1       0.955176
      7643.5000         0.9719       1491.166       110.8685        88.4121       87.76478         0.6773        84.1925       -4.42498              1      0.9262503
      7644.0000         1.0036       1499.072       111.9805        86.7135       85.53389         0.6699        82.6663      -6.069409              1      0.8988432
      7644.5000         1.0301       1510.602       113.4973        83.9969       81.96598         0.6621        81.7137      -7.096106              1      0.8817316
      7645.0000         0.9358       1523.023       111.0833        79.3287       75.83491         0.6532        80.9714      -7.896338       0.911381      0.8683944
      7645.5000         0.9131       1535.445       103.2489        77.8037       73.83202         0.6442         81.509      -7.318208      0.8687665      0.8780299
      7646.0000          0.897       1547.879        99.9069         82.364       79.82137         0.6352         82.046      -6.740736      0.9961994      0.8876544
      7646.5000         0.9016       1560.303       100.2179        82.9702       80.61755         0.6262        82.5112      -6.240578              1      0.8959904
      7647.0000         0.9032       1572.736        104.957        83.5764       81.41371         0.6173        82.9397       -5.77995              1      0.9036675
      7647.5000         0.9048       1586.309       111.3745        83.5587       81.39046          0.609        83.3688      -5.318672              1      0.9113555
      7648.0000         0.9064       1599.967        115.847        83.1394       80.83977         0.6033        83.7979      -4.857394              1      0.9190434
      7648.5000          0.908        1613.65       117.1096        82.7208          80.29         0.5976        84.2268      -4.396329              1      0.9267278
      7649.0000         0.9096       1627.309       115.5386        82.7698       80.35435         0.5919        84.6553      -3.935692              1      0.9344051
      7649.5000         0.9054       1640.967        115.499        83.6096       81.45731         0.5863        84.8771      -3.697659              1      0.9383724
      7650.0000         0.9003        1650.27       117.3046        84.4751       82.59402         0.5806        85.0375       -3.52575              1      0.9412375
      7650.5000         0.9085       1658.615       115.7817        85.6396       84.12346         0.5749        85.1978      -3.353948              1      0.9441009
      7651.0000         0.9172       1660.293       116.4766        86.8031       85.65157          0.572        85.3582      -3.182039              1      0.9469661
