#------------------------------------------------------------------------------
# Created by    : vladimir.rabinovich
# Created on    : 09/19/2023 17:21:24
#------------------------------------------------------------------------------
~Version Information Section
VERS.           2.0     :   CWLS log ASCII Standard - VERSION 2.0
WRAP.           NO      :   One line per depth step
~Well Information Section
#MNEM       .UNIT                                         VALUE :DESCRIPTION
#------------------------------------------------------------------------------
STRT        .FT                                             682 :START DEPTH
STOP        .FT                                            8542 :STOP DEPTH
STEP        .FT                                             0.5 :STEP      
NULL        .                                           -999.25 :NULL      
COMP        .                       CORPUS CHRISTI OIL & GAS CO :COMPANY   
WELL        .                               OCS G08551 ST00BP00 :WELL      
FLD         .                                           WILDCAT :FIELD     
LOC         .                                                   :LOCATION  
CNTY        .                             GALVESTON LARGE BLOCK :LOCATION  
STAT        .                                             TEXAS :STATE     
CTRY        .                                     UNITED STATES :COUNTRY   
SRVC        .                                                   :SERVICE COMPANY
DATE        .                             9/13/2023 11:19:36 AM :LOG DATE  
API         .                                    42706401950000 :API NUMBER
UWI         .                                    42706401950000 :UNIQUE WELL ID
XCOORD      .                                   976199.22633255 :SURFACE X 
YCOORD      .                                  10415950.2633902 :SURFACE Y 
LAT         .                                         28.686063 :LATITUDE  
LON         .                                        -95.072067 :LONGITUDE 
ELEV        .FT                                              81 :ELEVATION VALUE
ELEV_TYPE   .                                                KB :ELEVATION REFERENCE TYPE
~Curve Information Section
#MNEM       .UNIT                                      API CODE :CURVE DESCRIPTION
#------------------------------------------------------------------------------
DEPT        .FT                                                 :DEPTH     
CALI        .IN                                                 :          
DPHI        .%                                                  :          
DRHO        .G/C3                                               :          
DT          .US/F                                               :          
GR          .GAPI                                               :          
GR_1        .GAPI                                               :          
GR_NORM     .GAPI                                               :GammaRay Normalized
ILD         .OHMM                                               :          
ILM         .OHMM                                               :          
NPHI        .%                                                  :          
SFL         .OHMM                                               :          
SP_NORM     .MV                                                 :SP Normalized
SPS         .MV                                                 :          
VSH_GR      .V/V                                                :Volume of Shale from GR
VSH_SP      .V/V                                                :Volume of Shale from SP
~A        DEPTH           CALI           DPHI           DRHO             DT             GR           GR_1        GR_NORM            ILD            ILM           NPHI            SFL        SP_NORM            SPS         VSH_GR         VSH_SP
# ...
      2722.0000        -999.25        -999.25        -999.25        144.187        92.7834        -999.25       93.82407         0.9816         0.9714        -999.25         0.8883      -4.377174       -79.9644              1      0.9650416
      2722.5000        -999.25        -999.25        -999.25       144.3074        92.3546        -999.25       93.28807         0.9723         0.9675        -999.25         0.8901      -4.393402       -79.9769              1      0.9648029
      2723.0000        -999.25        -999.25        -999.25        144.437        91.3894        -999.25       92.08157         0.9615         0.9614        -999.25         0.8937      -4.569725       -80.1495              1      0.9622099
      2723.5000        -999.25        -999.25        -999.25       144.5767        92.1978        -999.25       93.09207          0.949         0.9533        -999.25         0.8972      -4.949249       -80.5253              1      0.9566287
      2724.0000        -999.25        -999.25        -999.25       144.9424        93.9121        -999.25       95.23495         0.9367         0.9445        -999.25          0.906      -4.427673            -80              1      0.9642989
      2724.5000        -999.25        -999.25        -999.25       145.4272        95.5023        -999.25       97.22269         0.9259         0.9295        -999.25         0.9115      -3.453003       -79.0216              1      0.9786323
      2725.0000        -999.25        -999.25        -999.25       146.0796        96.4338        -999.25       98.38707         0.9153         0.9148        -999.25         0.8966      -3.450424       -79.0153              1      0.9786702
      2725.5000        -999.25        -999.25        -999.25       146.6826        97.5143        -999.25       99.73769         0.9064         0.9047        -999.25         0.8637      -3.495453       -79.0566              1       0.978008
      2726.0000        -999.25        -999.25        -999.25       147.2144        95.6152        -999.25       97.36382          0.901         0.8951        -999.25          0.838      -3.545876       -79.1033              1      0.9772666
      2726.5000        -999.25        -999.25        -999.25        147.627        92.5801        -999.25       93.56995         0.8956         0.8875        -999.25         0.8449      -3.639008       -79.1927              1       0.975897
      2727.0000        -999.25        -999.25        -999.25        147.606        91.1285        -999.25       91.75545         0.8898          0.881        -999.25          0.862      -3.252129       -78.8021              1      0.9815863
      2727.5000        -999.25        -999.25        -999.25       147.6372        91.6396        -999.25       92.39433         0.8836         0.8756        -999.25         0.8757      -3.191551       -78.7378              1      0.9824772
      2728.0000        -999.25        -999.25        -999.25       147.7754        93.1293        -999.25       94.25645         0.8776         0.8722        -999.25         0.8804      -2.031471        -77.574              1      0.9995372
      2728.5000        -999.25        -999.25        -999.25       148.2561        94.0948        -999.25       95.46333         0.8728         0.8704        -999.25         0.8813      -1.838501       -77.3773              1              1
      2729.0000        -999.25        -999.25        -999.25       148.6045        92.4073        -999.25       93.35395         0.8679          0.871        -999.25         0.8793      -2.255226       -77.7903              1      0.9962467
      2729.5000        -999.25        -999.25        -999.25       148.8989        90.2114        -999.25       90.60907         0.8661         0.8712        -999.25         0.8758      -2.705551       -78.2369              1      0.9896243
      2730.0000        -999.25        -999.25        -999.25       149.3323        88.2629        -999.25       88.17345         0.8653         0.8703        -999.25         0.8711      -2.830376        -78.358              1      0.9877886
      2730.5000        -999.25        -999.25        -999.25       149.7815        87.3903        -999.25       87.08269         0.8611         0.8686        -999.25         0.8657      -2.843201       -78.3671              1         0.9876
      2731.0000        -999.25        -999.25        -999.25       150.4285        88.2308        -999.25       88.13332         0.8551         0.8645        -999.25         0.8573      -2.820526       -78.3407              1      0.9879335
      2731.5000        -999.25        -999.25        -999.25       151.0757        89.9102        -999.25       90.23257         0.8442         0.8563        -999.25         0.8464       -2.59565       -78.1121              1      0.9912404
      2732.0000        -999.25        -999.25        -999.25       151.3286        91.8574        -999.25       92.66656          0.832         0.8464        -999.25         0.8346      -2.302574       -77.8153              1      0.9955504
      2732.5000        -999.25        -999.25        -999.25       151.4858        93.3362        -999.25       94.51507         0.8224         0.8368        -999.25         0.8226      -2.229897       -77.7389              1      0.9966192
      2733.0000        -999.25        -999.25        -999.25       151.4058        92.4037        -999.25       93.34945         0.8174          0.828        -999.25         0.8155      -2.097832       -77.6031              1      0.9985613
      2733.5000        -999.25        -999.25        -999.25       151.3713        91.4777        -999.25       92.19194         0.8124         0.8208        -999.25         0.8112      -2.195953       -77.6975              1      0.9971184
      2734.0000        -999.25        -999.25        -999.25       151.3674        90.8425        -999.25       91.39794         0.8077         0.8138        -999.25         0.8117      -2.186974       -77.6848              1      0.9972504
      2734.5000        -999.25        -999.25        -999.25       151.5046        90.0031        -999.25       90.34869         0.8031          0.808        -999.25         0.8047      -2.132599       -77.6267              1        0.99805
      2735.0000        -999.25        -999.25        -999.25       151.6272        88.5856        -999.25       88.57682         0.7954         0.8023        -999.25          0.799      -2.166725       -77.6571              1      0.9975482
      2735.5000        -999.25        -999.25        -999.25       151.3774        86.8724        -999.25       86.43532         0.7877         0.7998        -999.25         0.7941      -2.053551       -77.5402              1      0.9992125
      2736.0000        -999.25        -999.25        -999.25       151.2073        86.4391        -999.25        85.8937         0.7848         0.7997        -999.25         0.7962      -1.852974       -77.3359              1              1
      2736.5000        -999.25        -999.25        -999.25       151.2368        87.2761        -999.25       86.93994         0.7841         0.8001        -999.25         0.7982      -2.266396       -77.7456              1      0.9960824
      2737.0000        -999.25        -999.25        -999.25       151.7656        88.3728        -999.25       88.31082          0.784         0.8034        -999.25            0.8       -2.91983       -78.3953              1      0.9864731
      2737.5000        -999.25        -999.25        -999.25       152.2815        88.2334        -999.25       88.13657         0.7866         0.8068        -999.25         0.8013      -2.847351       -78.3191              1      0.9875389
      2738.0000        -999.25        -999.25        -999.25       152.6355        87.1003        -999.25        86.7202         0.7892         0.8053        -999.25          0.802      -2.359077       -77.8271              1      0.9947194
      2738.5000        -999.25        -999.25        -999.25       152.6814        86.5341        -999.25       86.01245         0.7908         0.8036        -999.25         0.8001      -1.987701        -77.452              1              1
