#------------------------------------------------------------------------------
# Created by    : vladimir.rabinovich
# Created on    : 09/19/2023 17:20:24
#------------------------------------------------------------------------------
~Version Information Section
VERS.           2.0     :   CWLS log ASCII Standard - VERSION 2.0
WRAP.           NO      :   One line per depth step
~Well Information Section
#MNEM       .UNIT                                         VALUE :DESCRIPTION
#------------------------------------------------------------------------------
STRT        .FT                                            2979 :START DEPTH
STOP        .FT                                           11003 :STOP DEPTH
STEP        .FT                                             0.5 :STEP      
NULL        .                                           -999.25 :NULL      
COMP        .                                        TEXACO USA :COMPANY   
WELL        .                               OCS G01821 ST00BP00 :WELL      
FLD         .                                           WILDCAT :FIELD     
LOC         .                                                   :LOCATION  
CNTY        .                           HIGH ISLAND LARGE BLOCK :LOCATION  
STAT        .                                             TEXAS :STATE     
CTRY        .                                     UNITED STATES :COUNTRY   
SRVC        .                                                   :SERVICE COMPANY
DATE        .                             9/13/2023 11:19:15 AM :LOG DATE  
API         .                                    42708300170000 :API NUMBER
UWI         .                                    42708300170000 :UNIQUE WELL ID
XCOORD      .                                  1345073.13508324 :SURFACE X 
YCOORD      .                                  10640242.4404634 :SURFACE Y 
LAT         .                                         29.315788 :LATITUDE  
LON         .                                        -93.927032 :LONGITUDE 
ELEV        .FT                                              74 :ELEVATION VALUE
ELEV_TYPE   .                                                KB :ELEVATION REFERENCE TYPE
~Curve Information Section
#MNEM       .UNIT                                      API CODE :CURVE DESCRIPTION
#------------------------------------------------------------------------------
DEPT        .FT                                                 :DEPTH     
ASN         .OHMM                                               :          
CILD        .MMHO                                               :          
ILD         .OHMM                                               :          
SP          .MV                                                 :          
SP_NORM     .MV                                                 :SP Normalized
VSH_SP      .V/V                                                :Volume of Shale from SP
~A        DEPTH            ASN           CILD            ILD             SP        SP_NORM         VSH_SP
      2979.0000          0.669        26.0392         0.6278       -67.2942      -0.627533              1
      2979.5000         0.9221        26.2373         0.7056       -70.0615      -3.394836       0.949046
      2980.0000         0.9823        31.1178         0.7784       -71.3889      -4.722237      0.9208035
      2980.5000         1.0428        49.7797         0.8475       -71.1949      -4.528236      0.9249312
      2981.0000         1.1035         68.454         0.9166        -70.897      -4.230339      0.9312694
      2981.5000         1.1337       117.6898         0.9857       -70.3038      -3.637138      0.9438907
      2982.0000         1.1554       172.4629         1.0255       -69.7111      -3.044434      0.9565014
      2982.5000         1.1771       762.3672         1.0525       -69.1179      -2.451233      0.9691227
      2983.0000         1.1874       795.5283         1.0795       -68.5248      -1.858139      0.9817417
      2983.5000         1.1926       814.4531            1.1       -67.9316      -1.264938       0.994363
      2984.0000         1.1978       825.9404         1.0778        -67.481        -0.8694              1
      2984.5000          1.203       819.2061         1.0555       -67.0649     -0.5986633              1
      2985.0000         1.2082         823.54         1.0333       -66.6487     -0.3278275              1
      2985.5000         1.2134       839.3896         1.0111       -66.2327    -0.05718994              1
      2986.0000         1.1998       855.2451         0.9889       -65.7808      0.2493362              1
      2986.5000         1.1822       871.1006         0.9666       -66.4244     -0.5396271              1
      2987.0000         1.1646       886.9502         0.9444       -67.6833      -1.943886      0.9799173
      2987.5000         1.1469       941.2861         0.9222        -69.108      -3.513962      0.9465114
      2988.0000         1.1287       1003.559            0.9       -72.2552      -6.806526      0.8764569
      2988.5000         1.1098       1066.557         0.8777       -74.9033      -9.599991      0.8170215
      2989.0000         1.0909        1131.18         0.8555       -77.1779      -12.01996      0.7655328
      2989.5000          1.072       1195.803         0.8333       -80.3536      -15.34102       0.694872
      2990.0000         1.0537       1234.963         0.8111       -83.3158      -18.44859      0.6287534
      2990.5000         1.0485       1257.688         0.7888       -85.1085      -20.38665      0.5875181
      2991.0000         1.0432       1280.398         0.7681       -86.1893      -21.61282      0.5614293
      2991.5000          1.038       1287.527         0.7509        -86.525      -22.09389      0.5511939
      2992.0000         1.0328       1291.977         0.7337       -86.8606      -22.57486      0.5409604
      2992.5000         1.0276        1296.43         0.7165       -87.1401      -22.99972      0.5319209
      2993.0000         1.0223       1300.607         0.7161       -87.2845      -23.28949      0.5257556
      2993.5000         1.0171       1295.217         0.7194       -87.4288      -23.57915      0.5195925
      2994.0000         1.0119       1289.826         0.7227       -87.5732      -23.86892      0.5134273
      2994.5000         1.0066       1284.439         0.7261       -87.7177      -24.15878        0.50726
      2995.0000         1.0014       1279.049         0.7294       -87.8619      -24.44835      0.5010989
      2995.5000         0.9963       1270.023         0.7327       -88.0063      -24.73812      0.4949337
      2996.0000         0.9927       1260.668          0.736       -88.1508      -25.02798      0.4887663
      2996.5000         0.9891       1251.313         0.7395        -88.295      -25.31755      0.4826054
      2997.0000         0.9855       1241.963         0.7434       -88.4395      -25.60741       0.476438
      2997.5000         0.9819       1232.607         0.7472       -88.4165      -25.72978      0.4738345
      2998.0000         0.9783       1223.258         0.7511       -88.1957      -25.65435      0.4754394
      2998.5000         0.9716         1213.9         0.7549        -87.975      -25.57901      0.4770423
      2999.0000         0.9625       1207.781         0.7588       -87.7543      -25.50368      0.4786451
      2999.5000         0.9535       1209.148         0.7626       -87.5336      -25.42834       0.480248
      3000.0000         0.9445       1217.439         0.7665        -87.313      -25.35312      0.4818486
      3000.5000         0.9355       1225.729         0.7703       -86.6558      -24.84128      0.4927388
      3001.0000         0.9241       1234.021         0.7631       -85.8668      -24.19764      0.5064331
      3001.5000         0.9113       1242.313         0.7548       -85.0781      -23.55431       0.520121
      3002.0000         0.8986       1219.926         0.7465       -84.2892      -22.91077      0.5338133
      3002.5000         0.8858       1196.914         0.7382       -83.5002      -22.26714      0.5475076
      3003.0000         0.8731       1181.391         0.7299       -82.7115      -21.62381      0.5611956
      3003.5000         0.8606       1167.072         0.7216       -81.5355      -20.59317       0.583124
      3004.0000         0.8489       1152.754         0.7133       -80.1879      -19.39094      0.6087034
      3004.5000         0.8372        1159.27          0.705       -78.8402      -18.18861       0.634285
      3005.0000         0.8255       1166.791         0.6967       -77.4926      -16.98637      0.6598645
      3005.5000         0.8138       1174.309         0.6884       -74.9766      -14.61574      0.7103034
      3006.0000         0.8021       1181.828         0.6808       -72.1273       -11.9118       0.767834
      3006.5000         0.7904       1192.045         0.6732       -69.2024      -9.132271       0.826973
      3007.0000         0.7786       1202.645         0.6656       -65.7162      -5.791439      0.8980545
      3007.5000         0.7701       1213.238         0.6579       -62.9961      -3.216705       0.952836
      3008.0000         0.7622       1223.832         0.6503       -60.8073      -1.173267      0.9963135
      3008.5000         0.7543       1234.426         0.6427       -59.9724     -0.4837341              1
      3009.0000         0.7463        1247.85          0.635       -59.6294     -0.3190536              1
      3009.5000         0.7434       1268.787         0.6274        -60.361      -1.290627      0.9938164
      3010.0000         0.7441       1289.711         0.6198       -61.0925      -2.262096      0.9731469
      3010.5000         0.7448       1310.648         0.6132       -61.8244      -3.233967      0.9524688
      3011.0000         0.7455       1331.584         0.6083       -62.7863      -4.435837      0.9268971
      3011.5000         0.7468       1364.121         0.6035       -63.7832      -5.672703      0.9005808
      3012.0000         0.7509       1400.369         0.5986         -64.78      -6.909473      0.8742665
      3012.5000         0.7549       1436.256         0.5937       -65.9695       -8.33894      0.8438523
      3013.0000         0.7589       1463.555         0.5889       -68.6772      -11.28661      0.7811359
      3013.5000          0.763       1490.854          0.584        -71.884      -14.73338      0.7078003
      3014.0000          0.767       1516.672         0.5792       -74.6426      -17.73195       0.644001
      3014.5000         0.7711       1524.932         0.5743         -76.95      -20.27932      0.5898017
      3015.0000         0.7751       1533.189         0.5694       -78.2225      -21.79179      0.5576214
      3015.5000         0.7779       1532.033         0.5646       -79.4951      -23.30436      0.5254391
      3016.0000         0.7796       1530.268         0.5597       -80.9166      -24.96583      0.4900887
      3016.5000         0.7814       1528.502         0.5549       -82.3387       -26.6279      0.4547256
