#------------------------------------------------------------------------------
# Created by    : vladimir.rabinovich
# Created on    : 09/19/2023 17:22:10
#------------------------------------------------------------------------------
~Version Information Section
VERS.           2.0     :   CWLS log ASCII Standard - VERSION 2.0
WRAP.           NO      :   One line per depth step
~Well Information Section
#MNEM       .UNIT                                         VALUE :DESCRIPTION
#------------------------------------------------------------------------------
STRT        .FT                                            1000 :START DEPTH
STOP        .FT                                            7796 :STOP DEPTH
STEP        .FT                                             0.5 :STEP      
NULL        .                                           -999.25 :NULL      
COMP        .                                SHELL OFFSHORE INC :COMPANY   
WELL        .                               OCS G06060 ST00BP00 :WELL      
FLD         .                                           WILDCAT :FIELD     
LOC         .                                                   :LOCATION  
CNTY        .                                BRAZOS LARGE BLOCK :LOCATION  
STAT        .                                             TEXAS :STATE     
CTRY        .                                     UNITED STATES :COUNTRY   
SRVC        .                                                   :SERVICE COMPANY
DATE        .                             9/13/2023 11:19:08 AM :LOG DATE  
API         .                                    42704401260000 :API NUMBER
UWI         .                                    42704401260000 :UNIQUE WELL ID
XCOORD      .                                   881020.58603234 :SURFACE X 
YCOORD      .                                   10392321.681828 :SURFACE Y 
LAT         .                                         28.616238 :LATITUDE  
LON         .                                        -95.367327 :LONGITUDE 
ELEV        .FT                                              90 :ELEVATION VALUE
ELEV_TYPE   .                                                KB :ELEVATION REFERENCE TYPE
~Curve Information Section
#MNEM       .UNIT                                      API CODE :CURVE DESCRIPTION
#------------------------------------------------------------------------------
DEPT        .FT                                                 :DEPTH     
CALI        .IN                                                 :          
CILD        .MMHO                                               :          
DPHI        .%                                                  :          
DT          .US/F                                               :          
GR          .GAPI                                               :          
GR_NORM     .GAPI                                               :GammaRay Normalized
ILD         .OHMM                                               :          
ILM         .OHMM                                               :          
SFL         .OHMM                                               :          
SP          .MV                                                 :          
SP_NORM     .MV                                                 :SP Normalized
VSH_GR      .V/V                                                :Volume of Shale from GR
VSH_SP      .V/V                                                :Volume of Shale from SP
~A        DEPTH           CALI           CILD           DPHI             DT             GR        GR_NORM            ILD            ILM            SFL             SP        SP_NORM         VSH_GR         VSH_SP
# ...
      6434.0000         11.344       998.6895        23.6176       111.1987        64.1693        80.3541         1.0021         0.9858          1.179       -55.3826     -0.7963104              1              1
      6434.5000        11.3572       999.5596        23.5933       111.2404        67.0797       85.13305         0.9991         0.9848         1.2064       -55.6084      -1.027805              1      0.9995287
      6435.0000         11.377       1008.557        23.8158       111.1844        68.5374       87.52885         0.9912         0.9864          1.203       -55.7482      -1.173302              1      0.9970627
      6435.5000        11.3995       1022.312        24.0483       111.1316        67.0479       85.08974         0.9776         0.9915         1.1623         -55.79      -1.220798              1      0.9962577
      6436.0000        11.3895       1032.643        23.9343       111.1145        63.6467       79.51452         0.9617         0.9942         1.0979       -55.6987      -1.135197      0.9896706      0.9977086
      6436.5000        11.3292       1042.047        23.3737        111.156        62.6037       77.80791         0.9517         0.9926         1.0437       -55.6358      -1.077991      0.9533597      0.9986781
      6437.0000        11.3188       1051.229         22.808       111.5599        64.1545       80.35645         0.9462         0.9909         1.0149       -55.5746      -1.022488              1      0.9996188
      6437.5000        11.5892       1060.324        22.4511       111.8561         65.762       82.99799         0.9442         0.9885         1.0245       -55.5225     -0.9760818              1              1
      6438.0000        12.2263        1062.73         22.557       111.9727        65.7454       82.97519         0.9417         0.9855         1.0562       -55.4707     -0.9299774              1              1
      6438.5000        12.3582       1061.297        22.8625       111.3361        65.5621       82.67894         0.9387         0.9825         1.0664       -55.5005     -0.9654732              1              1
      6439.0000        12.1855       1059.865        23.0807       110.6949        65.8086       83.08775         0.9473         0.9841         1.0703        -55.559      -1.029667              1      0.9994972
      6439.5000        12.0851       1050.982        22.9875       110.7422        67.8257       86.40125         0.9583         0.9861         1.0981       -55.6761      -1.152466              1      0.9974158
      6440.0000        12.1195       1041.156        22.9813       110.9442        67.2123       85.39941         0.9731         0.9935         1.1557       -55.8047      -1.286758              1      0.9951397
      6440.5000        11.9559       1031.332        23.2949       110.9557        65.0699       81.88922         0.9827         1.0059         1.2163       -55.7176      -1.205357              1      0.9965194
      6441.0000        11.7203       1023.108        23.5901       110.6923        64.0466       80.21494         0.9888         1.0076         1.2037       -55.4261     -0.9195518              1              1
      6441.5000         11.525       1015.014        23.7227        110.116        64.0697       80.25729         0.9936         1.0043         1.1078       -55.1683     -0.6674461              1              1
      6442.0000        11.3825       1011.481        23.0524       110.6873         64.288       80.61983         0.9975         0.9983         1.0514       -54.9664      -0.471241              1              1
      6442.5000        11.3411       1010.572        21.8225       111.7246        64.3254       80.68564         1.0015         0.9983         1.0085        -54.994     -0.5045395              1              1
      6443.0000        11.3469       1009.664         21.031       112.7446        64.3074       80.66055         1.0055         1.0009         1.0219       -54.9711     -0.4873352              1              1
      6443.5000        11.3424       1005.769         21.362       113.0659        64.4139       80.83969         1.0109         1.0182         1.1142       -54.8732     -0.3951302              1              1
      6444.0000        11.3018       1001.769         22.015       111.9639        64.5098       81.00145         1.0166         1.0373         1.2031       -54.7708     -0.2984276              1              1
      6444.5000         11.247        998.749        22.5652       109.4379        64.6797       81.28461         1.0188         1.0373         1.2372       -54.6044      -0.137722              1              1
      6445.0000        11.1844       997.4297        22.9702       107.5482        64.9788       81.77971         1.0195         1.0288         1.2303       -54.4377     0.02328491              1              1
      6445.5000        11.0774       997.1133        23.2357       106.7759         65.322       82.34718          1.017         1.0211         1.1912       -54.3806     0.07468796              1              1
      6446.0000        10.9439       1000.812        23.3991       107.8566        64.7251       81.37241         1.0117         1.0176         1.1186       -54.3834     0.06619263              1              1
      6446.5000        10.8771        1004.51        23.5373        109.407        63.9847       80.16221         1.0066          1.014           1.05       -54.4421    0.001796722              1              1
      6447.0000        10.8874       1006.202        23.4826       111.7913        63.2914       79.02927          1.002         1.0105         1.0136       -54.6479     -0.2096977      0.9793461              1
      6447.5000        10.9268       1007.816        23.3508        113.757        64.2086       80.53839         0.9977         1.0072         1.0086       -54.8539     -0.4213943              1              1
      6448.0000        10.9242       1010.568        23.6481        113.743          65.53       82.71061         0.9938         1.0039          1.066       -54.9113     -0.4844894              1              1
      6448.5000        10.8947       1013.487         24.249       111.7616        66.0392       83.55038         0.9918         1.0006         1.1335       -54.8859     -0.4647827              1              1
      6449.0000        10.8545       1016.309        24.7506       109.8054         65.996       83.48396         0.9919         1.0017         1.1274       -54.7359     -0.3204842              1              1
      6449.5000        10.8255       1009.842        25.1745       108.6385        66.2678       83.93427          0.992         1.0032         1.1278       -54.4174   -0.007678986              1              1
      6450.0000        10.8377       999.5479        25.5336       108.7175        66.6527       84.57014         0.9911         1.0083         1.1376       -54.1055      0.2985268              1              1
      6450.5000        10.9542       1003.509        25.7499       110.6167        68.0331       86.83912         0.9855         1.0146         1.1333       -53.9036      0.4947319              1              1
      6451.0000        11.0708       1019.864        25.7378       111.0073        69.5459       89.32533         0.9754          1.016         1.1124       -54.1194      0.2732353              1              1
      6451.5000        11.1484        1040.23        25.6551       111.5175        71.1576       91.97375         0.9642         1.0157         1.0686       -54.1913      0.1956406              1              1
      6452.0000        10.9809       1053.096        25.6342       112.6743         71.422       92.41193         0.9538         1.0163         1.0154       -54.0856      0.2956429              1              1
      6452.5000        10.8444       1065.305         25.842       114.2902        69.2539       88.85963         0.9468         1.0179         1.0064       -53.6942      0.6813507              1              1
