#------------------------------------------------------------------------------
# Created by    : vladimir.rabinovich
# Created on    : 09/19/2023 17:22:54
#------------------------------------------------------------------------------
~Version Information Section
VERS.           2.0     :   CWLS log ASCII Standard - VERSION 2.0
WRAP.           NO      :   One line per depth step
~Well Information Section
#MNEM       .UNIT                                         VALUE :DESCRIPTION
#------------------------------------------------------------------------------
STRT        .FT                                            1705 :START DEPTH
STOP        .FT                                           10298 :STOP DEPTH
STEP        .FT                                             0.5 :STEP      
NULL        .                                           -999.25 :NULL      
COMP        .                            STANOLIND OIL & GAS CO :COMPANY   
WELL        .                                       ST TR 00219 :WELL      
FLD         .                                           WILDCAT :FIELD     
LOC         .                                                   :LOCATION  
CNTY        .                             GALVESTON LARGE BLOCK :LOCATION  
STAT        .                                             TEXAS :STATE     
CTRY        .                                     UNITED STATES :COUNTRY   
SRVC        .                                                   :SERVICE COMPANY
DATE        .                             9/13/2023 11:19:42 AM :LOG DATE  
API         .                                    42706000170000 :API NUMBER
UWI         .                                    42706000170000 :UNIQUE WELL ID
XCOORD      .                                  1024804.26554262 :SURFACE X 
YCOORD      .                                  10549089.4715911 :SURFACE Y 
LAT         .                                        29.0543948 :LATITUDE  
LON         .                                       -94.9272588 :LONGITUDE 
ELEV        .FT                                              60 :ELEVATION VALUE
ELEV_TYPE   .                                                GL :ELEVATION REFERENCE TYPE
~Curve Information Section
#MNEM       .UNIT                                      API CODE :CURVE DESCRIPTION
#------------------------------------------------------------------------------
DEPT        .FT                                                 :DEPTH     
LAT         .OHMM                                               :          
LN          .OHMM                                               :          
SN          .OHMM                                               :          
SP          .MV                                                 :          
SP_NORM     .MV                                                 :SP Normalized
VSH_SP      .V/V                                                :Volume of Shale from SP
~A        DEPTH            LAT             LN             SN             SP        SP_NORM         VSH_SP
# ...
      2275.0000         0.7092           0.52         0.7445       -95.9395     -0.8836746              1
      2275.5000         0.7264         0.5235         0.7458       -96.6448      -1.582092              1
      2276.0000         0.7427         0.5269         0.7482       -97.3501       -2.28051      0.9958749
      2276.5000         0.7591         0.5304         0.7506       -97.8038      -2.727325      0.9893041
      2277.0000         0.7596         0.5338          0.753       -98.1837      -3.100342      0.9838185
      2277.5000         0.7468         0.5373         0.7554       -98.5634       -3.47316      0.9783359
      2278.0000         0.7356         0.5408         0.7547       -98.5956      -3.498474      0.9779636
      2278.5000         0.7334         0.5439         0.7528       -98.3899      -3.285896      0.9810898
      2279.0000         0.7313         0.5464         0.7508       -97.7153      -2.604408      0.9911116
      2279.5000         0.7291         0.5489         0.7489       -96.7095      -1.591728              1
      2280.0000         0.7269         0.5515          0.747       -95.7037      -0.581749              1
      2280.5000           0.72          0.554         0.7473       -94.6976      0.4243469              1
      2281.0000         0.7113         0.5565         0.7496       -94.7361       0.385849              1
      2281.5000         0.7026         0.5591         0.7519       -95.1899    -0.06795502              1
      2282.0000         0.6938         0.5598         0.7485       -95.7778     -0.6558533              1
      2282.5000         0.6841         0.5535         0.7447       -96.4147      -1.292755              1
      2283.0000         0.6744         0.5471         0.7405       -96.7885       -1.66655              1
      2283.5000         0.6647         0.5407         0.7361       -95.7858     -0.6638489              1
      2284.0000          0.655         0.5343         0.7317       -94.7832      0.3387451              1
      2284.5000         0.6453         0.5272         0.7273       -94.2217      0.9002457              1
      2285.0000         0.6171         0.5172           0.74       -93.8356       1.286346              1
      2285.5000         0.5884         0.5072         0.7541       -93.4493       1.672646              1
      2286.0000         0.5879         0.4972         0.7681       -93.0631       2.058846              1
      2286.5000         0.5874         0.4872         0.7808       -93.6665       1.455452              1
      2287.0000         0.5869         0.4772         0.7934       -97.0425      -1.920555              1
      2287.5000         0.5806         0.4673         0.8061      -100.9756      -5.853653      0.9433286
      2288.0000          0.574         0.4609         0.8187      -104.8823      -9.760353      0.8858771
      2288.5000         0.5731         0.4546         0.8313       -108.682      -13.56005      0.8299993
      2289.0000         0.5771         0.4483         0.8691      -112.4805      -17.35855      0.7741389
      2289.5000         0.5812         0.4443         0.9106      -116.1627      -21.04075       0.719989
      2290.0000         0.5781          0.448         0.9603      -119.7125      -24.59055       0.667786
      2290.5000         0.5591         0.4518         1.0208      -122.7322      -27.61025      0.6233786
      2291.0000          0.534         0.4555         1.0813      -125.6058      -30.48385      0.5811199
      2291.5000          0.496         0.4592         1.1418      -127.3625      -32.24055      0.5552859
      2292.0000          0.458          0.463         1.2024      -127.0034      -31.88145      0.5605668
      2292.5000         0.4342         0.4667         1.2405      -125.1349      -30.01295      0.5880448
      2293.0000         0.4208         0.4705         1.2568      -123.2671      -28.14515      0.6155125
      2293.5000         0.4075         0.4742         1.2731      -121.3815      -26.25955      0.6432419
      2294.0000         0.3942         0.4766         1.2709      -119.4958      -24.37385      0.6709728
      2294.5000         0.3808         0.4782         1.2655      -118.8214      -23.69946      0.6808904
      2295.0000         0.4192         0.4798         1.2516      -120.9921      -25.87016      0.6489683
      2295.5000         0.4561         0.4814         1.2377      -124.0186      -28.89665       0.604461
      2296.0000         0.4785         0.4829         1.2358      -127.0107      -31.88875      0.5604596
      2296.5000         0.5008         0.4845         1.2353      -129.6699      -34.54796      0.5213535
      2297.0000         0.4901         0.4861         1.2728      -132.3293      -37.20735      0.4822448
      2297.5000         0.4748         0.4875         1.3375      -132.1685      -37.04655      0.4846095
      2298.0000         0.4639         0.4887          1.368      -130.2249      -35.10295      0.5131919
      2298.5000         0.4536         0.4899          1.336      -127.0062      -31.88425      0.5605257
      2299.0000         0.4433         0.4912         1.2918      -123.3491      -28.22715      0.6143066
      2299.5000         0.4509         0.4924         1.2477      -119.5723      -24.45036      0.6698477
      2300.0000         0.4607         0.4936         1.2035      -117.1206      -21.99865      0.7059022
      2300.5000         0.4706         0.4948         1.1442      -116.8344      -21.71245      0.7101111
      2301.0000         0.4804         0.4961         1.0846      -118.3755      -23.25356      0.6874477
      2301.5000         0.4903         0.4935         1.0448      -119.4095      -24.28755      0.6722419
      2302.0000         0.5001         0.4873         1.0697      -118.9454      -23.82345       0.679067
      2302.5000         0.5099         0.4812         1.0855      -118.4106      -23.28865      0.6869316
      2303.0000         0.5198         0.4751         1.0992      -117.5653      -22.44335      0.6993625
      2303.5000         0.5296          0.469         1.0835      -115.9198      -20.79785       0.723561
      2304.0000         0.5394         0.4628         1.0591       -112.533      -17.41105      0.7733669
      2304.5000         0.5493         0.4567         1.0347      -109.2841      -14.16216      0.8211448
      2305.0000         0.5591         0.4529         0.9996      -105.5244      -10.40245      0.8764346
      2305.5000         0.5689         0.4501         0.9643      -101.6688      -6.546852      0.9331346
      2306.0000         0.5788         0.4474          0.929       -98.9423      -3.820351      0.9732301
      2306.5000         0.5933         0.4447         0.8937       -96.6191      -1.497154              1
      2307.0000         0.6194         0.4419         0.8584       -95.8536     -0.7316513              1
      2307.5000         0.6455         0.4392         0.8232       -95.0879     0.03404999              1
      2308.0000         0.6715         0.4365         0.7924       -94.7931      0.3288498              1
      2308.5000         0.6976         0.4342         0.7616       -95.1749      -0.052948              1
      2309.0000         0.7237         0.4334         0.7307       -96.0618     -0.9398499              1
      2309.5000         0.7498         0.4326         0.6999       -96.7821      -1.660149              1
      2310.0000         0.7759         0.4318          0.669       -97.2526      -2.130653      0.9980786
      2310.5000         0.7997         0.4311         0.6527        -96.715      -1.593048              1
      2311.0000         0.7953         0.4303         0.6435        -95.932      -0.810051              1
      2311.5000         0.7908         0.4295         0.6352       -95.1492     -0.0272522              1
      2312.0000          0.786         0.4288         0.6404       -94.4884      0.6335449              1
      2312.5000         0.7762          0.428         0.6457       -93.9476       1.174347              1
