#------------------------------------------------------------------------------
# Created by    : vladimir.rabinovich
# Created on    : 09/19/2023 17:22:30
#------------------------------------------------------------------------------
~Version Information Section
VERS.           2.0     :   CWLS log ASCII Standard - VERSION 2.0
WRAP.           NO      :   One line per depth step
~Well Information Section
#MNEM       .UNIT                                         VALUE :DESCRIPTION
#------------------------------------------------------------------------------
STRT        .FT                                            1687 :START DEPTH
STOP        .FT                                            6155 :STOP DEPTH
STEP        .FT                                             0.5 :STEP      
NULL        .                                           -999.25 :NULL      
COMP        .                       AMERICAN COASTAL ENERGY INC :COMPANY   
WELL        .                                ST TR 00596-L NE/4 :WELL      
FLD         .                        SHERMAN OFFSHORE SOUTHWEST :FIELD     
LOC         .                                                   :LOCATION  
CNTY        .                      MATAGORDA ISLAND LARGE BLOCK :LOCATION  
STAT        .                                             TEXAS :STATE     
CTRY        .                                     UNITED STATES :COUNTRY   
SRVC        .                                                   :SERVICE COMPANY
DATE        .                             9/13/2023 11:12:01 AM :LOG DATE  
API         .                                    42703302820000 :API NUMBER
UWI         .                                    42703302820000 :UNIQUE WELL ID
XCOORD      .                                  484247.709270029 :SURFACE X 
YCOORD      .                                   10242127.767654 :SURFACE Y 
LAT         .                                        28.1765839 :LATITUDE  
LON         .                                       -96.5886238 :LONGITUDE 
ELEV        .FT                                              79 :ELEVATION VALUE
ELEV_TYPE   .                                                KB :ELEVATION REFERENCE TYPE
~Curve Information Section
#MNEM       .UNIT                                      API CODE :CURVE DESCRIPTION
#------------------------------------------------------------------------------
DEPT        .FT                                                 :DEPTH     
CILD        .MMHO                                               :          
DT          .US/F                                               :          
ILD         .OHMM                                               :          
SN          .OHMM                                               :          
SP          .MV                                                 :          
SP_NORM     .MV                                                 :SP Normalized
VSH_SP      .V/V                                                :Volume of Shale from SP
~A        DEPTH           CILD             DT            ILD             SN             SP        SP_NORM         VSH_SP
# ...
      2290.0000       2426.794       131.5357         0.4068         1.0628        -85.454       -47.7896      0.1217725
      2290.5000       2466.567       131.9319         0.3976         1.0677       -86.7423       -49.0819      0.0964333
      2291.0000       2514.316       131.9292         0.3922         1.0678       -87.8321       -50.1757     0.07498625
      2291.5000       2578.016       131.8561         0.3868         1.0485       -88.6239       -50.9715     0.05938235
      2292.0000       2649.692       132.2238         0.3781         1.0108       -89.1178       -51.4695     0.04961762
      2292.5000       2721.369       132.9191         0.3662         0.9834       -89.2145       -51.5702      0.0476431
      2293.0000       2793.047       133.9133         0.3546          0.948       -89.4105       -51.7702     0.04372159
      2293.5000        2856.75       135.1071          0.345         0.9481       -89.6065       -51.9703     0.03979806
      2294.0000       2920.453        135.404         0.3341         0.9482       -89.9018       -52.2696     0.03392942
      2294.5000       2960.231       134.3049         0.3297         0.9439       -89.8992        -52.271     0.03390196
      2295.0000       2976.083       133.0063         0.3267         0.9397       -89.5987       -51.9746     0.03971369
      2295.5000       2968.007       131.8072         0.3252         0.9312       -89.2982       -51.6781     0.04552744
      2296.0000       2896.126       131.3063         0.3367         0.9227       -88.2029       -50.5868      0.0669255
      2296.5000       2816.269       131.9019         0.3469         0.9186       -86.2142       -48.6022      0.1058392
      2297.0000        2664.63       132.6969         0.3683         0.9229        -83.729        -46.121      0.1544902
      2297.5000       2489.061       133.4928         0.3946         0.9104       -80.4493       -42.8453      0.2187196
      2298.0000       2249.685       134.3871         0.4266         0.9021       -77.1697       -39.5698      0.2829451
      2298.5000       2113.992       134.0852         0.4697         0.9022       -73.8895       -36.2936      0.3471844
      2299.0000       1998.195       132.8863         0.4986          0.919       -75.8735       -38.2816      0.3082039
      2299.5000       1998.122       132.0862         0.5102         0.9847        -80.141       -42.5532      0.2244471
      2300.0000       2009.991       131.0867         0.4964         0.9938       -83.2168        -45.633      0.1640588
      2300.5000        2165.45       132.1946         0.4663         0.9983       -85.4007       -47.8209      0.1211588
      2301.0000       2328.924       133.2911         0.4386         0.9894       -87.4853       -49.9096     0.08020394
      2301.5000        2536.25       134.2732         0.3966         0.9895       -88.5769       -51.0052     0.05872158
      2302.0000        2743.56       134.6707         0.3652         0.9941       -89.2712       -51.7035     0.04502944
      2302.5000       2895.066        134.869         0.3425         0.9851       -89.6676        -52.104     0.03717647
      2303.0000       2998.702       135.3662         0.3271         0.9584       -90.1634       -52.6038     0.02737644
      2303.5000       3030.554       135.7637         0.3241         0.9497       -90.8577       -53.3021     0.01368429
      2304.0000       3046.455       136.0614         0.3203          0.924       -90.6583       -53.1068     0.01751372
      2304.5000       3046.403       136.0601         0.3198         0.9198       -90.8562       -53.3087     0.01355489
      2305.0000       3054.328       136.2582         0.3198         0.9456       -90.4581       -52.9146     0.02128235
      2305.5000       3046.301       136.0575         0.3198         0.9632        -90.358       -52.8185     0.02316666
      2306.0000       3022.323       135.6575         0.3241         0.9721       -90.1586       -52.6232     0.02699609
      2306.5000       2974.417       136.2536         0.3288         0.9812        -89.264       -51.7326      0.0444588
      2307.0000       2910.562       137.0506         0.3349         0.9459       -87.4756       -49.9482     0.07944705
      2307.5000       2822.779       138.2457         0.3523         0.9118         -85.29       -47.7667      0.1222216
      2308.0000       2719.047       139.2416         0.3639         0.8871       -83.2036       -45.6843      0.1630529
      2308.5000       2599.364       141.2339         0.3792         0.8473       -79.6275       -42.1122      0.2330941
      2309.0000       2487.657       141.6488         0.4025         0.8093       -76.6472        -39.136      0.2914509
      2309.5000       2383.927       142.0289         0.4165          0.791        -73.369       -35.8618       0.355651
      2310.0000       2292.141       142.4263         0.4292         0.7731       -69.6935       -32.1903      0.4276412
      2310.5000       2280.144       142.6244         0.4352         0.7591       -68.8981        -31.399      0.4431569
      2311.0000       2327.948       143.2215         0.4234          0.784        -68.401       -30.9059      0.4528255
      2311.5000        2455.51       143.2203         0.4026         0.7986        -72.273       -34.7819      0.3768255
      2312.0000       2567.115       142.0224         0.3863         0.8172         -76.94        -39.453      0.2852353
      2312.5000       2750.498       140.8248          0.364         0.8836       -81.8057       -44.3227       0.189751
      2313.0000       2878.052       139.9266         0.3477         0.9084       -84.7844       -47.3054      0.1312667
      2313.5000       2973.704       138.5295         0.3277         0.9295       -86.5713       -49.0964       0.096149
      2314.0000       3029.479       138.7631         0.3188         0.9468        -87.365       -49.8941     0.08050784
      2314.5000       3077.279       138.9258          0.313         0.9645       -88.0595       -50.5926     0.06681173
      2315.0000       3101.169       139.3231         0.3087         0.9601       -88.4559       -50.9931     0.05895884
      2315.5000       3132.997       139.5207         0.3073         0.9558       -89.1504       -51.6916     0.04526273
      2316.0000       3160.858       139.5199         0.3074         0.9471       -89.2489       -51.7941     0.04325291
      2316.5000       3164.794       139.4189         0.3074         0.9342       -88.8508          -51.4     0.05098036
      2317.0000       3164.742       139.1186         0.3074           0.93       -87.9561       -50.5094     0.06844315
      2317.5000       3144.753       138.6188         0.3089         0.8924       -86.4655       -49.0228     0.09759215
      2318.0000       3092.865       137.9197         0.3132         0.8966       -84.5776       -47.1389      0.1345314
      2318.5000       3005.094        138.018         0.3234         0.8885       -80.7032       -43.2686      0.2104196
      2319.0000       2885.419       138.0167         0.3402         0.8644       -77.6233       -40.1927      0.2707314
      2319.5000       2701.947        137.816         0.3612         0.8448       -73.8481       -36.4215      0.3446764
      2320.0000        2558.35       136.8179         0.3852          0.841       -71.8608       -34.4383      0.3835627
      2320.5000       2151.575       134.4241         0.4606         0.8488         -68.88       -31.4615      0.4419314
      2321.0000       1864.435        132.928         0.5412         0.8888       -65.0054       -27.5909      0.5178255
      2321.5000        1617.17       129.6367         0.6043         0.9221       -59.7402       -22.3298      0.6209843
      2322.0000        1457.63       127.6418         0.6748          0.988       -54.8725       -17.4661       0.716351
      2322.5000       1258.217       125.2481         0.8609         1.0488        -49.309       -11.9066      0.8253608
      2323.0000       1106.654       122.6551         0.9525         1.1289       -46.7255        -9.3272      0.8759373
