#------------------------------------------------------------------------------
# Created by    : vladimir.rabinovich
# Created on    : 09/19/2023 17:22:34
#------------------------------------------------------------------------------
~Version Information Section
VERS.           2.0     :   CWLS log ASCII Standard - VERSION 2.0
WRAP.           NO      :   One line per depth step
~Well Information Section
#MNEM       .UNIT                                         VALUE :DESCRIPTION
#------------------------------------------------------------------------------
STRT        .FT                                            2432 :START DEPTH
STOP        .FT                                            8088 :STOP DEPTH
STEP        .FT                                             0.5 :STEP      
NULL        .                                           -999.25 :NULL      
COMP        .                                  XTO OFFSHORE INC :COMPANY   
WELL        .                               OCS G23162 ST00BP00 :WELL      
FLD         .                                 BRAZOS BLOCK 0398 :FIELD     
LOC         .                                                   :LOCATION  
CNTY        .                                BRAZOS LARGE BLOCK :LOCATION  
STAT        .                                             TEXAS :STATE     
CTRY        .                                     UNITED STATES :COUNTRY   
SRVC        .                                                   :SERVICE COMPANY
DATE        .                             9/13/2023 11:09:58 AM :LOG DATE  
API         .                                    42704403400000 :API NUMBER
UWI         .                                    42704403400000 :UNIQUE WELL ID
XCOORD      .                                  869002.191083907 :SURFACE X 
YCOORD      .                                  10369331.9113669 :SURFACE Y 
LAT         .                                        28.5523806 :LATITUDE  
LON         .                                       -95.4033279 :LONGITUDE 
ELEV        .FT                                             100 :ELEVATION VALUE
ELEV_TYPE   .                                                KB :ELEVATION REFERENCE TYPE
~Curve Information Section
#MNEM       .UNIT                                      API CODE :CURVE DESCRIPTION
#------------------------------------------------------------------------------
DEPT        .FT                                                 :DEPTH     
CO12        .MMHO                                               :          
DCAL        .IN                                                 :          
DPHI        .FRAC                                               :          
DRHO        .G/CC                                               :          
GR          .GAPI                                               :          
GR_NORM     .GAPI                                               :GammaRay Normalized
HO01        .OHMM                                               :          
HO02        .OHMM                                               :          
HO03        .OHMM                                               :          
HO06        .OHMM                                               :          
HO09        .OHMM                                               :          
HO12        .OHMM                                               :          
NPHI        .FRAC                                               :          
RWA         .OHMM                                               :          
SP          .MV                                                 :          
SP_NORM     .MV                                                 :SP Normalized
TENS        .LB/F                                               :          
VSH_GR      .V/V                                                :Volume of Shale from GR
VSH_SP      .V/V                                                :Volume of Shale from SP
~A        DEPTH           CO12           DCAL           DPHI           DRHO             GR        GR_NORM           HO01           HO02           HO03           HO06           HO09           HO12           NPHI            RWA             SP        SP_NORM           TENS         VSH_GR         VSH_SP
# ...
      5834.0000           4006         2.2738         0.3407         0.0145        53.9732       36.28225         0.3519         0.2929         0.2723         0.2514         0.2657          0.247         0.3009         0.0425        39.1635      -30.43176       4364.539     0.06983501     0.01959452
      5834.5000       4059.266         2.7965         0.3472         0.0264        57.8884       41.29489         0.3543         0.2916         0.2684         0.2491         0.2651         0.2469         0.3123          0.044        39.8805      -29.71555       4385.561       0.176487     0.04429153
      5835.0000       4030.389         3.2653         0.3508          0.033        61.0714       45.36971         0.3692         0.2974         0.2695         0.2477         0.2625         0.2452         0.3185         0.0449         40.747      -28.84983         4388.5      0.2631853     0.07414377
      5835.5000       3990.019         3.6573         0.3556         0.0279        61.4468        45.8485         0.3883          0.309          0.277         0.2519         0.2702         0.2524         0.3231         0.0455        41.4541      -28.14352       4379.005      0.2733722     0.09849943
      5836.0000        3909.45         3.8495         0.3623         0.0138        60.2226       44.27847         0.3752         0.3177         0.2862         0.2549          0.272         0.2545         0.3364         0.0489         41.942       -27.6564        4367.93      0.2399675      0.1152965
      5836.5000       3845.392         4.1723          0.368        -0.0002        58.7927         42.445          0.357         0.3168         0.2886          0.257         0.2783         0.2606         0.3595         0.0523        42.6325      -26.96669       4367.025      0.2009574      0.1390797
      5837.0000       3782.501         4.9101         0.3707        -0.0083        57.4189       40.68337         0.3599          0.316         0.2896         0.2613         0.2831         0.2653         0.3806         0.0523        43.1869      -26.41307       4388.952      0.1634759      0.1581699
      5837.5000       3764.956          3.934         0.3708        -0.0129        53.8303       36.08498          0.383         0.3196         0.2887          0.263         0.2849         0.2673         0.4097         0.0523        43.0143      -26.58646       4443.655     0.06563787       0.152191
      5838.0000       3752.653         3.9571         0.3684        -0.0156        49.9044       31.05457         0.4338         0.3316         0.2914         0.2633         0.2812         0.2642         0.4187          0.053        42.2773      -27.32425       4516.894              0      0.1267502
      5838.5000       3801.694         3.8187         0.3662        -0.0203        48.0538       28.68224          0.439         0.3309         0.2913         0.2631         0.2856         0.2679         0.4023         0.0499        41.8424      -27.75993       4574.987              0      0.1117264
      5839.0000       3875.653         3.7265          0.359        -0.0191        48.7002       29.50813         0.4302         0.3197         0.2839         0.2573         0.2742         0.2572         0.3724         0.0491        41.8059      -27.79722       4581.542              0      0.1104407
      5839.5000       3988.934         3.6957         0.3511        -0.0142        50.0472       31.23137         0.4185         0.3117         0.2757         0.2498         0.2666         0.2496         0.3591         0.0443        41.6167      -27.98721       4535.429              0      0.1038895
      5840.0000       4054.088         3.8725         0.3451         -0.006        49.0849        29.9968         0.4298         0.3204         0.2791         0.2484         0.2632         0.2455          0.373         0.0414        41.1885      -28.41619       4476.205              0     0.08909686
      5840.5000       4082.344           4.08         0.3438         0.0012        47.9095       28.48929         0.4359         0.3382         0.2905         0.2498         0.2637         0.2449         0.3853         0.0417        40.8067      -28.79877       4440.264              0     0.07590432
      5841.0000       4068.222         4.4797         0.3443         0.0069        47.0081       27.33271         0.4125         0.3439         0.2968         0.2481         0.2641         0.2444         0.3904         0.0427         40.664      -28.94226       4425.119              0     0.07095653
      5841.5000       4046.684         4.9716         0.3445         0.0111        48.4062        29.1214         0.4097         0.3434         0.2959         0.2495         0.2692         0.2481         0.3837         0.0419        40.7636      -28.84345       4416.529              0     0.07436384
      5842.0000       4062.864         5.0562         0.3421         0.0144        48.4399       29.16253         0.4203         0.3352         0.2888         0.2519         0.2706         0.2489         0.3782         0.0416        40.7171      -28.89074       4406.809              0     0.07273325
      5842.5000        4140.55         5.1177           0.34         0.0179        47.3678       27.78733         0.4318         0.3224         0.2784         0.2474         0.2623         0.2416         0.3944         0.0395        40.9362      -28.67242         4410.2              0     0.08026136
      5843.0000       4250.392         5.3713         0.3391         0.0213        44.4803       24.08693         0.4316           0.31         0.2666         0.2372         0.2543         0.2345         0.3928          0.039        41.3345      -28.27491       4435.743              0     0.09396876
      5843.5000       4358.139         5.7556         0.3395         0.0245        43.8821       23.31869         0.4228         0.3022         0.2569         0.2276          0.249           0.23          0.391         0.0389        42.0018      -27.60839       4466.033              0       0.116952
      5844.0000       4409.217         6.1322         0.3422         0.0223        46.1081       26.16777         0.4372         0.3034          0.257         0.2254          0.242         0.2241         0.3897         0.0395        42.4566      -27.15438       4476.205              0      0.1326077
      5844.5000       4310.642         5.1868         0.3412         0.0214        51.3265       32.84958         0.4398          0.323         0.2762         0.2384         0.2444         0.2264         0.3971         0.0413        42.8085      -26.80326       4446.819              0       0.144715
      5845.0000       4145.151         2.7888         0.3381         0.0203        55.5942        38.3137         0.4599         0.3598         0.3063         0.2586         0.2678         0.2468         0.3991         0.0392        42.9479      -26.66465       4393.247      0.1130575      0.1494948
      5845.5000       4010.121         0.9903         0.3327         0.0251        57.6266       40.91481         0.5036         0.3655         0.3056         0.2614         0.2734         0.2521         0.4171         0.0392        42.6757      -26.93763        4360.47      0.1684003      0.1400816
      5846.0000       3986.527          1.021         0.3299         0.0262        56.6535        39.6664         0.4827         0.3525         0.2963         0.2544         0.2695         0.2493         0.4007         0.0387        41.8225      -27.79162       4372.225      0.1418384      0.1106337
      5846.5000       3995.551         0.9979         0.3306         0.0246        54.9204       37.44458          0.426         0.3334         0.2898         0.2534         0.2712         0.2512         0.3867         0.0392        40.7802      -28.83471        4411.33     0.09456545     0.07466533
      5847.0000       3989.211          0.606         0.3326         0.0193        52.9626       34.93496         0.4024         0.3206         0.2832         0.2536           0.27         0.2504         0.3742         0.0405         40.093      -29.52269       4427.832     0.04116927      0.0509416
