#------------------------------------------------------------------------------
# Created by    : vladimir.rabinovich
# Created on    : 09/19/2023 17:19:44
#------------------------------------------------------------------------------
~Version Information Section
VERS.           2.0     :   CWLS log ASCII Standard - VERSION 2.0
WRAP.           NO      :   One line per depth step
~Well Information Section
#MNEM       .UNIT                                         VALUE :DESCRIPTION
#------------------------------------------------------------------------------
STRT        .FT                                             490 :START DEPTH
STOP        .FT                                           13420 :STOP DEPTH
STEP        .FT                                             0.5 :STEP      
NULL        .                                           -999.25 :NULL      
COMP        .                                 MESA PETROLEUM CO :COMPANY   
WELL        .                                     ST TR 00012-L :WELL      
FLD         .                                           WILDCAT :FIELD     
LOC         .                                                   :LOCATION  
CNTY        .                           HIGH ISLAND LARGE BLOCK :LOCATION  
STAT        .                                             TEXAS :STATE     
CTRY        .                                     UNITED STATES :COUNTRY   
SRVC        .                                                   :SERVICE COMPANY
DATE        .                             9/13/2023 11:19:15 AM :LOG DATE  
API         .                                    42708302120000 :API NUMBER
UWI         .                                    42708302120000 :UNIQUE WELL ID
XCOORD      .                                  1361115.25412243 :SURFACE X 
YCOORD      .                                  10723579.9964947 :SURFACE Y 
LAT         .                                        29.5453665 :LATITUDE  
LON         .                                       -93.8786547 :LONGITUDE 
ELEV        .FT                                              80 :ELEVATION VALUE
ELEV_TYPE   .                                                KB :ELEVATION REFERENCE TYPE
~Curve Information Section
#MNEM       .UNIT                                      API CODE :CURVE DESCRIPTION
#------------------------------------------------------------------------------
DEPT        .FT                                                 :DEPTH     
ASFL        .OHMM                                               :          
CILD        .MMHO                                               :          
GR          .GAPI                                               :          
GR_NORM     .GAPI                                               :GammaRay Normalized
ILD         .OHMM                                               :          
SP          .MV                                                 :          
SP_NORM     .MV                                                 :SP Normalized
VSH_GR      .V/V                                                :Volume of Shale from GR
~A        DEPTH           ASFL           CILD             GR        GR_NORM            ILD             SP        SP_NORM         VSH_GR
# ...
     13381.5000         0.7378       1503.354         4.0537       48.16766         0.5845       -80.2555      -13.66961      0.3227161
     13382.0000         0.7589       1592.525          2.251       46.58802          0.608       -78.4133      -11.92432      0.2891068
     13382.5000         0.7756       1685.002         0.4482       45.00829         0.6302       -76.2854      -9.893333      0.2554954
     13383.0000         0.6742       1801.533              0       44.78315         0.6242       -74.6821       -8.38694      0.2507053
     13383.5000         0.6168       1925.756              0       45.00621         0.6182       -75.8766      -9.678352      0.2554514
     13384.0000         0.5792       2006.006         0.0887       45.31798         0.6122       -76.2609      -10.15957      0.2620846
     13384.5000         0.5481       2059.145         2.2264       47.67874         0.6062       -76.4579      -10.45348      0.3123136
     13385.0000         0.5229       2112.383         2.9172       48.59261         0.6001       -79.0782      -13.17068      0.3317577
     13385.5000         0.5094        2136.98          3.608       49.50648         0.5941       -83.1074       -17.2968      0.3512017
     13386.0000          0.496       2159.758         4.2988       50.42034         0.5786       -80.5559      -14.84221      0.3706456
     13386.5000         0.4903       2161.441         4.9896       51.33421         0.5605       -78.9613      -13.34452      0.3900895
     13387.0000         0.4853       2163.129         5.6435       52.21117         0.5424        -78.486      -12.96613      0.4087483
     13387.5000         0.4821       2167.691         6.2666       53.05733         0.5243       -77.9257      -12.50274      0.4267518
     13388.0000         0.4864       2199.438         6.8884        53.9022         0.5061       -76.7041      -11.37805      0.4447276
     13388.5000         0.4906       2231.082         7.5103       54.74716          0.488       -79.1177      -13.88856      0.4627056
     13389.0000         0.4949       2299.012         8.1321       55.59203         0.4699       -82.4917      -17.35947      0.4806815
     13389.5000         0.4991       2390.305         9.1148       56.79779         0.4518       -84.7279      -19.69258       0.506336
     13390.0000          0.504       2482.977         5.4674       53.37346         0.4336        -86.969      -22.03059      0.4334778
     13390.5000         0.5103       2578.215         1.7634       49.89252         0.4155       -90.2888       -25.4473      0.3594154
     13391.0000         0.5081       2668.324              0       48.35219         0.3974       -92.2024      -27.45782      0.3266423
     13391.5000         0.5021       2728.266              0       48.57525         0.3895        -89.885      -25.23733      0.3313884
     13392.0000          0.496       2703.816              0       48.79832         0.3925        -88.853      -24.30223      0.3361344
     13392.5000         0.4899       2565.793              0       49.02139         0.3955       -87.8827      -23.42885      0.3408805
     13393.0000         0.4862       2386.953              0       49.24445         0.3985       -86.5479      -22.19096      0.3456265
     13393.5000         0.4902       2303.941              0       49.46751         0.4015        -84.521      -20.26097      0.3503726
     13394.0000         0.4943       2166.313              0       49.69058         0.4126       -81.8809      -17.71778      0.3551187
     13394.5000         0.4984       1998.119              0       49.91364         0.4261       -79.7531      -15.68689      0.3598647
     13395.0000         0.5025       1906.037           2.65       52.78671         0.4394       -81.1174       -17.1481      0.4209938
     13395.5000         0.5075       1812.182         6.4525       56.81227         0.4528       -84.6047      -20.73231      0.5066441
     13396.0000          0.493         1748.1        10.2551       60.83794         0.4662       -79.8467      -16.07122      0.5922965
     13396.5000         0.4537       1680.467        14.0576        64.8635         0.4796       -60.6172       3.061367      0.6779469
     13397.0000         0.4292       1639.258        17.8503       68.87926          0.493        -58.913       4.668655      0.7633886
     13397.5000         0.4616        1604.16        19.5373       70.78933         0.5027        -57.817       5.667744      0.8040283
     13398.0000         0.5003       1579.314        20.9953        72.4704          0.512       -57.7997       5.588131      0.8397957
     13398.5000         0.5389       1557.133        22.4434       74.14156         0.5214       -60.3019       2.989025      0.8753524
     13399.0000         0.5775       1534.951        24.5146       76.43583         0.5307        -64.006      -0.811985      0.9241666
     13399.5000         0.6171       1516.885        26.2164       78.36069           0.54        -72.611      -9.513897       0.965121
     13400.0000         0.6583        1505.35        27.2889       79.65626         0.5457       -72.0446      -9.044411      0.9926863
     13400.5000         0.7013       1516.119        26.9737       79.56412         0.5386        -68.764      -5.860722      0.9907259
     13401.0000         0.6435       1588.977         26.475       79.19224         0.5314       -65.4836      -2.677227      0.9828136
     13401.5000         0.5998       1718.719        25.9529       78.64418         0.5243       -64.1537      -1.444244      0.9711528
     13402.0000         0.5643       1766.238         25.432       78.09732         0.5171       -74.1133      -11.50075      0.9595175
     13402.5000         0.5268       1804.393        24.9111       77.55046           0.51       -79.0289      -16.51326      0.9478821
     13403.0000         0.5068       1834.512         24.389       77.00241         0.5028       -81.0533      -18.63457      0.9362215
     13403.5000         0.4871       1857.039        23.8681       76.45555         0.4957       -73.5024      -11.18059      0.9245862
     13404.0000         0.4684       1879.518        23.3472       75.90869         0.4884       -64.1439      -1.918995      0.9129509
     13404.5000         0.4501       1900.715        22.8029       75.33843         0.4795       -56.3467       5.781296      0.9008177
     13405.0000         0.4324        1917.08        22.2538       74.76337         0.4706       -55.8492       6.181881      0.8885824
     13405.5000         0.4146       1933.445        23.6378       76.12141         0.4616       -58.6075       3.326675      0.9174769
     13406.0000         0.4043       1949.861        25.2337       77.69136         0.4527       -59.9793        1.85796        0.95088
     13406.5000         0.4154       1966.227        26.8296        79.2613         0.4438       -60.7465      0.7344093       0.984283
     13407.0000         0.4265       1927.826        28.1078       80.51354         0.4348       -62.5135      -1.452541              1
     13407.5000         0.4369       1867.096        28.6656       81.04538         0.4259       -64.8285      -4.187485              1
     13408.0000         0.4439       1830.469        29.2234       81.57722          0.417       -68.2518      -8.030735              1
     13408.5000          0.451       1807.252        29.7813       82.10916         0.4146       -66.7052      -6.904079              1
     13409.0000          0.458       1784.035        29.7148       82.01671         0.4276       -63.3263      -3.945129              1
     13409.5000         0.4559       1743.662        29.2247       81.50065         0.4406        -60.632      -1.670773              1
     13410.0000         0.4479       1699.594        28.7346       80.98459         0.4536       -58.7258     -0.1845207              1
     13410.5000         0.4399       1656.412        28.2445       80.46854         0.4666       -56.8146       1.306732              1
