#------------------------------------------------------------------------------
# Created by    : vladimir.rabinovich
# Created on    : 09/19/2023 17:20:33
#------------------------------------------------------------------------------
~Version Information Section
VERS.           2.0     :   CWLS log ASCII Standard - VERSION 2.0
WRAP.           NO      :   One line per depth step
~Well Information Section
#MNEM       .UNIT                                         VALUE :DESCRIPTION
#------------------------------------------------------------------------------
STRT        .FT                                             526 :START DEPTH
STOP        .FT                                            9568 :STOP DEPTH
STEP        .FT                                             0.5 :STEP      
NULL        .                                           -999.25 :NULL      
COMP        .                       BLUE DOLPHIN EXPLORATION CO :COMPANY   
WELL        .                                OCS 00713 ST00BP00 :WELL      
FLD         .                              GALVESTON BLOCK 0288 :FIELD     
LOC         .                                                   :LOCATION  
CNTY        .                             GALVESTON LARGE BLOCK :LOCATION  
STAT        .                                             TEXAS :STATE     
CTRY        .                                     UNITED STATES :COUNTRY   
SRVC        .                                                   :SERVICE COMPANY
DATE        .                             9/13/2023 11:19:25 AM :LOG DATE  
API         .                                    42706000630000 :API NUMBER
UWI         .                                    42706000630000 :UNIQUE WELL ID
XCOORD      .                                  1101981.32688909 :SURFACE X 
YCOORD      .                                  10481575.8265757 :SURFACE Y 
LAT         .                                          28.87198 :LATITUDE  
LON         .                                        -94.682732 :LONGITUDE 
ELEV        .FT                                              58 :ELEVATION VALUE
ELEV_TYPE   .                                                KB :ELEVATION REFERENCE TYPE
~Curve Information Section
#MNEM       .UNIT                                      API CODE :CURVE DESCRIPTION
#------------------------------------------------------------------------------
DEPT        .FT                                                 :DEPTH     
ASN         .OHMM                                               :          
CALI        .IN                                                 :          
DT          .US/F                                               :          
ILD         .OHMM                                               :          
SP          .MV                                                 :          
SP_NORM     .MV                                                 :SP Normalized
VSH_SP      .V/V                                                :Volume of Shale from SP
~A        DEPTH            ASN           CALI             DT            ILD             SP        SP_NORM         VSH_SP
# ...
      5919.5000         0.5709        10.4762       123.9395         0.6343       -41.1338        -3.9245      0.9250128
      5920.0000         0.5699        10.4084       125.0753         0.6305       -40.6186      -3.409298      0.9382231
      5920.5000          0.572        10.3116       125.6124         0.6194        -39.929        -2.7197      0.9559051
      5921.0000         0.5792        10.1367       126.2057         0.6086       -39.2592        -2.0499      0.9730795
      5921.5000         0.5778          9.938       127.0756         0.6075       -38.7147      -1.505398      0.9870411
      5922.0000         0.5678         9.7871       126.5941          0.613       -38.3755      -1.166199      0.9957385
      5922.5000         0.5579         9.6951       125.1034          0.622       -37.8345     -0.6251984              1
      5923.0000         0.5533         9.6793       125.4368         0.6309       -37.5143     -0.3050003              1
      5923.5000         0.5525         9.7317       126.7456         0.6297       -37.8024     -0.5930977              1
      5924.0000         0.5632         9.7745       127.4573         0.6271       -37.6978     -0.4884987              1
      5924.5000         0.5842         9.7512       126.0126         0.6392       -37.5474     -0.3381004              1
      5925.0000          0.604         9.8125       123.9877         0.6561       -37.4877     -0.2784004              1
      5925.5000         0.6095        10.1768       121.4397         0.6598       -37.1688     0.04050064              1
      5926.0000         0.6109        10.4918       119.5201         0.6691       -37.1075      0.1018028              1
      5926.5000         0.6087         10.589       118.9469         0.6623       -37.4866      -0.277298              1
      5927.0000         0.6064        10.6561       120.4249         0.6581       -37.3912        -0.1819              1
      5927.5000         0.6024        10.7022       120.3934         0.6623       -36.7658      0.4435005              1
      5928.0000          0.596        10.7207       117.8455         0.6724       -36.7737      0.4356003              1
      5928.5000         0.5873        10.6511       119.4955         0.6779       -37.0085      0.2008018              1
      5929.0000         0.5839        10.5608       123.0269         0.6842       -36.8029      0.4064026              1
      5929.5000         0.5928        10.5211       123.9674         0.6936        -36.546      0.6632996              1
      5930.0000         0.6182        10.5429       122.1052         0.6727       -36.6997      0.5096016              1
      5930.5000         0.6427        10.5536       122.1277         0.6757       -36.7451      0.4642029              1
      5931.0000         0.6479        10.5624       123.4523          0.684        -36.709      0.5003014              1
      5931.5000         0.6402        10.5657       121.7629         0.6861        -37.528     -0.3186989              1
      5932.0000         0.6155        10.5542       119.3248         0.6814       -37.9337     -0.7243996              1
      5932.5000         0.5859        10.5428       122.2882           0.68       -38.1389     -0.9295998              1
      5933.0000          0.569        10.5241        127.427          0.658       -37.8474     -0.6380997              1
      5933.5000         0.5549        10.4986       128.6526         0.6296       -37.4115      -0.202198              1
      5934.0000         0.5431        10.4662       127.2216         0.6099       -37.7289     -0.5195999              1
      5934.5000         0.5296        10.4162       126.6884         0.6006       -37.2512    -0.04190063              1
      5935.0000         0.5162        10.3745       127.9321         0.6011       -36.7892      0.4201012              1
      5935.5000         0.5046        10.4106       129.5461         0.6122       -37.1792     0.03010178              1
      5936.0000         0.4948        10.5152       130.8123          0.615       -37.0931      0.1161995              1
      5936.5000         0.4914        10.4863       131.1042         0.6238       -37.5645     -0.3551979              1
      5937.0000         0.4965        10.5473        128.446         0.6159       -38.0623     -0.8530006              1
      5937.5000         0.5083         10.637       126.9651         0.6086       -38.8137      -1.604401      0.9845026
      5938.0000         0.5264        10.6526       127.1351         0.5885       -39.3131      -2.103798      0.9716975
      5938.5000         0.5466        10.6697       124.0573         0.5681       -40.0376        -2.8283      0.9531205
      5939.0000         0.5511        10.7816       113.3083         0.5552       -42.0894        -4.8801      0.9005103
      5939.5000         0.5434        11.0084       107.5276          0.557       -46.0063      -8.797001      0.8000769
      5940.0000         0.5303        11.0708       110.6459         0.5526       -49.9861       -12.7768      0.6980308
      5940.5000         0.5183        11.1337       116.2471         0.5415       -52.5801       -15.3708      0.6315179
      5941.0000         0.5113           11.1       118.4348         0.5404       -55.3182       -18.1089      0.5613103
      5941.5000         0.5114        10.8506       119.0045         0.5245       -54.7579       -17.5486      0.5756769
      5942.0000          0.515        10.4981       118.4897         0.5093       -52.5014       -15.2921      0.6335359
      5942.5000         0.5131        10.1433       116.2808         0.4901       -52.0914       -14.8821      0.6440488
      5943.0000         0.5069         9.8552       114.8226          0.477       -52.7545       -15.5452      0.6270462
      5943.5000         0.4948         9.6831       117.3179         0.4706       -53.7455       -16.5362      0.6016359
      5944.0000         0.4822         9.5863       124.1022         0.4772       -54.7737       -17.5644      0.5752718
      5944.5000         0.4584         9.5131       129.6179         0.4791       -57.1787       -19.9694      0.5136052
      5945.0000         0.4376         9.5003       127.8019         0.4761       -59.1844       -21.9751       0.462177
      5945.5000         0.4325         9.5235       124.9889         0.4768       -58.0224       -20.8131      0.4919718
      5946.0000         0.4606         9.5501        121.241           0.48       -56.4756       -19.2663      0.5316333
      5946.5000         0.4865         9.5768       121.4801         0.4943       -55.2731       -18.0638      0.5624666
      5947.0000         0.4854         9.5913       121.9803         0.5221        -54.119       -16.9097       0.592059
      5947.5000         0.4888         9.5957       122.3126         0.5432       -52.2314       -15.0221       0.640459
      5948.0000         0.5098         9.5806       118.9836          0.566       -50.4592       -13.2499         0.6859
      5948.5000         0.5451         9.5719       112.6876         0.5787       -50.5554       -13.3461      0.6834334
      5949.0000         0.5741          9.614       112.1848         0.5811       -51.4024       -14.1931      0.6617154
      5949.5000         0.5938          9.659        112.782         0.5731       -51.6293         -14.42      0.6558975
      5950.0000         0.6106         9.7057       114.4938         0.5764        -50.949       -13.7397       0.673341
      5950.5000         0.6092         9.7548       113.3634         0.6019       -51.2348       -14.0255      0.6660129
      5951.0000          0.606         9.8055       117.7444         0.6287       -52.2449       -15.0356      0.6401129
      5951.5000         0.6136         9.8504       118.5077         0.6526       -53.7484       -16.5391      0.6015615
      5952.0000          0.627         9.8791       116.1371         0.6731       -53.2484       -16.0391       0.614382
      5952.5000         0.6389         9.8452        118.153         0.6929       -51.8018       -14.5925      0.6514744
