#------------------------------------------------------------------------------
# Created by    : vladimir.rabinovich
# Created on    : 09/19/2023 17:20:39
#------------------------------------------------------------------------------
~Version Information Section
VERS.           2.0     :   CWLS log ASCII Standard - VERSION 2.0
WRAP.           NO      :   One line per depth step
~Well Information Section
#MNEM       .UNIT                                         VALUE :DESCRIPTION
#------------------------------------------------------------------------------
STRT        .FT                                             520 :START DEPTH
STOP        .FT                                           11478 :STOP DEPTH
STEP        .FT                                             0.5 :STEP      
NULL        .                                           -999.25 :NULL      
COMP        .                                      SHELL OIL CO :COMPANY   
WELL        .                                OCS 00730 ST00BP00 :WELL      
FLD         .                                           WILDCAT :FIELD     
LOC         .                                                   :LOCATION  
CNTY        .                             GALVESTON LARGE BLOCK :LOCATION  
STAT        .                                             TEXAS :STATE     
CTRY        .                                     UNITED STATES :COUNTRY   
SRVC        .                                                   :SERVICE COMPANY
DATE        .                             9/13/2023 11:19:42 AM :LOG DATE  
API         .                                    42706000260000 :API NUMBER
UWI         .                                    42706000260000 :UNIQUE WELL ID
XCOORD      .                                  961416.888637646 :SURFACE X 
YCOORD      .                                  10353223.2377546 :SURFACE Y 
LAT         .                                         28.512881 :LATITUDE  
LON         .                                        -95.114699 :LONGITUDE 
ELEV        .FT                                              72 :ELEVATION VALUE
ELEV_TYPE   .                                                KB :ELEVATION REFERENCE TYPE
~Curve Information Section
#MNEM       .UNIT                                      API CODE :CURVE DESCRIPTION
#------------------------------------------------------------------------------
DEPT        .FT                                                 :DEPTH     
ASN         .OHMM                                               :          
CILD        .MMHO                                               :          
ILD         .OHMM                                               :          
LAT         .OHMM                                               :          
LN          .OHMM                                               :          
SP          .MV                                                 :          
SP_NORM     .MV                                                 :SP Normalized
VSH_SP      .V/V                                                :Volume of Shale from SP
~A        DEPTH            ASN           CILD            ILD            LAT             LN             SP        SP_NORM         VSH_SP
# ...
      9989.5000         1.0591        -999.25        -999.25         0.9104         0.9104       -45.8842      -1.981762              1
      9990.0000         1.0538        -999.25        -999.25         0.9066         0.9128       -46.0557      -2.153259      0.9933366
      9990.5000         1.0486        -999.25        -999.25         0.9029         0.9152       -46.2273       -2.32486      0.9858757
      9991.0000         1.0433        -999.25        -999.25         0.8991         0.9176       -46.3988      -2.496361      0.9784191
      9991.5000          1.038        -999.25        -999.25         0.8954           0.92       -46.5704      -2.667961      0.9709582
      9992.0000         1.0327        -999.25        -999.25         0.8916         0.9209       -46.7026      -2.800159      0.9652104
      9992.5000         1.0275        -999.25        -999.25         0.8879         0.9202       -46.3825      -2.480061      0.9791278
      9993.0000         1.0222        -999.25        -999.25         0.8841         0.9196       -46.0624      -2.159962      0.9930452
      9993.5000         1.0169        -999.25        -999.25         0.8804          0.919       -45.7424      -1.839962              1
      9994.0000         1.0116        -999.25        -999.25         0.8767         0.9184       -45.4224      -1.519962              1
      9994.5000         1.0064        -999.25        -999.25         0.8729         0.9177       -45.1297      -1.227261              1
      9995.0000         1.0011        -999.25        -999.25         0.8692         0.9171       -45.1445      -1.242062              1
      9995.5000         0.9958        -999.25        -999.25         0.8705         0.9165       -45.1592       -1.25676              1
      9996.0000         0.9905        -999.25        -999.25          0.884         0.9159       -45.1739      -1.271461              1
      9996.5000         0.9859        -999.25        -999.25         0.8975         0.9153       -45.1887      -1.286263              1
      9997.0000         0.9815        -999.25        -999.25          0.911         0.9146       -45.2034      -1.300961              1
      9997.5000         0.9772        -999.25        -999.25         0.9245          0.914       -45.2181      -1.315662              1
      9998.0000         0.9729        -999.25        -999.25          0.938         0.9134       -45.2328       -1.33036              1
      9998.5000         0.9686        -999.25        -999.25         0.9515         0.9128       -45.2092      -1.306763              1
      9999.0000         0.9642        -999.25        -999.25          0.965         0.9122       -44.6748     -0.7723618              1
      9999.5000         0.9656        -999.25        -999.25         0.9785         0.9115       -44.1404     -0.2379608              1
     10000.0000         0.9777        -999.25        -999.25          0.992         0.9109       -43.6061      0.2963409              1
     10000.5000         0.9897        -999.25        -999.25          0.977         0.9075       -43.0706      0.8318405              1
     10001.0000         1.0017        -999.25        -999.25         0.9581         0.9041       -42.5869        1.31554              1
     10001.5000         1.0137        -999.25        -999.25         0.9392         0.9006       -42.8563       1.046139              1
     10002.0000         1.0258        -999.25        -999.25         0.9203         0.8971       -43.1257      0.7767372              1
     10002.5000         1.0378        -999.25        -999.25         0.9014         0.8936       -43.3952      0.5072403              1
     10003.0000         1.0498        -999.25        -999.25         0.8825         0.8901       -43.6719      0.2305374              1
     10003.5000         1.0516        -999.25        -999.25         0.8636         0.8867        -44.096     -0.1935616              1
     10004.0000         1.0416        -999.25        -999.25         0.8447         0.8832       -44.5207     -0.6182594              1
     10004.5000          1.029        -999.25        -999.25         0.8258         0.8797       -44.9448      -1.042362              1
     10005.0000         1.0132        -999.25        -999.25         0.8069         0.8762       -45.3695       -1.46706              1
     10005.5000         0.9974        -999.25        -999.25          0.788         0.8727       -45.7936      -1.891159              1
     10006.0000         0.9815        -999.25        -999.25         0.7691         0.8693       -46.2177      -2.315262       0.986293
     10006.5000         0.9657        -999.25        -999.25         0.7502         0.8658       -46.6424       -2.73996      0.9678279
     10007.0000         0.9499        -999.25        -999.25         0.7313         0.8587       -47.0665      -3.164063      0.9493886
     10007.5000          0.934        -999.25        -999.25         0.7226         0.8504       -47.4911      -3.588661      0.9309278
     10008.0000         0.9182        -999.25        -999.25          0.717          0.842       -47.9153      -4.012859      0.9124843
     10008.5000         0.9023        -999.25        -999.25         0.7113         0.8337       -47.7145      -3.812061      0.9212147
     10009.0000         0.8829        -999.25        -999.25         0.7057         0.8254       -47.3325      -3.430061      0.9378234
     10009.5000         0.8572        -999.25        -999.25         0.7001          0.817       -46.9501      -3.047661      0.9544495
     10010.0000         0.8316        -999.25        -999.25         0.6944         0.8087       -46.5681      -2.665661      0.9710582
     10010.5000          0.806        -999.25        -999.25         0.6888         0.8004       -45.9708      -2.068359      0.9970279
     10011.0000         0.7824        -999.25        -999.25         0.6832          0.792       -45.3262      -1.423759              1
     10011.5000         0.7714        -999.25        -999.25         0.6775         0.7837       -44.6816     -0.7791595              1
     10012.0000         0.7699        -999.25        -999.25         0.6719         0.7754       -44.0358     -0.1333618              1
     10012.5000         0.7776        -999.25        -999.25         0.6662          0.767       -43.3912      0.5112381              1
     10013.0000         0.7853        -999.25        -999.25         0.6606         0.7587       -42.9882       0.914238              1
     10013.5000          0.793        -999.25        -999.25          0.655         0.7536       -43.0487      0.8537407              1
     10014.0000         0.8008        -999.25        -999.25         0.6677          0.753        -43.326      0.5764389              1
     10014.5000         0.8085        -999.25        -999.25         0.6828         0.7524       -43.6033      0.2991409              1
     10015.0000         0.8162        -999.25        -999.25         0.6978         0.7518       -43.8801     0.02233887              1
     10015.5000         0.8239        -999.25        -999.25         0.7129         0.7512       -44.1573     -0.2548599              1
     10016.0000         0.8316        -999.25        -999.25         0.7279         0.7506       -44.4346     -0.5321617              1
     10016.5000         0.8393        -999.25        -999.25         0.7429           0.75        -44.712     -0.8095627              1
     10017.0000          0.847        -999.25        -999.25          0.758         0.7494       -44.9893      -1.086861              1
     10017.5000         0.8526        -999.25        -999.25          0.773         0.7488       -45.2665      -1.364059              1
     10018.0000         0.8555        -999.25        -999.25         0.7881         0.7483       -45.5574      -1.654961              1
     10018.5000         0.8583        -999.25        -999.25         0.8031         0.7477       -45.8819      -1.979462              1
