#------------------------------------------------------------------------------
# Created by    : vladimir.rabinovich
# Created on    : 09/19/2023 17:19:43
#------------------------------------------------------------------------------
~Version Information Section
VERS.           2.0     :   CWLS log ASCII Standard - VERSION 2.0
WRAP.           NO      :   One line per depth step
~Well Information Section
#MNEM       .UNIT                                         VALUE :DESCRIPTION
#------------------------------------------------------------------------------
STRT        .FT                                            1054 :START DEPTH
STOP        .FT                                           13910 :STOP DEPTH
STEP        .FT                                             0.5 :STEP      
NULL        .                                           -999.25 :NULL      
COMP        .                                            MTS LP :COMPANY   
WELL        .                                ST TR 00061-L SW/4 :WELL      
FLD         .                                           WILDCAT :FIELD     
LOC         .                                                   :LOCATION  
CNTY        .                           HIGH ISLAND LARGE BLOCK :LOCATION  
STAT        .                                             TEXAS :STATE     
CTRY        .                                     UNITED STATES :COUNTRY   
SRVC        .                                                   :SERVICE COMPANY
DATE        .                             9/13/2023 11:19:15 AM :LOG DATE  
API         .                                    42708302730000 :API NUMBER
UWI         .                                    42708302730000 :UNIQUE WELL ID
XCOORD      .                                  1164861.29381137 :SURFACE X 
YCOORD      .                                   10674042.082625 :SURFACE Y 
LAT         .                                        29.4036169 :LATITUDE  
LON         .                                       -94.4939126 :LONGITUDE 
ELEV        .FT                                              78 :ELEVATION VALUE
ELEV_TYPE   .                                                KB :ELEVATION REFERENCE TYPE
~Curve Information Section
#MNEM       .UNIT                                      API CODE :CURVE DESCRIPTION
#------------------------------------------------------------------------------
DEPT        .FT                                                 :DEPTH     
ASFL        .OHMM                                               :          
CILD        .MMHO                                               :          
ILD         .OHMM                                               :          
SP          .MV                                                 :          
SP_NORM     .MV                                                 :SP Normalized
VSH_SP      .V/V                                                :Volume of Shale from SP
~A        DEPTH           ASFL           CILD            ILD             SP        SP_NORM         VSH_SP
# ...
      6184.0000         0.7042       1861.754         0.5456       -65.2467      -3.252949       0.974686
      6184.5000         0.7111       1858.125         0.5467       -65.0176      -3.068527      0.9767581
      6185.0000          0.718       1854.498         0.5468       -63.7944      -1.889999           0.99
      6185.5000         0.7211       1853.514         0.5461       -62.6119     -0.7521782              1
      6186.0000         0.7232       1853.482         0.5453        -61.417      0.4185219              1
      6186.5000         0.7252       1856.225         0.5445       -60.3737       1.708851              1
      6187.0000          0.727       1859.574         0.5436       -61.0567       1.272877              1
      6187.5000         0.7286       1862.922         0.5424       -61.7397      0.8369064              1
      6188.0000         0.7302       1866.389         0.5413       -62.4222       0.401432              1
      6188.5000          0.729       1869.949         0.5401       -63.0714  -0.0007400513              1
      6189.0000         0.7204       1873.508         0.5389       -63.8363     -0.5186119              1
      6189.5000         0.7118       1878.168         0.5377       -65.1777       -1.61298      0.9931126
      6190.0000         0.7033       1883.928         0.5366       -69.2809      -5.469158      0.9497848
      6190.5000         0.6959       1889.688         0.5354       -72.8408      -8.782028      0.9125615
      6191.0000         0.6886       1895.697         0.5342       -73.1603        -8.8545      0.9117472
      6191.5000         0.6813       1902.508         0.5325       -72.9475      -8.394676      0.9169137
      6192.0000         0.6739       1909.311         0.5301        -72.735       -7.93515      0.9220769
      6192.5000         0.6674        1916.77         0.5278       -72.5222      -7.475319      0.9272436
      6193.0000         0.6609       1924.254         0.5255       -72.6991       -7.40519      0.9280316
      6193.5000         0.6545       1936.143         0.5231       -74.5308      -8.989868      0.9102262
      6194.0000         0.6506       1951.221         0.5208       -78.8446      -13.05663      0.8645322
      6194.5000         0.6665       1972.785         0.5185       -90.8375      -24.80251       0.732556
      6195.0000         0.6823       1994.324         0.5161       -98.7802      -32.49818      0.6460879
      6195.5000         0.7094       2013.604         0.5135      -108.6051      -42.07606      0.5384713
      6196.0000          0.738       2032.857         0.5107       -109.088      -42.31193       0.535821
      6196.5000         0.7629       2039.416          0.508       -88.4625       -21.4394      0.7703438
      6197.0000         0.7852       2017.605         0.5052       -83.2889      -16.01878      0.8312497
      6197.5000         0.7673       1995.797         0.5065       -80.9485      -13.43135      0.8603219
      6198.0000         0.7548       1967.137         0.5103       -79.3237      -11.55952      0.8813537
      6198.5000         0.7423       1934.668          0.514       -78.6642      -10.65299      0.8915394
      6199.0000         0.7298       1902.199          0.518       -77.8998      -9.641563      0.9029038
      6199.5000         0.7179        1880.66         0.5225       -77.0289      -8.523636      0.9154648
      6200.0000         0.7166       1859.393          0.527        -74.755      -6.002708      0.9437898
      6200.5000         0.7154       1838.123         0.5314       -71.6163      -2.616982      0.9818317
      6201.0000         0.7147       1816.658         0.5359       -69.9337      -0.687355              1
      6201.5000         0.7139       1796.494         0.5403        -70.095     -0.6016312              1
      6202.0000         0.7136       1802.033         0.5436        -70.256     -0.5155945              1
      6202.5000         0.7143       1807.564         0.5469       -70.4172     -0.4297714              1
      6203.0000         0.7164       1813.098         0.5503       -70.5782     -0.3437424              1
      6203.5000         0.7236        1818.15         0.5536       -70.8163      -0.334816              1
      6204.0000         0.7306       1817.701         0.5557       -71.0645     -0.3359909              1
      6204.5000         0.7368       1804.342         0.5547       -71.0061    -0.03056335              1
      6205.0000          0.743       1790.969         0.5537       -70.9451      0.2774658              1
      6205.5000         0.7466       1777.854         0.5527         -71.01      0.4595871              1
      6206.0000         0.7474       1765.525         0.5536       -71.3201       0.275322              1
      6206.5000         0.7482       1753.184         0.5587       -71.9587     -0.2648544              1
      6207.0000         0.7479       1740.855         0.5639       -72.6683     -0.8760223              1
      6207.5000         0.7464       1733.334         0.5691       -73.4407      -1.549995      0.9938203
      6208.0000         0.7449       1726.959         0.5736       -74.5443      -2.555168      0.9825262
      6208.5000         0.7434       1720.586         0.5776       -76.2208      -4.133255      0.9647949
      6209.0000         0.7414       1715.596         0.5815       -78.9653      -6.779327      0.9350637
      6209.5000         0.7383       1712.887         0.5854       -83.0131       -10.7287      0.8906888
      6210.0000         0.7352        1710.18         0.5879       -90.9841      -18.60127      0.8022329
      6210.5000         0.7318       1707.473         0.5889        -91.713      -19.23175      0.7951488
      6211.0000         0.7273       1710.957           0.59       -92.0024      -19.42273       0.793003
      6211.5000         0.7228       1714.799         0.5911       -92.2145       -19.5364      0.7917259
      6212.0000         0.7168       1721.059         0.5879       -92.3912      -19.61467      0.7908464
      6212.5000         0.7108       1730.086         0.5845       -92.5608      -19.68585      0.7900466
      6213.0000         0.7021       1742.881         0.5782       -92.5245      -19.55112      0.7915604
      6213.5000         0.6907       1762.135         0.5705       -92.4883       -19.4165      0.7930731
      6214.0000         0.6754        1797.82         0.5627        -92.161      -18.99078      0.7978565
      6214.5000         0.6641       1861.578         0.5558       -90.8054      -17.53675      0.8141938
      6215.0000         0.6575        1912.27         0.5493       -89.3076      -15.94053      0.8321289
      6215.5000         0.6509        1955.74         0.5429       -87.7629       -14.2974       0.850591
      6216.0000         0.6454       2002.404         0.5355       -86.4351      -12.87117      0.8666161
      6216.5000         0.6405       2039.857         0.5274       -85.4102      -11.74786      0.8792376
      6217.0000         0.6357       2063.141         0.5194       -84.6354      -10.87463      0.8890492
      6217.5000         0.6308       2086.445         0.5119        -83.951       -10.0918       0.897845
      6218.0000         0.6261       2105.836         0.5067       -83.5098      -9.552177      0.9039081
      6218.5000         0.6217       2113.371         0.5016       -83.5057      -9.449646      0.9050602
      6219.0000         0.6173       2120.145         0.4964       -85.3412      -11.18673      0.8855424
      6219.5000          0.613       2122.539         0.4912       -87.3243       -13.0714      0.8643662
      6220.0000         0.6144       2124.934         0.4861       -91.6825      -17.33118      0.8165036
      6220.5000         0.6223       2123.242         0.4867        -93.795      -19.34525      0.7938737
      6221.0000         0.6297       2117.098         0.4882       -95.0916      -20.54343      0.7804109
      6221.5000         0.6369       2110.949         0.4896       -95.8503       -21.2037      0.7729921
