#------------------------------------------------------------------------------
# Created by    : vladimir.rabinovich
# Created on    : 09/19/2023 17:20:03
#------------------------------------------------------------------------------
~Version Information Section
VERS.           2.0     :   CWLS log ASCII Standard - VERSION 2.0
WRAP.           NO      :   One line per depth step
~Well Information Section
#MNEM       .UNIT                                         VALUE :DESCRIPTION
#------------------------------------------------------------------------------
STRT        .FT                                             945 :START DEPTH
STOP        .FT                                           12004 :STOP DEPTH
STEP        .FT                                             0.5 :STEP      
NULL        .                                           -999.25 :NULL      
COMP        .                                    EXXON CO U S A :COMPANY   
WELL        .                                     ST TR 00819-L :WELL      
FLD         .                                           WILDCAT :FIELD     
LOC         .                                                   :LOCATION  
CNTY        .                        MUSTANG ISLAND LARGE BLOCK :LOCATION  
STAT        .                                             TEXAS :STATE     
CTRY        .                                     UNITED STATES :COUNTRY   
SRVC        .                                                   :SERVICE COMPANY
DATE        .                             9/13/2023 11:18:55 AM :LOG DATE  
API         .                                    42702301310000 :API NUMBER
UWI         .                                    42702301310000 :UNIQUE WELL ID
XCOORD      .                                  274042.524369281 :SURFACE X 
YCOORD      .                                  9990401.22532542 :SURFACE Y 
LAT         .                                        27.4671591 :LATITUDE  
LON         .                                       -97.2129423 :LONGITUDE 
ELEV        .FT                                              93 :ELEVATION VALUE
ELEV_TYPE   .                                                KB :ELEVATION REFERENCE TYPE
~Curve Information Section
#MNEM       .UNIT                                      API CODE :CURVE DESCRIPTION
#------------------------------------------------------------------------------
DEPT        .FT                                                 :DEPTH     
ASFL        .OHMM                                               :          
CILD        .MMHO                                               :          
GR          .GAPI                                               :          
GR_NORM     .GAPI                                               :GammaRay Normalized
ILD         .OHMM                                               :          
SP          .MV                                                 :          
SP_NORM     .MV                                                 :SP Normalized
VSH_GR      .V/V                                                :Volume of Shale from GR
VSH_SP      .V/V                                                :Volume of Shale from SP
~A        DEPTH           ASFL           CILD             GR        GR_NORM            ILD             SP        SP_NORM         VSH_GR         VSH_SP
# ...
      5344.0000         1.4839       1278.535        -999.25        -999.25          0.689       -58.1351      -31.94462        -999.25      0.4571119
      5344.5000          1.393        1229.16        -999.25        -999.25         0.6852       -56.6464      -30.45592        -999.25      0.4832294
      5345.0000         1.3131       1181.172        -999.25        -999.25         0.6849       -55.4073      -29.21682        -999.25       0.504968
      5345.5000         1.2327        1142.99        -999.25        -999.25         0.7046       -53.9495      -27.75902        -999.25      0.5305434
      5346.0000         1.1673       1109.586        -999.25        -999.25         0.7243       -52.1062      -25.91572        -999.25      0.5628821
      5346.5000         1.1352       1077.025        -999.25        -999.25          0.744        -49.623      -23.43252        -999.25       0.606447
      5347.0000         1.1073       1052.041        -999.25        -999.25         0.7657       -47.4251      -21.23462        -999.25      0.6450067
      5347.5000           1.08       1034.213        -999.25        -999.25         0.7882       -45.5881      -19.39762        -999.25      0.6772347
      5348.0000         1.0501       1026.984        -999.25        -999.25         0.8107       -43.6756      -17.48512        -999.25      0.7107874
      5348.5000         1.0192       1023.441        -999.25        -999.25         0.8329       -38.1433      -11.95282        -999.25      0.8078452
      5349.0000         0.9771       1026.238        -999.25        -999.25          0.852       -36.1901      -9.999624        -999.25      0.8421118
      5349.5000         0.9319       1034.818        -999.25        -999.25         0.8619       -35.5854      -9.394922        -999.25      0.8527207
      5350.0000         0.8977       1051.248        -999.25        -999.25         0.8718       -36.4977      -10.30722        -999.25      0.8367154
      5350.5000         0.8786       1069.795        -999.25        -999.25         0.8737       -38.7042      -12.51372        -999.25      0.7980049
      5351.0000         0.9058       1089.504        -999.25        -999.25         0.8739        -43.599      -17.40852        -999.25      0.7121312
      5351.5000          1.004       1129.322        -999.25        -999.25          0.874       -49.0235      -22.83302        -999.25      0.6169645
      5352.0000         1.1684       1174.189        -999.25        -999.25         0.8741       -49.3157      -23.12522        -999.25      0.6118382
      5352.5000         1.3298       1228.121        -999.25        -999.25         0.8743       -49.4058      -23.21532        -999.25      0.6102575
      5353.0000         1.4067       1290.818        -999.25        -999.25         0.8691       -49.4958      -23.30532        -999.25      0.6086786
      5353.5000         1.3772       1346.482        -999.25        -999.25         0.8533       -49.5994      -23.40892        -999.25       0.606861
      5354.0000         1.3087        1402.84        -999.25        -999.25         0.8345        -49.713      -23.52252        -999.25       0.604868
      5354.5000         1.2411       1471.182        -999.25        -999.25         0.7882       -49.9281      -23.73762        -999.25      0.6010943
      5355.0000         1.1093       1539.178        -999.25        -999.25          0.742       -50.7756      -24.58512        -999.25      0.5862259
      5355.5000         1.0125       1589.047        -999.25        -999.25         0.6995       -55.5085      -29.31802        -999.25      0.5031926
      5356.0000          0.943       1622.178        -999.25        -999.25         0.6571       -60.2378      -34.04733        -999.25      0.4202224
      5356.5000         0.9661       1651.322        -999.25        -999.25         0.6325       -72.4315      -46.24103        -999.25      0.2062978
      5357.0000         0.9892       1680.592        -999.25        -999.25         0.6079       -73.8127      -47.62222        -999.25      0.1820663
      5357.5000          1.108       1709.885        -999.25        -999.25         0.5939       -75.0778      -48.88732        -999.25      0.1598715
      5358.0000         1.1642       1738.658        -999.25        -999.25         0.5831       -76.4923      -50.30183        -999.25      0.1350557
      5358.5000         1.2172       1765.252        -999.25        -999.25         0.5724       -77.6858      -51.49532        -999.25      0.1141171
      5359.0000          1.334       1785.086        -999.25        -999.25         0.5616       -78.1157      -51.92522        -999.25       0.106575
      5359.5000         1.4056        1804.92        -999.25        -999.25         0.5508       -75.7053      -49.51482        -999.25      0.1488627
      5360.0000         1.4351       1808.188        -999.25        -999.25         0.5509       -72.3573      -46.16682        -999.25      0.2075996
      5360.5000         1.3462       1767.777        -999.25        -999.25         0.5564       -71.1393      -44.94882        -999.25       0.228968
      5361.0000         1.2444       1720.135        -999.25        -999.25         0.5708       -68.1544      -41.96393        -999.25      0.2813346
      5361.5000         1.1707       1669.473        -999.25        -999.25         0.5852       -64.0911      -37.90063        -999.25      0.3526206
      5362.0000          1.103       1619.752        -999.25        -999.25         0.5995        -62.149      -35.95852        -999.25      0.3866926
      5362.5000         1.0529       1571.764        -999.25        -999.25         0.6139       -60.3453      -34.15482        -999.25      0.4183364
      5363.0000         1.0236       1526.178        -999.25        -999.25         0.6164       -58.6367      -32.44622        -999.25      0.4483119
      5363.5000         1.0241       1487.449        -999.25        -999.25         0.6111       -56.8428      -30.65232        -999.25      0.4797838
      5364.0000         1.0383       1452.313        -999.25        -999.25         0.6057       -56.1411      -29.95062        -999.25      0.4920943
      5364.5000         1.0566       1426.016        -999.25        -999.25         0.6004       -59.3631      -33.17262        -999.25       0.435568
      5365.0000         1.0775       1625.051        -999.25        -999.25         0.5951        -62.684      -36.49352        -999.25      0.3773066
      5365.5000         1.0985       1715.529        -999.25        -999.25         0.5795        -63.975      -37.78452        -999.25      0.3546575
      5366.0000         1.1242       1797.393        -999.25        -999.25         0.5544       -70.2052      -44.01472        -999.25      0.2453557
      5366.5000         1.1519       1962.156        -999.25        -999.25         0.5294       -81.7861      -55.59563        -999.25     0.04218198
      5367.0000         1.1821       2028.518        -999.25        -999.25          0.505       -82.4984      -56.30792        -999.25     0.02968557
      5367.5000         1.1361       2081.406        -999.25        -999.25         0.4892       -82.3622      -56.17172        -999.25     0.03207504
      5368.0000         1.0901       2120.629        -999.25        -999.25         0.4734       -82.2258      -56.03532        -999.25       0.034468
      5368.5000         1.0344       2160.398        -999.25        -999.25         0.4637       -81.9987      -55.80823        -999.25     0.03845215
      5369.0000         0.9664       2207.098        -999.25        -999.25         0.4553       -81.6555      -55.46503        -999.25     0.04447321
      5369.5000         0.9333       2250.133        -999.25        -999.25         0.4469        -81.468      -55.27753        -999.25     0.04776269
      5370.0000         0.9476       2292.527        -999.25        -999.25         0.4438       -81.7473      -55.55682        -999.25     0.04286274
