#------------------------------------------------------------------------------
# Created by    : vladimir.rabinovich
# Created on    : 09/19/2023 17:20:45
#------------------------------------------------------------------------------
~Version Information Section
VERS.           2.0     :   CWLS log ASCII Standard - VERSION 2.0
WRAP.           NO      :   One line per depth step
~Well Information Section
#MNEM       .UNIT                                         VALUE :DESCRIPTION
#------------------------------------------------------------------------------
STRT        .FT                                            2110 :START DEPTH
STOP        .FT                                            6746 :STOP DEPTH
STEP        .FT                                             0.5 :STEP      
NULL        .                                           -999.25 :NULL      
COMP        .                       HOUSTON OIL & MINERALS CORP :COMPANY   
WELL        .                                ST TR 00694-L NE/4 :WELL      
FLD         .                                           WILDCAT :FIELD     
LOC         .                                                   :LOCATION  
CNTY        .                      MATAGORDA ISLAND LARGE BLOCK :LOCATION  
STAT        .                                             TEXAS :STATE     
CTRY        .                                     UNITED STATES :COUNTRY   
SRVC        .                                                   :SERVICE COMPANY
DATE        .                             9/13/2023 11:12:01 AM :LOG DATE  
API         .                                    42703302070000 :API NUMBER
UWI         .                                    42703302070000 :UNIQUE WELL ID
XCOORD      .                                  400461.464340365 :SURFACE X 
YCOORD      .                                  10145980.2526086 :SURFACE Y 
LAT         .                                        27.9055609 :LATITUDE  
LON         .                                       -96.8388291 :LONGITUDE 
ELEV        .FT                                              25 :ELEVATION VALUE
ELEV_TYPE   .                                                KB :ELEVATION REFERENCE TYPE
~Curve Information Section
#MNEM       .UNIT                                      API CODE :CURVE DESCRIPTION
#------------------------------------------------------------------------------
DEPT        .FT                                                 :DEPTH     
ASN         .OHMM                                               :          
CILD        .MMHO                                               :          
ILD         .OHMM                                               :          
SP          .MV                                                 :          
SP_NORM     .MV                                                 :SP Normalized
VSH_SP      .V/V                                                :Volume of Shale from SP
~A        DEPTH            ASN           CILD            ILD             SP        SP_NORM         VSH_SP
# ...
      3934.0000         0.9274       2370.539         0.3831       -75.5313       -40.5667      0.1615935
      3934.5000         0.9194       2401.984         0.3764       -73.4402       -38.4721      0.2071283
      3935.0000          0.914       2414.828         0.3698       -72.2219       -37.2503      0.2336891
      3935.5000         0.9102       2350.453         0.3705       -71.9777       -37.0026      0.2390739
      3936.0000         0.9064       2271.438         0.3732       -71.7474       -36.7688      0.2441566
      3936.5000         0.9026       2175.441         0.3758       -71.2991       -36.3171      0.2539761
      3937.0000         0.9004       2046.666          0.383       -70.6819       -35.6964      0.2674696
      3937.5000         0.8984       1917.742         0.3912       -69.8502       -34.8612      0.2856261
      3938.0000         0.9023       1788.816         0.4063       -67.2506       -32.2581      0.3422152
      3938.5000         0.9132       1659.893         0.4318       -61.5882       -26.5922       0.465387
      3939.0000         0.9473       1530.969         0.4573       -56.1898       -21.1904      0.5828174
      3939.5000         0.9956       1402.043         0.5273       -44.1827        -9.1798      0.8439174
      3940.0000         1.0476       1273.119           0.63       -37.8654         -2.859      0.9813261
      3940.5000         1.0999       1144.195         0.6916       -37.1352        -2.1253      0.9972761
      3941.0000         1.1218       1015.271         0.7508       -36.8985        -1.8851              1
      3941.5000         1.1388       963.6963         0.7697       -36.6677        -1.6509              1
      3942.0000         1.1552       931.8135         0.7853       -36.6281        -1.6078              1
      3942.5000         1.1706       904.8955         0.8008       -36.5886        -1.5648              1
      3943.0000          1.186       877.9541         0.8164       -36.5491        -1.5218              1
      3943.5000         1.2236       876.9912         0.8317       -36.4996        -1.4688              1
      3944.0000         1.2955        879.624         0.8466       -35.9437        -0.9095              1
      3944.5000          1.357       879.4902         0.8615       -35.3878        -0.3501              1
      3945.0000         1.3859       876.3682         0.8862       -34.8042          0.237              1
      3945.5000         1.4077       873.2451          0.912       -34.6974         0.3473              1
      3946.0000         1.4427        870.123         0.9523       -35.0223         0.0258              1
      3946.5000         1.5436        793.627         1.0084       -35.3472        -0.2956              1
      3947.0000         1.6446       651.7402         1.1009       -35.4395        -0.3844              1
      3947.5000         1.7456       521.2266         1.0025       -35.5251        -0.4665              1
      3948.0000         1.8466       456.8145         0.9724       -35.5724        -0.5103              1
      3948.5000         1.9977       446.1367         0.9569       -35.4406        -0.3751              1
      3949.0000         2.0531       506.3779           0.96       -35.3087        -0.2397              1
      3949.5000         2.1036       561.5781          0.993       -35.1769        -0.1044              1
      3950.0000          2.155       603.3438         1.0474       -35.1295        -0.0535              1
      3950.5000         2.1988       645.1104         1.1557       -35.1496        -0.0701              1
      3951.0000         2.0817       676.7451         1.3454        -35.469        -0.3861              1
      3951.5000         1.9674       694.3389         1.4183       -36.0299        -0.9435              1
      3952.0000         1.8665       711.9316          1.423       -36.5911        -1.5012              1
      3952.5000         1.7284       710.8447         1.4096       -36.7729        -1.6795              1
      3953.0000          1.541        705.168         1.3963       -36.9506        -1.8537              1
      3953.5000         1.4739       699.4883         1.3719       -36.6067        -1.5064              1
      3954.0000         1.4565       693.8076         1.3446       -36.2624        -1.1586              1
      3954.5000          1.429       688.4346         1.3174       -35.9185        -0.8112              1
      3955.0000         1.3981       693.7148         1.2901       -35.6678         -0.557              1
      3955.5000         1.3698       698.9912         1.2628       -35.4459        -0.3316              1
      3956.0000         1.3414       712.9248          1.231       -35.2238        -0.1061              1
      3956.5000         1.3066       732.0078         1.1981       -35.2104        -0.0892              1
      3957.0000         1.2736       751.0908         1.1651       -35.3772        -0.2525              1
      3957.5000          1.245       770.1738         1.1322        -35.544        -0.4158              1
      3958.0000         1.2174       795.7871         1.0993        -35.711        -0.5794              1
      3958.5000         1.1959       823.0518         1.0761       -35.8484        -0.7133              1
      3959.0000         1.1745       850.3164         1.0546       -35.9846         -0.846              1
      3959.5000         1.1534       875.9424         1.0332       -36.1205        -0.9784              1
      3960.0000         1.1324       898.7129         1.0117       -36.2566         -1.111              1
      3960.5000         1.1181       921.4834         0.9903       -36.3927        -1.2437              1
      3961.0000         1.1052       944.2656          0.969       -36.1694        -1.0169              1
      3961.5000         1.0946       964.2676         0.9482       -36.0359        -0.8799              1
      3962.0000         1.0851       981.7861         0.9274       -35.9074        -0.7479              1
      3962.5000         1.0756       999.3174         0.9066       -35.7789        -0.6159              1
      3963.0000         1.0687       1016.848         0.8858       -35.6503        -0.4839              1
      3963.5000         1.0622       1024.781         0.8654       -35.4864        -0.3165              1
      3964.0000         1.0557       1031.703         0.8498       -35.3198        -0.1464              1
      3964.5000         1.0516       1038.631         0.8343       -35.1535         0.0234              1
      3965.0000         1.0487       1036.598         0.8187       -34.9743         0.2061              1
      3965.5000         1.0481        1030.77         0.8093       -34.6877         0.4961              1
      3966.0000         1.0499       1019.679         0.8065       -34.4012         0.7861              1
      3966.5000         1.0516       1003.588         0.8036       -34.1149         1.0759              1
      3967.0000         1.0534       987.5098         0.8096       -33.8284         1.3659              1
      3967.5000         1.0569       971.4316         0.8195       -33.6606         1.5372              1
      3968.0000         1.0606       955.3535         0.8295       -33.5541         1.6471              1
      3968.5000         1.0644        943.124         0.8394       -33.4593         1.7454              1
      3969.0000         1.0681       932.0928         0.8494       -33.6094         1.5988              1
      3969.5000         1.0719       921.0547         0.8595       -33.7595         1.4522              1
      3970.0000         1.0756       910.0234         0.8698       -34.2321          0.983              1
      3970.5000         1.0792       899.0361         0.8801       -34.8751         0.3435              1
      3971.0000         1.0802       904.6875         0.8904       -35.3857        -0.1636              1
      3971.5000         1.0813       913.0029         0.9007       -35.5862        -0.3606              1
