#------------------------------------------------------------------------------
# Created by    : vladimir.rabinovich
# Created on    : 09/19/2023 17:21:40
#------------------------------------------------------------------------------
~Version Information Section
VERS.           2.0     :   CWLS log ASCII Standard - VERSION 2.0
WRAP.           NO      :   One line per depth step
~Well Information Section
#MNEM       .UNIT                                         VALUE :DESCRIPTION
#------------------------------------------------------------------------------
STRT        .FT                                             957 :START DEPTH
STOP        .FT                                           10053 :STOP DEPTH
STEP        .FT                                             0.5 :STEP      
NULL        .                                           -999.25 :NULL      
COMP        .                                    EXXON CO U S A :COMPANY   
WELL        .                               OCS G03237 ST00BP00 :WELL      
FLD         .                                           WILDCAT :FIELD     
LOC         .                                                   :LOCATION  
CNTY        .                           HIGH ISLAND LARGE BLOCK :LOCATION  
STAT        .                                             TEXAS :STATE     
CTRY        .                                     UNITED STATES :COUNTRY   
SRVC        .                                                   :SERVICE COMPANY
DATE        .                             9/13/2023 11:20:04 AM :LOG DATE  
API         .                                    42708400420000 :API NUMBER
UWI         .                                    42708400420000 :UNIQUE WELL ID
XCOORD      .                                  1163347.66403634 :SURFACE X 
YCOORD      .                                  10583934.5995257 :SURFACE Y 
LAT         .                                         29.155753 :LATITUDE  
LON         .                                        -94.495054 :LONGITUDE 
ELEV        .FT                                              94 :ELEVATION VALUE
ELEV_TYPE   .                                                KB :ELEVATION REFERENCE TYPE
~Curve Information Section
#MNEM       .UNIT                                      API CODE :CURVE DESCRIPTION
#------------------------------------------------------------------------------
DEPT        .FT                                                 :DEPTH     
CALI        .IN                                                 :          
DRHO        .G/C3                                               :          
DT          .US/F                                               :          
GR          .GAPI                                               :          
GR_1        .GAPI                                               :          
GR_NORM     .GAPI                                               :GammaRay Normalized
ILD         .OHMM                                               :          
NPHI        .%                                                  :          
RHOB        .G/C3                                               :          
SFL         .OHMM                                               :          
SP          .MV                                                 :          
SP_NORM     .MV                                                 :SP Normalized
VSH_GR      .V/V                                                :Volume of Shale from GR
VSH_SP      .V/V                                                :Volume of Shale from SP
~A        DEPTH           CALI           DRHO             DT             GR           GR_1        GR_NORM            ILD           NPHI           RHOB            SFL             SP        SP_NORM         VSH_GR         VSH_SP
# ...
      7635.0000         14.992         0.0232       107.8486        84.2242        -999.25       82.30568         0.8447        42.1846         2.3579          0.843       -44.5734      -2.149155              1      0.9833456
      7635.5000        15.0699         0.0188       106.9077        83.6364        -999.25       81.63818         0.8537        41.5413         2.3526         0.8845       -45.0302      -2.605957              1      0.9767253
      7636.0000         15.034         0.0266       106.0819         83.048        -999.25       80.97001         0.8502        40.7209         2.3638         0.9164       -45.2825      -2.858257              1      0.9730687
      7636.5000         14.942         0.0328       105.8085        82.9501        -999.25       80.85696         0.8445        39.9341         2.3671         0.8883       -45.2092      -2.784958              1       0.974131
      7637.0000        14.9113         0.0319       106.5697        82.7393        -999.25       80.61613         0.8387         39.303         2.3656         0.8438       -44.9542      -2.529957              1      0.9778267
      7637.5000        14.9711         0.0275       107.8412        82.1942        -999.25       79.99695         0.8333        38.7889         2.3619         0.8136        -42.788     -0.3637543      0.9999351              1
      7638.0000        14.9993         0.0232        107.923        83.7833        -999.25       81.79314         0.8284         38.391         2.3509         0.7958       -42.5495     -0.1252556              1              1
      7638.5000        14.6906         0.0203       107.2606        85.5948        -999.25         83.841         0.8301        38.2569         2.3595         0.7872       -41.8614      0.5628433              1              1
      7639.0000        14.9056         0.0174       107.1541        85.3434        -999.25       83.55422         0.8383        38.5397         2.3746         0.8123       -41.4697      0.9545441              1              1
      7639.5000         15.015         0.0251       107.6394        84.2917        -999.25       82.36172         0.8483        38.9871         2.3879         0.8352        -41.771       0.653244              1              1
      7640.0000        15.0274         0.0246       108.1558        83.8411        -999.25       81.84949         0.8563        39.7366         2.3892         0.8523       -42.4446    -0.02035522              1              1
      7640.5000        15.0353         0.0147       108.4269        83.1949        -999.25       81.11591          0.863        40.5123         2.3518         0.8617       -43.0616     -0.6373558              1              1
      7641.0000          14.79         0.0072       108.3015        82.5166        -999.25         80.346         0.8681        40.5257          2.332         0.8221       -43.0031     -0.5788574              1              1
      7641.5000        14.5018         0.0036       107.7633        82.5165        -999.25       80.34362         0.8727        39.9304           2.33         0.7964        -42.297       0.127243              1              1
      7642.0000        14.1154         0.0052       106.7146        83.3766        -999.25       81.31477         0.8768        39.5482         2.3457         0.8099        -41.905      0.5192451              1              1
      7642.5000        14.3009         0.0096       105.8082         84.559        -999.25       82.65067         0.8812        39.0146         2.3578         0.8605       -42.0845      0.3397446              1              1
      7643.0000        14.6576          0.014       105.9185        83.9396        -999.25        81.9474         0.8764        38.2293         2.3656         0.9111        -42.095      0.3292427              1              1
      7643.5000        14.6873         0.0184       107.8153        81.0007        -999.25       78.61909         0.8656        39.0154         2.3648         0.9099       -41.1148       1.309444       0.970619              1
      7644.0000        13.7677         0.0195       109.5981        78.4449        -999.25       75.72434         0.8541        39.8275         2.3514         0.8507       -39.8815       2.542744      0.9090286              1
      7644.5000        13.4326         0.0164       110.6506         77.149        -999.25       74.25547         0.8419        40.7083         2.3359         0.8021       -40.5876       1.836643       0.877776              1
      7645.0000        13.4171         0.0133       110.0017        76.4708        -999.25       73.48566         0.8262        41.5941         2.3361         0.7857       -41.7698      0.6544456      0.8613971              1
      7645.5000        13.4425         0.0233       108.5656        76.6636        -999.25        73.7016         0.8152        41.4816         2.3474         0.8156       -41.1859       1.238342      0.8659915              1
      7646.0000         13.669         0.0147       107.8778        76.3821        -999.25       73.38077         0.8143        40.7939         2.3271         0.8441        -40.405       2.019245      0.8591653              1
      7646.5000        14.0574         0.0162       107.7065        76.1912        -999.25       73.16245         0.8257        39.9125         2.3301         0.8656       -40.0024       2.421844      0.8545203              1
      7647.0000        14.3803         0.0309       107.7825        77.3872        -999.25       74.51374         0.8379        39.4252         2.3434         0.8744       -40.1389       2.285343      0.8832711              1
      7647.5000        14.6226         0.0338       108.8627        78.7723        -999.25       76.07905          0.842        40.7544         2.3463         0.8624       -40.8929       1.531345      0.9165755              1
      7648.0000        14.7831         0.0367       109.7542         79.427        -999.25       76.81773         0.8208        41.5502         2.3568         0.8169       -41.5909      0.8333435      0.9322922              1
      7648.5000        14.7718         0.0456       110.0028        78.8231        -999.25       76.13201         0.7893        42.0143         2.3722         0.7786       -42.0602      0.3640442      0.9177024              1
      7649.0000        14.6578         0.0595       109.9022        78.1765        -999.25       75.39797         0.7654        42.0193         2.3767         0.7568       -41.5242      0.9000435      0.9020845              1
      7649.5000        14.6014         0.0531       109.9559         77.856        -999.25         75.033         0.7478        42.1404         2.3679         0.7446       -41.7775      0.6467438      0.8943191              1
      7650.0000        14.5882         0.0336       111.1284        78.2627        -999.25       75.49102         0.7343        41.9406          2.345         0.7381        -41.614      0.8102455      0.9040642              1
      7650.5000        14.5496         0.0205       112.4285        75.3461        -999.25       72.18793         0.7307          41.46         2.3237         0.7395       -40.9266       1.497643      0.8337858              1
      7651.0000        14.5316           0.02       113.1384        73.7228        -999.25       70.34853         0.7287        42.1112         2.3168         0.7459       -40.2548       2.169445      0.7946497              1
      7651.5000         14.539         0.0191       112.6562        72.8622        -999.25       69.37229         0.7395        42.6008         2.2996         0.7671       -39.7108       2.713444      0.7738785              1
      7652.0000        14.4631         0.0121       110.7793        72.2992        -999.25       68.73287         0.7974        41.6977          2.295         0.8033       -39.3636       3.060642      0.7602739              1
      7652.5000        14.3934          0.005        108.152        71.7511        -999.25       68.11031         0.8513        41.0453         2.3099         0.8621       -39.7177       2.706543      0.7470278              1
