#------------------------------------------------------------------------------
# Created by    : vladimir.rabinovich
# Created on    : 09/19/2023 17:20:36
#------------------------------------------------------------------------------
~Version Information Section
VERS.           2.0     :   CWLS log ASCII Standard - VERSION 2.0
WRAP.           NO      :   One line per depth step
~Well Information Section
#MNEM       .UNIT                                         VALUE :DESCRIPTION
#------------------------------------------------------------------------------
STRT        .FT                                             510 :START DEPTH
STOP        .FT                                            7943 :STOP DEPTH
STEP        .FT                                             0.5 :STEP      
NULL        .                                           -999.25 :NULL      
COMP        .                       BLUE DOLPHIN EXPLORATION CO :COMPANY   
WELL        .                                OCS 00709 ST00BP00 :WELL      
FLD         .                                FEDERAL BLOCK 0288 :FIELD     
LOC         .                                                   :LOCATION  
CNTY        .                             GALVESTON LARGE BLOCK :LOCATION  
STAT        .                                             TEXAS :STATE     
CTRY        .                                     UNITED STATES :COUNTRY   
SRVC        .                                                   :SERVICE COMPANY
DATE        .                             9/13/2023 11:19:25 AM :LOG DATE  
API         .                                    42706000400000 :API NUMBER
UWI         .                                    42706000400000 :UNIQUE WELL ID
XCOORD      .                                   1098851.8122004 :SURFACE X 
YCOORD      .                                  10485233.3471489 :SURFACE Y 
LAT         .                                         28.881916 :LATITUDE  
LON         .                                        -94.692672 :LONGITUDE 
ELEV        .FT                                              93 :ELEVATION VALUE
ELEV_TYPE   .                                                KB :ELEVATION REFERENCE TYPE
~Curve Information Section
#MNEM       .UNIT                                      API CODE :CURVE DESCRIPTION
#------------------------------------------------------------------------------
DEPT        .FT                                                 :DEPTH     
ASN         .OHMM                                               :          
GR          .GAPI                                               :          
ILD         .OHMM                                               :          
NEUT        .NAPI                                               :          
SP          .MV                                                 :          
SP_NORM     .MV                                                 :SP Normalized
VSH_SP      .V/V                                                :Volume of Shale from SP
~A        DEPTH            ASN             GR            ILD           NEUT             SP        SP_NORM         VSH_SP
# ...
      4463.0000         0.8995        -999.25         0.7925        -999.25       -52.8735      -1.653988              1
      4463.5000         0.8852        -999.25         0.7699        -999.25       -52.3049      -1.085388              1
      4464.0000         0.8833        -999.25         0.7673        -999.25       -51.7742     -0.5546875              1
      4464.5000         0.8913        -999.25         0.7647        -999.25       -51.3637     -0.1441879              1
      4465.0000         0.9056        -999.25         0.7682        -999.25        -51.232     -0.0124855              1
      4465.5000         0.8935        -999.25         0.7755        -999.25       -51.3363      -0.116787              1
      4466.0000         0.8826        -999.25         0.7828        -999.25       -51.2311    -0.01158524              1
      4466.5000         0.8804        -999.25         0.7958        -999.25       -50.9645      0.2550125              1
      4467.0000         0.8853        -999.25         0.8089        -999.25       -50.9541      0.2654114              1
      4467.5000         0.8957        -999.25         0.8284        -999.25       -51.6524      -0.432888              1
      4468.0000         0.9241        -999.25         0.8561        -999.25        -51.822     -0.6024857              1
      4468.5000         0.9688        -999.25         0.8845        -999.25       -51.9221     -0.7025871              1
      4469.0000         1.0269        -999.25         0.9155        -999.25       -52.1165     -0.8969879              1
      4469.5000         1.0803        -999.25         0.9418        -999.25       -52.5093      -1.289787              1
      4470.0000         1.1157        -999.25         0.9622        -999.25       -53.1147      -1.895187              1
      4470.5000         1.1221        -999.25         0.9698        -999.25       -53.5466      -2.327087      0.9940529
      4471.0000         1.1009        -999.25         0.9702        -999.25       -53.8867      -2.667187      0.9878693
      4471.5000         1.0706        -999.25         0.9575        -999.25       -53.7443      -2.524788      0.9904584
      4472.0000          1.047        -999.25         0.9429        -999.25       -53.5079      -2.288387      0.9947566
      4472.5000         1.0419        -999.25         0.9321        -999.25       -53.3311      -2.111588      0.9979711
      4473.0000         1.0419        -999.25         0.9214        -999.25       -53.6082      -2.388687       0.992933
      4473.5000         1.0369        -999.25         0.9094        -999.25       -53.3181      -2.098587      0.9982075
      4474.0000         1.0235        -999.25         0.8968        -999.25        -52.489      -1.269485              1
      4474.5000          1.021        -999.25         0.8845        -999.25       -52.1106     -0.8910866              1
      4475.0000         1.0194        -999.25         0.8739        -999.25       -52.0243     -0.8047867              1
      4475.5000          1.001        -999.25         0.8633        -999.25       -52.0174     -0.7978859              1
      4476.0000         0.9861        -999.25         0.8524        -999.25       -52.0707     -0.8511887              1
      4476.5000         0.9806        -999.25         0.8416        -999.25        -52.618      -1.398487              1
      4477.0000         0.9683        -999.25           0.83        -999.25       -53.2246      -2.005089      0.9999075
      4477.5000         0.9441        -999.25          0.818        -999.25       -53.7217      -2.502186      0.9908693
      4478.0000         0.9279        -999.25         0.8073        -999.25       -53.6342      -2.414688      0.9924602
      4478.5000         0.9125        -999.25         0.7993        -999.25       -53.4327      -2.213188      0.9961239
      4479.0000         0.9025        -999.25          0.793        -999.25         -53.29      -2.070488      0.9987184
      4479.5000         0.8997        -999.25         0.7934        -999.25       -53.4667      -2.247189      0.9955057
      4480.0000         0.9089        -999.25          0.796        -999.25       -53.7938      -2.574287      0.9895584
      4480.5000         0.9228        -999.25          0.805        -999.25       -54.0721      -2.852589      0.9844984
      4481.0000         0.9336        -999.25         0.8116        -999.25       -53.6987      -2.479187      0.9912875
      4481.5000         0.9316        -999.25          0.806        -999.25       -52.9998      -1.780289              1
      4482.0000         0.9139        -999.25         0.8004        -999.25       -52.4932      -1.273685              1
      4482.5000         0.9021        -999.25          0.789        -999.25       -52.0002     -0.7806854              1
      4483.0000         0.8952        -999.25         0.7759        -999.25        -51.504     -0.2844887              1
      4483.5000         0.8859        -999.25         0.7628        -999.25       -50.8431      0.3764114              1
      4484.0000          0.874        -999.25         0.7497        -999.25       -50.4612      0.7583122              1
      4484.5000         0.8617        -999.25         0.7382        -999.25        -50.524      0.6955147              1
      4485.0000         0.8528        -999.25         0.7322        -999.25       -51.0447      0.1748123              1
      4485.5000         0.8515        -999.25         0.7347        -999.25       -51.4534     -0.2338867              1
      4486.0000         0.8582        -999.25         0.7439        -999.25       -51.7306     -0.5110855              1
      4486.5000         0.8729        -999.25         0.7652        -999.25       -51.9006     -0.6810875              1
      4487.0000         0.8945        -999.25         0.7873        -999.25       -52.0062     -0.7866859              1
      4487.5000         0.9253        -999.25         0.8079        -999.25       -52.1013     -0.8817863              1
      4488.0000         0.9684        -999.25         0.8293        -999.25       -52.3593      -1.139786              1
      4488.5000         1.0154        -999.25          0.855        -999.25       -52.9493      -1.729786              1
      4489.0000         1.0348        -999.25         0.8693        -999.25       -53.8544      -2.634888      0.9884566
      4489.5000         1.0083        -999.25         0.8632        -999.25       -54.7611      -3.541588      0.9719712
      4490.0000         0.9769        -999.25          0.838        -999.25       -55.2126      -3.993088       0.963762
      4490.5000         0.9492        -999.25         0.8284        -999.25       -54.6609      -3.441387       0.973793
      4491.0000         0.9404        -999.25         0.8214        -999.25       -53.9405      -2.720985      0.9868912
      4491.5000           0.94        -999.25         0.8276        -999.25       -53.2937      -2.074188      0.9986511
      4492.0000         0.9417        -999.25         0.8367        -999.25       -52.7783      -1.558788              1
      4492.5000         0.9468        -999.25          0.852        -999.25       -52.3898      -1.170288              1
      4493.0000         0.9689        -999.25         0.8735        -999.25       -52.1055     -0.8859863              1
      4493.5000         1.0078        -999.25         0.8983        -999.25       -51.8865     -0.6669884              1
      4494.0000         1.0682        -999.25         0.9081        -999.25       -52.0845     -0.8649864              1
      4494.5000         1.1226        -999.25         0.9109        -999.25       -52.7477      -1.528187              1
      4495.0000          1.155        -999.25         0.9065        -999.25       -53.6477      -2.428188      0.9922147
      4495.5000         1.1251        -999.25         0.9004        -999.25       -54.2231      -3.003586       0.981753
      4496.0000         1.0518        -999.25         0.8931        -999.25       -54.1107      -2.891186      0.9837966
