#------------------------------------------------------------------------------
# Created by    : vladimir.rabinovich
# Created on    : 09/19/2023 17:20:34
#------------------------------------------------------------------------------
~Version Information Section
VERS.           2.0     :   CWLS log ASCII Standard - VERSION 2.0
WRAP.           NO      :   One line per depth step
~Well Information Section
#MNEM       .UNIT                                         VALUE :DESCRIPTION
#------------------------------------------------------------------------------
STRT        .FT                                             500 :START DEPTH
STOP        .FT                                            9234 :STOP DEPTH
STEP        .FT                                             0.5 :STEP      
NULL        .                                           -999.25 :NULL      
COMP        .                                      SHELL OIL CO :COMPANY   
WELL        .                                OCS 00713 ST00BP00 :WELL      
FLD         .                                           WILDCAT :FIELD     
LOC         .                                                   :LOCATION  
CNTY        .                             GALVESTON LARGE BLOCK :LOCATION  
STAT        .                                             TEXAS :STATE     
CTRY        .                                     UNITED STATES :COUNTRY   
SRVC        .                                                   :SERVICE COMPANY
DATE        .                             9/13/2023 11:19:25 AM :LOG DATE  
API         .                                    42706000510000 :API NUMBER
UWI         .                                    42706000510000 :UNIQUE WELL ID
XCOORD      .                                  1104646.85179908 :SURFACE X 
YCOORD      .                                   10481381.387581 :SURFACE Y 
LAT         .                                         28.871549 :LATITUDE  
LON         .                                        -94.674396 :LONGITUDE 
ELEV        .FT                                              82 :ELEVATION VALUE
ELEV_TYPE   .                                                KB :ELEVATION REFERENCE TYPE
~Curve Information Section
#MNEM       .UNIT                                      API CODE :CURVE DESCRIPTION
#------------------------------------------------------------------------------
DEPT        .FT                                                 :DEPTH     
ASN         .OHMM                                               :          
ASN_1       .OHMM                                               :          
GR_NORM     .                                                   :GammaRay Normalized
ILD         .OHMM                                               :          
LAT         .OHMM                                               :          
LN          .OHMM                                               :          
SP          .MV                                                 :          
SP_1        .MV                                                 :          
SP_NORM     .MV                                                 :SP Normalized
VSH_SP      .V/V                                                :Volume of Shale from SP
~A        DEPTH            ASN          ASN_1        GR_NORM            ILD            LAT             LN             SP           SP_1        SP_NORM         VSH_SP
# ...
      8634.0000         1.3043        -999.25        -999.25         1.0942        -999.25        -999.25        -46.824        -999.25      0.2940331              1
      8634.5000         1.2656        -999.25        -999.25         1.0841        -999.25        -999.25       -47.6841        -999.25     -0.5698776              1
      8635.0000         1.2373        -999.25        -999.25          1.074        -999.25        -999.25       -49.5187        -999.25      -2.408291      0.9905049
      8635.5000         1.2235        -999.25        -999.25         1.0639        -999.25        -999.25       -49.3353        -999.25      -2.228706      0.9946812
      8636.0000         1.2086        -999.25        -999.25         1.0538        -999.25        -999.25       -49.0172        -999.25      -1.914417              1
      8636.5000         1.1969        -999.25        -999.25         1.0437        -999.25        -999.25       -48.6772        -999.25      -1.578232              1
      8637.0000         1.1905        -999.25        -999.25         1.0336        -999.25        -999.25       -48.2623        -999.25      -1.167145              1
      8637.5000         1.1841        -999.25        -999.25         1.0235        -999.25        -999.25       -47.6256        -999.25     -0.5342598              1
      8638.0000         1.1803        -999.25        -999.25         1.0066        -999.25        -999.25       -46.7542        -999.25      0.3333282              1
      8638.5000         1.1871        -999.25        -999.25         0.9873        -999.25        -999.25       -46.6844        -999.25      0.3993149              1
      8639.0000         1.1956        -999.25        -999.25          0.968        -999.25        -999.25       -47.6504        -999.25     -0.5704994              1
      8639.5000         1.2041        -999.25        -999.25         0.9486        -999.25        -999.25       -50.0778        -999.25      -3.001713      0.9767044
      8640.0000         1.2126        -999.25        -999.25         0.9333        -999.25        -999.25       -55.8692        -999.25      -8.796928      0.8419319
      8640.5000         1.2218        -999.25        -999.25         0.9617        -999.25        -999.25       -60.8163        -999.25      -13.74784      0.7267944
      8641.0000         1.2175        -999.25        -999.25         0.9902        -999.25        -999.25       -63.7908        -999.25      -16.72615      0.6575314
      8641.5000         1.2127        -999.25        -999.25         1.0186        -999.25        -999.25       -64.0002        -999.25      -16.93937      0.6525729
      8642.0000         1.2079        -999.25        -999.25         1.0448        -999.25        -999.25       -61.1923        -999.25      -14.13528      0.7177842
      8642.5000          1.202        -999.25        -999.25          1.064        -999.25        -999.25       -57.5265        -999.25      -10.47329      0.8029467
      8643.0000         1.1957        -999.25        -999.25         1.0833        -999.25        -999.25        -49.758        -999.25      -2.708607      0.9835207
      8643.5000         1.1797        -999.25        -999.25         1.1026        -999.25        -999.25        -48.689        -999.25      -1.643421              1
      8644.0000         1.1618        -999.25        -999.25         1.1219        -999.25        -999.25       -48.1925        -999.25      -1.150734              1
      8644.5000         1.1488        -999.25        -999.25         1.1403        -999.25        -999.25       -47.8457        -999.25     -0.8077469              1
      8645.0000         1.1398        -999.25        -999.25         1.1422        -999.25        -999.25       -47.4365        -999.25     -0.4023628              1
      8645.5000         1.1327        -999.25        -999.25          1.144        -999.25        -999.25       -46.9141        -999.25      0.1162262              1
      8646.0000         1.1624        -999.25        -999.25         1.1458        -999.25        -999.25       -46.3005        -999.25      0.7260132              1
      8646.5000          1.162        -999.25        -999.25         1.1476        -999.25        -999.25       -45.4854        -999.25       1.537296              1
      8647.0000          1.146        -999.25        -999.25         1.1494        -999.25        -999.25       -44.6488        -999.25       2.370087              1
      8647.5000         1.1353        -999.25        -999.25         1.1465        -999.25        -999.25       -45.0209        -999.25       1.994171              1
      8648.0000         1.1253        -999.25        -999.25         1.1366        -999.25        -999.25       -45.5112        -999.25       1.500057              1
      8648.5000         1.1168        -999.25        -999.25         1.1268        -999.25        -999.25       -46.1519        -999.25       0.855545              1
      8649.0000         1.1118        -999.25        -999.25         1.1169        -999.25        -999.25       -46.8735        -999.25      0.1301308              1
      8649.5000         1.1079        -999.25        -999.25         1.0818        -999.25        -999.25       -44.7411        -999.25       2.258717              1
      8650.0000         1.1026        -999.25        -999.25         1.0394        -999.25        -999.25       -45.2061        -999.25       1.789906              1
      8650.5000         1.0917        -999.25        -999.25         0.9859        -999.25        -999.25       -45.7938        -999.25       1.198391              1
      8651.0000          1.105        -999.25        -999.25         0.9681        -999.25        -999.25       -46.8341        -999.25      0.1542778              1
      8651.5000         1.0997        -999.25        -999.25         0.9504        -999.25        -999.25       -47.7269        -999.25     -0.7423325              1
      8652.0000         1.0944        -999.25        -999.25         0.9323        -999.25        -999.25       -47.4556        -999.25     -0.4748497              1
      8652.5000         1.0894        -999.25        -999.25         0.9142        -999.25        -999.25       -47.0858        -999.25     -0.1088638              1
      8653.0000         1.0844        -999.25        -999.25         0.8961        -999.25        -999.25       -46.7643        -999.25      0.2088242              1
      8653.5000         1.0794        -999.25        -999.25         0.8772        -999.25        -999.25        -46.462        -999.25       0.507309              1
      8654.0000         1.0726        -999.25        -999.25         0.9008        -999.25        -999.25       -46.7964        -999.25      0.1690979              1
      8654.5000         1.0611        -999.25        -999.25         0.9521        -999.25        -999.25        -47.276        -999.25     -0.3143158              1
      8655.0000         1.0829        -999.25        -999.25         1.0025        -999.25        -999.25       -47.8429        -999.25     -0.8850288              1
      8655.5000         1.1066        -999.25        -999.25          1.013        -999.25        -999.25       -48.3934        -999.25      -1.439342              1
      8656.0000          1.135        -999.25        -999.25         1.0235        -999.25        -999.25       -48.0439        -999.25      -1.093655              1
      8656.5000         1.2048        -999.25        -999.25         1.0341        -999.25        -999.25       -47.6385        -999.25       -0.69207              1
      8657.0000         1.2625        -999.25        -999.25         1.0446        -999.25        -999.25       -47.1789        -999.25     -0.2362862              1
      8657.5000         1.2823        -999.25        -999.25         1.0551        -999.25        -999.25       -46.9036        -999.25     0.03520584              1
      8658.0000         1.2953        -999.25        -999.25         1.0559        -999.25        -999.25       -46.6284        -999.25       0.306591              1
