#------------------------------------------------------------------------------
# Created by    : vladimir.rabinovich
# Created on    : 09/19/2023 17:19:48
#------------------------------------------------------------------------------
~Version Information Section
VERS.           2.0     :   CWLS log ASCII Standard - VERSION 2.0
WRAP.           NO      :   One line per depth step
~Well Information Section
#MNEM       .UNIT                                         VALUE :DESCRIPTION
#------------------------------------------------------------------------------
STRT        .FT                                            3926 :START DEPTH
STOP        .FT                                            8446 :STOP DEPTH
STEP        .FT                                             0.5 :STEP      
NULL        .                                           -999.25 :NULL      
COMP        .                             WALTER OIL & GAS CORP :COMPANY   
WELL        .                               OCS G06101 ST00BP00 :WELL      
FLD         .                                           WILDCAT :FIELD     
LOC         .                                                   :LOCATION  
CNTY        .                             GALVESTON LARGE BLOCK :LOCATION  
STAT        .                                             TEXAS :STATE     
CTRY        .                                     UNITED STATES :COUNTRY   
SRVC        .                                                   :SERVICE COMPANY
DATE        .                             9/13/2023 11:19:36 AM :LOG DATE  
API         .                                    42706402050000 :API NUMBER
UWI         .                                    42706402050000 :UNIQUE WELL ID
XCOORD      .                                  1036351.71170487 :SURFACE X 
YCOORD      .                                  10440832.2127806 :SURFACE Y 
LAT         .                                         28.757227 :LATITUDE  
LON         .                                        -94.885733 :LONGITUDE 
ELEV        .FT                                              88 :ELEVATION VALUE
ELEV_TYPE   .                                                KB :ELEVATION REFERENCE TYPE
~Curve Information Section
#MNEM       .UNIT                                      API CODE :CURVE DESCRIPTION
#------------------------------------------------------------------------------
DEPT        .FT                                                 :DEPTH     
ASFL        .OHMM                                               :          
CALI        .IN                                                 :          
CILD        .MMHO                                               :          
GR          .GAPI                                               :          
GR_1        .GAPI                                               :          
GR_NORM     .GAPI                                               :GammaRay Normalized
ILD         .OHMM                                               :          
ILM         .OHMM                                               :          
NPHI        .%                                                  :          
RFOC        .OHMM                                               :          
RHOB        .G/C3                                               :          
SP          .MV                                                 :          
SP_NORM     .MV                                                 :SP Normalized
VSH_GR      .V/V                                                :Volume of Shale from GR
VSH_SP      .V/V                                                :Volume of Shale from SP
~A        DEPTH           ASFL           CALI           CILD             GR           GR_1        GR_NORM            ILD            ILM           NPHI           RFOC           RHOB             SP        SP_NORM         VSH_GR         VSH_SP
# ...
      7836.0000         1.0043        11.2306       1220.646        74.7892        78.2423       76.33755          0.811         0.8519         30.582          1.006         2.4628       -48.7938      -5.331104      0.9220756      0.9238414
      7836.5000         1.0027        11.2611       1220.422        74.9907        77.1404       76.60252         0.8101         0.8554        30.3456         1.0085         2.4673       -47.9238      -4.465393      0.9277133      0.9362087
      7837.0000         1.0014        11.2885       1220.197        75.1924        75.1901       76.86774         0.8089         0.8586        30.0746         1.0121         2.4714       -47.6737      -4.219574      0.9333563      0.9397204
      7837.5000         1.0001        11.2988       1219.973        75.4453        73.5988       77.20016         0.8076         0.8614        30.2503         1.0101         2.4745       -47.6177      -4.167862       0.940429      0.9404591
      7838.0000         0.9989        11.2993       1219.746        75.9722        74.8412       77.89222          0.806         0.8635        30.7929         1.0081         2.4757       -47.3329      -3.887348      0.9551536      0.9444665
      7838.5000         0.9977        11.2637       1223.559        76.4996        76.8141       78.58493         0.8044         0.8628        31.2936         1.0071         2.4739       -46.7255      -3.284233      0.9698921      0.9530824
      7839.0000         0.9969        11.2272       1234.664        77.0271         77.296       79.27777         0.8026         0.8622        31.7402          1.005         2.4731       -46.2041       -2.76712      0.9846334      0.9604697
      7839.5000         0.9978        11.1817        1245.76         77.554        76.4025       79.96982         0.8007         0.8584        32.0409         1.0021         2.4727       -45.8812      -2.448502      0.9993578      0.9650214
      7840.0000         0.9988        11.1365       1256.867        78.0815        76.2104       80.66265         0.7988         0.8539        32.3213          0.999         2.4719       -45.8137      -2.385292              1      0.9659244
      7840.5000         0.9997        11.0925       1268.664         78.609        77.4365        81.3555         0.7973         0.8484         32.584         0.9958         2.4685       -45.9292      -2.505074              1      0.9642133
      7841.0000         1.0017        11.0599       1281.008        79.2288        77.8643       82.16948         0.7964         0.8431         32.878         0.9925         2.4648       -46.0353      -2.615463              1      0.9626362
      7841.5000         1.0085        11.0488       1293.338        79.7135        77.7698       82.80615         0.7954         0.8386        33.1866         0.9892          2.463       -45.6933      -2.277744              1      0.9674608
      7842.0000         1.0153        11.0827       1294.984        78.3573        77.7312       81.02662         0.7954         0.8321         33.446         0.9852         2.4631       -45.1448      -1.733528              1      0.9752353
      7842.5000         1.0221        11.1108       1287.426        76.7036        77.9348       78.85663         0.7963         0.8292        33.6907         0.9793         2.4584       -45.2572      -1.850216       0.975673      0.9735683
      7843.0000         1.0289         11.126       1279.869        74.9457        78.3257        76.5499         0.7971         0.8326        33.9132         0.9735         2.4539       -46.0315      -2.628803      0.9265935      0.9624457
      7843.5000         1.0358        11.0433       1271.826        73.3466        78.9231       74.45156          0.798         0.8326        33.9998         0.9656         2.4492       -46.5134       -3.11499      0.8819481      0.9555001
      7844.0000         1.0426        10.9352       1258.139        71.3729        80.1599       71.86158         0.7999         0.8366         34.024         0.9572         2.4453       -46.2722      -2.878075      0.8268421      0.9588847
      7844.5000         1.0454        10.8298       1244.451        71.4514        80.8051        71.9651          0.802         0.8403        33.9571         0.9578         2.4456       -45.6036      -2.213757      0.8290448      0.9683749
      7845.0000         1.0481        10.7243       1230.764        71.7211        79.1259       72.31957         0.8041         0.8425        33.7102         0.9625         2.4493       -45.2426      -1.857044      0.8365867      0.9734708
      7845.5000         1.0508        10.6766       1217.078        72.2197        76.2996       72.97449         0.8073         0.8457        33.4584         0.9729         2.4545       -45.1466      -1.765327       0.850521       0.974781
      7846.0000         1.0535        10.6362       1203.391        72.8854        73.3754       73.84871         0.8123         0.8487        33.2095          0.985         2.4607       -45.3052      -1.928215      0.8691215      0.9724541
      7846.5000         1.0562         10.598       1189.703        73.5511        71.2344       74.72294         0.8186         0.8511        32.9607         0.9982         2.4672       -45.5069      -2.134201      0.8877221      0.9695114
      7847.0000         1.0588        10.5911       1178.627        73.7761        70.4989       75.01875          0.829         0.8539        32.5837         1.0121         2.4718       -45.7814      -2.412983       0.894016      0.9655288
      7847.5000         1.0594        10.5931       1173.455        73.4209        71.2318       74.55303         0.8405         0.8592        32.0559         1.0247         2.4753       -46.0902       -2.72607      0.8841071      0.9610561
      7848.0000         1.0583        10.6295       1168.283        73.0658        72.0538       74.08746          0.854         0.8646        31.4838         1.0283         2.4761       -46.3142      -2.954357      0.8742014      0.9577949
      7848.5000         1.0573        10.7044       1163.492         72.715        72.9186       73.62753         0.8648         0.8721        31.0854          1.032         2.4769        -46.525      -3.169445      0.8644156      0.9547222
      7849.0000         1.0563        10.8046       1167.127        72.3815        73.4093       73.19032          0.867         0.8802        31.1258          1.029         2.4776       -46.3315      -2.980228      0.8551131      0.9574253
      7849.5000         1.0553        10.8932        1170.76         72.048        72.5923       72.75308         0.8692         0.8884        31.2444         1.0198         2.4783       -46.0914      -2.744415      0.8458102      0.9607941
      7850.0000         1.0515        10.9368       1174.393        71.8555        72.1268       72.50092         0.8703         0.8917        31.0598         1.0107          2.479       -45.7984        -2.4557       0.840445      0.9649186
      7850.5000          1.047        10.9568       1178.027        72.0031        72.9524       72.69514         0.8715         0.8937        31.1397         1.0128         2.4796        -45.528      -2.189583      0.8445776      0.9687203
      7851.0000         1.0426        10.9751       1181.619        72.1504        73.8585       72.88896         0.8709          0.897        31.4049          1.017         2.4805       -45.5336      -2.199471      0.8487013       0.968579
      7851.5000         1.0381        10.9877       1185.113         72.298        73.0667       73.08319         0.8677         0.9043        31.7296         1.0316          2.482       -45.4801      -2.150253      0.8528339      0.9692821
      7852.0000         1.0336        10.9994       1188.607        72.4453        70.9708       73.27702         0.8644         0.9056        31.9995         1.0519         2.4849       -45.3591      -2.033543      0.8569578      0.9709494
      7852.5000         1.0318        11.0103       1192.102        72.5928        70.4242       73.47111         0.8611         0.9029        32.3183         1.0554         2.4882       -45.3177      -1.996426      0.8610874      0.9714797
