#------------------------------------------------------------------------------
# Created by    : vladimir.rabinovich
# Created on    : 09/19/2023 17:20:25
#------------------------------------------------------------------------------
~Version Information Section
VERS.           2.0     :   CWLS log ASCII Standard - VERSION 2.0
WRAP.           NO      :   One line per depth step
~Well Information Section
#MNEM       .UNIT                                         VALUE :DESCRIPTION
#------------------------------------------------------------------------------
STRT        .FT                                             293 :START DEPTH
STOP        .FT                                            8505 :STOP DEPTH
STEP        .FT                                             0.5 :STEP      
NULL        .                                           -999.25 :NULL      
COMP        .                                        TEXACO USA :COMPANY   
WELL        .                                     ST TR 00058-L :WELL      
FLD         .                                           WILDCAT :FIELD     
LOC         .                                                   :LOCATION  
CNTY        .                           HIGH ISLAND LARGE BLOCK :LOCATION  
STAT        .                                             TEXAS :STATE     
CTRY        .                                     UNITED STATES :COUNTRY   
SRVC        .                                                   :SERVICE COMPANY
DATE        .                             9/13/2023 11:19:15 AM :LOG DATE  
API         .                                    42708000230000 :API NUMBER
UWI         .                                    42708000230000 :UNIQUE WELL ID
XCOORD      .                                  1179226.38702832 :SURFACE X 
YCOORD      .                                  10699123.4735792 :SURFACE Y 
LAT         .                                        29.4730929 :LATITUDE  
LON         .                                        -94.449778 :LONGITUDE 
ELEV        .FT                                              80 :ELEVATION VALUE
ELEV_TYPE   .                                                KB :ELEVATION REFERENCE TYPE
~Curve Information Section
#MNEM       .UNIT                                      API CODE :CURVE DESCRIPTION
#------------------------------------------------------------------------------
DEPT        .FT                                                 :DEPTH     
ASN         .OHMM                                               :          
CILD        .MMHO                                               :          
ILD         .OHMM                                               :          
LAT         .OHMM                                               :          
LN          .OHMM                                               :          
SP          .MV                                                 :          
SP_NORM     .MV                                                 :SP Normalized
VSH_SP      .V/V                                                :Volume of Shale from SP
~A        DEPTH            ASN           CILD            ILD            LAT             LN             SP        SP_NORM         VSH_SP
# ...
      1384.5000         2.8694        -999.25        -999.25         2.0935         1.8827       -73.2657      -11.87585      0.4082769
      1385.0000         2.7722        -999.25        -999.25         2.1001         1.8751       -73.7844      -12.46159      0.3692271
      1385.5000         2.6825        -999.25        -999.25         2.1067         1.8675        -74.303      -13.04724      0.3301842
      1386.0000         2.5928        -999.25        -999.25         2.1051         1.8592       -74.6901      -13.50138       0.299908
      1386.5000         2.5337        -999.25        -999.25         2.1018         1.8493       -74.0819      -12.96023      0.3359848
      1387.0000         2.5836        -999.25        -999.25         2.0984         1.8395        -73.474      -12.41937      0.3720421
      1387.5000         2.6335        -999.25        -999.25          2.095         1.8296        -72.866      -11.87841       0.408106
      1388.0000         2.6833        -999.25        -999.25         2.0917         1.8104       -72.2579      -11.33736      0.4441762
      1388.5000         2.7332        -999.25        -999.25         2.0883           1.79       -71.6499      -10.79641      0.4802396
      1389.0000         2.7831        -999.25        -999.25         2.0913         1.7815       -71.1328      -10.34634      0.5102437
      1389.5000         2.8318        -999.25        -999.25         2.0944         1.7749       -70.7159       -9.99649      0.5335673
      1390.0000         2.8798        -999.25        -999.25         2.0974         1.7682        -70.299      -9.646641      0.5568906
      1390.5000         2.9278        -999.25        -999.25         2.1005         1.7825       -69.8821      -9.296783      0.5802144
      1391.0000         2.9758        -999.25        -999.25         2.1054         1.8009       -69.4652       -8.94693       0.603538
      1391.5000         3.0238        -999.25        -999.25         2.1204         1.8192       -69.0482      -8.596973      0.6268684
      1392.0000         3.0627        -999.25        -999.25         2.1355         1.8376       -69.1008      -8.716614      0.6188924
      1392.5000         3.0995        -999.25        -999.25         2.1413         1.8542       -69.4221      -9.104954      0.5930031
      1393.0000         3.1364        -999.25        -999.25          2.129         1.8696       -69.7434      -9.493305       0.567113
      1393.5000         3.1705        -999.25        -999.25         2.1167          1.885       -70.0648      -9.881744       0.541217
      1394.0000         3.1944        -999.25        -999.25         2.1044         1.9005       -70.3862      -10.27019      0.5153206
      1394.5000         3.2184        -999.25        -999.25         2.0921         1.9159       -70.8955      -10.84654      0.4768974
      1395.0000         3.2423        -999.25        -999.25          2.091         1.9169       -71.4486      -11.46668      0.4355545
      1395.5000         3.2434        -999.25        -999.25         2.0912         1.9078        -72.002      -12.08712      0.3941917
      1396.0000         3.2098        -999.25        -999.25         2.0914         1.8986       -72.5552      -12.70737      0.3528419
      1396.5000          3.178        -999.25        -999.25         2.0916         1.8895       -73.1085      -13.32771      0.3114858
      1397.0000         3.1462        -999.25        -999.25         2.0918         1.8818       -73.7305      -14.01676      0.2655495
      1397.5000         3.1204        -999.25        -999.25          2.092          1.883       -74.6595      -15.01281      0.1991463
      1398.0000         3.1322        -999.25        -999.25         2.0862         1.8842       -75.5886      -16.00895      0.1327367
      1398.5000          3.144        -999.25        -999.25         2.0771         1.8854       -76.5176      -17.00499     0.06633377
      1399.0000         3.1557        -999.25        -999.25          2.068         1.8865       -76.9519      -17.50634     0.03291092
      1399.5000         3.1675        -999.25        -999.25         2.0589         1.8877        -76.532      -17.15348     0.05643463
      1400.0000         3.1929        -999.25        -999.25         2.0499         1.8889       -76.1121      -16.80062     0.07995834
      1400.5000         3.2197        -999.25        -999.25         2.0408         1.8895       -75.8932      -16.64877     0.09008179
      1401.0000         3.2166        -999.25        -999.25           2.03         1.8862       -75.7894      -16.61201     0.09253235
      1401.5000         3.1965        -999.25        -999.25         2.0179         1.8829       -75.6855      -16.57516     0.09498927
      1402.0000         3.1999        -999.25        -999.25         2.0059         1.8796       -75.5817      -16.53841     0.09743957
      1402.5000         3.1989        -999.25        -999.25         1.9939         1.8763        -75.444      -16.46775        0.10215
      1403.0000         3.1758        -999.25        -999.25         1.9819         1.8552       -75.2577      -16.34849      0.1101006
      1403.5000         3.1527        -999.25        -999.25         1.9699         1.8271       -75.0714      -16.22924      0.1180506
      1404.0000         3.1165        -999.25        -999.25           1.97          1.799        -74.885      -16.10989      0.1260076
      1404.5000         3.0758        -999.25        -999.25         1.9739         1.7732       -74.6987      -15.99063      0.1339582
      1405.0000          3.035        -999.25        -999.25         1.9777         1.7498       -74.5125      -15.87147      0.1419022
      1405.5000         2.9943        -999.25        -999.25         1.9816         1.7264       -73.9076      -15.33362      0.1777588
      1406.0000         2.9647        -999.25        -999.25         1.9855          1.703       -73.2958      -14.78886       0.214076
      1406.5000         2.9621        -999.25        -999.25         1.9834         1.6797       -72.6838       -14.2439      0.2504064
      1407.0000         2.9595        -999.25        -999.25         1.9759         1.6563       -72.0719      -13.69905      0.2867299
      1407.5000         2.9395        -999.25        -999.25         1.9685         1.6329       -71.4601      -13.15429      0.3230471
      1408.0000         2.9007        -999.25        -999.25         1.9611         1.6095       -71.0227      -12.78394      0.3477376
      1408.5000         2.8619        -999.25        -999.25         1.9536         1.5862       -70.8726      -12.70088      0.3532745
      1409.0000         2.8187        -999.25        -999.25         1.9462         1.5783       -70.7223      -12.61763      0.3588249
      1409.5000         2.7615        -999.25        -999.25         1.9388         1.5738       -70.5721      -12.53447      0.3643687
      1410.0000         2.7043        -999.25        -999.25         1.9259         1.5693       -70.4219      -12.45131      0.3699125
      1410.5000          2.647        -999.25        -999.25         1.9124         1.5649       -70.4348      -12.53126      0.3645826
      1411.0000         2.5932        -999.25        -999.25         1.8989         1.5604       -70.5804       -12.7439      0.3504064
      1411.5000         2.5649        -999.25        -999.25         1.8853         1.5559       -70.7261      -12.95665      0.3362236
      1412.0000         2.5756        -999.25        -999.25         1.8718         1.5528       -70.8717      -13.16929      0.3220472
      1412.5000         2.5863        -999.25        -999.25         1.8583         1.5516       -70.3992      -12.76384      0.3490773
      1413.0000         2.5914        -999.25        -999.25         1.8448         1.5505       -69.6851      -12.11678      0.3922147
      1413.5000          2.569        -999.25        -999.25          1.835         1.5493       -68.9709      -11.46963      0.4353579
