#------------------------------------------------------------------------------
# Created by    : vladimir.rabinovich
# Created on    : 09/19/2023 17:21:24
#------------------------------------------------------------------------------
~Version Information Section
VERS.           2.0     :   CWLS log ASCII Standard - VERSION 2.0
WRAP.           NO      :   One line per depth step
~Well Information Section
#MNEM       .UNIT                                         VALUE :DESCRIPTION
#------------------------------------------------------------------------------
STRT        .FT                                             682 :START DEPTH
STOP        .FT                                            8542 :STOP DEPTH
STEP        .FT                                             0.5 :STEP      
NULL        .                                           -999.25 :NULL      
COMP        .                       CORPUS CHRISTI OIL & GAS CO :COMPANY   
WELL        .                               OCS G08551 ST00BP00 :WELL      
FLD         .                                           WILDCAT :FIELD     
LOC         .                                                   :LOCATION  
CNTY        .                             GALVESTON LARGE BLOCK :LOCATION  
STAT        .                                             TEXAS :STATE     
CTRY        .                                     UNITED STATES :COUNTRY   
SRVC        .                                                   :SERVICE COMPANY
DATE        .                             9/13/2023 11:19:36 AM :LOG DATE  
API         .                                    42706401950000 :API NUMBER
UWI         .                                    42706401950000 :UNIQUE WELL ID
XCOORD      .                                   976199.22633255 :SURFACE X 
YCOORD      .                                  10415950.2633902 :SURFACE Y 
LAT         .                                         28.686063 :LATITUDE  
LON         .                                        -95.072067 :LONGITUDE 
ELEV        .FT                                              81 :ELEVATION VALUE
ELEV_TYPE   .                                                KB :ELEVATION REFERENCE TYPE
~Curve Information Section
#MNEM       .UNIT                                      API CODE :CURVE DESCRIPTION
#------------------------------------------------------------------------------
DEPT        .FT                                                 :DEPTH     
CALI        .IN                                                 :          
DPHI        .%                                                  :          
DRHO        .G/C3                                               :          
DT          .US/F                                               :          
GR          .GAPI                                               :          
GR_1        .GAPI                                               :          
GR_NORM     .GAPI                                               :GammaRay Normalized
ILD         .OHMM                                               :          
ILM         .OHMM                                               :          
NPHI        .%                                                  :          
SFL         .OHMM                                               :          
SP_NORM     .MV                                                 :SP Normalized
SPS         .MV                                                 :          
VSH_GR      .V/V                                                :Volume of Shale from GR
VSH_SP      .V/V                                                :Volume of Shale from SP
~A        DEPTH           CALI           DPHI           DRHO             DT             GR           GR_1        GR_NORM            ILD            ILM           NPHI            SFL        SP_NORM            SPS         VSH_GR         VSH_SP
# ...
      8281.0000         6.4598        27.5297        -0.1124       126.5775        -999.25        74.0114       65.18666         0.4304         0.4443        40.7695         0.5071    -0.08159256       -44.4039      0.6848226              1
      8281.5000         6.4453        27.5327        -0.1139       124.2944        -999.25        75.4403       66.97279         0.4291         0.4442        41.1387         0.5047      0.2237282       -44.0908      0.7228254              1
      8282.0000          6.432        27.3435        -0.1143        122.391        -999.25        75.7664       67.38042         0.4272         0.4431        40.8285         0.5141      0.5348549       -43.7719      0.7314982              1
      8282.5000          6.425        27.2538        -0.1138       122.6421        -999.25        73.9767       65.14329         0.4247         0.4429        40.3867          0.528      0.8085785       -43.4904      0.6838998              1
      8283.0000         6.4284        27.2422        -0.1132       123.5063        -999.25        73.1017       64.04954         0.4223         0.4462        40.0647         0.5391      0.6669044       -43.6243      0.6606284              1
      8283.5000         6.4622        27.1646        -0.1121       124.4594        -999.25        73.5494       64.60916         0.4221          0.448        39.9504         0.5433      0.8695297       -43.4139      0.6725354              1
      8284.0000         6.4968        26.9791        -0.1104       125.5796        -999.25        75.1501       66.61004         0.4218         0.4465        40.3918         0.5442       1.135651         -43.14      0.7151072              1
      8284.5000         6.5361        26.9675        -0.1086       126.6362        -999.25        76.7731       68.63879         0.4221          0.449        40.9074         0.5426      0.8219757       -43.4459      0.7582722              1
      8285.0000          6.575        27.2907        -0.1076       126.4733        -999.25        77.9032       70.05141         0.4226         0.4479        40.8359         0.5379      0.5777969       -43.6823       0.788328              1
      8285.5000         6.6121        27.6463        -0.1083       126.3903        -999.25         77.193       69.16367         0.4228         0.4457        40.3077         0.5289      0.7791214       -43.4732      0.7694397              1
      8286.0000         6.6398        27.8926          -0.11       126.3839        -999.25        75.6244       67.20291         0.4229         0.4442        40.6692         0.5197      0.8242493       -43.4203      0.7277215              1
      8286.5000         6.6507        27.9068        -0.1113          125.8        -999.25        73.9928       65.16341         0.4244         0.4426        42.6105         0.5121      0.4522705       -43.7845       0.684328              1
      8287.0000          6.624        27.5194        -0.1108       125.0913        -999.25        73.2208       64.19842         0.4275          0.448        43.2959           0.51     -0.0144043       -44.2434      0.6637961              1
      8287.5000         6.5182        27.0879        -0.1092       124.0934        -999.25        71.7115       62.31179         0.4334         0.4539        42.3479          0.521     -0.3071823       -44.5284      0.6236551              1
      8288.0000         6.3705        26.7862        -0.1073       123.1542        -999.25        69.2908       59.28592         0.4408          0.459        40.7503         0.5423     -0.1713562       -44.3848      0.5592749              1
      8288.5000         6.2336        27.1403        -0.1085       123.4189        -999.25        67.0947       56.54079         0.4483         0.4677        41.3035         0.5739      0.0378685       -44.1678       0.500868              1
      8289.0000         6.0958        27.6927        -0.1193       124.3506        -999.25        65.8528       54.98841         0.4544         0.4764        43.1593         0.5913      0.2519913       -43.9459      0.4678385              1
      8289.5000         5.9834        28.2297        -0.1257       125.4797        -999.25        68.5151       58.31629         0.4601         0.4825        44.1779         0.5863      0.5088158       -43.6813      0.5386444              1
      8290.0000         5.8961        28.5679         -0.124       126.6212        -999.25        72.0771       62.76879          0.465         0.4864        44.5124         0.5774      0.6768379       -43.5055      0.6333786              1
      8290.5000        -999.25        -999.25        -999.25       125.5583        -999.25        -999.25        -999.25         0.4688         0.4888        -999.25         0.5705      0.3248634       -43.8497        -999.25              1
      8291.0000        -999.25        -999.25        -999.25        124.222        -999.25        -999.25        -999.25         0.4695         0.4863        -999.25         0.5718    -0.06721115        -44.234        -999.25              1
      8291.5000        -999.25        -999.25        -999.25       122.7183        -999.25        -999.25        -999.25         0.4654          0.481        -999.25         0.5801     -0.2697868       -44.4288        -999.25              1
      8292.0000        -999.25        -999.25        -999.25       121.9713        -999.25        -999.25        -999.25         0.4577         0.4727        -999.25         0.5811     -0.1779633       -44.3292        -999.25              1
      8292.5000        -999.25        -999.25        -999.25       122.7938        -999.25        -999.25        -999.25         0.4489         0.4632        -999.25         0.5813     -0.1457405       -44.2892        -999.25              1
      8293.0000        -999.25        -999.25        -999.25       123.1685        -999.25        -999.25        -999.25         0.4391         0.4566        -999.25         0.5565    -0.07811356       -44.2138        -999.25              1
      8293.5000        -999.25        -999.25        -999.25        123.147        -999.25        -999.25        -999.25         0.4299          0.452        -999.25         0.5318    0.004211426       -44.1237        -999.25              1
      8294.0000        -999.25        -999.25        -999.25       123.0199        -999.25        -999.25        -999.25         0.4224         0.4453        -999.25         0.5156    -0.03896713       -44.1591        -999.25              1
      8294.5000        -999.25        -999.25        -999.25       123.4214        -999.25        -999.25        -999.25         0.4151         0.4368        -999.25         0.5108     -0.4188423       -44.5312        -999.25              1
      8295.0000        -999.25        -999.25        -999.25       124.0184        -999.25        -999.25        -999.25         0.4087         0.4314        -999.25         0.5189     -0.7332191       -44.8378        -999.25              1
      8295.5000        -999.25        -999.25        -999.25       124.5748        -999.25        -999.25        -999.25         0.4031         0.4292        -999.25         0.5191     -0.9647942       -45.0616        -999.25              1
      8296.0000        -999.25        -999.25        -999.25       125.1974        -999.25        -999.25        -999.25         0.3999         0.4285        -999.25         0.5205     -0.9038696       -44.9929        -999.25              1
      8296.5000        -999.25        -999.25        -999.25       125.8457        -999.25        -999.25        -999.25         0.3976          0.428        -999.25         0.5242     -0.7204475       -44.8017        -999.25              1
      8297.0000        -999.25        -999.25        -999.25       126.3412        -999.25        -999.25        -999.25          0.398         0.4241        -999.25         0.5233     -0.9696198       -45.0431        -999.25              1
      8297.5000        -999.25        -999.25        -999.25       126.4628        -999.25        -999.25        -999.25         0.3982         0.4206        -999.25         0.5203      -1.244301         -45.31        -999.25      0.9923656
