#------------------------------------------------------------------------------
# Created by    : vladimir.rabinovich
# Created on    : 09/19/2023 17:19:58
#------------------------------------------------------------------------------
~Version Information Section
VERS.           2.0     :   CWLS log ASCII Standard - VERSION 2.0
WRAP.           NO      :   One line per depth step
~Well Information Section
#MNEM       .UNIT                                         VALUE :DESCRIPTION
#------------------------------------------------------------------------------
STRT        .FT                                             782 :START DEPTH
STOP        .FT                                            8251 :STOP DEPTH
STEP        .FT                                             0.5 :STEP      
NULL        .                                           -999.25 :NULL      
COMP        .                                     TALOS ERT LLC :COMPANY   
WELL        .                               OCS G06037 ST00BP00 :WELL      
FLD         .                       MATAGORDA ISLAND BLOCK 0619 :FIELD     
LOC         .                                                   :LOCATION  
CNTY        .                      MATAGORDA ISLAND LARGE BLOCK :LOCATION  
STAT        .                                             TEXAS :STATE     
CTRY        .                                     UNITED STATES :COUNTRY   
SRVC        .                                                   :SERVICE COMPANY
DATE        .                             9/13/2023 11:18:52 AM :LOG DATE  
API         .                                    42703402240000 :API NUMBER
UWI         .                                    42703402240000 :UNIQUE WELL ID
XCOORD      .                                  606760.800591327 :SURFACE X 
YCOORD      .                                  10227689.0556145 :SURFACE Y 
LAT         .                                        28.1463556 :LATITUDE  
LON         .                                       -96.2076889 :LONGITUDE 
ELEV        .FT                                              77 :ELEVATION VALUE
ELEV_TYPE   .                                                KB :ELEVATION REFERENCE TYPE
~Curve Information Section
#MNEM       .UNIT                                      API CODE :CURVE DESCRIPTION
#------------------------------------------------------------------------------
DEPT        .FT                                                 :DEPTH     
ASFL        .OHMM                                               :          
CALI        .IN                                                 :          
CILD        .MMHO                                               :          
DRHO        .G/C3                                               :          
DT          .US/F                                               :          
GR          .GAPI                                               :          
GR_NORM     .GAPI                                               :GammaRay Normalized
ILD         .OHMM                                               :          
ILM         .OHMM                                               :          
NPHI        .%                                                  :          
RHOB        .G/C3                                               :          
SFL         .OHMM                                               :          
SP          .MV                                                 :          
SP_NORM     .MV                                                 :SP Normalized
VSH_GR      .V/V                                                :Volume of Shale from GR
VSH_SP      .V/V                                                :Volume of Shale from SP
~A        DEPTH           ASFL           CALI           CILD           DRHO             DT             GR        GR_NORM            ILD            ILM           NPHI           RHOB            SFL             SP        SP_NORM         VSH_GR         VSH_SP
# ...
      7742.0000         1.2186        10.5692       945.7715        -0.0018         96.679        61.7804       71.78468         1.0718         1.1269        30.4933         2.4349         1.3278       -38.9638      0.8558502       0.825206              1
      7742.5000         1.2532        10.5105       934.0732        -0.0017        96.3854        62.6041       73.40705          1.069         1.1467        29.1828         2.4428         1.3984       -39.3184      0.4875565      0.8597245              1
      7743.0000         1.2914        10.4055       922.4619        -0.0015        96.4957        65.3988       78.92236         1.0716         1.1476        28.9171         2.4479         1.4161       -40.1143     -0.3220291      0.9770716              1
      7743.5000         1.3147        10.3656       929.3096        -0.0014        97.1664         68.106       84.26484         1.0653         1.1315        28.8132         2.4477         1.3737       -40.1187     -0.3401146              1              1
      7744.0000         1.3111        10.3427       940.6357        -0.0016        98.5603        69.7058       87.42009         1.0538         1.0918        28.2745         2.4399         1.3043       -38.8859       0.878994              1              1
      7744.5000         1.2779        10.3788       934.3096         -0.002        101.028        69.7333       87.46982         1.0421         1.0535        28.0133         2.4221         1.2091       -38.5181       1.233105              1              1
      7745.0000         1.2359        10.4532       920.3906        -0.0022       102.2208        66.8761       81.82198          1.036         1.0462        29.5716         2.4114         1.1211       -39.3993      0.3382187              1              1
      7745.5000         1.2226        10.5027       906.4473        -0.0031       101.6504        64.1764       76.48517         1.0334          1.064         31.973         2.4045         1.0321       -40.2068     -0.4829712      0.9252164              1
      7746.0000         1.2685        10.4626       884.8125        -0.0058        98.8926        61.6693       71.52877         1.0558         1.1244        32.9056         2.4031         1.0645       -41.1603      -1.450161      0.8197611              1
      7746.5000         1.3144        10.4327       855.7354        -0.0068        94.0403        58.7896       65.83646          1.127         1.2551        26.8942         2.4215         1.4134       -41.1719      -1.475452       0.698648              1
      7747.0000          1.379        10.4765       825.7637        -0.0065        88.7239        55.3499       59.03809         1.2099         1.3603        19.8785         2.4615         1.9709       -40.6772     -0.9944382      0.5540018              1
      7747.5000         1.5002        10.5388       778.2275         0.0001        84.7952        53.7601       55.89348         1.2932         1.4304        15.8023         2.4791         2.2523       -40.8043      -1.135223      0.4870953              1
      7748.0000         1.6909        10.5473       734.2383         0.0089        83.5035           54.6       57.54781         1.3684         1.4757        15.5997         2.5035         2.2107       -40.9804      -1.325016      0.5222939              1
      7748.5000         1.7394        10.5446       710.7432         0.0148        85.1519        57.9247       64.10991         1.4523         1.5088        19.8444          2.506         1.8874       -40.8527      -1.211002       0.661913              1
      7749.0000          1.796        10.5361        699.082         0.0125        87.1211        59.3807       66.98115         1.4622         1.4908        22.1953         2.5037         1.7673       -40.6985      -1.070496      0.7230031              1
      7749.5000         1.8005        10.5277       733.0723         0.0066        89.8966        60.9118       70.00068         1.4406         1.4113        23.5051         2.4905         1.7855       -40.5114     -0.8970795      0.7872485              1
      7750.0000         1.6761        10.5232       802.7402         0.0012         92.616        65.3289       78.72043         1.2832         1.3066        25.3264         2.4677         1.6829       -40.1505     -0.5498695      0.9727751              1
      7750.5000         1.4895        10.5139       848.4404        -0.0016          95.24        69.5109       86.97581         1.1589         1.2017        29.6784         2.4337         1.3183       -39.9026     -0.3156586              1              1
      7751.0000         1.2556        10.5035       887.9385         0.0008        98.0619         70.177        88.2869         1.0962         1.1432        32.5432         2.4175         1.0942        -39.528     0.04525375              1              1
      7751.5000         1.2063        10.5036       910.8633        -0.0003       100.6174        67.4686       82.93289          1.058         1.1016         32.941          2.401         1.0664       -39.3743      0.1852646              1              1
      7752.0000         1.1916        10.5078       929.2227         -0.004       100.9877        64.3639       76.79618         1.0298         1.0698        32.1335         2.3904         1.0648       -39.7902     -0.2443237      0.9318336              1
      7752.5000         1.1761        10.5088       947.6074        -0.0034       100.2852        61.7943       71.71635          1.019         1.0488        31.4017         2.3899         1.1315       -40.2237     -0.6915131       0.823752              1
      7753.0000         1.1982        10.5055       958.3379        -0.0014        99.1259        60.7862       69.72068         1.0142         1.0723        30.4547         2.3989         1.2364        -40.288     -0.7670403      0.7812911              1
      7753.5000         1.2331        10.5012       950.7832         0.0018        97.7418        60.8394       69.82117         1.0257         1.0927        29.4179         2.4164          1.326       -39.9967     -0.4757423      0.7834291              1
      7754.0000          1.276        10.4953       932.7461          0.004         96.365        62.8141        73.7169         1.0496         1.1031        27.7014         2.4288         1.4283       -39.5729    -0.05194092      0.8663169              1
      7754.5000          1.305        10.4861       914.6846        -0.0025        95.2045        63.8159         75.691         1.0848         1.1071        26.3462         2.4313          1.449       -39.7626      -0.241642      0.9083192              1
      7755.0000         1.3288        10.5491       895.8535        -0.0072        94.9159        62.8416       73.76208         1.1154         1.1164        26.5525         2.4251         1.3546       -40.0914     -0.5704422      0.8672784              1
      7755.5000         1.3341        10.6814       876.8232        -0.0102        95.2057        61.0868       70.29159         1.1507         1.1444        28.9452          2.398         1.2486       -40.2697     -0.7487411       0.793438              1
      7756.0000         1.3394        10.7852       857.8193        -0.0126        95.2413        59.0145       66.19397         1.1825         1.1863        30.4718         2.3791         1.2083       -40.2563     -0.7353439      0.7062547              1
      7756.5000         1.3446        10.8235       845.1797        -0.0139        94.4227        58.1771       64.53545         1.2063         1.2407        29.2213         2.3836         1.2727       -40.2271     -0.7061424      0.6709669              1
      7757.0000          1.357        10.8164       843.5625         -0.012        92.7576        57.8964        63.9765         1.2085         1.2753        26.4382         2.3996         1.4702        -40.219     -0.6980438      0.6590745              1
      7757.5000           1.38        10.7466       844.4209        -0.0076        90.9985        58.2946        64.7584         1.1965         1.2851        24.8069         2.4122         1.6237       -40.2991      -0.778141      0.6757106              1
