#------------------------------------------------------------------------------
# Created by    : vladimir.rabinovich
# Created on    : 09/19/2023 17:20:48
#------------------------------------------------------------------------------
~Version Information Section
VERS.           2.0     :   CWLS log ASCII Standard - VERSION 2.0
WRAP.           NO      :   One line per depth step
~Well Information Section
#MNEM       .UNIT                                         VALUE :DESCRIPTION
#------------------------------------------------------------------------------
STRT        .FT                                             495 :START DEPTH
STOP        .FT                                            6623 :STOP DEPTH
STEP        .FT                                             0.5 :STEP      
NULL        .                                           -999.25 :NULL      
COMP        .                                      SHELL OIL CO :COMPANY   
WELL        .                                     ST TR 00691-L :WELL      
FLD         .                                           WILDCAT :FIELD     
LOC         .                                                   :LOCATION  
CNTY        .                      MATAGORDA ISLAND LARGE BLOCK :LOCATION  
STAT        .                                             TEXAS :STATE     
CTRY        .                                     UNITED STATES :COUNTRY   
SRVC        .                                                   :SERVICE COMPANY
DATE        .                             9/13/2023 11:12:05 AM :LOG DATE  
API         .                                    42703000200000 :API NUMBER
UWI         .                                    42703000200000 :UNIQUE WELL ID
XCOORD      .                                  411465.852171861 :SURFACE X 
YCOORD      .                                  10158718.0598508 :SURFACE Y 
LAT         .                                        27.9414781 :LATITUDE  
LON         .                                       -96.8060481 :LONGITUDE 
ELEV        .FT                                              11 :ELEVATION VALUE
ELEV_TYPE   .                                                KB :ELEVATION REFERENCE TYPE
~Curve Information Section
#MNEM       .UNIT                                      API CODE :CURVE DESCRIPTION
#------------------------------------------------------------------------------
DEPT        .FT                                                 :DEPTH     
ASN         .OHMM                                               :          
CILD        .OHMM                                               :          
ILD         .OHMM                                               :          
SP          .MV                                                 :          
SP_NORM     .MV                                                 :SP Normalized
VSH_SP      .V/V                                                :Volume of Shale from SP
~A        DEPTH            ASN           CILD            ILD             SP        SP_NORM         VSH_SP
# ...
      6157.0000         1.5654       961.0703         0.9994         -53.08         -7.797      0.8906226
      6157.5000         1.5759        942.125         1.0276       -54.0019        -8.7189      0.8732283
      6158.0000         1.5861       925.9688         1.0557       -54.9634        -9.6804      0.8550868
      6158.5000         1.5921       913.3672         1.0839       -55.9796       -10.6966      0.8359132
      6159.0000          1.589       900.7695         1.1008       -55.0242        -9.7412      0.8539396
      6159.5000         1.5252       892.0664         1.1142        -53.987         -8.704      0.8735094
      6160.0000         1.4158       906.7031         1.0809       -52.5577        -7.2747      0.9004773
      6160.5000         1.0664       1125.637          0.988       -51.5775        -6.2945      0.9189717
      6161.0000         0.9919       1334.129         0.8733        -53.652         -8.369      0.8798302
      6161.5000         0.9599       1542.621         0.7829       -54.9448        -9.6618      0.8554378
      6162.0000         0.9468       1742.438         0.7121       -55.7898       -10.5068      0.8394943
      6162.5000         0.9416       1857.254         0.6474       -55.0925        -9.8095      0.8526509
      6163.0000         0.9499       1873.289         0.5955        -54.358         -9.075      0.8665094
      6163.5000         0.9939       1882.168         0.5587       -54.8505        -9.5675       0.857217
      6164.0000         1.0294       1859.246         0.5937       -60.5952       -15.3122      0.7488264
      6164.5000         1.0501       1778.602         0.6288       -63.9303       -18.6473         0.6859
      6165.0000         1.0684       1686.621         0.6866       -66.6251       -21.3421      0.6350547
      6165.5000         1.0838       1600.754         0.7683       -68.7964       -23.5134      0.5940868
      6166.0000         1.1056       1466.555          0.833       -72.7147       -27.4317      0.5201566
      6166.5000         1.1536       1332.355         0.8922       -73.8264       -28.5434      0.4991811
      6167.0000         1.3703       1198.156         0.9455       -65.5929       -20.3099      0.6545302
      6167.5000         1.4116       1063.957          0.991       -61.8781       -16.5951      0.7246208
      6168.0000          1.455       874.2617         1.0365       -58.5355       -13.2525      0.7876887
      6168.5000         1.5003       848.8008         1.0834        -52.982         -7.699      0.8924717
      6169.0000         1.5713       841.8516         1.1304       -52.0651        -6.7821      0.9097717
      6169.5000         1.5398       835.9297         1.1698       -51.2003        -5.9173      0.9260887
      6170.0000         1.4662       830.0586         1.1984       -50.7332        -5.4502      0.9349019
      6170.5000         1.6364       819.8125         1.2187        -50.266         -4.983       0.943717
      6171.0000         1.8263       807.4844          1.224       -49.7989        -4.5159      0.9525302
      6171.5000         1.8526       785.9297         1.2293       -49.4232        -4.1402      0.9596189
      6172.0000         1.9279       752.1836         1.2543       -49.0576        -3.7746       0.966517
      6172.5000          2.001       734.5469          1.295        -49.328         -4.045      0.9614151
      6173.0000         2.1785       725.2773         1.3358       -50.8802        -5.5972      0.9321283
      6173.5000         2.2122       719.4102         1.3808       -53.2004        -7.9174       0.888351
      6174.0000         2.2307       740.3828         1.3784       -55.6694       -10.3864      0.8417661
      6174.5000         2.1949       1013.906         1.2871       -60.1138       -14.8308      0.7579094
      6175.0000          2.001       1177.367         1.1564       -72.8387       -27.5557       0.517817
      6175.5000         1.7274        1305.75         1.0254       -76.0609       -30.7779      0.4570207
      6176.0000         1.3039       1434.137         0.8623       -77.6156       -32.3326      0.4276868
      6176.5000         1.1749       1562.621         0.6546       -80.8093       -35.5263      0.3674283
      6177.0000         1.1542       2066.336         0.5391       -82.9639       -37.6809      0.3267755
      6177.5000         1.1263       2102.492         0.4834       -82.6555       -37.3725      0.3325943
      6178.0000         1.0773       2098.602         0.4557       -80.7957       -35.5127      0.3676849
      6178.5000         0.9902       2069.488         0.4525       -79.1677       -33.8847      0.3984019
      6179.0000         0.9446       2047.469         0.4541       -77.9072       -32.6242      0.4221849
      6179.5000         0.9142       2025.051         0.4851        -76.515        -31.232      0.4484528
      6180.0000         1.0148       1996.309         0.5216       -74.6354       -29.3524       0.483917
      6180.5000         1.0601       1995.281         0.5587       -71.9082       -26.6252      0.5353736
      6181.0000         1.0888        1994.25         0.5999        -67.444        -22.161      0.6196038
      6181.5000         1.0797       1892.602          0.641       -64.7715       -19.4885      0.6700283
      6182.0000         1.0706       1754.855         0.6821       -63.1163       -17.8333      0.7012585
      6182.5000         1.0616       1617.109         0.7248       -61.7503       -16.4673      0.7270321
      6183.0000         1.0538       1479.363         0.7684       -60.5195       -15.2365      0.7502548
      6183.5000         1.2395       1341.813          0.812       -60.5015       -15.2185      0.7505943
      6184.0000         1.2943       1130.957         0.8543       -61.2621       -15.9791      0.7362434
      6184.5000          1.329       1076.324         0.8933       -61.9485       -16.6655      0.7232925
      6185.0000         1.4725        1040.41         0.9323       -62.2305       -16.9475      0.7179717
      6185.5000          1.658       1002.129         0.9714       -60.4388       -15.1558      0.7517774
      6186.0000         1.6843       963.6563         1.0093       -58.7291       -13.4461      0.7840359
      6186.5000         1.6934       916.7031         1.0472       -59.1807       -13.8977      0.7755151
      6187.0000         1.6619       886.9492         1.0851       -59.8185       -14.5355      0.7634811
      6187.5000         1.6342        868.707         1.1192       -60.2912       -15.0082      0.7545623
      6188.0000         1.8645       853.2148         1.1514       -60.7633       -15.4803      0.7456547
      6188.5000         1.9309       841.9961         1.1837        -61.236        -15.953      0.7367358
      6189.0000         1.9846       830.7266         1.2086       -61.7087       -16.4257       0.727817
      6189.5000          2.001       817.7187         1.2334       -62.0471       -16.7641      0.7214321
      6190.0000          2.001       813.9141         1.2142       -62.6783       -17.3953      0.7095227
      6190.5000          2.001       842.6094         1.1925       -64.3918       -19.1088      0.6771924
      6191.0000          1.974       888.3516         1.1707       -66.1821       -20.8991      0.6434132
      6191.5000          1.767       918.8711         1.1484       -65.5358       -20.2528      0.6556075
      6192.0000         1.6982       953.0625         1.1246       -61.7317       -16.4487       0.727383
      6192.5000         1.6715       974.4688         1.1008       -59.1832       -13.9002      0.7754679
      6193.0000         1.5842       984.6406          1.077        -57.801        -12.518      0.8015472
      6193.5000         1.6894       982.6328         1.0641       -56.9493       -11.6663       0.817617
      6194.0000         1.7382       967.8906         1.0704       -56.3754       -11.0924      0.8284453
      6194.5000         1.6483       920.8906         1.0766       -55.8016       -10.5186      0.8392717
