#------------------------------------------------------------------------------
# Created by    : vladimir.rabinovich
# Created on    : 09/19/2023 17:22:17
#------------------------------------------------------------------------------
~Version Information Section
VERS.           2.0     :   CWLS log ASCII Standard - VERSION 2.0
WRAP.           NO      :   One line per depth step
~Well Information Section
#MNEM       .UNIT                                         VALUE :DESCRIPTION
#------------------------------------------------------------------------------
STRT        .FT                                             996 :START DEPTH
STOP        .FT                                            8436 :STOP DEPTH
STEP        .FT                                             0.5 :STEP      
NULL        .                                           -999.25 :NULL      
COMP        .                                    TDC ENERGY LLC :COMPANY   
WELL        .                               OCS G03738 ST00BP00 :WELL      
FLD         .                              GALVESTON BLOCK 0255 :FIELD     
LOC         .                                                   :LOCATION  
CNTY        .                             GALVESTON LARGE BLOCK :LOCATION  
STAT        .                                             TEXAS :STATE     
CTRY        .                                     UNITED STATES :COUNTRY   
SRVC        .                                                   :SERVICE COMPANY
DATE        .                             9/13/2023 11:18:53 AM :LOG DATE  
API         .                                    42706400460000 :API NUMBER
UWI         .                                    42706400460000 :UNIQUE WELL ID
XCOORD      .                                   1080542.6436948 :SURFACE X 
YCOORD      .                                  10548065.2081286 :SURFACE Y 
LAT         .                                        29.0539695 :LATITUDE  
LON         .                                       -94.7527854 :LONGITUDE 
ELEV        .FT                                              94 :ELEVATION VALUE
ELEV_TYPE   .                                                KB :ELEVATION REFERENCE TYPE
~Curve Information Section
#MNEM       .UNIT                                      API CODE :CURVE DESCRIPTION
#------------------------------------------------------------------------------
DEPT        .FT                                                 :DEPTH     
CALI        .IN                                                 :          
CILD        .MMHO                                               :          
DT          .US/F                                               :          
GR          .GAPI                                               :          
GR_NORM     .GAPI                                               :GammaRay Normalized
ILD         .OHMM                                               :          
ILM         .OHMM                                               :          
RHOB        .G/C3                                               :          
SFL         .OHMM                                               :          
SP          .MV                                                 :          
SP_NORM     .MV                                                 :SP Normalized
VSH_GR      .V/V                                                :Volume of Shale from GR
VSH_SP      .V/V                                                :Volume of Shale from SP
~A        DEPTH           CALI           CILD             DT             GR        GR_NORM            ILD            ILM           RHOB            SFL             SP        SP_NORM         VSH_GR         VSH_SP
# ...
      3960.0000        12.5747       4137.875       122.9878        35.5352       46.08502         0.2465          0.317         1.9053         0.5049       -92.7256      -46.18634      0.2784047      0.1602483
      3960.5000        12.7486        4107.75       122.2407         33.248       42.91342         0.2459         0.3071         1.9036         0.6472       -94.1426      -47.59737      0.2109239      0.1345933
      3961.0000        12.7827       3997.188       121.5298         31.917       41.06636         0.2493         0.2863          1.904         0.6579       -95.7373      -49.18609      0.1716246      0.1057075
      3961.5000        12.7565       3922.219        120.814         31.591       40.61141         0.2516         0.2729         1.9051         0.5855       -96.8662      -50.30902      0.1619449      0.0852906
      3962.0000        12.7314       4078.875       120.0142        31.8862       41.01695         0.2425         0.2619         1.9028         0.5224       -97.5635      -51.00034      0.1705734     0.07272117
      3962.5000        12.7391        4525.25       119.2813        30.8721       39.60884         0.2275         0.2533         1.9009         0.4933       -98.3486      -51.77946      0.1406137     0.05855526
      3963.0000        12.7468       4782.125       118.8105        29.5908       37.83062         0.2141         0.2459         1.9008         0.5061       -99.0664      -52.49128      0.1027792      0.0456131
      3963.5000         12.762        4965.75        119.271        28.7295       36.63417         0.2019         0.2412         1.9011         0.5229       -99.7725      -53.19141     0.07732286     0.03288352
      3964.0000        12.7837       5038.125       120.0356        29.5552       37.77456         0.1951          0.239         1.8982         0.5397      -100.7129      -54.12583      0.1015863     0.01589404
      3964.5000        12.8127       5048.969       121.0166        30.5029       39.08393         0.1943         0.2379         1.8947         0.5565      -101.9668      -55.37375      0.1294453              0
      3965.0000        12.8539       5044.367        121.442        30.3667        38.8919         0.1939         0.2368         1.8914          0.569       -102.884      -56.28498      0.1253595              0
      3965.5000         12.877        5038.75       120.5508        29.8196       38.13068         0.1953         0.2347         1.8939         0.5388      -101.8545       -55.2495      0.1091633              0
      3966.0000         12.872       5026.688       119.1406        29.6576       37.90291         0.1974         0.2326         1.8963         0.4866       -99.3809      -52.76992      0.1043172     0.04054697
      3966.5000        12.8357       4887.375       118.8203        29.8628       38.18377         0.2004         0.2305         1.9015         0.4589       -95.3262      -48.70925       0.110293      0.1143773
      3967.0000        12.7994       4661.625       119.4797        30.3828        38.9007         0.2084         0.2294         1.9067          0.494       -92.3379      -45.71497      0.1255469      0.1688188
      3967.5000        12.8381         4505.5       119.7319        31.6152       40.60444          0.223         0.2351         1.9117         0.5191       -90.2549      -43.62599      0.1617966      0.2068002
      3968.0000        12.9017       4355.125       118.7847         34.043       43.96405         0.2314         0.2643         1.9093         0.4849       -88.4541      -41.81921      0.2332776      0.2396507
      3968.5000        12.9721         4262.5       116.8789        36.2676       47.04218         0.2388         0.2752          1.904         0.4519        -86.291      -39.65014      0.2987698      0.2790885
      3969.0000        12.9796       4120.625       114.8896        37.4243       48.64106         0.2512         0.2813         1.8971         0.4566       -83.6895      -37.04266      0.3327886      0.3264972
      3969.5000        13.0089       3907.875       115.1797        37.3387       48.51911         0.2636         0.2895         1.8941         0.5087       -80.7871      -34.13428      0.3301938      0.3793766
      3970.0000         13.073        3653.25       124.4609        37.7927       49.14462         0.2749         0.3092         1.8925         0.5597       -77.5586      -30.89981      0.3435025      0.4381853
      3970.5000        13.0281         3282.5       129.3008        40.2207        52.5045         0.2852         0.3317         1.8963         0.4861       -75.9609      -29.29613      0.4149893      0.4673432
      3971.0000        12.9619       2769.125       131.9336        42.7061       55.94389         0.3022         0.3586         1.9005         0.4018       -75.8633      -29.19255      0.4881678      0.4692264
      3971.5000         12.922       2789.375       131.6035        44.3867       58.26846         0.3223         0.3754         1.9055         0.3804       -79.3242      -32.64748      0.5376269      0.4064095
      3972.0000        12.9401         2973.5       129.0518         43.623       57.20723         0.3354         0.3689         1.9105         0.4439       -84.1387        -37.456      0.5150474      0.3189819
      3972.5000        13.0667       3182.625       127.3135        40.3809       52.71291          0.309         0.3454         1.9155         0.5106       -87.4258      -40.73712      0.4194236      0.2593251
      3973.0000        13.1744           3360       125.8809        36.6621       47.55827         0.2941         0.3184         1.9192         0.5508       -90.2676      -43.57294      0.3097505      0.2077646
      3973.5000        13.2354         3533.5       124.7246        33.5928       43.30332         0.2694         0.2854         1.9148         0.5488       -91.9141      -45.21347      0.2192195       0.177937
      3974.0000        13.2314           4189       124.0732        31.7915       40.80479         0.2389         0.2537         1.9066         0.5191       -93.0552      -46.34859      0.1660594      0.1572984
      3974.5000        13.2026           4671       123.8262        30.8044       39.43409         0.2151         0.2318         1.9002         0.4945       -93.6968      -46.98421      0.1368956      0.1457416
      3975.0000        13.1846       5106.375       123.8488        30.6984       39.28389         0.1944         0.2212         1.8955         0.4918       -94.1401      -47.42154      0.1336998      0.1377903
      3975.5000        13.1797       5333.125        123.905        31.3452       40.17646         0.1774         0.2163         1.8926         0.5055       -94.4371      -47.71256      0.1526906      0.1324989
      3976.0000        13.1786        5522.25       123.9719        32.1777       41.32626         0.1712         0.2132         1.8884         0.5172       -94.4611      -47.73058      0.1771545      0.1321713
      3976.5000        13.1777       5673.945       123.1426        33.0664       42.55391         0.1701          0.212          1.891         0.5133       -94.4144       -47.6779      0.2032746       0.133129
      3977.0000        13.1546       5679.664       121.9727        31.9375       40.98679         0.1697         0.2138         1.8928          0.484       -94.3273      -47.58483      0.1699317      0.1348213
      3977.5000        13.1378       5682.828       120.7954        31.2554       40.03857         0.1694         0.2154         1.8945         0.4528       -94.2875      -47.53905      0.1497569      0.1356537
      3978.0000        13.1576       5705.273       119.8555        30.7966       39.39968         0.1717         0.2165         1.8952          0.441       -94.3689      -47.61447      0.1361633      0.1342823
      3978.5000         13.176       5658.875       118.7979         30.447       38.91203         0.1756          0.218         1.8948         0.4321       -92.8984        -46.138      0.1257879      0.1611273
