#------------------------------------------------------------------------------
# Created by    : vladimir.rabinovich
# Created on    : 09/19/2023 17:21:54
#------------------------------------------------------------------------------
~Version Information Section
VERS.           2.0     :   CWLS log ASCII Standard - VERSION 2.0
WRAP.           NO      :   One line per depth step
~Well Information Section
#MNEM       .UNIT                                         VALUE :DESCRIPTION
#------------------------------------------------------------------------------
STRT        .FT                                             404 :START DEPTH
STOP        .FT                                            9564 :STOP DEPTH
STEP        .FT                                             0.5 :STEP      
NULL        .                                           -999.25 :NULL      
COMP        .                               AMOCO PRODUCTION CO :COMPANY   
WELL        .                               OCS G03108 ST00BP01 :WELL      
FLD         .                                           WILDCAT :FIELD     
LOC         .                                                   :LOCATION  
CNTY        .                      MATAGORDA ISLAND LARGE BLOCK :LOCATION  
STAT        .                                             TEXAS :STATE     
CTRY        .                                     UNITED STATES :COUNTRY   
SRVC        .                                                   :SERVICE COMPANY
DATE        .                             9/13/2023 11:12:09 AM :LOG DATE  
API         .                                    42703400030000 :API NUMBER
UWI         .                                    42703400030000 :UNIQUE WELL ID
XCOORD      .                                  482242.907024332 :SURFACE X 
YCOORD      .                                  10146341.7942038 :SURFACE Y 
LAT         .                                         27.913374 :LATITUDE  
LON         .                                         -96.58609 :LONGITUDE 
ELEV        .FT                                              95 :ELEVATION VALUE
ELEV_TYPE   .                                                KB :ELEVATION REFERENCE TYPE
~Curve Information Section
#MNEM       .UNIT                                      API CODE :CURVE DESCRIPTION
#------------------------------------------------------------------------------
DEPT        .FT                                                 :DEPTH     
CALI        .IN                                                 :          
CILD        .MMHO                                               :          
GR          .GAPI                                               :          
GR_NORM     .GAPI                                               :GammaRay Normalized
ILD         .OHMM                                               :          
RHOB        .G/C3                                               :          
SFL         .OHMM                                               :          
SP          .MV                                                 :          
SP_NORM     .MV                                                 :SP Normalized
VSH_GR      .V/V                                                :Volume of Shale from GR
VSH_SP      .V/V                                                :Volume of Shale from SP
~A        DEPTH           CALI           CILD             GR        GR_NORM            ILD           RHOB            SFL             SP        SP_NORM         VSH_GR         VSH_SP
# ...
      7559.0000        13.7512        -999.25        48.2339         53.577         0.5917         2.1749         1.5979      -101.7806       -66.2611      0.4378085     0.05498381
      7559.5000        13.7311        -999.25        48.5023        54.0312         0.5785         2.1779         1.5749      -102.8959       -67.3747      0.4474724     0.03860732
      7560.0000        13.7108        -999.25        47.2285       51.85201         0.5674         2.2158         1.5898      -104.3855       -68.8626      0.4011066     0.01672644
      7560.5000        13.6906        -999.25        45.8379       49.47335          0.553         2.2221         1.5891      -106.2573       -70.7327      0.3504968              0
      7561.0000        13.6704        -999.25        43.5004       45.47779         0.5419         2.2298          1.518      -107.1301       -71.6037      0.2654849              0
      7561.5000        13.6549        -999.25        41.5472       42.13829         0.5309         2.2425         1.4524       -106.943       -71.4149      0.1944316              0
      7562.0000        13.6428        -999.25        41.2529       41.63165         0.5204         2.2517          1.432       -106.748       -71.2182      0.1836521              0
      7562.5000        13.6416        -999.25        41.6305       42.27234         0.5112         2.2655          1.443      -107.0435        -71.512      0.1972837              0
      7563.0000        13.6476        -999.25        41.3114       41.72335          0.506         2.2297         1.4496      -107.4265       -71.8932      0.1856032              0
      7563.5000        13.6437        -999.25        41.1162       41.38594          0.505         2.2212         1.4419      -107.6729       -72.1379      0.1784242              0
      7564.0000        13.6336        -999.25        41.6809        42.3461         0.5061         2.2136         1.4441      -107.7505       -72.2138      0.1988533              0
      7564.5000        13.6235        -999.25        41.5731       42.15793         0.5114         2.2052         1.4685      -107.6082       -72.0698      0.1948495              0
      7565.0000         13.611        -999.25        41.0083       41.18939         0.5181         2.2195         1.4943      -106.9735       -71.4333      0.1742424              0
      7565.5000        13.5956        -999.25        40.5427       40.39024         0.5258         2.2241         1.5175      -106.1663       -70.6244      0.1572391              0
      7566.0000        13.5803        -999.25        40.8869       40.97372         0.5459         2.2211          1.534        -105.39       -69.8464      0.1696536    0.002258862
      7566.5000        13.5649        -999.25        42.0801        43.0071         0.5582         2.2144         1.5459      -104.4978       -68.9525      0.2129171     0.01540442
      7567.0000        13.5496        -999.25        43.4462       45.33573         0.5675         2.2079           1.56      -103.5059       -67.9588      0.2624623     0.03001763
      7567.5000         13.537        -999.25         44.335       46.84932         0.5756         2.2011         1.5791      -102.4464       -66.8976      0.2946663     0.04562356
      7568.0000        13.5269        -999.25        44.4457       47.03425         0.5824         2.1941         1.6088      -101.2834       -65.7329      0.2986011     0.06275143
      7568.5000        13.5168        -999.25        44.1276       46.48696         0.5875           2.19         1.6568       -100.088       -64.5358      0.2869566     0.08035593
      7569.0000        13.5113        -999.25        44.0299       46.31605         0.5919         2.1879         1.6873       -98.7354       -63.1814      0.2833202      0.1002735
      7569.5000        13.5072        -999.25        44.5696       47.23353         0.5963         2.2122         1.6635        -97.566       -62.0103      0.3028411      0.1174956
      7570.0000        13.5032        -999.25        45.4579        48.7461         0.6015         2.2185         1.6282       -96.6539       -61.0965      0.3350234      0.1309338
      7570.5000        13.4954        -999.25         46.396       50.34388         0.6034         2.2234         1.5977       -95.4585       -59.8994      0.3690188      0.1485382
      7571.0000        13.4866        -999.25        47.5307       52.27736         0.5997         2.2282         1.5852       -92.3064       -56.7455      0.4101567      0.1949191
      7571.5000        13.4778        -999.25        48.7029       54.27488         0.5933         2.2442         1.6084       -87.0504       -51.4878      0.4526571      0.2722382
      7572.0000        13.4727        -999.25        50.7609       57.78497         0.5861          2.252         1.3825        -81.525       -45.9607      0.5273399      0.3535191
      7572.5000        13.4698        -999.25        53.2031       61.95112         0.5769         2.2578         1.0961       -80.1643       -44.5983      0.6159812      0.3735544
      7573.0000        13.4669        -999.25          53.28       62.07832         0.5664         2.2635         1.0201       -84.8093       -49.2415      0.6186876       0.305272
      7573.5000        13.4882        -999.25        48.1509       53.31592         0.5579         2.2574         1.1037       -91.4854       -55.9159      0.4322537      0.2071191
      7574.0000        13.5135        -999.25        46.6065       50.67446         0.5511         2.2454         1.2479       -94.0933       -58.5221      0.3760523      0.1687927
      7574.5000        13.5389        -999.25        45.3138       48.46297         0.5472         2.2664          1.315       -97.0332       -61.4603      0.3289995      0.1255838
      7575.0000        13.5461        -999.25        44.1573       46.48407         0.5488         2.2822         1.3156       -96.4604       -60.8857      0.2868952      0.1340338
      7575.5000        13.5491        -999.25        44.7076       47.41965         0.5538         2.2926         1.3032       -95.1964         -59.62      0.3068011      0.1526471
      7576.0000        13.5364        -999.25        45.8623        49.3873         0.5587         2.3026         1.3039       -94.1171        -58.539      0.3486659      0.1685441
      7576.5000        13.5237        -999.25        47.4993        52.1785         0.5648          2.313          1.336       -93.8973       -58.3175      0.4080532      0.1718014
      7577.0000         13.511        -999.25        48.4636         53.821         0.5721         2.3197         1.3825       -94.9692       -59.3876          0.443      0.1560647
      7577.5000        13.4983        -999.25        47.7455       52.59071         0.5789         2.2494         1.4307       -96.2758       -60.6925      0.4168235       0.136875
      7578.0000        13.4856        -999.25        46.9734       51.26819         0.5805         2.1965         1.4697       -97.6272       -62.0422      0.3886849      0.1170265
      7578.5000        13.4785        -999.25        47.4434       52.06647         0.5736         2.2204         1.4967       -98.9312       -63.3445      0.4056696     0.09787498
      7579.0000        13.4732        -999.25        47.0153       51.33136         0.5635         2.2273         1.5067       -99.6862       -64.0977      0.3900289      0.0867985
      7579.5000        13.4679        -999.25        44.6656       47.31498         0.5529         2.2363         1.4891      -100.2938       -64.7036       0.304574     0.07788827
      7580.0000        13.4627        -999.25        43.0549       44.56049         0.5398         2.2515         1.4491      -100.8354       -65.2435      0.2459679     0.06994853
      7580.5000        13.4588        -999.25        42.2548       43.19015         0.5272         2.2611         1.4258      -101.2959       -65.7023      0.2168116     0.06320146
      7581.0000        13.4605        -999.25        42.0355       42.81159         0.5159         2.2411         1.4265      -101.7214       -66.1261      0.2087573     0.05696914
