#------------------------------------------------------------------------------
# Created by    : vladimir.rabinovich
# Created on    : 09/19/2023 17:21:04
#------------------------------------------------------------------------------
~Version Information Section
VERS.           2.0     :   CWLS log ASCII Standard - VERSION 2.0
WRAP.           NO      :   One line per depth step
~Well Information Section
#MNEM       .UNIT                                         VALUE :DESCRIPTION
#------------------------------------------------------------------------------
STRT        .FT                                            4500 :START DEPTH
STOP        .FT                                           11014 :STOP DEPTH
STEP        .FT                                             0.5 :STEP      
NULL        .                                           -999.25 :NULL      
COMP        .                              FIELDWOOD ENERGY LLC :COMPANY   
WELL        .                               OCS G06156 ST00BP00 :WELL      
FLD         .                            HIGH ISLAND BLOCK 0116 :FIELD     
LOC         .                                                   :LOCATION  
CNTY        .                           HIGH ISLAND LARGE BLOCK :LOCATION  
STAT        .                                             TEXAS :STATE     
CTRY        .                                     UNITED STATES :COUNTRY   
SRVC        .                                                   :SERVICE COMPANY
DATE        .                             9/13/2023 11:19:57 AM :LOG DATE  
API         .                                    42708404240000 :API NUMBER
UWI         .                                    42708404240000 :UNIQUE WELL ID
XCOORD      .                                  1333979.30181128 :SURFACE X 
YCOORD      .                                  10635798.2403082 :SURFACE Y 
LAT         .                                         29.303317 :LATITUDE  
LON         .                                        -93.961735 :LONGITUDE 
ELEV        .FT                                             101 :ELEVATION VALUE
ELEV_TYPE   .                                                KB :ELEVATION REFERENCE TYPE
~Curve Information Section
#MNEM       .UNIT                                      API CODE :CURVE DESCRIPTION
#------------------------------------------------------------------------------
DEPT        .FT                                                 :DEPTH     
AT10        .OHMM                                               :          
AT20        .OHMM                                               :          
AT30        .OHMM                                               :          
AT60        .OHMM                                               :          
AT90        .OHMM                                               :          
CALI        .IN                                                 :          
DCAL        .IN                                                 :          
DPHI        .DEC                                                :          
DRHO        .G/C3                                               :          
DT2R        .US/F                                               :          
DT4P        .US/F                                               :          
GR          .GAPI                                               :          
GR_NORM     .GAPI                                               :GammaRay Normalized
NPOR        .DEC                                                :          
SP          .MV                                                 :          
SP_NORM     .MV                                                 :SP Normalized
TENS        .LBF                                                :          
VSH_GR      .V/V                                                :Volume of Shale from GR
VSH_SP      .V/V                                                :Volume of Shale from SP
~A        DEPTH           AT10           AT20           AT30           AT60           AT90           CALI           DCAL           DPHI           DRHO           DT2R           DT4P             GR        GR_NORM           NPOR             SP        SP_NORM           TENS         VSH_GR         VSH_SP
# ...
      4918.5000         0.6658         0.7339         0.7867         0.7708         0.7773        13.0977        -999.25         0.2533        -0.0128       411.1885       134.5254        81.9393       90.18678        -999.25       -26.8336       1.283058       2778.441              1              1
      4919.0000         0.6616         0.7405         0.7856         0.7677         0.7743        13.0872        -999.25         0.2575        -0.0148       401.9927       134.1257        81.0327       89.13287        -999.25       -27.1343      0.7739696         2748.5              1              1
      4919.5000         0.6529         0.7378         0.7837         0.7644         0.7682        13.1068        -999.25         0.2587        -0.0178       393.6055       134.0259        80.2258       88.19489        -999.25       -27.7355     -0.2463809         2748.5              1      0.9964803
      4920.0000         0.6443         0.7207         0.7802         0.7573         0.7599        13.1163        -999.25         0.2599        -0.0188       390.8091       133.8262         80.121       88.07332        -999.25       -28.2365      -1.096251       2768.461              1      0.9843393
      4920.5000         0.6422         0.7123         0.7711         0.7454         0.7518        13.1559        -999.25         0.2623        -0.0178       391.6084       133.7261        79.8154       87.71824        -999.25       -28.2367      -1.094067       2778.414              1      0.9843705
      4921.0000         0.6409         0.7086          0.762          0.737         0.7501        13.1554        -999.25         0.2641        -0.0178       393.6064       132.6277        80.5104       88.52666        -999.25       -28.6373       -1.77312        2828.34              1      0.9746697
      4921.5000         0.6455         0.7198         0.7529         0.7344         0.7495        13.1348        -999.25         0.2617        -0.0178       392.0073       131.5283        83.4126       91.90159        -999.25       -28.8376      -2.111383       2868.234              1      0.9698374
      4922.0000         0.6501         0.7303         0.7506         0.7318         0.7506        13.1282        -999.25         0.2581        -0.0158       385.2124       130.1299        85.1497       93.92175        -999.25       -28.7375      -1.938547       2928.141              1      0.9723065
      4922.5000         0.6547         0.7375         0.7526         0.7366         0.7551        13.1287        -999.25         0.2521        -0.0158       373.6309       130.1296        85.1547       93.92785        -999.25       -28.4369      -1.424588       2898.203              1      0.9796488
      4923.0000          0.662         0.7422          0.758         0.7441         0.7596        13.1092        -999.25         0.2503        -0.0158       358.8413       130.7295        84.1565       92.76743        -999.25       -28.2365      -1.081106       2858.297              1      0.9845556
      4923.5000           0.67         0.7408          0.767         0.7516         0.7633        13.1397        -999.25         0.2491        -0.0168       346.8545       131.6282        80.6559       88.69724        -999.25       -28.3366       -1.24889       2798.402              1      0.9821587
      4924.0000         0.6708         0.7441          0.776          0.759         0.7665        13.0701        -999.25         0.2497        -0.0178       344.0562       131.4285        78.9576       86.72276        -999.25       -28.6373      -1.757974       2778.441              1      0.9748861
      4924.5000         0.6708         0.7498         0.7807         0.7654         0.7696        13.0105        -999.25         0.2509        -0.0178        351.249       131.1289        77.6597       85.21384        -999.25       -28.8376      -2.096238       2778.441              1      0.9700537
      4925.0000         0.6703         0.7547         0.7833         0.7606         0.7704        12.9909        -999.25         0.2515        -0.0168       360.0376       131.3284        77.6647       85.21994        -999.25       -28.4369      -1.411964         2748.5              1      0.9798291
      4925.5000         0.6734         0.7588         0.7841         0.7573         0.7709        12.9814        -999.25         0.2527        -0.0158       367.6299       131.3286        79.2733       87.09068        -999.25       -28.3366      -1.238791       2708.582              1       0.982303
      4926.0000         0.6772         0.7598         0.7823         0.7559         0.7726        12.9819        -999.25         0.2515        -0.0118       377.2227       131.1287         81.082       89.19411        -999.25       -28.2365      -1.065961       2728.543              1       0.984772
      4926.5000         0.6798         0.7607         0.7804         0.7544         0.7776        12.9624        -999.25         0.2473        -0.0098       388.0127       131.7278        82.4897       90.83124        -999.25       -28.2365      -1.063436         2748.5              1       0.984808
      4927.0000         0.6813         0.7602         0.7768         0.7545         0.7827        12.9529        -999.25         0.2419        -0.0098       394.8066       132.7273        82.4949       90.83757        -999.25        -28.036     -0.7197822        2758.48              1      0.9897174
      4927.5000         0.6785         0.7597         0.7743         0.7577         0.7812        12.9634        -999.25         0.2413        -0.0098       400.3994       133.4265        81.6979       89.91109        -999.25       -27.8357     -0.3764689       2758.465              1      0.9946219
      4928.0000          0.673         0.7545         0.7769         0.7609         0.7794        12.9939        -999.25         0.2461        -0.0088       403.9951       133.8259        80.8011       88.86858        -999.25       -27.9359     -0.5444245       2778.441              1      0.9922225
      4928.5000         0.6692         0.7473         0.7795         0.7641         0.7737        12.9944        -999.25         0.2521        -0.0088       411.9883       134.4253        80.8062       88.87479        -999.25       -28.0362     -0.7125488       2798.402              1      0.9898207
      4929.0000         0.6655         0.7368         0.7807         0.7595         0.7659         13.005        -999.25         0.2563        -0.0078       415.1846       135.3245        81.4126       89.58018        -999.25        -27.535      0.1427084       2798.402              1              1
      4929.5000         0.6643         0.7286         0.7802         0.7546         0.7589        13.0055        -999.25         0.2563        -0.0078       418.7822       136.0239        81.5178        89.7028        -999.25       -27.3347      0.4860216       2798.402              1              1
      4930.0000         0.6562         0.7225         0.7708          0.745         0.7603         13.026        -999.25         0.2557        -0.0068       430.3726       137.0227        81.5225       89.70853        -999.25       -27.8357     -0.3638486       2788.422              1      0.9948022
      4930.5000         0.6559         0.7204         0.7573         0.7335         0.7502        13.0566        -999.25         0.2539        -0.0078       442.7568       137.3225        81.5276       89.71476        -999.25       -28.2365      -1.043242       2788.422              1      0.9850966
      4931.0000         0.6564         0.7181          0.746         0.7277         0.7439        13.0671        -999.25         0.2539        -0.0078       451.9502       137.3225        82.7349       91.11887        -999.25       -28.4369      -1.381674       2798.402              1      0.9802618
      4931.5000         0.6565         0.7141         0.7354          0.724         0.7379        13.0676        -999.25         0.2551        -0.0078       453.1465       137.3225        84.0428       92.63995        -999.25       -28.2365      -1.038192       2788.422              1      0.9851687
