#------------------------------------------------------------------------------
# Created by    : vladimir.rabinovich
# Created on    : 09/19/2023 17:20:38
#------------------------------------------------------------------------------
~Version Information Section
VERS.           2.0     :   CWLS log ASCII Standard - VERSION 2.0
WRAP.           NO      :   One line per depth step
~Well Information Section
#MNEM       .UNIT                                         VALUE :DESCRIPTION
#------------------------------------------------------------------------------
STRT        .FT                                             540 :START DEPTH
STOP        .FT                                            8409 :STOP DEPTH
STEP        .FT                                             0.5 :STEP      
NULL        .                                           -999.25 :NULL      
COMP        .                                      SHELL OIL CO :COMPANY   
WELL        .                                OCS 00706 ST00BP00 :WELL      
FLD         .                                           WILDCAT :FIELD     
LOC         .                                                   :LOCATION  
CNTY        .                             GALVESTON LARGE BLOCK :LOCATION  
STAT        .                                             TEXAS :STATE     
CTRY        .                                     UNITED STATES :COUNTRY   
SRVC        .                                                   :SERVICE COMPANY
DATE        .                             9/13/2023 11:19:25 AM :LOG DATE  
API         .                                    42706000280000 :API NUMBER
UWI         .                                    42706000280000 :UNIQUE WELL ID
XCOORD      .                                  1100625.96198943 :SURFACE X 
YCOORD      .                                  10499283.7203345 :SURFACE Y 
LAT         .                                         28.920625 :LATITUDE  
LON         .                                        -94.687754 :LONGITUDE 
ELEV        .FT                                              78 :ELEVATION VALUE
ELEV_TYPE   .                                                KB :ELEVATION REFERENCE TYPE
~Curve Information Section
#MNEM       .UNIT                                      API CODE :CURVE DESCRIPTION
#------------------------------------------------------------------------------
DEPT        .FT                                                 :DEPTH     
ASN         .OHMM                                               :          
DT          .US/F                                               :          
ILD         .OHMM                                               :          
LAT         .OHMM                                               :          
LN          .OHMM                                               :          
SP          .MV                                                 :          
SP_NORM     .MV                                                 :SP Normalized
VSH_SP      .V/V                                                :Volume of Shale from SP
~A        DEPTH            ASN             DT            ILD            LAT             LN             SP        SP_NORM         VSH_SP
# ...
      4729.0000         0.9947       133.8725         0.7245        -999.25        -999.25       -36.3762       3.064651              1
      4729.5000         1.0111       133.6061         0.7336        -999.25        -999.25       -35.5823       3.856064              1
      4730.0000         1.0275       135.1526         0.7427        -999.25        -999.25       -34.8981       4.537773              1
      4730.5000         1.0436       135.9252         0.7518        -999.25        -999.25       -35.3848       4.048584              1
      4731.0000          1.057       133.9056         0.7665        -999.25        -999.25       -35.8716       3.559292              1
      4731.5000         1.0705       131.5839         0.7817        -999.25        -999.25       -36.3584       3.070007              1
      4732.0000         1.0821       130.8554         0.7969        -999.25        -999.25       -36.8452       2.580715              1
      4732.5000         1.0914        129.753          0.812        -999.25        -999.25       -37.1966       2.226826              1
      4733.0000         1.0275       123.9193         0.8272        -999.25        -999.25       -37.3994       2.021538              1
      4733.5000         0.9947       113.9889         0.8424        -999.25        -999.25       -37.6021       1.816345              1
      4734.0000         0.9779       121.0654         0.8305        -999.25        -999.25       -37.8049       1.611057              1
      4734.5000         0.9682       129.9505         0.8134        -999.25        -999.25       -38.7405       0.672966              1
      4735.0000         0.9355        128.236         0.7963        -999.25        -999.25       -40.2482     -0.8372192              1
      4735.5000         0.8817       121.3184         0.7792        -999.25        -999.25         -41.32       -1.91151      0.9845507
      4736.0000         0.8424       118.4359         0.7673        -999.25        -999.25       -42.2575      -2.851501      0.9686186
      4736.5000         0.8011        122.483         0.7567        -999.25        -999.25       -42.8333       -3.42979      0.9588171
      4737.0000         0.7962       124.9213         0.7461        -999.25        -999.25       -43.4091       -4.00808      0.9490156
      4737.5000         0.7875       123.2208         0.7356        -999.25        -999.25       -43.9189      -4.520367      0.9403328
      4738.0000         0.7737       122.2042          0.725        -999.25        -999.25       -44.3666      -4.970558      0.9327024
      4738.5000         0.7426       123.0875         0.7378        -999.25        -999.25       -46.3975      -7.003948      0.8982382
      4739.0000         0.7518       126.0032         0.7518        -999.25        -999.25       -46.2494      -6.858337      0.9007062
      4739.5000         0.8877       124.9222         0.7658        -999.25        -999.25        -46.549      -7.160427       0.895586
      4740.0000         0.9527       120.0771         0.7797        -999.25        -999.25       -47.3799       -7.99382      0.8814607
      4740.5000         0.9997        120.004         0.7937        -999.25        -999.25       -48.0762      -8.692604      0.8696169
      4741.0000         1.1153       125.5579         0.8063        -999.25        -999.25       -48.7441      -9.362995      0.8582543
      4741.5000         1.1852       131.6959         0.8182        -999.25        -999.25       -46.9816      -7.602985       0.888085
      4742.0000         1.1607       131.9752           0.83        -999.25        -999.25       -45.6891      -6.312973      0.9099496
      4742.5000         1.1528       127.9519         0.8419        -999.25        -999.25       -44.4393      -5.065666      0.9310904
      4743.0000         1.1494       123.7479         0.8538        -999.25        -999.25       -43.5012      -4.130054      0.9469482
      4743.5000         1.1562       119.4207         0.8656        -999.25        -999.25       -42.4517      -3.083042      0.9646942
      4744.0000          1.163       118.3023         0.8775        -999.25        -999.25       -41.2324       -1.86623      0.9853181
      4744.5000         1.1713       119.7256         0.8894        -999.25        -999.25       -40.7375      -1.373821       0.993664
      4745.0000         1.1847       124.2895         0.9012        -999.25        -999.25       -41.1422      -1.781013      0.9867625
      4745.5000         1.1949       128.8533         0.9131        -999.25        -999.25       -41.5366      -2.177898      0.9800356
      4746.0000         1.1992       133.4172          0.925        -999.25        -999.25       -41.7681      -2.411892      0.9760696
      4746.5000         1.2034       136.2211         0.9368        -999.25        -999.25       -41.8027      -2.448982       0.975441
      4747.0000         1.2078       132.0901         0.9487        -999.25        -999.25       -41.8008       -2.44957       0.975431
      4747.5000         1.2125       127.7116         0.9569        -999.25        -999.25       -41.7988      -2.450062      0.9754227
      4748.0000         1.2171       124.6077         0.9604        -999.25        -999.25       -41.7969      -2.450649      0.9754127
      4748.5000         1.2217       123.5461          0.963        -999.25        -999.25        -41.914       -2.57024      0.9733858
      4749.0000         1.2262       125.1836         0.9489        -999.25        -999.25       -41.8154      -2.474129      0.9750147
      4749.5000         1.2308       128.4726         0.9349        -999.25        -999.25       -41.2917      -1.952915      0.9838489
      4750.0000         1.2336       128.9631         0.9209        -999.25        -999.25       -40.6609      -1.324608      0.9944982
      4750.5000         1.2334       129.2413         0.9072        -999.25        -999.25       -40.0297     -0.6958961              1
      4751.0000         1.2332       129.6616         0.8938        -999.25        -999.25       -39.3989    -0.06758499              1
      4751.5000         1.2266       127.3525         0.8804        -999.25        -999.25       -39.1593      0.1695213              1
      4752.0000         1.2197       125.7681         0.8669        -999.25        -999.25       -38.9438       0.382534              1
      4752.5000         1.2083       128.5236         0.8535        -999.25        -999.25       -39.2037      0.1201439              1
      4753.0000          1.186       128.1337         0.8401        -999.25        -999.25       -39.3281   -0.006744385              1
      4753.5000         1.1627       128.4158         0.8266        -999.25        -999.25       -39.2358     0.08306503              1
      4754.0000         1.1371       132.3375         0.8132        -999.25        -999.25       -39.1409      0.1754761              1
      4754.5000          1.129       135.7611         0.7998        -999.25        -999.25       -38.9317      0.3821869              1
      4755.0000         1.1218       134.4663         0.7864        -999.25        -999.25       -38.7227      0.5886993              1
      4755.5000         1.1112       133.5636         0.7734        -999.25        -999.25       -38.5135      0.7954063              1
      4756.0000         1.0923       133.0249         0.7635        -999.25        -999.25       -38.3044       1.002018              1
      4756.5000         1.0717       133.2168         0.7536        -999.25        -999.25       -38.0953        1.20863              1
      4757.0000          1.057        134.379         0.7437        -999.25        -999.25       -37.8862       1.415241              1
      4757.5000          1.048       135.7935         0.7337        -999.25        -999.25        -37.677       1.621952              1
      4758.0000         1.0514       135.4659         0.7238        -999.25        -999.25       -37.8551        1.44136              1
