#------------------------------------------------------------------------------
# Created by    : vladimir.rabinovich
# Created on    : 09/19/2023 17:22:28
#------------------------------------------------------------------------------
~Version Information Section
VERS.           2.0     :   CWLS log ASCII Standard - VERSION 2.0
WRAP.           NO      :   One line per depth step
~Well Information Section
#MNEM       .UNIT                                         VALUE :DESCRIPTION
#------------------------------------------------------------------------------
STRT        .FT                                            2981 :START DEPTH
STOP        .FT                                           10477 :STOP DEPTH
STEP        .FT                                             0.5 :STEP      
NULL        .                                           -999.25 :NULL      
COMP        .                          SEAGULL ENERGY E & P INC :COMPANY   
WELL        .                               OCS G13783 ST00BP00 :WELL      
FLD         .                                           WILDCAT :FIELD     
LOC         .                                                   :LOCATION  
CNTY        .                             GALVESTON LARGE BLOCK :LOCATION  
STAT        .                                             TEXAS :STATE     
CTRY        .                                     UNITED STATES :COUNTRY   
SRVC        .                                                   :SERVICE COMPANY
DATE        .                             9/13/2023 11:19:39 AM :LOG DATE  
API         .                                    42706403890000 :API NUMBER
UWI         .                                    42706403890000 :UNIQUE WELL ID
XCOORD      .                                  1047250.65699841 :SURFACE X 
YCOORD      .                                  10470150.2239286 :SURFACE Y 
LAT         .                                         28.838318 :LATITUDE  
LON         .                                         -94.85315 :LONGITUDE 
ELEV        .FT                                              94 :ELEVATION VALUE
ELEV_TYPE   .                                                KB :ELEVATION REFERENCE TYPE
~Curve Information Section
#MNEM       .UNIT                                      API CODE :CURVE DESCRIPTION
#------------------------------------------------------------------------------
DEPT        .FT                                                 :DEPTH     
CILD        .MMHO                                               :          
CNC         .%                                                  :          
DT24        .US/F                                               :          
GR          .GAPI                                               :          
GR_NORM     .GAPI                                               :GammaRay Normalized
PORZ        .%                                                  :          
RFOC        .OHMM                                               :          
RILD        .OHMM                                               :          
RILM        .OHMM                                               :          
RWAZ        .OHMM                                               :          
SP          .MV                                                 :          
SP_NORM     .MV                                                 :SP Normalized
TEN         .LBF                                                :          
VSH_GR      .V/V                                                :Volume of Shale from GR
VSH_SP      .V/V                                                :Volume of Shale from SP
ZCOR        .G/C3                                               :          
ZDEN        .G/C3                                               :          
~A        DEPTH           CILD            CNC           DT24             GR        GR_NORM           PORZ           RFOC           RILD           RILM           RWAZ             SP        SP_NORM            TEN         VSH_GR         VSH_SP           ZCOR           ZDEN
# ...
      9431.0000       1094.672        33.8199        97.6899         66.818       74.00732         13.097          1.144          0.913          0.897          0.019         -5.599      -4.401395        -88.776      0.8724961      0.9371229          0.046          2.434
      9431.5000           1104        33.8929       100.0979        67.6759        75.1136         13.394          1.131          0.915          0.899           0.02         -5.892      -4.694396      -100.7789      0.8960341      0.9329372          0.032          2.429
      9432.0000       1113.564         33.394         100.73         68.345       75.99332         13.934           1.12          0.919          0.909          0.021          -6.12      -4.922395       -107.178      0.9147516        0.92968          0.026           2.42
      9432.5000        1122.58         33.559       100.5229        68.8099       76.62801         14.308          1.119          0.925          0.928          0.023         -6.107      -4.909395       -95.1699      0.9282554      0.9298658          0.033          2.414
      9433.0000       1129.717          33.56       100.2749         68.396       76.20814         13.948          1.122          0.929          0.954          0.022         -5.961      -4.763395        -66.866      0.9193221      0.9319515           0.04           2.42
      9433.5000       1136.865         32.684         99.985        66.9049       74.49562          12.95          1.122           0.93          0.975          0.019         -5.851      -4.653395        -42.252      0.8828856      0.9335229          0.038          2.436
      9434.0000       1133.715         31.721         98.995        65.7229       73.15324          12.06          1.135          0.936          0.987          0.016         -5.816      -4.618395        -44.442      0.8543242      0.9340229          0.038          2.451
      9434.5000       1127.873         31.361         98.605        65.2639       72.60683         11.695          1.178          0.952          0.993          0.015         -6.081      -4.883395       -86.0499      0.8426986      0.9302372          0.043          2.457
      9435.0000       1122.045         31.574         98.464        65.1909       72.52362         11.427          1.224          0.977          1.001          0.015         -6.577      -5.379395      -150.8889      0.8409281      0.9231515           0.05          2.461
      9435.5000       1116.205         31.681         97.882        65.0559         72.366          10.88          1.236          1.004          1.013          0.014         -6.778      -5.580395       -164.188      0.8375746        0.92028          0.055           2.47
      9436.0000       1107.387         31.417         97.705         65.085       72.40531         10.412          1.219           1.02          1.019          0.013         -6.603      -5.405396        -47.882      0.8384109        0.92278          0.055          2.478
      9436.5000       1096.951         31.248        96.8989        66.0149       73.52558         10.436          1.202          1.019          1.017          0.013         -6.493      -5.295395       150.2769      0.8622464      0.9243515          0.052          2.478
      9437.0000       1081.807         31.433        96.1379         66.528       74.14568         10.815          1.196          1.006          1.007          0.014         -6.491      -5.293396       279.0308      0.8754401      0.9243801          0.045          2.472
      9437.5000       1061.832          31.63          95.84        65.2889       72.66317         11.404          1.194          0.989          0.985          0.015         -6.466      -5.268395       271.0508      0.8438972      0.9247372          0.039          2.462
      9438.0000       1042.355         31.916         96.632         63.475       70.49087         12.475          1.175          0.974          0.953          0.018         -6.569      -5.371395       186.5759      0.7976781      0.9232658          0.032          2.444
      9438.5000       1023.227         33.077        99.4559        62.7079       69.57475         14.002          1.135          0.962          0.923          0.023         -6.928      -5.730395         87.621      0.7781861      0.9181372          0.032          2.419
      9439.0000       1004.845         34.777       102.4919        62.8929       69.80112         15.403          1.105          0.949          0.909          0.027         -7.069      -5.871395        -15.824      0.7830027      0.9161229          0.041          2.396
      9439.5000       1003.151         35.274        105.455        64.4139       71.63071         16.114          1.103          0.935          0.908           0.03         -6.646      -5.448395        -75.866      0.8219301      0.9221658          0.038          2.384
      9440.0000       1018.569         35.601        107.142        66.8689        74.5811         16.223          1.111          0.923          0.912           0.03         -6.139      -4.941395        -15.212      0.8847043      0.9294086          0.019          2.382
      9440.5000       1033.961         38.158       106.1239        68.6429       76.71429             16          1.113          0.918           0.92          0.029         -6.061      -4.863395        131.887      0.9300912      0.9305229          0.007          2.386
      9441.0000       1049.354         38.763        103.949        68.9059       77.03429         15.168          1.116          0.923          0.933          0.026         -6.241      -5.043396       224.0388      0.9368997      0.9279515          0.016            2.4
      9441.5000       1064.746         37.954       101.9059         68.335       76.35359          13.64          1.126          0.937           0.95          0.021         -6.367      -5.169395       199.7068      0.9224169      0.9261515          0.035          2.425
      9442.0000       1079.342          38.02       100.2209         67.392       75.22637         12.339          1.145          0.957          0.968          0.017         -6.259      -5.061395       113.3569      0.8984334      0.9276944           0.04          2.446
      9442.5000       1093.215          37.91         99.626         65.802       73.32278         12.084          1.169          0.982          0.985          0.017         -5.854      -4.656395         36.519      0.8579314      0.9334801          0.026          2.451
      9443.0000        1099.43         37.633        99.7209        64.7109       72.01784         12.415           1.19          1.011          0.999          0.018          -5.49      -4.292395          3.325      0.8301668      0.9386801          0.015          2.445
      9443.5000        1088.98         37.408        99.9419        66.0339       73.60983         12.566          1.202          1.041          1.008          0.019         -5.568      -4.370395          3.596      0.8640388      0.9375658          0.015          2.443
      9444.0000       1078.545         36.632       100.3639        67.7319       75.65182         12.377          1.199          1.068          1.012          0.019         -5.934      -4.736395         -2.001      0.9074857      0.9323372          0.021          2.446
      9444.5000       1056.676         36.362        99.0919        67.2019        75.0202         11.983          1.183          1.081          1.013          0.018         -6.225      -5.027395        -22.861      0.8940467        0.92818          0.032          2.452
      9445.0000       1033.861        36.4269          96.48        65.9249        73.4922         11.654          1.168          1.074          1.008          0.017         -6.588      -5.390395       -43.7599      0.8615361      0.9229944          0.049          2.458
      9445.5000       1010.947         36.151        95.1069         65.251        72.6879         11.858          1.167           1.05          0.994          0.017         -7.345      -6.147395         -56.87      0.8444235      0.9121801          0.055          2.454
