#------------------------------------------------------------------------------
# Created by    : vladimir.rabinovich
# Created on    : 09/19/2023 17:20:04
#------------------------------------------------------------------------------
~Version Information Section
VERS.           2.0     :   CWLS log ASCII Standard - VERSION 2.0
WRAP.           NO      :   One line per depth step
~Well Information Section
#MNEM       .UNIT                                         VALUE :DESCRIPTION
#------------------------------------------------------------------------------
STRT        .FT                                             900 :START DEPTH
STOP        .FT                                            8286 :STOP DEPTH
STEP        .FT                                             0.5 :STEP      
NULL        .                                           -999.25 :NULL      
COMP        .                                       ALLIED CORP :COMPANY   
WELL        .                               OCS G04069 ST00BP00 :WELL      
FLD         .                                           WILDCAT :FIELD     
LOC         .                                                   :LOCATION  
CNTY        .                             GALVESTON LARGE BLOCK :LOCATION  
STAT        .                                             TEXAS :STATE     
CTRY        .                                     UNITED STATES :COUNTRY   
SRVC        .                                                   :SERVICE COMPANY
DATE        .                             9/13/2023 11:18:53 AM :LOG DATE  
API         .                                    42706400840000 :API NUMBER
UWI         .                                    42706400840000 :UNIQUE WELL ID
XCOORD      .                                  987200.391396966 :SURFACE X 
YCOORD      .                                   10401886.486665 :SURFACE Y 
LAT         .                                         28.647914 :LATITUDE  
LON         .                                        -95.037018 :LONGITUDE 
ELEV        .FT                                              83 :ELEVATION VALUE
ELEV_TYPE   .                                                KB :ELEVATION REFERENCE TYPE
~Curve Information Section
#MNEM       .UNIT                                      API CODE :CURVE DESCRIPTION
#------------------------------------------------------------------------------
DEPT        .FT                                                 :DEPTH     
ASFL        .OHMM                                               :          
CILD        .MMHO                                               :          
DPHI        .%                                                  :          
DT          .US/F                                               :          
GR          .GAPI                                               :          
GR_NORM     .GAPI                                               :GammaRay Normalized
ILD         .OHMM                                               :          
SP          .MV                                                 :          
SP_NORM     .MV                                                 :SP Normalized
VSH_GR      .V/V                                                :Volume of Shale from GR
VSH_SP      .V/V                                                :Volume of Shale from SP
~A        DEPTH           ASFL           CILD           DPHI             DT             GR        GR_NORM            ILD             SP        SP_NORM         VSH_GR         VSH_SP
# ...
      5805.0000         0.7927        1688.91        25.3254       117.4637        59.0847        76.4354         0.5368       -49.2128       2.072544      0.9241575              1
      5805.5000         0.8065       1727.082        24.8383       114.6307        58.7604       75.97316         0.5425       -50.4597      0.8240128      0.9143226              1
      5806.0000         0.8126       1759.033        25.4757        114.994        58.4484       75.52856         0.5493       -53.3007       -2.01862      0.9048629      0.9689443
      5806.5000         0.8013       1788.203        26.1496       118.6978        58.1364       75.08395         0.5539       -56.3378       -5.05735      0.8954033      0.9221946
      5807.0000         0.7901       1817.375        26.5299       121.5354        59.2163       76.63667          0.525       -59.6237      -8.344879      0.9284399      0.8716173
      5807.5000         0.7793       1846.545        26.6086       121.3982        60.6484       78.69477         0.4961        -63.012      -11.73481      0.9722292      0.8194644
      5808.0000         0.7693       1875.717        25.7487       119.6473        62.1133       80.79993         0.4943       -66.8486      -15.57304              1      0.7604147
      5808.5000         0.7593       1904.887         24.989       115.3939        63.5942       82.92805          0.502        -69.942      -18.66808              1      0.7127988
      5809.0000           0.76       1908.898        24.9963       109.4417        64.9994       84.94755         0.5097       -71.9919       -20.7196              1      0.6812369
      5809.5000          0.782       1912.293        25.5825       107.1431        64.6898       84.50639         0.5174       -74.1298      -22.85913              1       0.648321
      5810.0000         0.8041       1915.686        24.3157       106.4216        62.7764       81.76388         0.5252       -76.4552      -25.18617              1      0.6125205
      5810.5000         0.8261       1919.078        23.0503       106.1864        60.8653       79.02466         0.5308       -78.7806       -27.5132       0.979248        0.57672
      5811.0000         0.8428       1922.471        23.9507       106.4615        58.8665       76.15958         0.5273       -82.1761      -30.91033      0.9182889      0.5244564
      5811.5000         0.8553       1925.834        27.3253        106.761        56.8214       73.22808         0.5239       -85.1647      -33.90056      0.8559166      0.4784529
      5812.0000         0.8679       1927.775        27.8017       107.1023        54.7787       70.30002         0.5035       -87.5901      -36.32759      0.7936174      0.4411139
      5812.5000         0.8805       1929.719        27.7365       107.0621        52.5556        67.1131         0.4794       -89.6254      -38.36452      0.7258106      0.4097767
      5813.0000         0.8916        1931.66        25.5244        106.583        50.1448       63.65682         0.4552       -90.9941      -39.73486      0.6522728      0.3886945
      5813.5000         0.9012       2206.457         23.941       105.8602         48.235       60.91946         0.4313       -91.5603      -40.30269      0.5940311      0.3799586
      5814.0000         0.9108       2408.145        23.5948       105.0103        46.4872       58.41457         0.4076       -93.0563      -41.80031      0.5407355      0.3569183
      5814.5000         0.9011       2584.645        27.5901       105.3169         44.837       56.04972         0.3839       -94.6371      -43.38275      0.4904197      0.3325731
      5815.0000         0.8883       2846.543        32.3154       107.5796        43.1892       53.68832         0.3601       -96.2179      -44.96518      0.4401769       0.308228
      5815.5000         0.8639       3085.617        34.4768       110.3912        41.6353       51.46166         0.3364      -109.2139      -57.96281      0.3928013      0.1082645
      5816.0000         0.8357       3324.492        34.8117       112.5143        40.1057       49.26987          0.317      -110.4037      -59.15424      0.3461675     0.08993477
      5816.5000         0.8074       3559.828        34.7477       112.9276        38.8101       47.41386         0.2977      -110.6062      -59.35837      0.3066778     0.08679428
      5817.0000         0.7827       3644.535         34.043       111.5671        37.6437       45.74324         0.2783      -110.5756       -59.3294      0.2711327     0.08723996
      5817.5000         0.7603       3709.176         31.723       110.5619         36.572       44.20851         0.2589      -110.5449      -59.30033      0.2384789     0.08768722
      5818.0000         0.7404       3766.188        29.1188       110.0049        36.7896       44.52386          0.252      -110.5143      -59.27136      0.2451886     0.08813289
      5818.5000         0.7322       3823.152        28.0403       109.8068        37.3244       45.29438         0.2466      -110.4835      -59.24219      0.2615826     0.08858167
      5819.0000          0.724       3842.953        27.5048       109.8694        38.6468       47.19506         0.2412      -110.1035      -58.86383      0.3020226     0.09440266
      5819.5000         0.6952       3803.379        28.3215       109.9614        39.9704       49.09747         0.2388      -107.2345      -55.99645      0.3424994      0.1385161
      5820.0000          0.662        3747.25        30.8809       110.5112         41.294       50.99987         0.2538        -101.16      -49.92359      0.3829761      0.2319447
      5820.5000          0.638       3691.074        31.0877       111.7241        42.6164       52.90056         0.2688       -98.3885      -47.15372      0.4234161      0.2745582
      5821.0000           0.65       3570.648        30.8764       114.7219        43.9263       54.78331         0.2837       -95.4707      -44.23755      0.4634746      0.3194223
      5821.5000         0.6763       3359.125        30.3932       114.8422        44.2837       55.29926         0.2986       -93.9314      -42.69988      0.4744524      0.3430788
      5822.0000         0.7093        3224.73         29.222       114.2317        42.6371       52.93958         0.3136       -93.2931      -42.06321      0.4242464      0.3528737
      5822.5000         0.7424       3110.707        27.5976       111.7267        40.9893       50.57818         0.3257       -92.8542      -41.62595      0.3740038      0.3596008
      5823.0000         0.7752       2856.727         29.035        109.041        39.6133        48.6068          0.333       -92.4155      -41.18887      0.3320596      0.3663251
      5823.5000         0.7915       2800.746        30.9123       107.2939        38.2823       46.69999         0.3402       -91.9768       -40.7518      0.2914891      0.3730492
      5824.0000         0.8079       2744.816         32.791       106.8933        36.9514       44.79332         0.3475        -91.538      -40.31464      0.2509218      0.3797748
      5824.5000         0.8242       2697.543        33.3333       107.3113        35.9149        43.3091         0.3547       -90.8333      -39.61156      0.2193427      0.3905913
      5825.0000         0.8282       2654.695        32.4515        107.974        35.0964       42.13771         0.3619       -90.0496       -38.8295      0.1944194      0.4026231
      5825.5000         0.8311       2626.113        30.8405        109.046        34.4559       41.22173         0.3649       -89.7802      -38.56173      0.1749303      0.4067427
      5826.0000         0.8321        2654.77        28.7927       109.9177        34.9051       41.86942         0.3678       -89.8003      -38.58346       0.188711      0.4064083
      5826.5000         0.8314           2672        28.7224       110.0513        35.3542       42.51696         0.3708       -89.0836      -37.86839      0.2024884      0.4174093
      5827.0000         0.8295       2685.906        29.9909       109.6516        35.8033        43.1645         0.3738       -88.3671      -37.15353       0.216266      0.4284073
