#------------------------------------------------------------------------------
# Created by    : vladimir.rabinovich
# Created on    : 09/19/2023 17:20:57
#------------------------------------------------------------------------------
~Version Information Section
VERS.           2.0     :   CWLS log ASCII Standard - VERSION 2.0
WRAP.           NO      :   One line per depth step
~Well Information Section
#MNEM       .UNIT                                         VALUE :DESCRIPTION
#------------------------------------------------------------------------------
STRT        .FT                                             598 :START DEPTH
STOP        .FT                                           10008 :STOP DEPTH
STEP        .FT                                             0.5 :STEP      
NULL        .                                           -999.25 :NULL      
COMP        .                                        SUN OIL CO :COMPANY   
WELL        .                               OCS G01712 ST00BP00 :WELL      
FLD         .                                           WILDCAT :FIELD     
LOC         .                                                   :LOCATION  
CNTY        .                                BRAZOS LARGE BLOCK :LOCATION  
STAT        .                                             TEXAS :STATE     
CTRY        .                                     UNITED STATES :COUNTRY   
SRVC        .                                                   :SERVICE COMPANY
DATE        .                             9/13/2023 11:18:52 AM :LOG DATE  
API         .                                    42704300120000 :API NUMBER
UWI         .                                    42704300120000 :UNIQUE WELL ID
XCOORD      .                                   818594.06951761 :SURFACE X 
YCOORD      .                                  10373365.4427938 :SURFACE Y 
LAT         .                                         28.560597 :LATITUDE  
LON         .                                        -95.560517 :LONGITUDE 
ELEV        .FT                                              89 :ELEVATION VALUE
ELEV_TYPE   .                                                KB :ELEVATION REFERENCE TYPE
~Curve Information Section
#MNEM       .UNIT                                      API CODE :CURVE DESCRIPTION
#------------------------------------------------------------------------------
DEPT        .FT                                                 :DEPTH     
ASN         .OHMM                                               :          
CALI        .IN                                                 :          
CILD        .MMHO                                               :          
ILD         .OHMM                                               :          
SP          .MV                                                 :          
SP_NORM     .MV                                                 :SP Normalized
VSH_SP      .V/V                                                :Volume of Shale from SP
~A        DEPTH            ASN           CALI           CILD            ILD             SP        SP_NORM         VSH_SP
# ...
      8738.5000         0.4243         8.3407       3684.328          0.281       -51.2239      0.2012177              1
      8739.0000         0.4247         8.3088       3672.652         0.2806       -51.3077      0.1161003              1
      8739.5000         0.4251         8.2459       3658.352         0.2804       -51.3916     0.03087997              1
      8740.0000         0.4256         8.1826       3644.023         0.2802       -51.4753    -0.05413818              1
      8740.5000          0.426         8.1399       3554.922         0.2799       -51.5593     -0.1394539              1
      8741.0000         0.4264         8.1123       3508.832         0.2797       -51.6431      -0.224575              1
      8741.5000         0.4272         8.0893       3533.129         0.2794       -51.7271     -0.3098907              1
      8742.0000         0.4282         8.0837        3558.23         0.2792       -51.8109     -0.3950119              1
      8742.5000         0.4292         8.0794       3586.984         0.2789       -51.8948     -0.4802246              1
      8743.0000         0.4303         8.0778       3601.188         0.2787       -51.9855     -0.5722466              1
      8743.5000         0.4313         8.0882       3590.141         0.2784       -52.0862     -0.6742668              1
      8744.0000         0.4324         8.0986       3575.738         0.2782        -52.187     -0.7763824              1
      8744.5000         0.4334         8.1084       3561.336         0.2779       -52.2878     -0.8785019              1
      8745.0000         0.4344         8.1147       3547.207         0.2777       -52.3887     -0.9807167              1
      8745.5000         0.4355         8.1209       3533.156         0.2774       -52.4893      -1.082638              1
      8746.0000         0.4365          8.133       3519.277         0.2772       -52.5901      -1.184753              1
      8746.5000         0.4376         8.1483       3506.754          0.277        -52.691      -1.286976              1
      8747.0000         0.4382         8.1634        3495.18         0.2768       -52.7918      -1.389095              1
      8747.5000         0.4386         8.1758       3484.133         0.2765       -52.8925      -1.491112              1
      8748.0000          0.439         8.1563       3482.754         0.2763       -52.9235       -1.52343              1
      8748.5000         0.4395         8.1048        3495.93         0.2761       -52.9496      -1.550846              1
      8749.0000         0.4399         8.0557       3509.082         0.2759       -52.9757      -1.578266              1
      8749.5000         0.4403         8.0157       3522.961         0.2756       -53.0018      -1.605682              1
      8750.0000         0.4408         7.9827       3539.941         0.2754        -52.986      -1.591202              1
      8750.5000          0.441         7.9582       3556.949         0.2752        -52.897      -1.503521              1
      8751.0000         0.4387         7.9337        3573.66          0.275       -52.8079      -1.415737              1
      8751.5000         0.4365         7.9296       3586.859         0.2747       -52.7189      -1.328056              1
      8752.0000         0.4343         7.9255       3600.063         0.2745       -52.7506      -1.361073              1
      8752.5000         0.4329         7.9213       3615.266         0.2743       -53.0132      -1.624992              1
      8753.0000         0.4324         7.9243       3610.082         0.2749       -53.2757      -1.888813              1
      8753.5000         0.4319         7.9274         3593.5         0.2756       -53.5383      -2.152729      0.9945454
      8754.0000         0.4313         7.9366       3576.891         0.2763       -53.8008       -2.41655      0.9851232
      8754.5000         0.4309         7.9517       3560.281          0.277       -54.0633      -2.680367      0.9757012
      8755.0000         0.4312         7.9668       3542.723         0.2777       -54.3259      -2.944286      0.9662755
      8755.5000         0.4315         7.9769       3525.164         0.2784       -54.5884      -3.208103      0.9568534
      8756.0000         0.4318         7.9782       3507.227         0.2791        -54.851      -3.472023      0.9474277
      8756.5000         0.4321         7.9795       3489.191         0.2798       -54.8948      -3.517139      0.9458165
      8757.0000         0.4324         7.9739       3459.207         0.2805       -54.6185      -3.242157      0.9556373
      8757.5000         0.4327         7.9631       3472.637         0.2812       -54.3423      -2.967278      0.9654544
      8758.0000          0.433         7.9523       3488.566         0.2819       -54.0664      -2.692692       0.975261
      8758.5000         0.4333         7.9632       3506.051         0.2826       -53.8045      -2.432114      0.9845673
      8759.0000         0.4336         7.9754       3523.559          0.283        -53.556      -2.184929      0.9933954
      8759.5000         0.4339         7.9882       3544.102         0.2831       -53.3071      -1.937347              1
      8760.0000         0.4342         8.0012       3582.879         0.2832       -53.0585      -1.690067              1
      8760.5000         0.4348         8.0157        3572.73         0.2832       -52.8099      -1.442783              1
      8761.0000         0.4356         8.0349       3552.719         0.2833       -52.5614      -1.195606              1
      8761.5000         0.4363          8.054       3532.703         0.2833       -52.4233      -1.058823              1
      8762.0000         0.4371         8.0745       3518.176         0.2834       -52.3593     -0.9961395              1
      8762.5000         0.4378         8.1048       3507.793         0.2835       -52.2953     -0.9334564              1
      8763.0000         0.4386          8.135       3496.133         0.2835       -52.2313     -0.8707771              1
      8763.5000         0.4393         8.1451       3480.527         0.2836       -52.1673     -0.8080978              1
      8764.0000           0.44         8.1526       3475.316         0.2836       -52.1033     -0.7454109              1
      8764.5000         0.4408         8.1579        3489.57         0.2837       -52.0374     -0.6808319              1
      8765.0000         0.4415         8.1577       3505.777         0.2838       -51.9686     -0.6133499              1
      8765.5000         0.4417         8.1576       3527.016         0.2838       -51.8998     -0.5458679              1
      8766.0000         0.4419          8.167       3544.926         0.2839       -51.8309     -0.4782829              1
      8766.5000          0.442         8.1764       3542.773         0.2838       -51.7621     -0.4108047              1
      8767.0000         0.4422         8.1868       3531.418         0.2836       -51.6934     -0.3434258              1
      8767.5000         0.4424         8.1983       3526.059         0.2834       -51.6246     -0.2759399              1
      8768.0000         0.4425         8.2099       3520.691         0.2831       -51.5557     -0.2083588              1
      8768.5000         0.4427         8.2205       3515.332         0.2829       -51.4869     -0.1408768              1
      8769.0000         0.4429         8.2159       3509.973         0.2827       -51.4181    -0.07339478              1
      8769.5000         0.4431         8.2112       3507.496         0.2824       -51.3143     0.02908707              1
      8770.0000         0.4432         8.2026       3506.121         0.2822       -51.1829      0.1591682              1
      8770.5000         0.4428         8.1876       3506.383          0.282       -51.0514      0.2893486              1
      8771.0000         0.4424         8.1727       3509.656         0.2817         -50.92      0.4194336              1
      8771.5000          0.442         8.1566       3512.934         0.2815       -50.7886       0.549511              1
