#------------------------------------------------------------------------------
# Created by    : vladimir.rabinovich
# Created on    : 09/19/2023 17:19:48
#------------------------------------------------------------------------------
~Version Information Section
VERS.           2.0     :   CWLS log ASCII Standard - VERSION 2.0
WRAP.           NO      :   One line per depth step
~Well Information Section
#MNEM       .UNIT                                         VALUE :DESCRIPTION
#------------------------------------------------------------------------------
STRT        .FT                                            3926 :START DEPTH
STOP        .FT                                            8446 :STOP DEPTH
STEP        .FT                                             0.5 :STEP      
NULL        .                                           -999.25 :NULL      
COMP        .                             WALTER OIL & GAS CORP :COMPANY   
WELL        .                               OCS G06101 ST00BP00 :WELL      
FLD         .                                           WILDCAT :FIELD     
LOC         .                                                   :LOCATION  
CNTY        .                             GALVESTON LARGE BLOCK :LOCATION  
STAT        .                                             TEXAS :STATE     
CTRY        .                                     UNITED STATES :COUNTRY   
SRVC        .                                                   :SERVICE COMPANY
DATE        .                             9/13/2023 11:19:36 AM :LOG DATE  
API         .                                    42706402050000 :API NUMBER
UWI         .                                    42706402050000 :UNIQUE WELL ID
XCOORD      .                                  1036351.71170487 :SURFACE X 
YCOORD      .                                  10440832.2127806 :SURFACE Y 
LAT         .                                         28.757227 :LATITUDE  
LON         .                                        -94.885733 :LONGITUDE 
ELEV        .FT                                              88 :ELEVATION VALUE
ELEV_TYPE   .                                                KB :ELEVATION REFERENCE TYPE
~Curve Information Section
#MNEM       .UNIT                                      API CODE :CURVE DESCRIPTION
#------------------------------------------------------------------------------
DEPT        .FT                                                 :DEPTH     
ASFL        .OHMM                                               :          
CALI        .IN                                                 :          
CILD        .MMHO                                               :          
GR          .GAPI                                               :          
GR_1        .GAPI                                               :          
GR_NORM     .GAPI                                               :GammaRay Normalized
ILD         .OHMM                                               :          
ILM         .OHMM                                               :          
NPHI        .%                                                  :          
RFOC        .OHMM                                               :          
RHOB        .G/C3                                               :          
SP          .MV                                                 :          
SP_NORM     .MV                                                 :SP Normalized
VSH_GR      .V/V                                                :Volume of Shale from GR
VSH_SP      .V/V                                                :Volume of Shale from SP
~A        DEPTH           ASFL           CALI           CILD             GR           GR_1        GR_NORM            ILD            ILM           NPHI           RFOC           RHOB             SP        SP_NORM         VSH_GR         VSH_SP
# ...
      6646.0000         0.9065        10.4147       1633.594         69.744        67.3325        68.5383         0.6099         0.6676        32.2486         0.8967           2.32        -63.529      -16.81108       0.756134      0.7598416
      6646.5000         0.9106        10.3905       1638.576        68.4659        65.6049       66.86128         0.6069          0.662        31.7361         0.9211          2.314       -65.6559      -18.93645      0.7204528      0.7294792
      6647.0000         0.9094        10.3767       1643.568         67.639        65.1278       65.77648         0.6022         0.6533        31.5533         0.9306         2.3255       -66.7582      -20.03723       0.697372      0.7137539
      6647.5000         0.9082        10.3911        1668.75        66.8123        65.4912       64.69193          0.594         0.6435        31.8156         0.8956         2.3401       -65.7462       -19.0237      0.6742964      0.7282329
      6648.0000         0.9069        10.4059       1699.563        66.2268        65.5277       63.92396         0.5843         0.6329         31.207         0.8552         2.3446       -64.2421      -17.51807      0.6579565      0.7497418
      6648.5000         0.9057        10.4221       1744.088        65.8698         64.996       63.45588          0.569         0.6205        30.4703          0.858          2.336       -64.4982      -17.77264      0.6479975      0.7461051
      6649.0000         0.9043        10.3624       1805.184        65.5125        64.7533       62.98742         0.5506         0.6041        30.7595         0.8869         2.3333          -68.3      -21.57291      0.6380302      0.6918155
      6649.5000         0.9028        10.2734       1892.635        65.1554        65.3234       62.51923         0.5281          0.581        32.2103          0.916         2.3341        -72.142      -25.41338      0.6280687      0.6369517
      6650.0000         0.9013        10.1747       1988.855         64.798        65.2445       62.05063         0.5035         0.5536        34.0514         0.9187         2.3308       -74.4648      -27.73465      0.6180985      0.6037906
      6650.5000         0.8997        10.1115       2246.512         64.441        63.4353       61.58257         0.4792         0.5256        35.1617         0.8937         2.3098       -78.5403      -31.80862      0.6081399      0.5455911
      6651.0000         0.8943        10.0694       2394.184        64.0836        61.7968       61.11398         0.4546         0.4984        34.6959         0.8802         2.2696       -85.1495      -38.41629      0.5981697      0.4511958
      6651.5000         0.8889        10.0391       2472.574        63.7081        60.6392       60.62162         0.4326         0.4757         33.725         0.8901         2.2359       -92.5924      -45.85767       0.587694      0.3448904
      6652.0000          0.883        10.0263       2558.332        62.6184        58.6115       59.19189         0.4129         0.4588        32.8931          0.929         2.2091       -98.1771      -51.44084      0.5572743      0.2651308
      6652.5000         0.8699        10.0149        2609.98        60.0349        55.2014       55.80154         0.3973         0.4452        32.2193         0.9554         2.1912      -100.1471      -53.40931      0.4851392      0.2370098
      6653.0000         0.8568        10.0161       2644.477        55.6564        51.6557       50.05526          0.384         0.4391         31.495          0.917         2.2005       -97.7402      -51.00088      0.3628778       0.271416
      6653.5000         0.8503        10.0094       2666.781        51.2828        50.3047        44.3154         0.3769          0.434        30.7783         0.8651         2.2301       -93.2001      -46.45926      0.2407531      0.3362963
      6654.0000         0.8462        10.0068        2660.27         51.491         53.087       44.58915         0.3719         0.4296        30.4628          0.833         2.2586       -89.9834      -43.24102      0.2465777      0.3822711
      6654.5000         0.8478        10.0013       2653.086        52.5522        56.7231       45.98248         0.3719         0.4269        31.0904         0.8092          2.275       -88.5516      -41.80769      0.2762229      0.4027472
      6655.0000         0.8495         10.025       2641.727        53.6146        58.8582       47.37737          0.373          0.425        31.8508          0.804         2.2532        -88.856      -42.11057      0.3059014      0.3984204
      6655.5000          0.854        10.0486       2630.352         54.677        58.3855       48.77226         0.3771          0.424        31.9158         0.7983         2.2427       -88.9171      -42.17014      0.3355801      0.3975694
      6656.0000         0.8587        10.0737       2618.992        55.8919        55.9045       50.36731         0.3812          0.427        31.4709         0.7994         2.2523       -88.0059      -41.25741      0.3695173      0.4106084
      6656.5000         0.8634        10.0993       2607.617        57.1068        54.4192       51.96236          0.385          0.432        30.9971         0.8077         2.2562       -87.3153      -40.56528      0.4034545       0.420496
      6657.0000         0.8681        10.1157       2596.254        55.5225        53.8026       49.88346         0.3874         0.4389        31.8207          0.822         2.2472       -87.6355      -40.88395      0.3592227      0.4159435
      6657.5000         0.8728        10.1204       2584.883        54.5878        53.8764       48.65717         0.3925         0.4488        33.1609         0.8433         2.2381       -88.5583      -41.80522      0.3331312      0.4027826
      6658.0000         0.8774         10.125       2567.148        54.3355        53.9595       48.32652         0.3977         0.4594        34.2808         0.8535         2.2406       -89.3892      -42.63459      0.3260962      0.3909344
      6658.5000         0.8801        10.1296       2540.066        54.9225         54.568       49.09745          0.402           0.47        34.0529         0.8635         2.2508       -88.6261      -41.86997      0.3424989      0.4018576
      6659.0000         0.8805        10.1342       2512.984        55.5095        55.4161       49.86837         0.4063         0.4806        33.0842         0.8721         2.2563        -87.672      -40.91434      0.3589016      0.4155095
      6659.5000          0.881        10.1438       2485.898         56.097        56.7633       50.63997          0.411         0.4881        32.4659         0.8803         2.2538       -87.9155      -41.15631      0.3753186      0.4120528
      6660.0000         0.8814        10.1552       2445.055        57.5283        58.0377       52.51904         0.4159         0.4929        33.2075         0.8857          2.254        -89.549      -42.78828      0.4152988      0.3887388
      6660.5000         0.8818        10.1669       2396.703        59.0667        59.3121       54.53869         0.4215          0.496        33.4677         0.8888          2.267       -90.8547      -44.09245        0.45827      0.3701078
      6661.0000         0.8832        10.1793       2348.301        60.5804        61.1075       56.52592         0.4275         0.4989        32.2809         0.8813         2.2824       -87.9067      -41.14293      0.5005514      0.4122439
      6661.5000         0.8854        10.1938       2299.902        61.9861        63.3073       58.37139         0.4333         0.5023        31.8899         0.8666         2.2917       -81.7395       -34.9742      0.5398167      0.5003686
      6662.0000         0.8881        10.2153       2266.324        63.3907        65.1918       60.21543         0.4387         0.5062        33.1849         0.8398         2.2947       -76.3569      -29.59007      0.5790517      0.5772848
      6662.5000         0.8956        10.2352       2233.621        64.5386        66.1115       61.72253         0.4436         0.5112        34.1281         0.8169         2.2947       -74.9708      -28.20244      0.6111177      0.5971079
