#------------------------------------------------------------------------------
# Created by    : vladimir.rabinovich
# Created on    : 09/19/2023 17:20:33
#------------------------------------------------------------------------------
~Version Information Section
VERS.           2.0     :   CWLS log ASCII Standard - VERSION 2.0
WRAP.           NO      :   One line per depth step
~Well Information Section
#MNEM       .UNIT                                         VALUE :DESCRIPTION
#------------------------------------------------------------------------------
STRT        .FT                                             510 :START DEPTH
STOP        .FT                                            9509 :STOP DEPTH
STEP        .FT                                             0.5 :STEP      
NULL        .                                           -999.25 :NULL      
COMP        .                       BLUE DOLPHIN EXPLORATION CO :COMPANY   
WELL        .                                OCS 00714 ST00BP00 :WELL      
FLD         .                              GALVESTON BLOCK 0288 :FIELD     
LOC         .                                                   :LOCATION  
CNTY        .                             GALVESTON LARGE BLOCK :LOCATION  
STAT        .                                             TEXAS :STATE     
CTRY        .                                     UNITED STATES :COUNTRY   
SRVC        .                                                   :SERVICE COMPANY
DATE        .                             9/13/2023 11:19:25 AM :LOG DATE  
API         .                                    42706000660000 :API NUMBER
UWI         .                                    42706000660000 :UNIQUE WELL ID
XCOORD      .                                  1093932.46617998 :SURFACE X 
YCOORD      .                                  10479390.8980397 :SURFACE Y 
LAT         .                                         28.865655 :LATITUDE  
LON         .                                       -94.7077791 :LONGITUDE 
ELEV        .FT                                              83 :ELEVATION VALUE
ELEV_TYPE   .                                                KB :ELEVATION REFERENCE TYPE
~Curve Information Section
#MNEM       .UNIT                                      API CODE :CURVE DESCRIPTION
#------------------------------------------------------------------------------
DEPT        .FT                                                 :DEPTH     
ASN         .OHMM                                               :          
CALI        .IN                                                 :          
DT          .US/F                                               :          
IL          .OHMM                                               :          
SP          .MV                                                 :          
SP_NORM     .MV                                                 :SP Normalized
VSH_SP      .V/V                                                :Volume of Shale from SP
~A        DEPTH            ASN           CALI             DT             IL             SP        SP_NORM         VSH_SP
# ...
      3491.5000         1.0338        -999.25        -999.25         1.0253       -52.2284      -0.333931              1
      3492.0000         1.0316        -999.25        -999.25         1.0244       -52.7975     -0.8965073              1
      3492.5000         1.0258        -999.25        -999.25         1.0236       -53.1807      -1.273182              1
      3493.0000         1.0157        -999.25        -999.25         1.0275       -53.2302      -1.316162              1
      3493.5000         1.0181        -999.25        -999.25         1.0341       -52.7465     -0.8259354              1
      3494.0000         1.0379        -999.25        -999.25         1.0443       -52.1391     -0.2120132              1
      3494.5000         1.0625        -999.25        -999.25         1.0675       -52.0842     -0.1505928              1
      3495.0000         1.0836        -999.25        -999.25         1.0843       -52.6266     -0.6864662              1
      3495.5000         1.0829        -999.25        -999.25         1.0834        -52.806     -0.8593445              1
      3496.0000         1.0659        -999.25        -999.25         1.0826       -52.6201     -0.6669197              1
      3496.5000         1.0476        -999.25        -999.25         1.0639        -52.551     -0.5912971              1
      3497.0000         1.0399        -999.25        -999.25          1.043       -52.8167     -0.8504753              1
      3497.5000         1.0404        -999.25        -999.25         1.0283       -52.9102     -0.9374504              1
      3498.0000         1.0477        -999.25        -999.25         1.0145       -52.7355     -0.7562294              1
      3498.5000         1.0585        -999.25        -999.25         1.0137        -52.419     -0.4332047              1
      3499.0000         1.0702        -999.25        -999.25         1.0209       -52.0611    -0.06878281              1
      3499.5000         1.0802        -999.25        -999.25         1.0336       -51.7214      0.2774391              1
      3500.0000         1.0868        -999.25        -999.25         1.0558       -51.5513      0.4540634              1
      3500.5000         1.0982        -999.25        -999.25         1.0815       -51.3406      0.6712875              1
      3501.0000         1.1203        -999.25        -999.25          1.103       -51.1262      0.8922081              1
      3501.5000         1.1348        -999.25        -999.25         1.1228       -50.9876       1.037331              1
      3502.0000         1.1471        -999.25        -999.25         1.1418       -51.3768      0.6546516              1
      3502.5000         1.1544        -999.25        -999.25         1.1602       -51.9721     0.06587601              1
      3503.0000         1.1526        -999.25        -999.25         1.1751       -52.1437     -0.0992012              1
      3503.5000         1.1464        -999.25        -999.25         1.1868       -51.9711     0.07992172              1
      3504.0000         1.1399        -999.25        -999.25         1.1925       -51.5167       0.540844              1
      3504.5000         1.1386        -999.25        -999.25         1.1918       -50.8952       1.168869              1
      3505.0000         1.1483        -999.25        -999.25          1.188       -50.6277        1.44289              1
      3505.5000         1.1479        -999.25        -999.25          1.178       -50.8763       1.200813              1
      3506.0000         1.1372        -999.25        -999.25         1.1654       -51.2993      0.7843361              1
      3506.5000         1.1289        -999.25        -999.25         1.1487       -51.7254      0.3647614              1
      3507.0000          1.131        -999.25        -999.25         1.1354       -52.0876    0.009082794              1
      3507.5000         1.1146        -999.25        -999.25         1.1281       -51.9999      0.1033058              1
      3508.0000         1.0902        -999.25        -999.25         1.1193       -51.6564       0.453331              1
      3508.5000          1.081        -999.25        -999.25         1.1037       -51.3848      0.7314529              1
      3509.0000         1.0927        -999.25        -999.25         1.0882       -51.6085      0.5142746              1
      3509.5000         1.1077        -999.25        -999.25         1.0726       -52.0214      0.1078987              1
      3510.0000         1.1039        -999.25        -999.25         1.0577        -52.162    -0.02617645              1
      3510.5000         1.0898        -999.25        -999.25         1.0534       -51.8673      0.2750473              1
      3511.0000         1.0761        -999.25        -999.25          1.049       -51.8547      0.2941704              1
      3511.5000         1.0717        -999.25        -999.25         1.0446       -51.4987      0.6566925              1
      3512.0000         1.0672        -999.25        -999.25         1.0403       -51.3077      0.8542137              1
      3512.5000         1.0594        -999.25        -999.25         1.0361       -51.7003      0.4681396              1
      3513.0000         1.0492        -999.25        -999.25         1.0321       -52.1104     0.06455994              1
      3513.5000         1.0504        -999.25        -999.25         1.0313       -52.0414      0.1400833              1
      3514.0000         1.0649        -999.25        -999.25         1.0306       -51.7308      0.4572067              1
      3514.5000         1.0768        -999.25        -999.25         1.0354          -51.4       0.794529              1
      3515.0000         1.0785        -999.25        -999.25         1.0451       -51.4626      0.7384529              1
      3515.5000         1.0694        -999.25        -999.25         1.0549       -51.7665      0.4410782              1
      3516.0000         1.0506        -999.25        -999.25         1.0543        -52.118     0.09609985              1
      3516.5000         1.0392        -999.25        -999.25         1.0507       -51.8851      0.3355217              1
      3517.0000         1.0335        -999.25        -999.25         1.0422       -51.5043       0.722847              1
      3517.5000         1.0293        -999.25        -999.25          1.021       -51.1818       1.051868              1
      3518.0000         1.0179        -999.25        -999.25         0.9992       -50.9498       1.290394              1
      3518.5000          1.007        -999.25        -999.25         0.9752       -51.1729       1.073814              1
      3519.0000         0.9988        -999.25        -999.25         0.9468       -51.4529      0.8003387              1
      3519.5000         0.9912        -999.25        -999.25         0.9197        -51.802      0.4577637              1
      3520.0000         0.9842        -999.25        -999.25         0.9078       -52.4092     -0.1429138              1
      3520.5000         0.9794        -999.25        -999.25          0.896       -53.1439     -0.8710938              1
      3521.0000         0.9654        -999.25        -999.25         0.8936        -53.697      -1.417667              1
      3521.5000         0.9471        -999.25        -999.25         0.8918       -53.8919      -1.606045              1
      3522.0000          0.934        -999.25        -999.25           0.89       -53.9731      -1.680721              1
      3522.5000          0.926        -999.25        -999.25         0.8904       -53.9214      -1.622498              1
      3523.0000         0.9286        -999.25        -999.25         0.8923       -53.5869      -1.281475              1
      3523.5000         0.9363        -999.25        -999.25         0.8943       -53.1371     -0.8251534              1
      3524.0000          0.944        -999.25        -999.25         0.8963       -52.5184     -0.1999283              1
      3524.5000         0.9484        -999.25        -999.25         0.8972       -52.1597      0.1652908              1
