#------------------------------------------------------------------------------
# Created by    : vladimir.rabinovich
# Created on    : 09/19/2023 17:21:54
#------------------------------------------------------------------------------
~Version Information Section
VERS.           2.0     :   CWLS log ASCII Standard - VERSION 2.0
WRAP.           NO      :   One line per depth step
~Well Information Section
#MNEM       .UNIT                                         VALUE :DESCRIPTION
#------------------------------------------------------------------------------
STRT        .FT                                             404 :START DEPTH
STOP        .FT                                            9564 :STOP DEPTH
STEP        .FT                                             0.5 :STEP      
NULL        .                                           -999.25 :NULL      
COMP        .                               AMOCO PRODUCTION CO :COMPANY   
WELL        .                               OCS G03108 ST00BP01 :WELL      
FLD         .                                           WILDCAT :FIELD     
LOC         .                                                   :LOCATION  
CNTY        .                      MATAGORDA ISLAND LARGE BLOCK :LOCATION  
STAT        .                                             TEXAS :STATE     
CTRY        .                                     UNITED STATES :COUNTRY   
SRVC        .                                                   :SERVICE COMPANY
DATE        .                             9/13/2023 11:12:09 AM :LOG DATE  
API         .                                    42703400030000 :API NUMBER
UWI         .                                    42703400030000 :UNIQUE WELL ID
XCOORD      .                                  482242.907024332 :SURFACE X 
YCOORD      .                                  10146341.7942038 :SURFACE Y 
LAT         .                                         27.913374 :LATITUDE  
LON         .                                         -96.58609 :LONGITUDE 
ELEV        .FT                                              95 :ELEVATION VALUE
ELEV_TYPE   .                                                KB :ELEVATION REFERENCE TYPE
~Curve Information Section
#MNEM       .UNIT                                      API CODE :CURVE DESCRIPTION
#------------------------------------------------------------------------------
DEPT        .FT                                                 :DEPTH     
CALI        .IN                                                 :          
CILD        .MMHO                                               :          
GR          .GAPI                                               :          
GR_NORM     .GAPI                                               :GammaRay Normalized
ILD         .OHMM                                               :          
RHOB        .G/C3                                               :          
SFL         .OHMM                                               :          
SP          .MV                                                 :          
SP_NORM     .MV                                                 :SP Normalized
VSH_GR      .V/V                                                :Volume of Shale from GR
VSH_SP      .V/V                                                :Volume of Shale from SP
~A        DEPTH           CALI           CILD             GR        GR_NORM            ILD           RHOB            SFL             SP        SP_NORM         VSH_GR         VSH_SP
# ...
      1011.5000        -999.25        2283.16        23.2874       38.90311          0.415        -999.25         0.2146       -50.7674         -8.002      0.1255982      0.1425714
      1012.0000        -999.25       2291.848        24.1519       39.93104           0.41        -999.25         0.2072       -50.7672         -7.996      0.1474689      0.1434286
      1012.5000        -999.25       2278.957         25.166       41.13559           0.41        -999.25          0.183       -50.9359        -8.1588      0.1730977      0.1201714
      1013.0000        -999.25       2270.641        26.9331       43.22849         0.4137        -999.25         0.1685       -50.7316        -7.9487      0.2176274      0.1501857
      1013.5000        -999.25        2270.34          28.76       45.39194         0.4174        -999.25         0.1717       -50.2787          -7.49      0.2636582      0.2157143
      1014.0000        -999.25       2263.242        30.2112       47.11222         0.4213        -999.25         0.1792       -50.1091        -7.3145        0.30026      0.2407857
      1014.5000        -999.25       2248.547        28.8664       45.53341         0.4244        -999.25         0.1499       -50.5554         -7.755      0.2666682      0.1778571
      1015.0000        -999.25       2243.262        26.9272       43.25338         0.4236        -999.25         0.1729       -51.1263        -8.3201       0.218157     0.09712859
      1015.5000        -999.25       2245.598        26.4834       42.73765         0.4202        -999.25         0.1953       -51.5756        -8.7635       0.207184     0.03378568
      1016.0000        -999.25       2274.637        27.3796       43.80309         0.4178        -999.25         0.2027       -51.9337        -9.1158       0.229853              0
      1016.5000        -999.25       2302.219        28.3167       44.91668         0.4125        -999.25         0.2192       -52.1881        -9.3644      0.2535464              0
      1017.0000        -999.25        2333.23        28.8586       45.56408          0.408        -999.25         0.2392       -52.2138        -9.3842      0.2673209              0
      1017.5000        -999.25       2352.035        28.6931       45.37672         0.4041        -999.25         0.2617       -51.9572        -9.1218      0.2633344              0
      1018.0000        -999.25       2369.055        28.1098       44.69651         0.4008        -999.25         0.2748       -51.6895        -8.8483      0.2488619     0.02167143
      1018.5000        -999.25       2386.977         28.882       45.61553         0.3987        -999.25         0.2708       -51.4184        -8.5713      0.2684155     0.06124292
      1019.0000        -999.25       2407.855        29.7296       46.62363          0.397        -999.25          0.261       -51.1295        -8.2766      0.2898644      0.1033429
      1019.5000        -999.25       2405.238        30.7484        47.8336         0.3975        -999.25         0.2521       -50.7184        -7.8597      0.3156086         0.1629
      1020.0000        -999.25       2383.457        32.3261       49.70314         0.4028        -999.25         0.2467       -50.3354        -7.4708       0.355386      0.2184571
      1020.5000        -999.25       2341.785        34.4252       52.18776         0.4112        -999.25         0.2421       -50.2361        -7.3657      0.4082503      0.2334715
      1021.0000        -999.25       2266.371        36.8439       55.04959         0.4229        -999.25         0.2279       -50.1694        -7.2932      0.4691401      0.2438286
      1021.5000        -999.25       2119.738        40.0842        58.8807         0.4383        -999.25         0.2018        -49.467        -6.5849      0.5506533      0.3450143
      1022.0000        -999.25       2072.723        44.9893       64.67622         0.4556        -999.25           0.17       -48.1647        -5.2768      0.6739622      0.5318857
      1022.5000        -999.25       2038.096        46.7527       66.76476         0.4721        -999.25         0.1477        -47.244        -4.3503       0.718399      0.6642429
      1023.0000        -999.25       2014.555        43.6851       63.15333         0.4836        -999.25         0.1591       -46.5836         -3.684      0.6415603      0.7594286
      1023.5000        -999.25       1994.227        47.9195       68.15738         0.4875        -999.25         0.1691       -46.0373        -3.1319      0.7480294         0.8383
      1024.0000        -999.25       1971.375        51.0015       71.80183         0.4879        -999.25         0.1737       -45.5253        -2.6141      0.8255709      0.9122714
      1024.5000        -999.25       1950.779        54.8818       76.38808         0.4891        -999.25         0.1708       -44.9414        -2.0243      0.9231506      0.9965286
      1025.0000        -999.25       1959.021        57.4946       79.47892         0.4912        -999.25         0.1593       -44.2432        -1.3203      0.9889132              1
      1025.5000        -999.25       2008.297        58.4865       80.65716         0.4773        -999.25         0.1508       -44.5938        -1.6651              1              1
      1026.0000        -999.25       2068.055        56.4678       78.28321         0.4608        -999.25         0.1736       -46.3685        -3.4339      0.9634725      0.7951571
      1026.5000        -999.25       2106.027        51.3176       72.21455         0.4516        -999.25         0.2026        -48.284        -5.3436      0.8343522      0.5223429
      1027.0000        -999.25       2097.453        41.4214         60.546         0.4521        -999.25         0.2496       -49.5414        -6.5952      0.5860851      0.3435428
      1027.5000        -999.25       2057.746        31.2446        48.5465         0.4577        -999.25         0.2863        -49.954        -7.0019      0.3307766      0.2854428
      1028.0000        -999.25       2030.152        28.3316       45.11737          0.462        -999.25         0.3234       -49.7217        -6.7638      0.2578165      0.3194571
      1028.5000        -999.25        2037.42        26.3887       42.83298         0.4639        -999.25         0.3444       -49.5913        -6.6276      0.2092125      0.3389142
      1029.0000        -999.25       2065.992        24.6511       40.79071         0.4618        -999.25         0.3189       -49.4739        -6.5043      0.1657598      0.3565286
      1029.5000        -999.25       2090.734        23.7112       39.68975         0.4582        -999.25         0.2893       -49.1298        -6.1544      0.1423351      0.4065143
      1030.0000        -999.25       2062.465        23.5904       39.55512         0.4596        -999.25         0.2757        -48.799        -5.8178      0.1394707         0.4546
      1030.5000        -999.25       2064.145        23.2968       39.21673         0.4654        -999.25         0.2691        -48.737        -5.7499      0.1322709         0.4643
      1031.0000        -999.25       2103.719        23.4891       39.45153         0.4607        -999.25         0.2595       -48.9683        -5.9754      0.1372666      0.4320857
      1031.5000        -999.25       2158.063        24.1433       40.23144         0.4486        -999.25          0.257        -49.399        -6.4003      0.1538604      0.3713857
      1032.0000        -999.25       2195.109        24.9967       41.24626         0.4374        -999.25         0.2523        -49.926        -6.9214      0.1754524      0.2969429
      1032.5000        -999.25       2215.508        25.0799       41.35245         0.4315        -999.25         0.2386       -50.4529        -7.4425      0.1777117         0.2225
      1033.0000        -999.25       2180.168        24.4263       40.58918         0.4351        -999.25         0.2443       -50.9709        -7.9547       0.161472      0.1493286
      1033.5000        -999.25       2127.176        24.1628        40.2863         0.4433        -999.25         0.2582       -51.3044        -8.2823      0.1550278      0.1025286
