#------------------------------------------------------------------------------
# Created by    : vladimir.rabinovich
# Created on    : 09/19/2023 17:22:54
#------------------------------------------------------------------------------
~Version Information Section
VERS.           2.0     :   CWLS log ASCII Standard - VERSION 2.0
WRAP.           NO      :   One line per depth step
~Well Information Section
#MNEM       .UNIT                                         VALUE :DESCRIPTION
#------------------------------------------------------------------------------
STRT        .FT                                             410 :START DEPTH
STOP        .FT                                            7624 :STOP DEPTH
STEP        .FT                                             0.5 :STEP      
NULL        .                                           -999.25 :NULL      
COMP        .                                      SHELL OIL CO :COMPANY   
WELL        .                                     ST TR 00249-L :WELL      
FLD         .                                           WILDCAT :FIELD     
LOC         .                                                   :LOCATION  
CNTY        .                             GALVESTON LARGE BLOCK :LOCATION  
STAT        .                                             TEXAS :STATE     
CTRY        .                                     UNITED STATES :COUNTRY   
SRVC        .                                                   :SERVICE COMPANY
DATE        .                             9/13/2023 11:19:42 AM :LOG DATE  
API         .                                    42706000200000 :API NUMBER
UWI         .                                    42706000200000 :UNIQUE WELL ID
XCOORD      .                                  981084.037319939 :SURFACE X 
YCOORD      .                                  10535303.7769946 :SURFACE Y 
LAT         .                                         29.014458 :LATITUDE  
LON         .                                       -95.0633058 :LONGITUDE 
ELEV        .FT                                              11 :ELEVATION VALUE
ELEV_TYPE   .                                                KB :ELEVATION REFERENCE TYPE
~Curve Information Section
#MNEM       .UNIT                                      API CODE :CURVE DESCRIPTION
#------------------------------------------------------------------------------
DEPT        .FT                                                 :DEPTH     
LAT         .OHMM                                               :          
SN          .OHMM                                               :          
SP          .MV                                                 :          
SP_NORM     .MV                                                 :SP Normalized
VSH_SP      .V/V                                                :Volume of Shale from SP
~A        DEPTH            LAT             SN             SP        SP_NORM         VSH_SP
# ...
      1862.0000         0.6606         0.5359       -96.1499     -0.7902298              1
      1862.5000         0.6549         0.5376        -96.108     -0.7611313              1
      1863.0000         0.6492         0.5393       -96.0662      -0.732132              1
      1863.5000         0.6435          0.541       -96.0243     -0.7030258              1
      1864.0000         0.6378         0.5427       -96.0374     -0.7289276              1
      1864.5000         0.6322         0.5444        -96.099     -0.8033295              1
      1865.0000         0.6257         0.5473       -96.1606     -0.8777237              1
      1865.5000          0.619         0.5536       -96.2223     -0.9522247              1
      1866.0000         0.6124         0.5599       -96.2792      -1.021927      0.9995016
      1866.5000         0.6058         0.5662       -96.3317      -1.087234      0.9980174
      1867.0000         0.5992         0.5725       -96.3843      -1.152626      0.9965312
      1867.5000         0.5913         0.5787       -96.4368      -1.217926      0.9950472
      1868.0000         0.5799          0.585       -96.4893      -1.283234      0.9935629
      1868.5000         0.5684         0.5925       -96.6301      -1.436821      0.9900723
      1869.0000         0.5569         0.6001       -96.7797      -1.599228      0.9863812
      1869.5000         0.5455         0.6077       -96.9292      -1.761528      0.9826925
      1870.0000          0.534         0.6152       -97.0786      -1.923721      0.9790064
      1870.5000         0.5226         0.6228       -97.2281      -2.086029      0.9753175
      1871.0000         0.5144         0.6275       -97.3777      -2.248428      0.9716266
      1871.5000         0.5061         0.6315        -97.447      -2.347061       0.969385
      1872.0000         0.4979         0.6397       -97.4799      -2.431427      0.9674675
      1872.5000         0.4897         0.6506       -97.5127      -2.515701      0.9655523
      1873.0000         0.5087         0.6615       -97.6123      -2.666763       0.962119
      1873.5000         0.5683         0.6861       -97.8831      -2.989037      0.9547946
      1874.0000         0.6253         0.7131       -98.1537      -3.311104      0.9474749
      1874.5000         0.6648         0.7084       -98.1394      -3.348267      0.9466303
      1875.0000         0.7043         0.6908       -97.3209      -2.581238      0.9640628
      1875.5000         0.7438         0.6731       -96.5024      -1.814201      0.9814954
      1876.0000          0.768         0.6554       -95.6837      -1.046967      0.9989326
      1876.5000           0.79         0.6377       -94.8652     -0.2799301              1
      1877.0000          0.812           0.62       -93.7703      0.7634964              1
      1877.5000          0.817         0.6023       -92.6539        1.82843              1
      1878.0000         0.8083         0.5931       -92.3934        2.03746              1
      1878.5000         0.7997         0.5855        -92.385       1.994392              1
      1879.0000         0.7911         0.5779       -92.3766       1.951324              1
      1879.5000         0.7818         0.5703       -92.3682       1.908257              1
      1880.0000         0.7684         0.5826       -92.7012       1.523788              1
      1880.5000         0.7551         0.6063       -93.1371        1.03643              1
      1881.0000         0.7417         0.6301       -93.5729      0.5491638              1
      1881.5000         0.7283         0.6539       -94.0089     0.06169128              1
      1882.0000          0.715         0.6777       -94.4447     -0.4255753              1
      1882.5000         0.7016         0.6963       -94.8807     -0.9130402              1
      1883.0000         0.6883         0.7131       -95.3165      -1.400307      0.9909021
      1883.5000         0.6753           0.73       -96.0449      -2.180176      0.9731779
      1884.0000         0.6635         0.7468       -97.0673      -3.254044      0.9487717
      1884.5000         0.6518         0.7395       -98.0897      -4.327911      0.9243656
      1885.0000           0.64         0.7271       -99.1123      -5.401978       0.899955
      1885.5000         0.6282         0.7147        -99.041      -5.382141      0.9004059
      1886.0000          0.627         0.7024        -97.403      -3.795609      0.9364634
      1886.5000         0.6278           0.69       -95.8673      -2.311378      0.9701959
      1887.0000         0.6287         0.6733       -95.4463      -1.941841      0.9785945
      1887.5000         0.6371         0.6566       -95.0253      -1.572311      0.9869929
      1888.0000          0.655           0.64       -95.3419      -1.940384      0.9786276
      1888.5000         0.6728         0.6233        -95.973      -2.622948      0.9631148
      1889.0000         0.6906         0.6066       -96.5408      -3.242218      0.9490405
      1889.5000         0.7047         0.5899       -96.2063      -2.959183      0.9554731
      1890.0000         0.7175         0.5801       -95.8722      -2.676552      0.9618965
      1890.5000         0.7302         0.5761        -95.127      -1.982819      0.9776632
      1891.0000         0.7429         0.5721       -93.9357     -0.8429794              1
      1891.5000         0.7479         0.5681       -92.7444      0.2968521              1
      1892.0000         0.7473          0.564       -91.7794       1.210381              1
      1892.5000         0.7468           0.56         -92.05      0.8883133              1
      1893.0000         0.7463          0.556       -92.3207      0.5661469              1
      1893.5000         0.7457         0.5545        -92.631      0.2043839              1
      1894.0000         0.7407         0.5672       -93.1938     -0.4098892              1
      1894.5000         0.7326         0.5798       -93.7567      -1.024254      0.9994488
      1895.0000         0.7246         0.5924       -94.3196      -1.638626      0.9854858
      1895.5000         0.7165         0.6053       -94.8158      -2.186295      0.9730387
      1896.0000         0.7085         0.6227        -95.283      -2.704948      0.9612512
      1896.5000         0.7004         0.6306       -95.7501      -3.223518      0.9494655
      1897.0000         0.6924         0.6429        -96.217       -3.74189      0.9376843
      1897.5000         0.6843         0.6606       -97.0455      -4.621857      0.9176851
      1898.0000         0.6763         0.6783       -97.9359      -5.563721      0.8962791
      1898.5000         0.6911          0.696       -98.8262      -6.505493      0.8748751
      1899.0000         0.7067         0.7057       -99.7168      -7.447556      0.8534647
      1899.5000         0.7223         0.7124      -100.5968      -8.379028      0.8322948
      1900.0000         0.7743         0.7114      -101.4226      -9.256294      0.8123569
      1900.5000         0.8476         0.6963       -100.746      -8.631165      0.8265644
      1901.0000          0.921         0.6811       -99.2621      -7.198723        0.85912
      1901.5000         0.9857          0.666       -97.7782      -5.766289      0.8916752
      1902.0000         1.0445         0.6509       -96.2943      -4.333855      0.9242306
      1902.5000         1.0081         0.6359       -94.8987      -2.989723       0.954779
      1903.0000         0.9717         0.6208       -93.9678      -2.110291      0.9747661
      1903.5000         0.9353         0.6057       -93.6766       -1.87056      0.9802145
      1904.0000         0.8989         0.5907       -93.5865      -1.831932      0.9810925
      1904.5000         0.8625         0.5808       -93.8102      -2.107101      0.9748386
      1905.0000         0.8261         0.5823       -94.0339      -2.382263       0.968585
      1905.5000         0.7897         0.5838       -94.7966      -3.196434      0.9500811
