#------------------------------------------------------------------------------
# Created by    : vladimir.rabinovich
# Created on    : 09/19/2023 17:20:39
#------------------------------------------------------------------------------
~Version Information Section
VERS.           2.0     :   CWLS log ASCII Standard - VERSION 2.0
WRAP.           NO      :   One line per depth step
~Well Information Section
#MNEM       .UNIT                                         VALUE :DESCRIPTION
#------------------------------------------------------------------------------
STRT        .FT                                             523 :START DEPTH
STOP        .FT                                           11863 :STOP DEPTH
STEP        .FT                                             0.5 :STEP      
NULL        .                                           -999.25 :NULL      
COMP        .                                      SHELL OIL CO :COMPANY   
WELL        .                                OCS 00727 ST00BP00 :WELL      
FLD         .                                           WILDCAT :FIELD     
LOC         .                                                   :LOCATION  
CNTY        .                             GALVESTON LARGE BLOCK :LOCATION  
STAT        .                                             TEXAS :STATE     
CTRY        .                                     UNITED STATES :COUNTRY   
SRVC        .                                                   :SERVICE COMPANY
DATE        .                             9/13/2023 11:19:42 AM :LOG DATE  
API         .                                    42706000240000 :API NUMBER
UWI         .                                    42706000240000 :UNIQUE WELL ID
XCOORD      .                                  977080.798970248 :SURFACE X 
YCOORD      .                                   10388448.113324 :SURFACE Y 
LAT         .                                         28.610486 :LATITUDE  
LON         .                                        -95.067834 :LONGITUDE 
ELEV        .FT                                              76 :ELEVATION VALUE
ELEV_TYPE   .                                                KB :ELEVATION REFERENCE TYPE
~Curve Information Section
#MNEM       .UNIT                                      API CODE :CURVE DESCRIPTION
#------------------------------------------------------------------------------
DEPT        .FT                                                 :DEPTH     
ASN         .OHMM                                               :          
ILD         .OHMM                                               :          
LN          .OHMM                                               :          
SP          .MV                                                 :          
SP_NORM     .MV                                                 :SP Normalized
VSH_SP      .V/V                                                :Volume of Shale from SP
~A        DEPTH            ASN            ILD             LN             SP        SP_NORM         VSH_SP
# ...
      8047.0000         0.9602         0.7685        -999.25        -38.521      -4.855755      0.8571942
      8047.5000         0.9553         0.7621        -999.25       -38.5778       -4.91021      0.8551774
      8048.0000         0.9505         0.7553        -999.25       -38.9383       -5.26836      0.8419126
      8048.5000         0.9447         0.7292        -999.25       -39.5101      -5.837811      0.8208218
      8049.0000         0.9368         0.7015        -999.25       -40.0824      -6.407764      0.7997124
      8049.5000         0.9289         0.6738        -999.25       -40.8995      -7.222515      0.7695365
      8050.0000          0.921         0.6461        -999.25       -41.9482      -8.268864      0.7307828
      8050.5000         0.9131         0.6202        -999.25       -42.9804      -9.298717      0.6926401
      8051.0000         0.8997         0.5957        -999.25       -43.3713      -9.687267      0.6782494
      8051.5000         0.8846         0.5711        -999.25       -43.7623      -10.07592       0.663855
      8052.0000         0.8531         0.5465        -999.25       -44.1537      -10.46497      0.6494454
      8052.5000         0.7983          0.522        -999.25       -44.5446      -10.85352      0.6350547
      8053.0000         0.7649         0.4986        -999.25       -44.8997      -11.20627      0.6219899
      8053.5000         0.7467         0.4754        -999.25       -45.2223      -11.52653      0.6101286
      8054.0000         0.7264         0.4522        -999.25        -47.259      -13.56087      0.5347824
      8054.5000         0.7029         0.4337        -999.25         -49.91      -16.20953      0.4366842
      8055.0000         0.6877         0.4235        -999.25        -52.528      -18.82518      0.3398081
      8055.5000         0.6845         0.4132        -999.25       -54.1005      -20.39533      0.2816545
      8056.0000         0.6821         0.4092        -999.25       -55.0587      -21.35118      0.2462526
      8056.5000         0.6885         0.4205        -999.25       -55.3978      -21.68793      0.2337802
      8057.0000         0.6961         0.4317        -999.25       -54.8073      -21.09509      0.2557376
      8057.5000         0.7036         0.4429        -999.25       -54.0905      -20.37593      0.2823728
      8058.0000         0.7212         0.4541        -999.25       -53.3749      -19.65799      0.3089634
      8058.5000         0.7402         0.4703        -999.25       -52.6592      -18.93994      0.3355579
      8059.0000         0.7592         0.4873        -999.25       -52.3758      -18.65419      0.3461411
      8059.5000         0.8216         0.5044        -999.25        -53.763      -20.03904      0.2948502
      8060.0000         0.8996         0.5215        -999.25       -55.0488      -21.32249       0.247315
      8060.5000         0.9408         0.5386        -999.25       -55.6107      -21.88204       0.226591
      8061.0000         0.9779         0.5557        -999.25       -56.1725       -22.4415      0.2058704
      8061.5000         0.9554          0.565        -999.25       -55.5715      -21.83815      0.2282168
      8062.0000          0.866         0.5308        -999.25       -54.6959       -20.9602      0.2607334
      8062.5000         0.8075         0.4966        -999.25       -52.5367      -18.79865      0.3407908
      8063.0000         0.7567         0.4633        -999.25       -52.5059       -18.7655      0.3420184
      8063.5000          0.706         0.4446        -999.25       -54.5085      -20.76575      0.2679352
      8064.0000         0.6551         0.4259        -999.25       -56.0634       -22.3183      0.2104333
      8064.5000         0.6124         0.4072        -999.25       -56.9478      -23.20036      0.1777646
      8065.0000         0.5945         0.3885        -999.25       -57.4727       -23.7229       0.158411
      8065.5000         0.5906         0.3858        -999.25        -55.459      -21.70686      0.2330794
      8066.0000         0.6061          0.397        -999.25       -53.6848      -19.93031      0.2988774
      8066.5000         0.6216         0.4082        -999.25       -53.0043      -19.24746      0.3241682
      8067.0000         0.6328         0.4195        -999.25       -52.3239      -18.56471      0.3494552
      8067.5000         0.6427         0.4304        -999.25       -51.6436      -17.88206      0.3747383
      8068.0000         0.6527         0.4379        -999.25       -51.1749      -17.41101      0.3921846
      8068.5000         0.6627         0.4453        -999.25       -51.7114      -17.94516      0.3724014
      8069.0000         0.6727         0.4528        -999.25       -52.2798      -18.51122      0.3514363
      8069.5000         0.6775         0.4602        -999.25       -52.8753      -19.10437      0.3294678
      8070.0000         0.6788         0.4677        -999.25       -53.4719      -19.69862      0.3074585
      8070.5000         0.6793         0.4751        -999.25       -54.0674      -20.29177      0.2854898
      8071.0000         0.6783         0.4826        -999.25        -54.382      -20.60402      0.2739251
      8071.5000         0.6837         0.4949        -999.25       -54.5151      -20.73477      0.2690825
      8072.0000         0.7034         0.5256        -999.25       -50.2938      -16.51113      0.4255138
      8072.5000         0.7231         0.5747        -999.25       -45.9137      -12.12868      0.5878268
      8073.0000         0.7452         0.6239        -999.25       -42.3055      -8.518127      0.7215508
      8073.5000         0.7787          0.673        -999.25       -40.5897       -6.79998      0.7851859
      8074.0000         0.8102          0.689        -999.25        -39.295       -5.50293      0.8332248
      8074.5000         0.8408         0.7031        -999.25       -38.2022      -4.407784      0.8737858
      8075.0000         0.8598         0.7092        -999.25       -37.3641      -3.567337      0.9049134
      8075.5000         0.8691         0.7146        -999.25       -36.6595      -2.860386      0.9310968
      8076.0000         0.8784           0.72        -999.25        -36.348      -2.546535      0.9427209
      8076.5000         0.8876         0.7254        -999.25       -36.0364       -2.23259      0.9543485
      8077.0000         0.8897         0.7281        -999.25       -35.7249      -1.918739      0.9659726
      8077.5000         0.8912         0.7225        -999.25       -35.4134      -1.604889      0.9775967
      8078.0000         0.8928         0.7168        -999.25       -35.2982      -1.487343      0.9819503
      8078.5000         0.8947         0.7111        -999.25       -35.2265      -1.413296      0.9846928
      8079.0000         0.8973         0.7055        -999.25        -35.155      -1.339443       0.987428
      8079.5000         0.8999         0.6998        -999.25       -35.0834      -1.265499      0.9901667
      8080.0000         0.9025         0.6941        -999.25       -35.0118      -1.191547      0.9929057
      8080.5000         0.9051         0.6885        -999.25       -34.9402      -1.117599      0.9956445
      8081.0000         0.9077         0.6831        -999.25       -34.8687      -1.043747      0.9983798
      8081.5000         0.9136         0.6782        -999.25       -34.7971     -0.9698029              1
      8082.0000         0.9203         0.6734        -999.25       -34.7255     -0.8958511              1
      8082.5000          0.927         0.6685        -999.25       -34.6826     -0.8506012              1
      8083.0000         0.9337         0.6637        -999.25       -34.7069     -0.8725586              1
      8083.5000         0.9403         0.6713        -999.25       -34.7314     -0.8947067              1
      8084.0000         0.9462         0.6791        -999.25       -34.7558     -0.9167557              1
      8084.5000         0.9506         0.6868        -999.25       -34.7802     -0.9388123              1
