#------------------------------------------------------------------------------
# Created by    : vladimir.rabinovich
# Created on    : 09/19/2023 17:19:58
#------------------------------------------------------------------------------
~Version Information Section
VERS.           2.0     :   CWLS log ASCII Standard - VERSION 2.0
WRAP.           NO      :   One line per depth step
~Well Information Section
#MNEM       .UNIT                                         VALUE :DESCRIPTION
#------------------------------------------------------------------------------
STRT        .FT                                             782 :START DEPTH
STOP        .FT                                            8251 :STOP DEPTH
STEP        .FT                                             0.5 :STEP      
NULL        .                                           -999.25 :NULL      
COMP        .                                     TALOS ERT LLC :COMPANY   
WELL        .                               OCS G06037 ST00BP00 :WELL      
FLD         .                       MATAGORDA ISLAND BLOCK 0619 :FIELD     
LOC         .                                                   :LOCATION  
CNTY        .                      MATAGORDA ISLAND LARGE BLOCK :LOCATION  
STAT        .                                             TEXAS :STATE     
CTRY        .                                     UNITED STATES :COUNTRY   
SRVC        .                                                   :SERVICE COMPANY
DATE        .                             9/13/2023 11:18:52 AM :LOG DATE  
API         .                                    42703402240000 :API NUMBER
UWI         .                                    42703402240000 :UNIQUE WELL ID
XCOORD      .                                  606760.800591327 :SURFACE X 
YCOORD      .                                  10227689.0556145 :SURFACE Y 
LAT         .                                        28.1463556 :LATITUDE  
LON         .                                       -96.2076889 :LONGITUDE 
ELEV        .FT                                              77 :ELEVATION VALUE
ELEV_TYPE   .                                                KB :ELEVATION REFERENCE TYPE
~Curve Information Section
#MNEM       .UNIT                                      API CODE :CURVE DESCRIPTION
#------------------------------------------------------------------------------
DEPT        .FT                                                 :DEPTH     
ASFL        .OHMM                                               :          
CALI        .IN                                                 :          
CILD        .MMHO                                               :          
DRHO        .G/C3                                               :          
DT          .US/F                                               :          
GR          .GAPI                                               :          
GR_NORM     .GAPI                                               :GammaRay Normalized
ILD         .OHMM                                               :          
ILM         .OHMM                                               :          
NPHI        .%                                                  :          
RHOB        .G/C3                                               :          
SFL         .OHMM                                               :          
SP          .MV                                                 :          
SP_NORM     .MV                                                 :SP Normalized
VSH_GR      .V/V                                                :Volume of Shale from GR
VSH_SP      .V/V                                                :Volume of Shale from SP
~A        DEPTH           ASFL           CALI           CILD           DRHO             DT             GR        GR_NORM            ILD            ILM           NPHI           RHOB            SFL             SP        SP_NORM         VSH_GR         VSH_SP
# ...
      2286.0000         0.6181        15.4047       1483.744         0.0391       148.0569        61.5818       73.30722         0.6293         0.6016        44.2704         2.0965         0.6204       -56.8173      -2.925083      0.8576005      0.9339226
      2286.5000         0.5997        15.1244       1555.137          0.037       153.2717        64.8461       77.31728         0.6053         0.5723        48.8013         2.0006         0.5806       -56.1031      -2.210884      0.9429209      0.9849368
      2287.0000         0.5799        15.4685       1644.209         0.0247            157        67.1029       80.08853         0.5882          0.549        52.3839          1.996         0.5497       -55.4722      -1.579983              1              1
      2287.5000         0.5594        16.1012       1683.992         0.0135        158.655        68.9213       82.32076         0.5786         0.5334        53.7294         1.9728         0.5229       -55.0671      -1.174885              1              1
      2288.0000         0.5403         16.154       1723.762         0.0055       158.3882        70.3137       84.02914         0.5738         0.5252        54.5021         1.9666         0.4985       -54.8104     -0.9181824              1              1
      2288.5000         0.5284        15.4933       1753.268              0       157.4954        70.8635       84.70148          0.574         0.5261        54.7449         1.9743         0.4905       -54.7357      -0.843483              1              1
      2289.0000         0.5251        15.0732       1780.756        -0.0001       155.8335         70.376       84.09836         0.5825         0.5305         53.324         1.9873         0.5031       -54.7517     -0.8594856              1              1
      2289.5000         0.5253         14.909       1746.197         0.0041       153.8271        66.3859        79.1885         0.6025         0.5417        51.5961         2.0088         0.5261       -54.8815     -0.9892845       0.982734              1
      2290.0000         0.5391        14.7964       1711.629         0.0167       152.6262        62.9074       74.90769          0.628         0.5604        50.4598         2.0288         0.5535       -55.2706      -1.378384       0.891653              1
      2290.5000         0.5532        14.8348       1630.045         0.0219       152.1355        61.1452       72.73721         0.6588         0.5813        50.5687         2.0474         0.5817       -55.1176      -1.225384      0.8454726              1
      2291.0000         0.5688        14.9416       1494.293         0.0209       152.0266        59.5709        70.7978         0.6915         0.6029        50.7344         2.0556         0.6064       -54.9595      -1.067284      0.8042085              1
      2291.5000         0.5836          14.98        1440.68          0.018       152.3464        60.5859       72.04214         0.7238         0.6234        49.1944         2.0577         0.6245       -54.9252      -1.032986      0.8306839              1
      2292.0000         0.5935        15.0989       1398.693         0.0146       152.8279        61.8624       73.60802         0.7467          0.639        47.0051         2.0557          0.639       -54.9946      -1.102383      0.8640005              1
      2292.5000         0.6035        15.2678        1368.32         0.0128       152.8577        62.2473       74.07761         0.7616          0.649         44.709         2.0531         0.6324       -55.1375      -1.245285      0.8739916              1
      2293.0000         0.6085        15.2964       1334.445         0.0124       152.7542        62.2172        74.0369         0.7574         0.6522        45.0433         2.0501         0.6224       -55.3256      -1.433384      0.8731254              1
      2293.5000         0.6028        15.1711        1354.75         0.0125       153.0591        62.7932       74.74147         0.7359         0.6452        46.0728         2.0448         0.6081       -55.4355      -1.543285      0.8881164              1
      2294.0000         0.5929        15.1503       1412.078         0.0123       154.0007        64.1447       76.39956         0.7007         0.6322        46.8135         2.0274         0.5997       -55.5461      -1.653885      0.9233949              1
      2294.5000         0.5806        15.5566       1472.377         0.0116       155.7307        65.3744       77.90792         0.6621         0.6067        46.7578         1.9983         0.5817       -55.6119      -1.719685      0.9554877              1
      2295.0000          0.559        16.1504       1532.676         0.0116       157.8296        66.4406       79.21521          0.628         0.5737         46.519         1.9968         0.5598       -55.6742      -1.781982      0.9833024              1
      2295.5000         0.5375        16.6163       1648.221         0.0117       159.5095        67.4268       80.42416         0.5933         0.5455        46.2466         1.9928         0.5355       -55.7126      -1.820385              1              1
      2296.0000         0.5189        16.9786       1777.041         0.0132       160.3074         68.189       81.35766          0.562         0.5214        44.8217         1.9849         0.5176       -55.7202      -1.827984              1              1
      2296.5000          0.506        17.1568       1873.371          0.017       160.3765        68.6687        81.9438          0.533         0.5031         44.011         1.9813         0.5013       -55.7261      -1.833885              1              1
      2297.0000         0.4972         16.994       1949.566         0.0246       160.1716        69.1991       82.59229          0.505         0.4913         45.846         1.9809         0.4918       -55.7438      -1.851585              1              1
      2297.5000         0.4907        16.4868        2009.99         0.0335       160.0864        69.3038       82.71734         0.4884         0.4848        48.3182         1.9815         0.4854       -55.7359      -1.843685              1              1
      2298.0000         0.4867        16.2361       2056.285          0.039       160.1626        68.9248       82.24763         0.4788          0.479        49.0779          1.981         0.4789       -55.7125      -1.820286              1              1
      2298.5000          0.483        16.1766       2082.148          0.037       160.2937        68.7178       81.98941         0.4712         0.4766        49.2949          1.972         0.4761       -55.6248      -1.732586              1              1
      2299.0000         0.4798        16.1533       2069.035         0.0281       160.3545        71.6254       85.56088         0.4612         0.4741        50.6427         1.9625         0.4737       -55.5281      -1.635883              1              1
      2299.5000          0.477        16.0343       2045.959         0.0178       160.5571        75.5531       90.38665         0.4676         0.4741        52.3943         1.9516         0.4711       -55.3306      -1.438385              1              1
      2300.0000         0.4755        15.8657       2022.891         0.0115        160.927        80.0763       95.94467         0.4679         0.4768        53.1769         1.9422         0.4615       -54.9273      -1.035084              1              1
      2300.5000         0.4816        15.5246       1999.813          0.009       161.5808         82.861       99.36501         0.4854         0.4795        53.0111         1.9424         0.4613       -53.8606     0.03161621              1              1
      2301.0000         0.4906        15.2961       1967.656         0.0088       162.3376        80.5144       96.47596          0.499         0.4825        52.4056         1.9449         0.4661       -53.7386       0.153614              1              1
      2301.5000         0.4964        15.1104       1930.857         0.0089        162.854        75.2646       90.01719         0.5107         0.4857        51.1194         1.9473         0.4728         -53.66      0.2322159              1              1
