#------------------------------------------------------------------------------
# Created by    : vladimir.rabinovich
# Created on    : 09/19/2023 17:20:12
#------------------------------------------------------------------------------
~Version Information Section
VERS.           2.0     :   CWLS log ASCII Standard - VERSION 2.0
WRAP.           NO      :   One line per depth step
~Well Information Section
#MNEM       .UNIT                                         VALUE :DESCRIPTION
#------------------------------------------------------------------------------
STRT        .FT                                             970 :START DEPTH
STOP        .FT                                            6500 :STOP DEPTH
STEP        .FT                                             0.5 :STEP      
NULL        .                                           -999.25 :NULL      
COMP        .                                CONTINENTAL OIL CO :COMPANY   
WELL        .                               OCS G03106 ST00BP00 :WELL      
FLD         .                       MATAGORDA ISLAND BLOCK 0687 :FIELD     
LOC         .                                                   :LOCATION  
CNTY        .                      MATAGORDA ISLAND LARGE BLOCK :LOCATION  
STAT        .                                             TEXAS :STATE     
CTRY        .                                     UNITED STATES :COUNTRY   
SRVC        .                                                   :SERVICE COMPANY
DATE        .                             9/13/2023 11:12:09 AM :LOG DATE  
API         .                                    42703400330000 :API NUMBER
UWI         .                                    42703400330000 :UNIQUE WELL ID
XCOORD      .                                  468864.661343862 :SURFACE X 
YCOORD      .                                  10154488.9405743 :SURFACE Y 
LAT         .                                         27.934663 :LATITUDE  
LON         .                                        -96.628194 :LONGITUDE 
ELEV        .FT                                              96 :ELEVATION VALUE
ELEV_TYPE   .                                                KB :ELEVATION REFERENCE TYPE
~Curve Information Section
#MNEM       .UNIT                                      API CODE :CURVE DESCRIPTION
#------------------------------------------------------------------------------
DEPT        .FT                                                 :DEPTH     
ASFL        .OHMM                                               :          
CALI        .IN                                                 :          
CILD        .MMHO                                               :          
DRHO        .G/C3                                               :          
DT          .US/F                                               :          
DTL         .US/F                                               :          
GR          .GAPI                                               :          
GR_1        .GAPI                                               :          
GR_NORM     .GAPI                                               :GammaRay Normalized
ILD         .OHMM                                               :          
ILM         .OHMM                                               :          
NPHI        .%                                                  :          
RHOB        .G/C3                                               :          
SFL         .OHMM                                               :          
SP          .MV                                                 :          
SP_NORM     .MV                                                 :SP Normalized
VSH_GR      .V/V                                                :Volume of Shale from GR
VSH_SP      .V/V                                                :Volume of Shale from SP
~A        DEPTH           ASFL           CALI           CILD           DRHO             DT            DTL             GR           GR_1        GR_NORM            ILD            ILM           NPHI           RHOB            SFL             SP        SP_NORM         VSH_GR         VSH_SP
# ...
      2090.0000         0.6883        -999.25       2179.934        -999.25       142.0278        -999.25        34.6153        -999.25       56.79795         0.5063         0.6722        -999.25        -999.25         0.6841       -61.4879       -15.2493      0.5063393      0.5463222
      2090.5000         0.6827        -999.25       2217.273        -999.25       146.2312        -999.25        32.9599        -999.25       53.66808          0.495         0.6476        -999.25        -999.25         0.7074       -63.9623       -17.7317      0.4397464      0.4543814
      2091.0000         0.6802        -999.25       2254.609        -999.25       148.9651        -999.25        33.0208        -999.25       53.77794         0.4837         0.6197        -999.25        -999.25         0.7362       -66.0758       -19.8531      0.4420837      0.3758111
      2091.5000         0.6878        -999.25        2284.27        -999.25       150.2297        -999.25        33.3258        -999.25       54.34856         0.4724         0.5932        -999.25        -999.25          0.714       -66.2529       -20.0381      0.4542246      0.3689593
      2092.0000         0.6953        -999.25       2301.402        -999.25       147.1621        -999.25        33.6771        -999.25        55.0064         0.4611         0.5693        -999.25        -999.25         0.6687       -65.8646       -19.6578      0.4682214      0.3830444
      2092.5000         0.7028        -999.25       2293.148        -999.25        140.605        -999.25        34.4674        -999.25        56.4931         0.4676         0.5496        -999.25        -999.25         0.6314       -65.5088       -19.3099      0.4998532      0.3959296
      2093.0000         0.7086        -999.25       2216.855        -999.25       133.9819        -999.25        36.8209        -999.25       60.93052         0.4805         0.5358        -999.25        -999.25         0.6407       -65.4238       -19.2328      0.5942663      0.3987852
      2093.5000         0.7143        -999.25       2140.566        -999.25       131.8875        -999.25        39.6045        -999.25       66.17982         0.4934         0.5289        -999.25        -999.25         0.6591       -65.1394       -18.9564      0.7059537      0.4090222
      2094.0000           0.72        -999.25        2045.23        -999.25       134.5186        -999.25        40.6493        -999.25       68.14691         0.5064         0.5261        -999.25        -999.25         0.6932       -64.7721        -18.597      0.7478066      0.4223333
      2094.5000         0.7257        -999.25       1938.902        -999.25       144.9285        -999.25        40.4416        -999.25       67.74977         0.5231          0.532        -999.25        -999.25         0.7256       -63.9752        -17.808      0.7393568      0.4515555
      2095.0000         0.7314        -999.25         1829.4        -999.25       147.9456        -999.25         39.367        -999.25       65.71622         0.5513         0.5447        -999.25        -999.25         0.7552       -62.0629       -15.9037      0.6960899      0.5220852
      2095.5000         0.7346        -999.25       1688.055        -999.25         150.04        -999.25        37.9985        -999.25       63.12792         0.5795         0.5639        -999.25        -999.25         0.7709       -59.4714       -13.3201      0.6410195      0.6177741
      2096.0000         0.7345        -999.25       1596.184        -999.25       149.3071        -999.25        41.1141        -999.25       69.00392         0.6077         0.5857        -999.25        -999.25         0.7718       -55.9893        -9.8459      0.7660409      0.7464482
      2096.5000         0.7345        -999.25        1512.08        -999.25       141.9512        -999.25        44.8846        -999.25       76.11591         0.6359         0.6206        -999.25        -999.25         0.7345       -54.5048        -8.3694      0.9173597      0.8011333
      2097.0000         0.7345        -999.25       1396.961        -999.25       136.9233        -999.25        47.1835        -999.25       80.45029         0.6641         0.6661        -999.25        -999.25         0.7031       -53.5524        -7.4249              1      0.8361148
      2097.5000         0.7344        -999.25       1335.213        -999.25       134.0376        -999.25        46.6551        -999.25       79.44776         0.6887         0.7121        -999.25        -999.25         0.7045       -52.4957        -6.3761      0.9882503      0.8749593
      2098.0000         0.7344        -999.25       1301.453        -999.25       131.4036        -999.25        45.7999        -999.25       77.82838         0.7108         0.7516        -999.25        -999.25         0.7269       -51.7623        -5.6507      0.9537953      0.9018259
      2098.5000         0.7347        -999.25       1267.691        -999.25       128.7087        -999.25        46.0957        -999.25       78.38164          0.733         0.7814        -999.25        -999.25         0.7593       -51.0544        -4.9507      0.9655668      0.9277518
      2099.0000         0.7363        -999.25       1253.424        -999.25        128.844        -999.25        47.2172        -999.25       80.49351          0.754         0.8085        -999.25        -999.25         0.7855       -50.3999        -4.3041              1         0.9517
      2099.5000         0.7378        -999.25       1239.199        -999.25        132.446        -999.25        48.1979        -999.25       82.33961         0.7623         0.8266        -999.25        -999.25         0.7973       -49.8128         -3.725              1      0.9731482
      2100.0000         0.7393        -999.25       1243.887        -999.25       139.4993        -999.25        48.9134        -999.25       83.68511         0.7706          0.831        -999.25        -999.25         0.7718       -49.6671        -3.5872              1      0.9782519
      2100.5000         0.7409        -999.25       1261.512        -999.25       141.4387        -999.25        51.1967        -999.25       87.98982         0.7789         0.8392        -999.25        -999.25         0.7383        -48.675         -2.603              1              1
      2101.0000         0.7424        -999.25       1279.139        -999.25       141.3142        -999.25        51.5591        -999.25       88.66882         0.7785         0.8312        -999.25        -999.25         0.7025       -47.8419        -1.7779              1              1
      2101.5000         0.7439        -999.25       1296.764        -999.25       140.0635        -999.25        50.3499        -999.25        86.3812         0.7634         0.8205        -999.25        -999.25         0.6871       -47.2442        -1.1881              1              1
      2102.0000         0.7455        -999.25       1328.059        -999.25       140.3938        -999.25        44.4488        -999.25       75.23704         0.7484         0.8085        -999.25        -999.25         0.7246       -47.4752         -1.427      0.8986604              1
      2102.5000         0.7439        -999.25       1363.578        -999.25        142.397        -999.25        40.9244        -999.25        68.5792         0.7334         0.7929        -999.25        -999.25         0.7663       -51.4047        -5.3645      0.7570043      0.9124259
      2103.0000         0.7315        -999.25       1399.098        -999.25       143.1536        -999.25        41.3625        -999.25       69.40106         0.7183         0.7767        -999.25        -999.25         0.7974       -51.8818        -5.8495      0.7744907      0.8944629
      2103.5000         0.7192        -999.25       1434.617        -999.25       141.9802        -999.25        42.8632        -999.25       72.22873          0.703         0.7592        -999.25        -999.25         0.8033       -50.5365        -4.5121      0.8346538      0.9439963
