#------------------------------------------------------------------------------
# Created by    : vladimir.rabinovich
# Created on    : 09/19/2023 17:19:20
#------------------------------------------------------------------------------
~Version Information Section
VERS.           2.0     :   CWLS log ASCII Standard - VERSION 2.0
WRAP.           NO      :   One line per depth step
~Well Information Section
#MNEM       .UNIT                                         VALUE :DESCRIPTION
#------------------------------------------------------------------------------
STRT        .FT                                            4783 :START DEPTH
STOP        .FT                                            9473 :STOP DEPTH
STEP        .FT                                             0.5 :STEP      
NULL        .                                           -999.25 :NULL      
COMP        .                                   FOREST OIL CORP :COMPANY   
WELL        .                               OCS G20658 ST00BP00 :WELL      
FLD         .                            HIGH ISLAND BLOCK 0052 :FIELD     
LOC         .                                                   :LOCATION  
CNTY        .                           HIGH ISLAND LARGE BLOCK :LOCATION  
STAT        .                                             TEXAS :STATE     
CTRY        .                                     UNITED STATES :COUNTRY   
SRVC        .                                                   :SERVICE COMPANY
DATE        .                             9/13/2023 11:19:51 AM :LOG DATE  
API         .                                    42708405710000 :API NUMBER
UWI         .                                    42708405710000 :UNIQUE WELL ID
XCOORD      .                                  1254974.65209524 :SURFACE X 
YCOORD      .                                  10682885.5467737 :SURFACE Y 
LAT         .                                         29.430813 :LATITUDE  
LON         .                                        -94.211177 :LONGITUDE 
ELEV        .FT                                             108 :ELEVATION VALUE
ELEV_TYPE   .                                                KB :ELEVATION REFERENCE TYPE
~Curve Information Section
#MNEM       .UNIT                                      API CODE :CURVE DESCRIPTION
#------------------------------------------------------------------------------
DEPT        .FT                                                 :DEPTH     
A28H_COND   .MMHO                                               :          
A28H_UNC    .OHMM                                               :          
AHT10       .OHMM                                               :          
AHT20       .OHMM                                               :          
AHT30       .OHMM                                               :          
AHT60       .OHMM                                               :          
AHT90       .OHMM                                               :          
DCAL        .IN                                                 :          
DPHZ        .V/V                                                :          
DRHO        .G/CC                                               :          
DTCO        .US/F                                               :          
DTSM        .US/F                                               :          
GR          .GAPI                                               :          
GR_ARC_FIL  .GAPI                                               :          
GR_NORM     .GAPI                                               :GammaRay Normalized
GR1         .GAPI                                               :          
GRM1        .GAPI                                               :          
NPOR        .V/V                                                :          
P28H_UNC    .OHMM                                               :          
ROP5        .F/HR                                               :          
ROP5_RM     .F/HR                                               :          
SP          .MV                                                 :          
TENS        .LB                                                 :          
VSH_GR      .V/V                                                :Volume of Shale from GR
~A        DEPTH      A28H_COND       A28H_UNC          AHT10          AHT20          AHT30          AHT60          AHT90           DCAL           DPHZ           DRHO           DTCO           DTSM             GR     GR_ARC_FIL        GR_NORM            GR1           GRM1           NPOR       P28H_UNC           ROP5        ROP5_RM             SP           TENS         VSH_GR
# ...
      9381.0000        -999.25        -999.25         0.4462         0.4532         0.4511         0.4529         0.4497         0.8574        -999.25          0.107          134.8          379.6        79.3834        -999.25       84.88862        78.9109          79.46         0.4057        -999.25          22.26        -999.25        12.5293           3242              1
      9381.5000        -999.25        -999.25         0.4471         0.4511         0.4477         0.4491         0.4463         0.0625        -999.25          0.111          134.8          381.6        78.5035        -999.25       82.90837        77.3267          81.58         0.4057        -999.25          20.76        -999.25        12.6651           3242              1
      9382.0000        -999.25        -999.25         0.4472         0.4517         0.4482         0.4493         0.4472        -1.6161        -999.25          0.104            135          382.8        77.9796        -999.25       82.53712        77.0297          79.46         0.4046        -999.25          21.52        -999.25        12.9676           3206              1
      9382.5000        -999.25        -999.25         0.4476         0.4556         0.4501         0.4512         0.4491        -3.4954        -999.25          0.065          135.2          383.4         78.902        -999.25          86.75           80.4           83.7         0.3998        -999.25          21.82        -999.25         13.666           3170              1
      9383.0000        -999.25        -999.25         0.4499         0.4601         0.4573         0.4586         0.4568        -4.6879        -999.25          0.014          135.2          383.4        81.8839        -999.25         91.625           84.3           83.7         0.3968        -999.25          21.65        -999.25        13.8643           3188              1
      9383.5000        -999.25        -999.25         0.4462         0.4599         0.4566         0.4578         0.4567        -4.9889        -999.25         -0.023          135.4          382.4        83.6469        -999.25         92.875           85.3           83.7         0.4046        -999.25          21.71        -999.25        13.9376           3188              1
      9384.0000        -999.25        -999.25         0.4411         0.4511         0.4486         0.4492         0.4494        -4.9927        -999.25        -999.25          135.4          381.2        85.0374        -999.25           92.5             85           83.7         0.4123        -999.25          21.78        -999.25        13.6775           3170              1
      9384.5000        -999.25        -999.25         0.4356         0.4462         0.4442         0.4457         0.4466        -4.9927        -999.25        -999.25          135.2          380.2        84.7052        -999.25             92           84.6           83.7         0.4266        -999.25          21.51        -999.25         13.855           3152              1
      9385.0000        -999.25        -999.25         0.4325         0.4425         0.4419         0.4447         0.4437         -4.985         0.2502        -999.25          134.8          378.6        85.4162        -999.25           92.5             85          81.58         0.4332        -999.25          21.02        -999.25         14.095           3152              1
      9385.5000        -999.25        -999.25          0.434         0.4442         0.4422         0.4434         0.4416        -4.9889          0.246        -999.25          134.4          377.2        85.6967        -999.25             93           85.4          77.34         0.4338        -999.25          20.86        -999.25         14.335           3152              1
      9386.0000        -999.25        -999.25         0.4325         0.4441         0.4432         0.4442         0.4411         -4.985         0.2382        -999.25          134.4            376        86.2605        -999.25           93.5           85.8          84.76         0.4344        -999.25          21.75        -999.25        14.2209           3134              1
      9386.5000        -999.25        -999.25         0.4337         0.4436         0.4425         0.4438         0.4416        -4.9889          0.237        -999.25          134.6          375.4        86.2605        -999.25         93.625           85.9          85.82         0.4212        -999.25          24.27        -999.25        14.1067           3134              1
      9387.0000        -999.25        -999.25         0.4308         0.4431          0.441         0.4417         0.4404        -4.9889         0.2418        -999.25          134.6          375.4        86.2605        -999.25          93.75             86          86.88         0.4087        -999.25           24.1        -999.25        14.2009           3116              1
      9387.5000        -999.25        -999.25         0.4273         0.4411         0.4405         0.4414         0.4389         -4.985         0.2436         -0.055          134.6          375.8        86.2605        -999.25          93.75             86          82.64         0.4105        -999.25          23.79        -999.25        14.1909           3152              1
      9388.0000        -999.25        -999.25         0.4378         0.4483         0.4483         0.4495         0.4475        -4.9811          0.243          -0.06            135            377        86.2605        -999.25          93.75             86          79.46         0.4236        -999.25          24.02        -999.25        13.8267           3170              1
      9388.5000        -999.25        -999.25         0.4529         0.4667         0.4653         0.4645         0.4609        -4.9811          0.237         -0.067          135.2          378.6        86.2605        -999.25          93.75             86           83.7         0.4362        -999.25          23.46        -999.25         13.025           3170              1
      9389.0000        -999.25        -999.25         0.4628         0.4686         0.4647         0.4658         0.4624         -4.985         0.2346         -0.072          135.2          379.6        86.2605        -999.25         93.625           85.9          85.82          0.428        -999.25          23.78        -999.25        12.3275           3170              1
      9389.5000        -999.25        -999.25         0.4424         0.4517         0.4528         0.4537         0.4509        -4.9889         0.2382         -0.078          135.2          379.8        86.2605        -999.25         93.625           85.9           83.7         0.4198        -999.25          23.41        -999.25        12.2549           3206              1
      9390.0000        -999.25        -999.25         0.4305         0.4403         0.4402         0.4419         0.4398        -4.9889         0.2406         -0.082            135            379        86.2605        -999.25         93.625           85.9          80.52         0.4116        -999.25           24.1        -999.25        12.5574           3224              1
      9390.5000        -999.25        -999.25         0.4275           0.44         0.4398         0.4414         0.4384        -4.9927         0.2394         -0.084          134.6          378.2        86.2605        -999.25         93.625           85.9          81.58         0.4034        -999.25          23.53        -999.25        12.9016           3224              1
      9391.0000        -999.25        -999.25         0.4315         0.4421         0.4408         0.4424         0.4395        -4.9927         0.2388          -0.08          134.2            377        86.2605        -999.25         93.625           85.9           83.7         0.3624        -999.25          23.44        -999.25        12.8916           3224              1
      9391.5000        -999.25        -999.25         0.4328         0.4437          0.442         0.4442         0.4404        -4.9927         0.2442         -0.076          133.8          375.6        86.2605        -999.25         93.625           85.9          80.52         0.3504        -999.25          21.91        -999.25        13.0274           3224              1
