#------------------------------------------------------------------------------
# Created by    : vladimir.rabinovich
# Created on    : 09/19/2023 17:20:05
#------------------------------------------------------------------------------
~Version Information Section
VERS.           2.0     :   CWLS log ASCII Standard - VERSION 2.0
WRAP.           NO      :   One line per depth step
~Well Information Section
#MNEM       .UNIT                                         VALUE :DESCRIPTION
#------------------------------------------------------------------------------
STRT        .FT                                             712 :START DEPTH
STOP        .FT                                            9469 :STOP DEPTH
STEP        .FT                                             0.5 :STEP      
NULL        .                                           -999.25 :NULL      
COMP        .                                 MESA PETROLEUM CO :COMPANY   
WELL        .                                ST TR 00279-L SW/4 :WELL      
FLD         .                                           WILDCAT :FIELD     
LOC         .                                                   :LOCATION  
CNTY        .                             GALVESTON LARGE BLOCK :LOCATION  
STAT        .                                             TEXAS :STATE     
CTRY        .                                     UNITED STATES :COUNTRY   
SRVC        .                                                   :SERVICE COMPANY
DATE        .                             9/13/2023 11:18:53 AM :LOG DATE  
API         .                                    42706300950000 :API NUMBER
UWI         .                                    42706300950000 :UNIQUE WELL ID
XCOORD      .                                  947289.050530544 :SURFACE X 
YCOORD      .                                  10490529.0152507 :SURFACE Y 
LAT         .                                         28.889695 :LATITUDE  
LON         .                                        -95.166438 :LONGITUDE 
ELEV        .FT                                              84 :ELEVATION VALUE
ELEV_TYPE   .                                                KB :ELEVATION REFERENCE TYPE
~Curve Information Section
#MNEM       .UNIT                                      API CODE :CURVE DESCRIPTION
#------------------------------------------------------------------------------
DEPT        .FT                                                 :DEPTH     
ASFL        .OHMM                                               :          
CILD        .MMHO                                               :          
GR          .GAPI                                               :          
GR_NORM     .GAPI                                               :GammaRay Normalized
ILD         .OHMM                                               :          
SP          .MV                                                 :          
SP_NORM     .MV                                                 :SP Normalized
VSH_GR      .V/V                                                :Volume of Shale from GR
VSH_SP      .V/V                                                :Volume of Shale from SP
~A        DEPTH           ASFL           CILD             GR        GR_NORM            ILD             SP        SP_NORM         VSH_GR         VSH_SP
# ...
      4793.0000         0.7969       2104.879        23.1238       29.77489         0.4761       -95.4667      -60.37111              0      0.1950519
      4793.5000         0.7423       2326.738        24.2574       30.99386         0.4635       -98.8638      -63.76943              0      0.1497409
      4794.0000         0.6899       2466.891        24.8506       31.59875         0.4511      -101.3738      -66.28065              0      0.1162579
      4794.5000         0.7615       2597.262        25.1419       31.86057         0.4387      -102.5797      -67.48776              0      0.1001632
      4795.0000         0.8139       2859.098        25.4336       32.12284         0.4264      -103.7659      -68.67519              0     0.08433085
      4795.5000         0.8567       2985.523        25.6234       32.26932          0.414      -104.1669      -69.07741              0      0.0789679
      4796.0000         0.8343       3151.059        25.4884       32.04671         0.4016      -104.5677      -69.47943              0     0.07360759
      4796.5000          0.755       3533.293        25.3535       31.82421         0.3948      -104.7407      -69.65366              0     0.07128458
      4797.0000         0.7676       3673.148        25.2185       31.60159         0.3908      -104.7357      -69.64988              0     0.07133494
      4797.5000         0.7946       3853.895        25.0834       31.37887         0.3869      -104.7307       -69.6461              0      0.0713854
      4798.0000         0.8228        3925.23        25.0381        31.2583          0.383      -104.4813      -69.39792              0     0.07469442
      4798.5000         0.8551       3942.984        25.5669          31.79         0.3791      -104.0062      -68.92404              0     0.08101278
      4799.0000         0.8874       3960.738        26.0954       32.32137         0.3751      -103.5305      -68.44956              0     0.08733917
      4799.5000         0.9082       3978.504        26.6242       32.85307         0.3712      -102.4851      -67.40538              0      0.1012616
      4800.0000         0.9266       3994.961         27.153       33.38477         0.3673      -100.9106       -65.8321    0.008186665      0.1222387
      4800.5000         0.9492       4004.121         27.986       34.26216         0.3634       -98.7056      -63.62832     0.02685449      0.1516224
      4801.0000         0.9269       3874.438        28.9811       35.32375         0.3594       -96.1761      -61.10004     0.04944148      0.1853327
      4801.5000         0.8615       3774.238        29.9762       36.38534         0.3562       -92.4409      -57.36607     0.07202847      0.2351191
      4802.0000         0.7919       3692.559        30.9713       37.44693         0.3536       -88.5953      -53.52168     0.09461553      0.2863775
      4802.5000         0.7254       3598.777        32.1925       38.76545          0.351         -87.24       -52.1676      0.1226692       0.304432
      4803.0000         0.6729       3518.477        33.7709          40.49         0.3483       -87.5939      -52.52273      0.1593617       0.299697
      4803.5000         0.6368       3468.598        33.5767       40.20012         0.3457       -88.0516      -52.98164      0.1531939      0.2935781
      4804.0000         0.6055        3418.77         32.951       39.41989         0.3431       -88.5425      -53.47377      0.1365934      0.2870164
      4804.5000         0.5642       3373.656         32.326       38.64045         0.3404       -89.0332      -53.96569      0.1200096      0.2804574
      4805.0000         0.5072       3335.285        31.7005       37.86045         0.3378       -89.5236      -54.45731      0.1034138      0.2739025
      4805.5000         0.5747       3296.914        31.0859       37.09284         0.3352       -89.6973      -54.63224     0.08708166      0.2715702
      4806.0000         0.6261       3265.086        30.4774       36.33216         0.3325        -89.743      -54.67915     0.07089704      0.2709447
      4806.5000         0.6668       3241.434         29.869       35.57159         0.3299       -89.5089      -54.44628     0.05471469      0.2740496
      4807.0000         0.6946       3218.863        29.2605       34.81091         0.3266       -88.6964        -53.635     0.03852998      0.2848667
      4807.5000         0.7004       3201.703         28.652       34.05023         0.3229       -87.8839      -52.82372     0.02234528      0.2956837
      4808.0000         0.7046       3184.527        28.0436       33.28966         0.3192       -87.1136      -52.05464    0.006163009      0.3059382
      4808.5000         0.7088       3174.965        27.5286       32.63534         0.3155       -86.6855      -51.62776              0      0.3116299
      4809.0000          0.714       3178.789        27.0745       32.05011         0.3118       -87.0415      -51.98497              0       0.306867
      4809.5000         0.7196       3204.691        28.0614       33.10239         0.3081       -87.3975       -52.3422    0.002178436       0.302104
      4810.0000         0.7253       3325.484        29.0822       34.19318         0.3046       -87.9097      -52.85562     0.02538681      0.2952584
      4810.5000         0.7327       3510.379        30.2035       35.39818         0.3092       -88.4993      -53.44644     0.05102515      0.2873808
      4811.0000         0.7432       3730.633        31.5062       36.80932         0.3138       -89.0884      -54.03676     0.08104933      0.2795098
      4811.5000         0.7537       3862.191        32.8077       38.21909         0.3184        -89.678      -54.62759      0.1110445      0.2716322
      4812.0000         0.7616       3925.625        34.1104       39.63023          0.323       -90.1316      -55.08241      0.1410687      0.2655679
      4812.5000         0.7126       3961.848        35.5308       41.17511         0.3391       -90.3848      -55.33683      0.1739386      0.2621756
      4813.0000         0.6609       4005.852        37.0074       42.78387         0.3572       -88.9482      -53.90144      0.2081674      0.2813141
      4813.5000          0.596       4023.035        39.1276       45.12409         0.3753        -86.724      -51.67847      0.2579594      0.3109538
      4814.0000         0.5573        3936.07        46.9266       53.91739         0.3934       -84.0879      -49.04359      0.4450507      0.3460855
      4814.5000          0.525       3676.309        53.9413       61.81943         0.4133       -78.2166      -43.17351      0.6131794      0.4243532
      4815.0000         0.5066       3340.102        57.5982       65.90579         0.4475       -73.1945      -38.15263      0.7001233      0.4912982
      4815.5000         0.4807       2764.578        63.0051        71.9808         0.4818       -40.0087      -4.968052      0.8293787      0.9337593
      4816.0000         0.4214        2623.93        66.4071        75.7775          0.516       -37.5639      -2.524471      0.9101596      0.9663404
      4816.5000           0.45        1798.92        73.7355       84.03602         0.5502       -35.2311     -0.1928902              1      0.9974281
      4817.0000         0.4985       1563.061        76.2649       86.84114         0.5924       -33.3083       1.728687              1              1
      4817.5000         0.5165       1434.563        77.4242       88.08932         0.6348       -32.0225       3.013268              1              1
      4818.0000         0.5391       1327.398        76.2551        86.6916          0.677       -30.6898       4.344746              1              1
      4818.5000         0.5779       1228.926        74.6963       84.85102         0.7169       -29.8651       5.168224              1              1
      4819.0000          0.635       1159.887         72.673       82.48273         0.7538       -29.5308       5.501301              1              1
