#------------------------------------------------------------------------------
# Created by    : vladimir.rabinovich
# Created on    : 09/19/2023 17:21:35
#------------------------------------------------------------------------------
~Version Information Section
VERS.           2.0     :   CWLS log ASCII Standard - VERSION 2.0
WRAP.           NO      :   One line per depth step
~Well Information Section
#MNEM       .UNIT                                         VALUE :DESCRIPTION
#------------------------------------------------------------------------------
STRT        .FT                                            4200 :START DEPTH
STOP        .FT                                            8641 :STOP DEPTH
STEP        .FT                                             0.5 :STEP      
NULL        .                                           -999.25 :NULL      
COMP        .                                       HUNT OIL CO :COMPANY   
WELL        .                               OCS G25526 ST00BP00 :WELL      
FLD         .                                           WILDCAT :FIELD     
LOC         .                                                   :LOCATION  
CNTY        .                             GALVESTON LARGE BLOCK :LOCATION  
STAT        .                                             TEXAS :STATE     
CTRY        .                                     UNITED STATES :COUNTRY   
SRVC        .                                                   :SERVICE COMPANY
DATE        .                             9/13/2023 11:19:33 AM :LOG DATE  
API         .                                    42706404520000 :API NUMBER
UWI         .                                    42706404520000 :UNIQUE WELL ID
XCOORD      .                                  1090250.84236946 :SURFACE X 
YCOORD      .                                  10532258.5226608 :SURFACE Y 
LAT         .                                         29.010895 :LATITUDE  
LON         .                                        -94.721682 :LONGITUDE 
ELEV        .FT                                             108 :ELEVATION VALUE
ELEV_TYPE   .                                                KB :ELEVATION REFERENCE TYPE
~Curve Information Section
#MNEM       .UNIT                                      API CODE :CURVE DESCRIPTION
#------------------------------------------------------------------------------
DEPT        .FT                                                 :DEPTH     
CALI        .IN                                                 :          
DCAL        .IN                                                 :          
DFL         .OHMM                                               :          
DLOD        .LB                                                 :          
DPHI        .DEC                                                :          
DRHO        .G/C3                                               :          
GR          .GAPI                                               :          
GR_NORM     .GAPI                                               :GammaRay Normalized
HDCN        .MMHO                                               :          
HO24        .OHMM                                               :          
HO30        .OHMM                                               :          
HO40        .OHMM                                               :          
HO60        .OHMM                                               :          
HO90        .OHMM                                               :          
HT24        .OHMM                                               :          
HT30        .OHMM                                               :          
HT40        .OHMM                                               :          
HT60        .OHMM                                               :          
HT90        .OHMM                                               :          
NPHI        .DEC                                                :          
RHOB        .G/C3                                               :          
RWA         .OHMM                                               :          
SP_NORM     .MV                                                 :SP Normalized
SPA         .MV                                                 :          
TENS        .LBS                                                :          
VSH_GR      .V/V                                                :Volume of Shale from GR
VSH_SP      .V/V                                                :Volume of Shale from SP
~A        DEPTH           CALI           DCAL            DFL           DLOD           DPHI           DRHO             GR        GR_NORM           HDCN           HO24           HO30           HO40           HO60           HO90           HT24           HT30           HT40           HT60           HT90           NPHI           RHOB            RWA        SP_NORM            SPA           TENS         VSH_GR         VSH_SP
# ...
      6270.0000        12.8414         0.5914         0.5751       1414.369         0.2573        -0.0412         63.186       63.51365       2468.901           0.52         0.5014         0.4879         0.4715          0.453         0.4557         0.4419         0.4317         0.4193          0.405          0.367         2.2254         0.0456       -32.1517       136.6578       3370.264      0.6492265      0.4885668
      6270.5000        12.8463         0.5963         0.5833       1444.944         0.2436        -0.0533        67.0295       67.36893       2437.047          0.465         0.4572         0.4513          0.444         0.4353         0.4477         0.4377         0.4303         0.4211         0.4103         0.3783         2.2481         0.0479      -30.20292       137.9476       3384.424      0.7312539      0.5227559
      6271.0000        12.8734         0.6234         0.4776       1469.403          0.248         -0.047        66.8157       67.15417       2650.882         0.4011         0.3995         0.3983         0.3967         0.3948         0.4098         0.4012         0.3947         0.3866         0.3772         0.3764         2.2409         0.0484      -31.33162       137.1962       3398.244      0.7266844      0.5029541
      6271.5000         12.614          0.364         0.4434       1469.403         0.2708         -0.035        62.6853       63.01051       3057.227         0.3839         0.3718         0.3629         0.3521         0.3397         0.3709         0.3589           0.35         0.3393         0.3271         0.3638         2.2031         0.0472      -35.63598       134.3385       3405.751      0.6385214       0.427439
      6272.0000        12.5889         0.3389         0.4011       1481.633         0.3024        -0.0152        57.9917       58.30189       3617.768         0.3569         0.3353         0.3202         0.3027         0.2838         0.3276         0.3131         0.3027         0.2903         0.2764         0.3447         2.1511         0.0424      -41.58144       130.3923       3405.239       0.538338      0.3231326
      6272.5000        12.5465         0.2965         0.3688       1467.365         0.3236         0.0029        56.4898       56.79498        4291.24         0.2911         0.2743         0.2626         0.2489          0.234         0.2836          0.269         0.2586         0.2465          0.233         0.3278          2.116          0.035      -46.93833       126.8365       3394.832      0.5062761      0.2291521
      6273.0000        12.6598         0.4098          0.332       1475.518         0.3306         0.0131        57.6006       57.90899       4996.155         0.2472         0.2328         0.2227          0.211         0.1982          0.253         0.2373         0.2264         0.2138         0.2002         0.3228         2.1044         0.0287      -50.53784       124.4463       3378.453      0.5299784      0.1660028
      6273.5000        12.7145         0.4645         0.3151       1420.484         0.3328          0.012        57.5589       57.86686       5475.775         0.2342         0.2194         0.2091         0.1973         0.1845         0.2361           0.22         0.2089         0.1962         0.1826          0.326         2.1008         0.0268      -52.14827       123.3754       3370.093      0.5290821      0.1377497
      6274.0000        12.7527         0.5027         0.3139       1418.445         0.3342         0.0038        57.3138       57.62071       5666.972         0.2262         0.2133         0.2042         0.1936         0.1821         0.2277         0.2123         0.2017         0.1895         0.1765         0.3333         2.0986         0.0261      -51.71589       123.6594       3370.434      0.5238448      0.1453353
      6274.5000        12.7645         0.5145         0.2874       1426.599         0.3298        -0.0032        57.0165       57.32218       5620.303         0.2218         0.2097         0.2012         0.1912         0.1802         0.2286         0.2134         0.2029         0.1909         0.1779         0.3411         2.1058         0.0265      -49.82967       124.9077       3379.647      0.5174932      0.1784268
      6275.0000        12.9674         0.7174         0.2602        1436.79          0.307        -0.0074        54.3516       54.64863       5178.342         0.2288         0.2172         0.2089         0.1991         0.1884         0.2424         0.2278         0.2177         0.2059         0.1931         0.3461         2.1434         0.0251      -46.96208       126.8069       3391.078      0.4606092      0.2287355
      6275.5000        13.1138         0.8638         0.2773       1457.173          0.261        -0.0204        52.3855       52.67607       4278.037         0.2668         0.2565         0.2491         0.2401           0.23         0.2785         0.2658         0.2567         0.2458         0.2338         0.3483         2.2193         0.0246      -42.92603       129.4811       3389.202      0.4186397      0.2995434
      6276.0000        13.2904         1.0404         0.3774       1438.829         0.1991        -0.0477        51.7076       51.99575       3305.349          0.378         0.3601         0.3472          0.332         0.3152           0.36         0.3437          0.332         0.3181         0.3025          0.339         2.3214         0.0294      -38.80962       132.2086       3384.254       0.404165      0.3717611
      6276.5000        13.4129         1.1629         0.6093       1444.944         0.1365        -0.0617        51.4885       51.77567       2472.075         0.5417         0.5131         0.4929         0.4692         0.4431         0.5093         0.4783         0.4567         0.4316         0.4045         0.3004         2.4247         0.0281      -36.46837       133.7587       3383.913      0.3994824      0.4128356
      6277.0000        13.5437         1.2937         1.0372       1400.101         0.0931        -0.0425        50.4194       50.70293       1896.064         0.8069           0.74         0.6952          0.645         0.5926         0.7472         0.6767         0.6304         0.5795         0.5274         0.2377         2.4964         0.0158      -36.91907        133.457       3391.761      0.3766582      0.4049287
      6277.5000        13.2728         1.0228         1.6052       1432.714         0.0772        -0.0053        48.9123       49.19081       1596.894         1.3248         1.0739         0.9361         0.8035         0.6849          1.053         0.8997         0.8082         0.7147         0.6262         0.1954         2.5227         0.0111      -38.69003       132.2796       3409.334      0.3444853      0.3738591
      6278.0000        13.2647         1.0147         1.6426       1463.288         0.0766         0.0155        48.2969       48.57319       1500.893         1.5064         1.1859         1.0176         0.8605         0.7239         1.2008         1.0002         0.8852         0.7712         0.6663         0.2042         2.5237         0.0125       -40.1488       131.3093       3412.064      0.3313445      0.3482667
      6278.5000           13.4           1.15         1.3514       1487.748         0.0725         0.0151        45.9553       46.22395       1582.789         1.1392         0.9735         0.8745         0.7734         0.6777         1.0327         0.8913         0.8055         0.7168         0.6318         0.2516         2.5304         0.0172      -40.71542       130.9307        3405.41      0.2813606      0.3383259
      6279.0000        14.1871         1.9371         0.9758       1475.518         0.0999         0.0091        43.9945       44.25671       1835.537         0.7748         0.7104         0.6673          0.619         0.5686         0.7773         0.7024         0.6534         0.5996         0.5448         0.3125         2.4851         0.0284      -40.90754       130.8005       3398.244      0.2395044      0.3349555
      6279.5000        14.6796         2.4296         0.7386       1463.288         0.1727         0.0015        43.6555       43.91635       2181.451         0.5848         0.5499         0.5255         0.4972         0.4664         0.6008         0.5575         0.5279         0.4942         0.4584         0.3743          2.365         0.0529      -40.93004       130.7828        3397.22      0.2322627      0.3345607
