#------------------------------------------------------------------------------
# Created by    : vladimir.rabinovich
# Created on    : 09/19/2023 17:20:01
#------------------------------------------------------------------------------
~Version Information Section
VERS.           2.0     :   CWLS log ASCII Standard - VERSION 2.0
WRAP.           NO      :   One line per depth step
~Well Information Section
#MNEM       .UNIT                                         VALUE :DESCRIPTION
#------------------------------------------------------------------------------
STRT        .FT                                            3470 :START DEPTH
STOP        .FT                                           12708 :STOP DEPTH
STEP        .FT                                             0.5 :STEP      
NULL        .                                           -999.25 :NULL      
COMP        .                                     INEXCO OIL CO :COMPANY   
WELL        .                                     ST TR 00794-L :WELL      
FLD         .                                       BLOCK 794-L :FIELD     
LOC         .                                                   :LOCATION  
CNTY        .                        MUSTANG ISLAND LARGE BLOCK :LOCATION  
STAT        .                                             TEXAS :STATE     
CTRY        .                                     UNITED STATES :COUNTRY   
SRVC        .                                                   :SERVICE COMPANY
DATE        .                             9/13/2023 11:18:55 AM :LOG DATE  
API         .                                    42702301710000 :API NUMBER
UWI         .                                    42702301710000 :UNIQUE WELL ID
XCOORD      .                                  319607.894357718 :SURFACE X 
YCOORD      .                                   10038241.944616 :SURFACE Y 
LAT         .                                        27.6026524 :LATITUDE  
LON         .                                       -97.0775955 :LONGITUDE 
ELEV        .FT                                               0 :ELEVATION VALUE
ELEV_TYPE   .                                                GL :ELEVATION REFERENCE TYPE
~Curve Information Section
#MNEM       .UNIT                                      API CODE :CURVE DESCRIPTION
#------------------------------------------------------------------------------
DEPT        .FT                                                 :DEPTH     
ASFL        .OHMM                                               :          
CILD        .MMHO                                               :          
DT          .US/F                                               :          
GR          .GAPI                                               :          
GR_NORM     .GAPI                                               :GammaRay Normalized
ILD         .OHMM                                               :          
ILM         .OHMM                                               :          
SP          .MV                                                 :          
SP_NORM     .MV                                                 :SP Normalized
VSH_GR      .V/V                                                :Volume of Shale from GR
VSH_SP      .V/V                                                :Volume of Shale from SP
~A        DEPTH           ASFL           CILD             DT             GR        GR_NORM            ILD            ILM             SP        SP_NORM         VSH_GR         VSH_SP
# ...
      3515.0000        -999.25        -999.25        -999.25        28.7213       66.76652        -999.25        -999.25        -999.25        -999.25      0.7184365        -999.25
      3515.5000        -999.25        -999.25        -999.25        28.2025       65.80329        -999.25        -999.25        -999.25        -999.25      0.6979424        -999.25
      3516.0000        -999.25        -999.25        -999.25        28.5021       66.35954        -999.25        -999.25        -999.25        -999.25      0.7097775        -999.25
      3516.5000        -999.25        -999.25        -999.25        29.0854        67.4425        -999.25        -999.25        -999.25        -999.25      0.7328191        -999.25
      3517.0000        -999.25        -999.25        -999.25        29.7291        68.6376        -999.25        -999.25        -999.25        -999.25      0.7582467        -999.25
      3517.5000        -999.25        -999.25        -999.25        30.6132       70.27903        -999.25        -999.25        -999.25        -999.25      0.7931709        -999.25
      3518.0000        -999.25        -999.25        -999.25        31.9104       72.68743        -999.25        -999.25        -999.25        -999.25      0.8444135        -999.25
      3518.5000        -999.25        -999.25        -999.25        36.4603       78.89735        -999.25        -999.25        -999.25        -999.25      0.9765394        -999.25
      3519.0000        -999.25        -999.25        -999.25        42.2439         86.699        -999.25        -999.25        -999.25        -999.25              1        -999.25
      3519.5000        -999.25        -999.25        -999.25        44.0133       87.04784        -999.25        -999.25        -999.25        -999.25              1        -999.25
      3520.0000         0.7117       2044.314       167.7583        45.5572         86.978         0.4292         0.4632       -89.7058      -18.36078              1      0.7057495
      3520.5000         0.7343       2329.855       157.9761        46.3517       85.51684         0.4881         0.5017       -90.2639      -18.91888              1      0.6962903
      3521.0000          0.765       2858.996       132.6733        45.5142       81.02568         0.5487         0.5485       -90.4281      -19.08308              1      0.6935072
      3521.5000         0.8046       3144.828       114.8531        43.3614        74.6166         0.6123         0.6146       -89.8053      -18.46027      0.8854596      0.7040632
      3522.0000         0.8614       2486.008        99.5808        40.9323        69.7864         0.6757         0.6973       -84.8284      -13.48338      0.7826893      0.7884173
      3522.5000         0.8907       2279.992        89.6234        39.6514       67.08793         0.7161           0.77       -83.9098      -12.56477      0.7252751      0.8039869
      3523.0000         0.9147       1495.701        84.5399         38.439       64.51663         0.7565         0.8562       -82.4875      -11.14248      0.6705666      0.8280936
      3523.5000         0.9325       1391.582        81.5853         37.322       62.12249          0.797          0.931       -81.2327      -9.887672      0.6196274      0.8493615
      3524.0000         0.9502       1303.674        81.0226        36.5915       60.44593         0.8245         1.0017       -78.2816      -6.936577      0.5839559        0.89938
      3524.5000         0.9674       1247.557        83.8457         35.861       58.76935         0.8457         1.0492       -77.2869      -5.941879       0.548284      0.9162393
      3525.0000         0.9782       1182.861        89.8134        35.2158       57.25113          0.867         1.0839       -75.7709      -4.425873      0.5159816      0.9419343
      3525.5000          0.989       1139.477       100.9984        34.6229       55.83004         0.8883         1.0978       -72.6891      -1.344078      0.4857455      0.9941682
      3526.0000         0.9673       1096.234       111.7743        34.0296        54.4082         0.9054         1.0906       -71.4996     -0.1545792      0.4554937              1
      3526.5000         0.9416       1056.615        115.618        33.4037       52.92582         0.9187         1.0682       -70.7241      0.6209259      0.4239535              1
      3527.0000         0.9169       1016.998       120.3191        32.7464       51.38514         0.9321         1.0349       -70.7195      0.6255264      0.3911733              1
      3527.5000         0.8921       978.6602        125.858        32.0891       49.84448         0.9362         1.0079       -70.7148      0.6302261      0.3583932              1
      3528.0000         0.8756       940.5156       137.2476        31.2748       48.01231         0.9306         1.0013       -70.7102      0.6332932      0.3194109              1
      3528.5000         0.8617       995.6914       141.4531        32.5635       50.08462         0.9187         0.9977       -70.7056      0.6179657      0.3635025              1
      3529.0000         0.8748        1092.32       139.9661        37.1727       58.32179         0.9016          0.988       -70.7009      0.6027374      0.5387616              1
      3529.5000         0.8879       1148.123       135.3235        38.9022        61.2125         0.8845         0.9637       -70.8719      0.4118042      0.6002659              1
      3530.0000         0.9013       1182.355       130.6455        40.4406        63.7484         0.8675         0.9397       -71.0448      0.2189789      0.6542212              1
      3530.5000         0.9145       1210.148       129.7249         41.973       66.27314         0.8504         0.9124       -71.2177     0.02615356      0.7079391              1
      3531.0000         0.9206       1225.561       130.5881         43.515       68.81572         0.8458         0.8872       -71.3906     -0.1666794      0.7620366              1
      3531.5000         0.9122       1240.973       130.8479        44.9355       71.13272         0.8433         0.8592       -71.3522     -0.1482086      0.8113345              1
      3532.0000         0.9059       1244.617       130.1899        46.3276         73.397         0.8408         0.8459       -71.2755    -0.09143066      0.8595105              1
      3532.5000         0.8996       1244.469       129.9053        47.2304       74.75284         0.8383         0.8366       -71.1217     0.04244232      0.8883582              1
      3533.0000         0.8974       1244.322       129.9116        48.1146       76.07413         0.8358         0.8362       -70.5645      0.5797119      0.9164708              1
      3533.5000         0.8963       1239.674       130.1233        49.0428       77.47713         0.8332         0.8388       -69.9687       1.155586       0.946322              1
      3534.0000         0.8952       1229.697       130.3269        49.9934       78.92171         0.8337         0.8398       -69.2997       1.804657      0.9770576              1
      3534.5000          0.895       1219.727       130.2327          50.45       79.44911          0.841         0.8476       -69.0305       2.053925       0.988279              1
      3535.0000         0.8957       1195.992       129.6785        49.8405       77.99718         0.8483         0.8632       -69.4753       1.589195      0.9573869              1
      3535.5000         0.8965       1168.477       128.9038         48.917       75.96228         0.8556         0.8911       -69.8867       1.157867      0.9140911              1
      3536.0000         0.8972       1140.949       127.4401        45.5941       69.47262         0.8658         0.9219       -70.0522      0.9724426      0.7760131              1
      3536.5000         0.9027       1115.463       125.9603        42.7004       63.77982         0.8828         0.9488       -70.2178      0.7869186      0.6548898              1
      3537.0000         0.9146       1091.186       124.2601        41.7045        61.6105         0.8999         0.9701       -70.3757      0.6090851      0.6087341              1
