#------------------------------------------------------------------------------
# Created by    : vladimir.rabinovich
# Created on    : 09/19/2023 17:22:48
#------------------------------------------------------------------------------
~Version Information Section
VERS.           2.0     :   CWLS log ASCII Standard - VERSION 2.0
WRAP.           NO      :   One line per depth step
~Well Information Section
#MNEM       .UNIT                                         VALUE :DESCRIPTION
#------------------------------------------------------------------------------
STRT        .FT                                             306 :START DEPTH
STOP        .FT                                           13139 :STOP DEPTH
STEP        .FT                                             0.5 :STEP      
NULL        .                                           -999.25 :NULL      
COMP        .                                    CITIES SERVICE :COMPANY   
WELL        .                                          SL 77337 :WELL      
FLD         .                                           WILDCAT :FIELD     
LOC         .                                                   :LOCATION  
CNTY        .                                BRAZOS LARGE BLOCK :LOCATION  
STAT        .                                             TEXAS :STATE     
CTRY        .                                     UNITED STATES :COUNTRY   
SRVC        .                                                   :SERVICE COMPANY
DATE        .                             9/13/2023 11:18:52 AM :LOG DATE  
API         .                                    42704301950000 :API NUMBER
UWI         .                                    42704301950000 :UNIQUE WELL ID
XCOORD      .                                   673900.18951543 :SURFACE X 
YCOORD      .                                   10333530.060148 :SURFACE Y 
LAT         .                                        28.4418955 :LATITUDE  
LON         .                                       -96.0077528 :LONGITUDE 
ELEV        .FT                                              82 :ELEVATION VALUE
ELEV_TYPE   .                                                KB :ELEVATION REFERENCE TYPE
~Curve Information Section
#MNEM       .UNIT                                      API CODE :CURVE DESCRIPTION
#------------------------------------------------------------------------------
DEPT        .FT                                                 :DEPTH     
DT          .US/F                                               :          
SP          .MV                                                 :          
SP_NORM     .MV                                                 :SP Normalized
VSH_SP      .V/V                                                :Volume of Shale from SP
~A        DEPTH             DT             SP        SP_NORM         VSH_SP
       306.0000        -999.25        -8.5607       31.91549              1
       306.5000        -999.25       -14.9277       25.54849              1
       307.0000        -999.25       -20.0644       20.41179              1
       307.5000        -999.25       -24.3181       16.15809              1
       308.0000        -999.25       -29.6813       10.79489              1
       308.5000        -999.25       -32.7352       7.740993              1
       309.0000        -999.25       -36.1128       4.363392              1
       309.5000        -999.25       -39.5228       0.953392              1
       310.0000        -999.25       -41.2854     -0.8092079              1
       310.5000        -999.25       -42.7066      -2.135334      0.9608505
       311.0000        -999.25       -43.5327      -2.582802      0.9454206
       311.5000        -999.25       -44.1727      -2.844166      0.9364081
       312.0000        -999.25        -44.684      -2.976833      0.9318333
       312.5000        -999.25       -45.0742        -2.9884      0.9314345
       313.0000        -999.25       -45.6132      -3.148769      0.9259045
       313.5000        -999.25        -45.335      -2.491932      0.9485541
       314.0000        -999.25       -44.3621        -1.1404      0.9951586
       314.5000        -999.25       -43.2831       0.317234              1
       315.0000        -999.25       -42.6116       1.367367              1
       315.5000        -999.25        -43.519      0.8386002              1
       316.0000        -999.25       -44.3154      0.4208336              1
       316.5000        -999.25       -44.6681      0.4467697              1
       317.0000        -999.25       -44.2403       1.253201              1
       317.5000        -999.25       -43.6331       2.239037              1
       318.0000        -999.25       -42.7875       3.463268              1
       318.5000        -999.25        -42.089       4.540401              1
       319.0000        -999.25        -41.254       5.754032              1
       319.5000        -999.25       -40.3542       7.032471              1
       320.0000        -999.25       -39.7197       8.045601              1
       320.5000        -999.25       -39.8882       8.255737              1
       321.0000        -999.25       -40.1433       8.379269              1
       321.5000        -999.25       -40.4816       8.419601              1
       322.0000        -999.25       -40.7604       8.519436              1
       322.5000        -999.25       -41.1334        8.52507              1
       323.0000        -999.25       -42.0002       8.036903              1
       323.5000        -999.25       -43.6473       6.768436              1
       324.0000        -999.25       -45.3186       5.475769              1
       324.5000        -999.25       -47.6091       3.563904              1
       325.0000        -999.25       -49.2566       2.295036              1
       325.5000        -999.25       -50.3057       1.624573              1
       326.0000        -999.25       -51.0419       1.267002              1
       326.5000        -999.25       -51.7388      0.9487381              1
       327.0000        -999.25       -52.3926      0.6735687              1
       327.5000        -999.25       -52.9885      0.4563065              1
       328.0000        -999.25       -53.4571      0.3663368              1
       328.5000        -999.25       -53.6268      0.5752716              1
       329.0000        -999.25       -53.6581      0.9226036              1
       329.5000        -999.25       -53.6611       1.298241              1
       330.0000        -999.25       -53.6989       1.639072              1
       330.5000        -999.25       -53.9277       1.788906              1
       331.0000        -999.25       -54.4935       1.601738              1
       331.5000        -999.25       -55.0256       1.448273              1
       332.0000        -999.25        -55.601       1.251503              1
       332.5000        -999.25        -56.304      0.9271393              1
       333.0000        -999.25       -56.9432      0.6665726              1
       333.5000        -999.25       -57.5128      0.4756088              1
       334.0000        -999.25        -57.985      0.3820381              1
       334.5000        -999.25       -58.1681      0.5775757              1
       335.0000        -999.25       -58.1373      0.9870071              1
       335.5000        -999.25       -58.0997        1.40324              1
       336.0000        -999.25       -58.0527         1.4646              1
       336.5000        -999.25         -57.97       1.540409              1
       337.0000        -999.25       -57.6918       1.811722              1
       337.5000        -999.25       -57.3096       2.187031              1
       338.0000        -999.25       -57.1161       2.373642              1
       338.5000        -999.25       -57.2585       2.224354              1
       339.0000        -999.25       -57.7805       1.695465              1
       339.5000        -999.25       -58.4651       1.003975              1
       340.0000        -999.25       -59.0185      0.4436836              1
       340.5000        -999.25       -58.7943      0.6609955              1
       341.0000        -999.25       -58.2856       1.162807              1
       341.5000        -999.25       -57.8135       1.628014              1
       342.0000        -999.25       -57.6581       1.776524              1
       342.5000        -999.25        -58.137       1.290733              1
       343.0000        -999.25       -59.1296      0.2912445              1
       343.5000        -999.25       -60.2861     -0.8721428              1
       344.0000        -999.25        -61.757      -2.349934      0.9534506
       344.5000        -999.25       -63.2811      -3.880924      0.9006578
       345.0000        -999.25       -64.9407      -5.547409      0.8431928
       345.5000        -999.25       -66.5712      -7.184799      0.7867311
       346.0000        -999.25       -67.9004      -8.520889       0.740659
       346.5000        -999.25       -69.0876      -9.714981      0.6994834
       347.0000        -999.25       -69.8605      -10.49477      0.6725941
       347.5000        -999.25       -70.3391      -10.98027      0.6558529
       348.0000        -999.25       -70.7035      -11.35155        0.64305
       348.5000        -999.25       -70.9314      -11.58634      0.6349539
       349.0000        -999.25       -70.5409      -11.20273      0.6481817
       349.5000        -999.25       -69.9966      -10.66532      0.6667132
       350.0000        -999.25       -69.2742       -9.94981      0.6913859
       350.5000        -999.25       -68.4819      -9.164402      0.7184689
       351.0000        -999.25       -67.4777      -8.167088      0.7528591
       351.5000        -999.25        -66.545      -7.241276      0.7847836
       352.0000        -999.25        -65.672      -6.375164      0.8146495
       352.5000        -999.25       -64.9066      -5.616661      0.8408048
       353.0000        -999.25       -64.2344      -4.951347      0.8637466
       353.5000        -999.25       -63.5822      -4.306038      0.8859987
       354.0000        -999.25       -62.8775      -3.608227      0.9100611
       354.5000        -999.25       -62.1906      -2.928219      0.9335097
       355.0000        -999.25       -61.6171      -2.361607      0.9530481
       355.5000        -999.25       -61.2416      -1.992996      0.9657587
       356.0000        -999.25       -61.1819      -1.940186      0.9675798
       356.5000        -999.25        -61.728      -2.493176      0.9485112
       357.0000        -999.25       -62.4509      -3.222965       0.923346
       357.5000        -999.25       -63.0022      -3.781155      0.9040981
       358.0000        -999.25       -63.1979      -3.983746      0.8971123
       358.5000        -999.25       -63.3013      -4.094036      0.8933091
