#------------------------------------------------------------------------------
# Created by    : vladimir.rabinovich
# Created on    : 09/19/2023 17:20:03
#------------------------------------------------------------------------------
~Version Information Section
VERS.           2.0     :   CWLS log ASCII Standard - VERSION 2.0
WRAP.           NO      :   One line per depth step
~Well Information Section
#MNEM       .UNIT                                         VALUE :DESCRIPTION
#------------------------------------------------------------------------------
STRT        .FT                                             945 :START DEPTH
STOP        .FT                                           12004 :STOP DEPTH
STEP        .FT                                             0.5 :STEP      
NULL        .                                           -999.25 :NULL      
COMP        .                                    EXXON CO U S A :COMPANY   
WELL        .                                     ST TR 00819-L :WELL      
FLD         .                                           WILDCAT :FIELD     
LOC         .                                                   :LOCATION  
CNTY        .                        MUSTANG ISLAND LARGE BLOCK :LOCATION  
STAT        .                                             TEXAS :STATE     
CTRY        .                                     UNITED STATES :COUNTRY   
SRVC        .                                                   :SERVICE COMPANY
DATE        .                             9/13/2023 11:18:55 AM :LOG DATE  
API         .                                    42702301310000 :API NUMBER
UWI         .                                    42702301310000 :UNIQUE WELL ID
XCOORD      .                                  274042.524369281 :SURFACE X 
YCOORD      .                                  9990401.22532542 :SURFACE Y 
LAT         .                                        27.4671591 :LATITUDE  
LON         .                                       -97.2129423 :LONGITUDE 
ELEV        .FT                                              93 :ELEVATION VALUE
ELEV_TYPE   .                                                KB :ELEVATION REFERENCE TYPE
~Curve Information Section
#MNEM       .UNIT                                      API CODE :CURVE DESCRIPTION
#------------------------------------------------------------------------------
DEPT        .FT                                                 :DEPTH     
ASFL        .OHMM                                               :          
CILD        .MMHO                                               :          
GR          .GAPI                                               :          
GR_NORM     .GAPI                                               :GammaRay Normalized
ILD         .OHMM                                               :          
SP          .MV                                                 :          
SP_NORM     .MV                                                 :SP Normalized
VSH_GR      .V/V                                                :Volume of Shale from GR
VSH_SP      .V/V                                                :Volume of Shale from SP
~A        DEPTH           ASFL           CILD             GR        GR_NORM            ILD             SP        SP_NORM         VSH_GR         VSH_SP
# ...
     11227.0000         1.0587        1084.33        -999.25        -999.25         0.9267       -41.8002      -1.324009        -999.25      0.9943156
     11227.5000         1.0921       1089.223        -999.25        -999.25         0.9692       -41.7594      -1.283207        -999.25      0.9950315
     11228.0000         1.1254       1094.148        -999.25        -999.25         1.0096       -41.7186      -1.242409        -999.25      0.9957472
     11228.5000         1.1588       1115.955        -999.25        -999.25         1.0499       -41.6777      -1.201508        -999.25      0.9964648
     11229.0000         1.0794       1169.369        -999.25        -999.25          1.023       -41.6483      -1.172108        -999.25      0.9969805
     11229.5000         0.9113       1245.221        -999.25        -999.25         0.9707       -41.6758      -1.199608        -999.25      0.9964981
     11230.0000          0.816       1454.904        -999.25        -999.25         0.9086       -41.7033      -1.227108        -999.25      0.9960157
     11230.5000         0.7405         1538.6        -999.25        -999.25         0.8465       -41.7308      -1.254608        -999.25      0.9955332
     11231.0000         0.7125        1609.09        -999.25        -999.25         0.7843       -41.7583      -1.282108        -999.25      0.9950507
     11231.5000         0.7067       1677.197        -999.25        -999.25         0.7245       -41.7858      -1.309608        -999.25      0.9945683
     11232.0000         0.7001       1740.539        -999.25        -999.25         0.6902        -41.753      -1.276806        -999.25      0.9951438
     11232.5000         0.6934       1792.564        -999.25        -999.25         0.6558        -41.655      -1.178806        -999.25      0.9968631
     11233.0000         0.6867        1829.15        -999.25        -999.25         0.6214       -41.5569      -1.080708        -999.25      0.9985841
     11233.5000           0.68       1859.033        -999.25        -999.25         0.5871       -41.4589      -0.982708        -999.25              1
     11234.0000         0.6735       1891.498        -999.25        -999.25         0.5774       -41.3609     -0.8847084        -999.25              1
     11234.5000         0.6808       1884.996        -999.25        -999.25         0.5841       -41.1613     -0.6851082        -999.25              1
     11235.0000         0.7127        1808.35        -999.25        -999.25         0.6095       -40.8961     -0.4199066        -999.25              1
     11235.5000         0.7445       1731.703        -999.25        -999.25         0.6406       -40.6308     -0.1546059        -999.25              1
     11236.0000         0.7752       1655.059        -999.25        -999.25         0.6718       -40.7386     -0.2624092        -999.25              1
     11236.5000         0.8044       1587.447        -999.25        -999.25         0.7029        -40.963     -0.4868088        -999.25              1
     11237.0000         0.8337       1523.111        -999.25        -999.25         0.7277       -41.1873     -0.7111092        -999.25              1
     11237.5000          0.863       1458.777        -999.25        -999.25         0.7494       -41.4117     -0.9355087        -999.25              1
     11238.0000         0.8929       1410.525        -999.25        -999.25         0.7612       -41.7457      -1.269508        -999.25      0.9952718
     11238.5000         0.9208       1364.557        -999.25        -999.25         0.7757       -42.1275      -1.651306        -999.25      0.9885736
     11239.0000         0.8874       1320.477        -999.25        -999.25         0.8088       -42.5087      -2.032509        -999.25      0.9818858
     11239.5000         0.8472       1276.594        -999.25        -999.25         0.8442       -42.8898      -2.413609        -999.25      0.9751999
     11240.0000         0.8694       1224.568        -999.25        -999.25          0.891       -43.3019      -2.825706        -999.25      0.9679701
     11240.5000         0.9398       1166.688        -999.25        -999.25         0.9379       -43.7525      -3.276306        -999.25      0.9600648
     11241.0000         1.0102       1109.699        -999.25        -999.25         0.9915        -44.203      -3.726807        -999.25      0.9521613
     11241.5000         1.0952       1054.498        -999.25        -999.25         1.0481       -44.7156      -4.239407        -999.25      0.9431683
     11242.0000         1.1955        1007.34        -999.25        -999.25         1.1056       -45.2411      -4.764908        -999.25       0.933949
     11242.5000          1.316       969.0166        -999.25        -999.25         1.1901       -45.7964      -5.320206        -999.25      0.9242069
     11243.0000         1.3875       930.5947        -999.25        -999.25         1.2695       -46.4918      -6.015606        -999.25      0.9120069
     11243.5000         1.2464       908.6279        -999.25        -999.25         1.2505       -47.1697      -6.693508        -999.25      0.9001139
     11244.0000         1.0094       902.4971        -999.25        -999.25         1.2046       -46.6492      -6.173008        -999.25      0.9092455
     11244.5000         0.9409       969.4141        -999.25        -999.25         1.1507       -45.7741      -5.297909        -999.25      0.9245981
     11245.0000         0.8727       1051.818        -999.25        -999.25         1.0898        -44.961      -4.484806        -999.25       0.938863
     11245.5000         0.7885       1340.135        -999.25        -999.25         1.0288       -44.1479      -3.671707        -999.25      0.9531279
     11246.0000         0.7386       1425.914        -999.25        -999.25         0.9679        -43.336      -2.859806        -999.25      0.9673718
     11246.5000          0.702       1493.227        -999.25        -999.25          0.907       -42.7498      -2.273609        -999.25       0.977656
     11247.0000         0.6867       1523.211        -999.25        -999.25         0.8323       -43.1835      -2.707306        -999.25      0.9700472
     11247.5000         0.6715       1551.854        -999.25        -999.25         0.7555       -43.8082      -3.332008        -999.25      0.9590876
     11248.0000         0.6928       1541.777        -999.25        -999.25         0.6786       -44.3004      -3.824207        -999.25      0.9504525
     11248.5000         0.7389       1497.596        -999.25        -999.25         0.6596        -44.759      -4.282806        -999.25      0.9424069
     11249.0000          0.813       1453.416        -999.25        -999.25         0.7225       -45.2175      -4.741306        -999.25      0.9343631
     11249.5000         0.9541       1409.234        -999.25        -999.25         0.7855       -45.6768      -5.200607        -999.25      0.9263051
     11250.0000         1.0334       1365.055        -999.25        -999.25         0.8484       -46.0046      -5.528408        -999.25      0.9205542
     11250.5000         1.0975        1273.02        -999.25        -999.25         0.9252       -45.5584      -5.082207        -999.25      0.9283823
     11251.0000         1.0762       1153.211        -999.25        -999.25         1.0327       -44.9882      -4.512009        -999.25      0.9383858
     11251.5000         0.9559       1168.822        -999.25        -999.25         0.9899       -44.3672      -3.891006        -999.25      0.9492806
     11252.0000         0.8769       1203.521        -999.25        -999.25         0.9315       -43.7475      -3.271309        -999.25      0.9601524
     11252.5000         0.8835       1238.965        -999.25        -999.25         0.8762       -43.1191      -2.642906        -999.25      0.9711771
     11253.0000         0.9445       1274.359        -999.25        -999.25         0.8209       -42.8811      -2.404907        -999.25      0.9753525
