#------------------------------------------------------------------------------
# Created by    : vladimir.rabinovich
# Created on    : 09/19/2023 17:20:24
#------------------------------------------------------------------------------
~Version Information Section
VERS.           2.0     :   CWLS log ASCII Standard - VERSION 2.0
WRAP.           NO      :   One line per depth step
~Well Information Section
#MNEM       .UNIT                                         VALUE :DESCRIPTION
#------------------------------------------------------------------------------
STRT        .FT                                            2124 :START DEPTH
STOP        .FT                                            8264 :STOP DEPTH
STEP        .FT                                             0.5 :STEP      
NULL        .                                           -999.25 :NULL      
COMP        .                               SUPERIOR OIL CO THE :COMPANY   
WELL        .                                     ST TR 00009-L :WELL      
FLD         .                                           WILDCAT :FIELD     
LOC         .                                                   :LOCATION  
CNTY        .                           HIGH ISLAND LARGE BLOCK :LOCATION  
STAT        .                                             TEXAS :STATE     
CTRY        .                                     UNITED STATES :COUNTRY   
SRVC        .                                                   :SERVICE COMPANY
DATE        .                             9/13/2023 11:19:15 AM :LOG DATE  
API         .                                    42708300270000 :API NUMBER
UWI         .                                    42708300270000 :UNIQUE WELL ID
XCOORD      .                                  1318170.30554107 :SURFACE X 
YCOORD      .                                  10738395.6931535 :SURFACE Y 
LAT         .                                        29.5851559 :LATITUDE  
LON         .                                       -94.0141459 :LONGITUDE 
ELEV        .FT                                              72 :ELEVATION VALUE
ELEV_TYPE   .                                                KB :ELEVATION REFERENCE TYPE
~Curve Information Section
#MNEM       .UNIT                                      API CODE :CURVE DESCRIPTION
#------------------------------------------------------------------------------
DEPT        .FT                                                 :DEPTH     
ASN         .OHMM                                               :          
CILD        .MMHO                                               :          
ILD         .OHMM                                               :          
SN          .OHMM                                               :          
SP          .MV                                                 :          
SP_NORM     .MV                                                 :SP Normalized
VSH_SP      .V/V                                                :Volume of Shale from SP
~A        DEPTH            ASN           CILD            ILD             SN             SP        SP_NORM         VSH_SP
# ...
      7819.0000         0.7743       1866.291         0.6528         0.7488        -46.515      -4.090755      0.9598603
      7819.5000         0.7551        1858.23         0.6601         0.7251       -46.4201      -3.995857      0.9610928
      7820.0000         0.7514       1859.824         0.6683         0.7111       -46.1413      -3.717056      0.9647136
      7820.5000           0.76       1858.105         0.6625         0.7157       -46.1029      -3.678658      0.9652122
      7821.0000         0.7686       1845.432         0.6509         0.7258       -46.3382      -3.913956      0.9621564
      7821.5000         0.7772       1830.611         0.6388         0.7312       -46.4702      -4.045956      0.9604421
      7822.0000         0.7859       1814.244         0.6364          0.738       -46.2459      -3.821655      0.9633551
      7822.5000         0.7928       1793.934         0.6396         0.7452        -45.859      -3.434757      0.9683798
      7823.0000         0.7974       1771.803         0.6537         0.7459       -45.4171      -2.992855      0.9741188
      7823.5000         0.7997        1750.42         0.6628         0.7437       -45.2794      -2.855156      0.9759071
      7824.0000         0.8008       1737.547         0.6683         0.7436       -44.9631      -2.538857      0.9800149
      7824.5000         0.8014       1735.621         0.6709          0.748       -44.2158      -1.791557        0.98972
      7825.0000         0.8073       1740.229          0.671         0.7627       -43.5113      -1.087055      0.9988694
      7825.5000         0.8184       1745.699         0.6708         0.7794       -43.3423     -0.9180565              1
      7826.0000         0.8245       1749.348         0.6651         0.7908       -43.6928      -1.268555      0.9965123
      7826.5000           0.82       1752.645         0.6587         0.7876       -44.2296      -1.805355      0.9895408
      7827.0000         0.8136       1755.137         0.6615         0.7842       -44.7469      -2.322655      0.9828227
      7827.5000         0.8057       1759.029         0.6635          0.782       -45.2504      -2.826157      0.9762837
      7828.0000         0.7959       1763.232         0.6641         0.7758       -45.4518      -3.027557      0.9736681
      7828.5000         0.7858       1766.857         0.6642         0.7624       -45.4255      -3.001255      0.9740097
      7829.0000         0.7847       1771.598         0.6636         0.7403       -45.3383      -2.914055      0.9751421
      7829.5000         0.7879       1780.561         0.6614         0.7275       -45.3276      -2.903355      0.9752811
      7830.0000         0.7909       1794.508         0.6571         0.7221       -45.1725      -2.748257      0.9772953
      7830.5000         0.7918       1813.496         0.6507         0.7358       -44.9708      -2.546555      0.9799149
      7831.0000         0.7938       1833.955         0.6422         0.7499       -44.8556      -2.431355       0.981411
      7831.5000         0.7925       1854.439         0.6323         0.7586       -44.6049      -2.180656      0.9846668
      7832.0000         0.7783       1874.049         0.6237         0.7518       -44.2876      -1.863358      0.9887876
      7832.5000         0.7638       1892.787         0.6155         0.7394       -43.7905      -1.366257      0.9952434
      7833.0000         0.7557       1909.629         0.6134         0.7261       -43.8799      -1.455658      0.9940824
      7833.5000           0.75       1909.205         0.6182         0.7094       -44.3008      -1.876556      0.9886162
      7834.0000         0.7453       1886.102         0.6281          0.704       -44.1792      -1.754955      0.9901954
      7834.5000         0.7471       1862.023         0.6394         0.7178       -43.7419      -1.317657      0.9958746
      7835.0000         0.7705       1833.879          0.654         0.7436       -43.5052      -1.080956      0.9989486
      7835.5000         0.7983       1801.744         0.6676         0.7758       -43.8484      -1.424156      0.9944915
      7836.0000         0.8238       1772.602         0.6714         0.8134       -44.1471      -1.722855      0.9906123
      7836.5000         0.8436       1752.205         0.6609         0.8343       -44.2563      -1.832058       0.989194
      7837.0000         0.8354       1747.104         0.6512         0.7996       -43.9751      -1.550858       0.992846
      7837.5000         0.8087       1754.014         0.6466         0.7606       -43.5391      -1.114857      0.9985083
      7838.0000          0.785       1765.541         0.6548         0.7285       -43.0085     -0.5842552              1
      7838.5000         0.7746       1780.217          0.661         0.7049       -43.0602     -0.6245308              1
      7839.0000         0.7819       1780.822          0.656         0.6971       -43.6071      -1.158756      0.9979382
      7839.5000         0.7809       1770.381         0.6534         0.6956       -43.6409      -1.179878      0.9976639
      7840.0000         0.7806       1756.832         0.6507         0.6984        -43.669      -1.195301      0.9974636
      7840.5000         0.7846       1742.137         0.6462         0.7102       -43.7887      -1.302322      0.9960737
      7841.0000         0.7992       1731.758         0.6462         0.7354       -43.7214      -1.222347      0.9971124
      7841.5000         0.8183       1723.412         0.6511         0.7719       -42.9921     -0.4803696              1
      7842.0000         0.8352       1715.365         0.6479         0.8155       -42.0571       0.467308              1
      7842.5000         0.8359       1696.178         0.6548         0.8102       -42.6248    -0.08771515              1
      7843.0000         0.8201       1672.451         0.6715         0.7765       -43.1868     -0.6370354              1
      7843.5000         0.8035       1650.918         0.6857         0.7617       -43.1849     -0.6224594              1
      7844.0000         0.7918       1636.422         0.6926         0.7352       -42.6506    -0.07548523              1
      7844.5000         0.7964       1630.596         0.6982         0.7477       -41.8737      0.7140923              1
      7845.0000         0.8207       1629.404          0.706         0.7774       -41.6272      0.9732704              1
      7845.5000         0.8433       1632.785         0.6951            0.8       -41.6478      0.9653473              1
      7846.0000          0.858       1648.648         0.6775         0.8237       -41.6655      0.9603233              1
      7846.5000         0.8609       1675.096         0.6724         0.8071       -41.4387       1.199799              1
      7847.0000         0.8347        1708.18          0.667          0.772       -41.5278       1.123379              1
      7847.5000         0.8051       1756.184         0.6586         0.7442        -41.621       1.042858              1
      7848.0000         0.7769       1808.979         0.6509         0.7245       -41.2922       1.384335              1
      7848.5000          0.754       1844.857         0.6452         0.7094       -41.0256       1.663609              1
      7849.0000          0.738       1872.951         0.6394         0.6963       -40.9943       1.707584              1
      7849.5000         0.7306       1898.701         0.6334         0.6928       -41.3999       1.314667              1
      7850.0000         0.7307       1918.387         0.6273         0.6985       -41.9424      0.7848396              1
      7850.5000         0.7411       1926.059         0.6168         0.7054       -41.6975       1.042419              1
      7851.0000          0.739       1933.557         0.6048         0.6879       -41.6273       1.125294              1
      7851.5000         0.7393       1942.613         0.5875         0.6722        -41.507        1.25827              1
      7852.0000         0.7405       1956.324         0.5805          0.671        -41.686       1.091949              1
