#------------------------------------------------------------------------------
# Created by    : vladimir.rabinovich
# Created on    : 09/19/2023 17:19:58
#------------------------------------------------------------------------------
~Version Information Section
VERS.           2.0     :   CWLS log ASCII Standard - VERSION 2.0
WRAP.           NO      :   One line per depth step
~Well Information Section
#MNEM       .UNIT                                         VALUE :DESCRIPTION
#------------------------------------------------------------------------------
STRT        .FT                                             782 :START DEPTH
STOP        .FT                                            8251 :STOP DEPTH
STEP        .FT                                             0.5 :STEP      
NULL        .                                           -999.25 :NULL      
COMP        .                                     TALOS ERT LLC :COMPANY   
WELL        .                               OCS G06037 ST00BP00 :WELL      
FLD         .                       MATAGORDA ISLAND BLOCK 0619 :FIELD     
LOC         .                                                   :LOCATION  
CNTY        .                      MATAGORDA ISLAND LARGE BLOCK :LOCATION  
STAT        .                                             TEXAS :STATE     
CTRY        .                                     UNITED STATES :COUNTRY   
SRVC        .                                                   :SERVICE COMPANY
DATE        .                             9/13/2023 11:18:52 AM :LOG DATE  
API         .                                    42703402240000 :API NUMBER
UWI         .                                    42703402240000 :UNIQUE WELL ID
XCOORD      .                                  606760.800591327 :SURFACE X 
YCOORD      .                                  10227689.0556145 :SURFACE Y 
LAT         .                                        28.1463556 :LATITUDE  
LON         .                                       -96.2076889 :LONGITUDE 
ELEV        .FT                                              77 :ELEVATION VALUE
ELEV_TYPE   .                                                KB :ELEVATION REFERENCE TYPE
~Curve Information Section
#MNEM       .UNIT                                      API CODE :CURVE DESCRIPTION
#------------------------------------------------------------------------------
DEPT        .FT                                                 :DEPTH     
ASFL        .OHMM                                               :          
CALI        .IN                                                 :          
CILD        .MMHO                                               :          
DRHO        .G/C3                                               :          
DT          .US/F                                               :          
GR          .GAPI                                               :          
GR_NORM     .GAPI                                               :GammaRay Normalized
ILD         .OHMM                                               :          
ILM         .OHMM                                               :          
NPHI        .%                                                  :          
RHOB        .G/C3                                               :          
SFL         .OHMM                                               :          
SP          .MV                                                 :          
SP_NORM     .MV                                                 :SP Normalized
VSH_GR      .V/V                                                :Volume of Shale from GR
VSH_SP      .V/V                                                :Volume of Shale from SP
~A        DEPTH           ASFL           CALI           CILD           DRHO             DT             GR        GR_NORM            ILD            ILM           NPHI           RHOB            SFL             SP        SP_NORM         VSH_GR         VSH_SP
# ...
      8238.0000         1.8867        10.2636       593.6631        -0.0131       100.8657        64.1863       72.97721         1.6349         1.5713        26.6062         2.4659         1.6629       -40.5848      -1.063843       0.850579              1
      8238.5000         1.9195        10.2293       573.8398          0.001       100.8591        66.3097       77.17117         1.6328         1.6398        26.4546         2.4921         2.1895       -40.5618       -1.04084       0.939812              1
      8239.0000         1.9187         10.207         606.54          0.009       100.8525        68.0129       80.53519         1.5674         1.6651        26.7979         2.4898         2.7001       -40.5388      -1.017841              1              1
      8239.5000         1.8615        10.1886       639.2891         0.0105       100.8527        70.3945       85.23914         1.4987         1.5929        27.3369         2.4672         2.5926       -40.5157     -0.9947433              1              1
      8240.0000         1.8014        10.1903        671.791         0.0034       100.8618        71.5916       87.60354         1.4395         1.5161         27.809         2.4461         1.9179       -40.4927     -0.9717407              1              1
      8240.5000         1.6658         10.273       703.8955         -0.005       100.8711        70.8558       86.15022         1.3898         1.4357        28.0636         2.4176         1.4298       -40.4697     -0.9487419              1              1
      8241.0000         1.5014        10.3408            736        -0.0071       100.8397        68.6937       81.87986         1.3489         1.3782        27.8951         2.4076         1.4025       -40.4466     -0.9256439              1              1
      8241.5000         1.4257        10.3749       753.5283        -0.0069       100.8068        68.0743       80.65648         1.3195          1.337         27.459          2.401         1.3874       -40.4236     -0.9026413              1              1
      8242.0000         1.4133        10.3341       764.5693        -0.0069       100.7739         68.412       81.32346          1.296         1.3094        26.7635         2.3945         1.3373       -40.4006     -0.8796425              1              1
      8242.5000          1.428         10.294       775.6104        -0.0069       100.7668        70.2823       85.01752         1.2794         1.2906        26.4486         2.3989         1.3017       -40.3775     -0.8565407              1              1
      8243.0000         1.4427        10.2817       786.6504        -0.0068       100.7603        71.0261       86.48662         1.2716         1.2752        26.3526         2.4062         1.4869       -40.3926     -0.8716431              1              1
      8243.5000         1.4676        10.2837       787.2432        -0.0073       100.7535        70.8977         86.233         1.2656         1.2835        26.5351         2.4083         1.6534       -40.5705      -1.049541              1              1
      8244.0000         1.4934        10.2576       785.6182        -0.0092         100.76        70.6407        85.7254          1.267         1.2964        26.7863         2.4029         1.6913       -40.7329      -1.211941              1              1
      8244.5000         1.5126        10.1381       783.9961        -0.0125       100.7668         71.099       86.63059         1.2581         1.3159        27.0378         2.3947         1.5585       -40.9891      -1.468143              1              1
      8245.0000         1.4992        10.1175        782.374        -0.0139       100.7749        71.3372       87.10107         1.2577         1.3377        27.0172         2.3926         1.4575        -41.156       -1.63504              1              1
      8245.5000         1.4858         10.116        780.752          -0.01       100.7994        69.8484       84.16051         1.2596         1.3666        26.6669         2.3965          1.422       -41.2831      -1.762142              1              1
      8246.0000         1.4724        10.1348       779.1299        -0.0034       100.8239        67.8035        80.1216         1.2615         1.3984        26.3195         2.4043         1.4169       -41.5177      -1.996742              1              1
      8246.5000         1.4572        10.2004       777.0957         0.0034       100.8406        66.1949       76.94442         1.2633         1.4326        26.1098         2.4144         1.4253       -41.7744      -2.253441      0.9349877      0.9909486
      8247.0000         1.4408        10.1483       774.9404         0.0036       100.8512        66.8558       78.24975         1.2652         1.4656        26.1641         2.4069         1.4343       -42.1888      -2.667843      0.9627606      0.9761485
      8247.5000         1.4257        10.0971       772.7842        -0.0006       100.8568        69.3347       83.14591         1.2671         1.4839        26.3483         2.3904         1.4388       -42.5115      -2.990543              1      0.9646235
      8248.0000         1.4309        10.0719       770.6289        -0.0057       100.8501        71.8708       88.15498          1.269         1.4904        26.6257         2.3554         1.4442       -42.6912      -3.170242              1      0.9582056
      8248.5000         1.4416        10.0649       768.4736        -0.0103       100.8363        73.3203       91.01794         1.2709         1.4885        27.1475         2.3216         1.4509       -42.7982      -3.277241              1      0.9543843
      8249.0000         1.4497        10.0452       766.7168        -0.0142       100.7952         71.412       87.24884         1.2728          1.481        27.6364         2.3041         1.4533       -42.8635      -3.342541              1      0.9520521
      8249.5000          1.457        10.0328       765.3574        -0.0163       100.7542        69.3546        83.1852         1.2747         1.4797        28.2091         2.2945         1.4685       -43.0167      -3.495743              1      0.9465806
      8250.0000         1.4643        10.0193       763.9971         -0.015        100.687        68.0404       80.58948         1.2767         1.4798        28.6467         2.2924         1.4804       -42.8301      -3.309143              1      0.9532449
      8250.5000         1.4691        10.0029       762.6367        -0.0156       100.6179        66.5204       77.58731         1.2786         1.4824        28.3342         2.2908         1.4895       -42.6664      -3.145443      0.9486662      0.9590913
      8251.0000         1.4699         9.9853       761.2773        -0.0178       100.5377        65.6052       75.77967         1.2805         1.4823        27.8239         2.2868         1.4857       -42.7719      -3.250942      0.9102058      0.9553235
