#------------------------------------------------------------------------------
# Created by    : vladimir.rabinovich
# Created on    : 09/19/2023 17:22:28
#------------------------------------------------------------------------------
~Version Information Section
VERS.           2.0     :   CWLS log ASCII Standard - VERSION 2.0
WRAP.           NO      :   One line per depth step
~Well Information Section
#MNEM       .UNIT                                         VALUE :DESCRIPTION
#------------------------------------------------------------------------------
STRT        .FT                                            2000 :START DEPTH
STOP        .FT                                            7372 :STOP DEPTH
STEP        .FT                                             0.5 :STEP      
NULL        .                                           -999.25 :NULL      
COMP        .                       CORPUS CHRISTI OIL & GAS CO :COMPANY   
WELL        .                                ST TR 00596-L SE/4 :WELL      
FLD         .                                           WILDCAT :FIELD     
LOC         .                                                   :LOCATION  
CNTY        .                      MATAGORDA ISLAND LARGE BLOCK :LOCATION  
STAT        .                                             TEXAS :STATE     
CTRY        .                                     UNITED STATES :COUNTRY   
SRVC        .                                                   :SERVICE COMPANY
DATE        .                             9/13/2023 11:19:13 AM :LOG DATE  
API         .                                    42703300520000 :API NUMBER
UWI         .                                    42703300520000 :UNIQUE WELL ID
XCOORD      .                                  480173.649028781 :SURFACE X 
YCOORD      .                                  10231220.1013933 :SURFACE Y 
LAT         .                                        28.1462983 :LATITUDE  
LON         .                                       -96.6002451 :LONGITUDE 
ELEV        .FT                                              82 :ELEVATION VALUE
ELEV_TYPE   .                                                GL :ELEVATION REFERENCE TYPE
~Curve Information Section
#MNEM       .UNIT                                      API CODE :CURVE DESCRIPTION
#------------------------------------------------------------------------------
DEPT        .FT                                                 :DEPTH     
CILD        .MMHO                                               :          
ILD         .OHMM                                               :          
SN          .OHMM                                               :          
SP          .MV                                                 :          
SP_NORM     .MV                                                 :SP Normalized
VSH_SP      .V/V                                                :Volume of Shale from SP
~A        DEPTH           CILD            ILD             SN             SP        SP_NORM         VSH_SP
# ...
      2722.0000       2582.664         0.3634         1.0557       -72.6336      -50.94685     0.05871435
      2722.5000        2550.71         0.4232         1.0437       -69.8884      -48.20165      0.1115067
      2723.0000       2424.988         0.4432         1.0397       -67.1431      -45.45635      0.1643009
      2723.5000       2299.267         0.4631         1.0317       -64.3979      -42.71116      0.2170931
      2724.0000       2173.545         0.4934         1.0157       -61.6526      -39.96585      0.2698875
      2724.5000       1988.983         0.5229         1.0077       -57.9672      -36.28046      0.3407604
      2725.0000       1988.837         0.5628         0.9997        -57.568      -35.88126      0.3484374
      2725.5000        1988.69         0.6027         0.9877       -48.7071      -27.02035      0.5188394
      2726.0000       1960.597         0.6026         0.9797       -39.8461      -18.15935      0.6892432
      2726.5000       1521.052         0.6025         0.9757       -34.8146      -13.12786      0.7860028
      2727.0000       1465.121         0.6025         0.9717       -34.8149      -13.12815       0.785997
      2727.5000       1461.323         0.6024         0.9676       -36.9073      -15.22055      0.7457586
      2728.0000       1461.139         0.5824         1.0088       -38.9998      -17.31306      0.7055182
      2728.5000        1453.16         0.5823         1.0159       -42.0018      -20.31505      0.6477875
      2729.0000       1596.474         0.5023         1.0229        -44.397      -22.71025      0.6017259
      2729.5000       1739.789         0.4823           1.03       -50.3853      -28.69855      0.4865663
      2730.0000       1883.103         0.4422         1.0371       -57.3476      -35.66085      0.3526759
      2730.5000       1992.683         0.3822         1.0441       -64.3099      -42.62315      0.2187855
      2731.0000       1992.837         0.3222         1.0512       -71.9435      -50.25675     0.07198554
      2731.5000       2207.294         0.3022         1.0582       -73.1411      -51.45435     0.04895474
      2732.0000       2222.598         0.2821         1.0674        -74.339      -52.65225     0.02591823
      2732.5000       2279.248         0.2768         1.0714       -74.9381      -53.25136     0.01439696
      2733.0000       2414.304         0.2715         1.0714       -75.7171      -54.03036              0
      2733.5000        2549.36         0.2661         1.0794       -76.5356      -54.84885              0
      2734.0000       2726.851         0.2419         1.0833       -77.1351      -55.44836              0
      2734.5000       2729.919         0.2219         1.0873       -76.9358      -55.24905              0
      2735.0000       2834.769         0.2418         1.1033       -75.2308      -53.54405    0.008768229
      2735.5000        2842.76         0.2617         1.1313       -73.5257      -51.83896     0.04155849
      2736.0000       2862.754         0.3016         1.1392       -71.8207      -50.13396     0.07434698
      2736.5000       2854.775         0.3415         1.1825       -70.1157      -48.42896      0.1071355
      2737.0000       2760.806         0.3814         1.2391       -68.3546      -46.66785      0.1410028
      2737.5000       2666.837         0.4013         1.3254       -67.7558      -46.06905      0.1525182
      2738.0000       2572.867         0.4412         1.4118       -65.1614      -43.47466      0.2024105
      2738.5000       2478.898          0.501         1.4981       -64.3633      -42.67655      0.2177586
      2739.0000       1944.957         0.5809         1.5845       -63.6016      -41.91486      0.2324066
      2739.5000       1817.337         0.6208         1.6708       -62.7672      -41.08045      0.2484528
      2740.0000       1689.717         0.6407         1.7571       -60.3726      -38.68585      0.2945029
      2740.5000       1562.098         0.6806         1.8435        -59.175      -37.48825      0.3175336
      2741.0000       1305.653         0.7205         1.9298       -58.5765      -36.88976      0.3290432
      2741.5000        1293.41         0.7404         1.9822       -58.1777      -36.49095      0.3367125
      2742.0000       1281.704         0.7403         1.9782       -57.5792      -35.89246       0.348222
      2742.5000       1229.769         0.7403         1.9065       -55.9831      -34.29636      0.3789162
      2743.0000       1235.907         0.7402         1.8348       -56.1727      -34.48595      0.3752701
      2743.5000       1241.783         0.7401         1.7631       -58.9774      -37.29066      0.3213335
      2744.0000       1278.203         0.7201         1.6914       -60.5902      -38.90345      0.2903183
      2744.5000       1314.622         0.6801         1.6197        -62.203      -40.51625      0.2593029
      2745.0000       1226.639           0.66          1.548       -63.8158      -42.12905      0.2282875
      2745.5000       1387.461            0.6         1.4763       -65.4286      -43.74185      0.1972721
      2746.0000       1423.881           0.54         1.3867       -67.0413      -45.35455      0.1662586
      2746.5000        1453.65           0.52         1.3508       -68.6541      -46.96735      0.1352432
      2747.0000       1537.857         0.4999          1.295       -70.2669      -48.58015      0.1042278
      2747.5000       1622.064         0.4199         1.2308       -71.8797      -50.19296      0.0732124
      2748.0000       1706.271         0.3599         1.2268       -73.4925      -51.80576     0.04219701
      2748.5000       1790.478         0.3199         1.2148       -74.7499      -53.06316     0.01801623
      2749.0000       1874.685         0.3398         1.1968        -75.149      -53.46226      0.0103412
      2749.5000       2283.708         0.3398         1.1787       -75.1493      -53.46255     0.01033548
      2750.0000       2295.709         0.3317         1.1607       -75.5488      -53.86205    0.002652829
      2750.5000       2355.662         0.3237         1.1426       -75.7487      -54.06196              0
      2751.0000       2383.634         0.3196         1.1245       -75.9487      -54.26196              0
      2751.5000       2411.619         0.3195         1.1065        -75.949      -54.26225              0
      2752.0000        2423.62         0.3194         1.0884       -75.9493      -54.26256              0
      2752.5000       2439.617         0.2994         1.0704       -75.9497      -54.26295              0
      2753.0000       2447.233         0.2993         1.0523         -75.95      -54.26325              0
      2753.5000       2478.826         0.2793         1.0349       -75.7507      -54.06396              0
      2754.0000       2510.418         0.2792          1.041       -75.5515      -53.86475     0.00260089
      2754.5000       2547.575         0.2991         1.0468       -75.1526      -53.46586     0.01027195
      2755.0000       2555.567         0.2991         1.0508       -75.1529      -53.46616     0.01026623
      2755.5000       2525.721          0.299         1.0653        -74.754      -53.06725     0.01793744
      2756.0000       2495.875         0.2989         1.0798       -74.7544      -53.06766     0.01792966
      2756.5000       2466.029         0.2989         1.0944       -74.5551      -52.86835     0.02176241
      2757.0000       2436.183         0.2988         1.1089       -74.3558      -52.66905     0.02559515
      2757.5000       2399.803         0.2987         1.1027       -74.3562      -52.66946     0.02558738
      2758.0000       2399.814         0.2987         1.0925       -74.1569      -52.47015     0.02942012
      2758.5000       2399.816         0.2986         1.0823       -73.9576      -52.27086     0.03325272
      2759.0000        2399.83         0.2985         1.0722       -73.7584      -52.07166     0.03708355
      2759.5000       2409.688         0.2785          1.062       -73.7587      -52.07195     0.03707783
