#------------------------------------------------------------------------------
# Created by    : vladimir.rabinovich
# Created on    : 09/19/2023 17:20:10
#------------------------------------------------------------------------------
~Version Information Section
VERS.           2.0     :   CWLS log ASCII Standard - VERSION 2.0
WRAP.           NO      :   One line per depth step
~Well Information Section
#MNEM       .UNIT                                         VALUE :DESCRIPTION
#------------------------------------------------------------------------------
STRT        .FT                                            1664 :START DEPTH
STOP        .FT                                            5300 :STOP DEPTH
STEP        .FT                                             0.5 :STEP      
NULL        .                                           -999.25 :NULL      
COMP        .                       CORPUS CHRISTI OIL & GAS CO :COMPANY   
WELL        .                                ST TR 00597-L NE/4 :WELL      
FLD         .                                           WILDCAT :FIELD     
LOC         .                                                   :LOCATION  
CNTY        .                      MATAGORDA ISLAND LARGE BLOCK :LOCATION  
STAT        .                                             TEXAS :STATE     
CTRY        .                                     UNITED STATES :COUNTRY   
SRVC        .                                                   :SERVICE COMPANY
DATE        .                             9/13/2023 11:12:01 AM :LOG DATE  
API         .                                    42703301570000 :API NUMBER
UWI         .                                    42703301570000 :UNIQUE WELL ID
XCOORD      .                                   499677.54355151 :SURFACE X 
YCOORD      .                                  10240770.6634848 :SURFACE Y 
LAT         .                                        28.1741034 :LATITUDE  
LON         .                                       -96.5406837 :LONGITUDE 
ELEV        .FT                                              79 :ELEVATION VALUE
ELEV_TYPE   .                                                KB :ELEVATION REFERENCE TYPE
~Curve Information Section
#MNEM       .UNIT                                      API CODE :CURVE DESCRIPTION
#------------------------------------------------------------------------------
DEPT        .FT                                                 :DEPTH     
ASFL        .OHMM                                               :          
CILD        .MMHO                                               :          
ILD         .OHMM                                               :          
SP          .MV                                                 :          
SP_NORM     .MV                                                 :SP Normalized
VSH_SP      .V/V                                                :Volume of Shale from SP
~A        DEPTH           ASFL           CILD            ILD             SP        SP_NORM         VSH_SP
# ...
      5046.0000         0.4664       3467.141         0.2884        -81.558      -46.82357     0.02557464
      5046.5000         0.4664        3427.26         0.2918       -81.5578      -46.87393     0.02447974
      5047.0000         0.4704       3411.332         0.2931       -81.5577      -46.92439     0.02338277
      5047.5000         0.4744       3411.371         0.2931       -81.5576      -46.97486     0.02228571
      5048.0000         0.4783       3395.442         0.2945       -81.8569      -47.32472     0.01467995
      5048.5000         0.4823       3419.434         0.2924       -82.1561      -47.67448    0.007076512
      5049.0000         0.4823       3435.441         0.2911       -82.4554      -48.02434              0
      5049.5000         0.4863       3451.448         0.2897       -82.7547      -48.37421              0
      5050.0000         0.4943       3483.424         0.2871       -83.6827      -49.35277              0
      5050.5000         0.4982       3496.637          0.286       -82.4548      -48.17543              0
      5051.0000         0.5062       3523.423         0.2838        -81.856       -47.6272    0.008104407
      5051.5000         0.4942       3547.414         0.2819       -80.9577      -46.77946     0.02653346
      5052.0000         0.4822       3691.165         0.2709       -80.0594      -45.93172     0.04496251
      5052.5000         0.4742       3747.092         0.2669       -79.4606      -45.38348     0.05688078
      5053.0000         0.4701       3803.019         0.2629       -79.4605      -45.43395     0.05578373
      5053.5000         0.4661       3827.011         0.2613       -79.4604      -45.48441     0.05468667
      5054.0000         0.4661       3858.986         0.2591       -79.4603      -45.53487     0.05358978
      5054.5000         0.4661       3874.993         0.2581       -79.7596      -45.88473      0.0459841
      5055.0000         0.4701       3898.985         0.2565       -79.7595       -45.9352     0.04488704
      5055.5000          0.474       3914.992         0.2554       -79.4602      -45.68646     0.05029438
      5056.0000          0.482           3931         0.2544       -79.7594      -46.03622     0.04269078
      5056.5000           0.49       3947.007         0.2534       -79.7593      -46.08669      0.0415938
      5057.0000          0.498       3947.046         0.2534       -80.0585      -46.43645      0.0339902
      5057.5000          0.502        3955.07         0.2528       -80.3577      -46.78621     0.02638676
      5058.0000          0.514       3971.077         0.2518       -80.3576      -46.83667     0.02528979
      5058.5000         0.5179       3971.116         0.2518       -80.3575      -46.88713     0.02419273
      5059.0000         0.5219       3987.124         0.2508       -80.0581       -46.6383     0.02960222
      5059.5000         0.5339       4043.051         0.2473       -79.1601      -45.79087     0.04802463
      5060.0000         0.5339       4067.042         0.2459       -77.9629      -44.64422     0.07295169
      5060.5000         0.5378       4091.034         0.2444       -76.4664      -43.19829       0.104385
      5061.0000         0.5076       4131.033         0.2421       -74.6707      -41.45315      0.1423228
      5061.5000         0.4774       4099.097          0.244       -73.4736      -40.30662      0.1672474
      5062.0000         0.4497       3818.615         0.2619       -71.0796      -37.96317      0.2181919
      5062.5000         0.4497       3538.132         0.2826         -66.89      -33.82414      0.3081709
      5063.0000         0.4537        3257.65          0.307       -59.1826       -26.1673      0.4746239
      5063.5000         0.5169       2977.167         0.3359       -51.4752      -18.51046      0.6410769
      5064.0000         0.5801       2696.685         0.3708       -43.7678      -10.85363      0.8075299
      5064.5000         0.6433       2416.203         0.4139       -36.0605      -3.196892      0.9739806
      5065.0000         0.7065       2135.721         0.4682       -29.7873       3.025745              1
      5065.5000         0.7696       1855.239          0.539       -30.6774       2.085085              1
      5066.0000         0.8328       1574.756          0.635       -31.5675       1.144423              1
      5066.5000          0.896       1294.274         0.7726       -32.4576      0.2037582              1
      5067.0000         0.9578       1057.634         0.9455       -33.3477     -0.7369041              1
      5067.5000         0.9449       1025.738         0.9749       -33.9805      -1.420265              1
      5068.0000         0.9319       1025.777         0.9749       -29.0775       3.432171              1
      5068.5000          0.919         1033.8         0.9673       -25.9041       6.555006              1
      5069.0000         0.9061       1049.808         0.9526       -26.2042       6.204342              1
      5069.5000         0.8931       1065.815         0.9382       -26.8035       5.554483              1
      5070.0000         0.8816       1089.806         0.9176       -27.1036       5.203819              1
      5070.5000         0.9033       1105.814         0.9043       -27.7029       4.553955              1
      5071.0000          0.925       1121.821         0.8914       -28.0029       4.203396              1
      5071.5000         0.9467       1137.828         0.8789        -28.303       3.852732              1
      5072.0000         0.9656       1153.835         0.8667       -28.6031       3.502068              1
      5072.5000         0.9403       1169.843         0.8548       -25.0153       7.039303              1
      5073.0000          0.915       1161.898         0.8607       -25.9127       6.091343              1
      5073.5000         0.8896       1153.954         0.8666       -28.2896       3.663879              1
      5074.0000         0.8695       1138.025         0.8787       -31.5987      0.3042164              1
      5074.5000         0.8735       1138.064         0.8787       -31.8978     -0.0454464              1
      5075.0000         0.9004        1130.12         0.8849       -12.7067       11.44351              1
      5075.5000         0.9214       1130.159         0.8848         5.9083       21.47547              1
      5076.0000         0.9214       1176.029         0.8503          7.106       14.09013              1
      5076.5000         0.8877         1221.9         0.8184          5.911       4.312095              1
      5077.0000         0.8541       1289.996         0.7752         5.6133       1.518553              1
      5077.5000         0.8204       1284.598         0.7785         6.2128       1.749525              1
      5078.0000         0.7973       1274.068         0.7849         7.7095       2.877697              1
      5078.5000         0.8415       1230.556         0.8126         7.1127       1.912369              1
      5079.0000         0.8857       1187.044         0.8424         6.5159      0.9470406              1
      5079.5000         0.9299       1143.532         0.8745         5.6201     -0.3172879              1
      5080.0000         0.9741        1100.02         0.9091         5.0233      -1.282616              1
      5080.5000         1.0183       1056.508         0.9465         4.4266      -2.247845      0.9946121
      5081.0000         1.0625       994.9036         1.0051         9.2125       2.169527              1
      5081.5000         1.0933       994.9317         1.0051         9.5129       2.101399              1
      5082.0000         1.0611        994.943         1.0051         8.9161        1.13607              1
      5082.5000         1.0288        1010.95         0.9892         8.0204     -0.1281576              1
      5083.0000         0.9966       1018.974         0.9814         7.7227     -0.7943859              1
      5083.5000         0.9644       1034.981         0.9662          8.023     -0.8626146              1
