#------------------------------------------------------------------------------
# Created by    : vladimir.rabinovich
# Created on    : 09/19/2023 17:20:06
#------------------------------------------------------------------------------
~Version Information Section
VERS.           2.0     :   CWLS log ASCII Standard - VERSION 2.0
WRAP.           NO      :   One line per depth step
~Well Information Section
#MNEM       .UNIT                                         VALUE :DESCRIPTION
#------------------------------------------------------------------------------
STRT        .FT                                             325 :START DEPTH
STOP        .FT                                           10896 :STOP DEPTH
STEP        .FT                                             0.5 :STEP      
NULL        .                                           -999.25 :NULL      
COMP        .                                      GETTY OIL CO :COMPANY   
WELL        .                               OCS G03737 ST00BP00 :WELL      
FLD         .                                           WILDCAT :FIELD     
LOC         .                                                   :LOCATION  
CNTY        .                             GALVESTON LARGE BLOCK :LOCATION  
STAT        .                                             TEXAS :STATE     
CTRY        .                                     UNITED STATES :COUNTRY   
SRVC        .                                                   :SERVICE COMPANY
DATE        .                             9/13/2023 11:10:15 AM :LOG DATE  
API         .                                    42706400540000 :API NUMBER
UWI         .                                    42706400540000 :UNIQUE WELL ID
XCOORD      .                                  1098214.74516992 :SURFACE X 
YCOORD      .                                   10573216.961531 :SURFACE Y 
LAT         .                                         29.123847 :LATITUDE  
LON         .                                        -94.698615 :LONGITUDE 
ELEV        .FT                                              99 :ELEVATION VALUE
ELEV_TYPE   .                                                KB :ELEVATION REFERENCE TYPE
~Curve Information Section
#MNEM       .UNIT                                      API CODE :CURVE DESCRIPTION
#------------------------------------------------------------------------------
DEPT        .FT                                                 :DEPTH     
ASFL        .OHMM                                               :          
DT          .US/F                                               :          
DTL         .US/F                                               :          
GR          .GAPI                                               :          
GR_1        .GAPI                                               :          
GR_NORM     .GAPI                                               :GammaRay Normalized
ILD         .OHMM                                               :          
RHOB        .G/CC                                               :          
SP          .MV                                                 :          
SP_NORM     .MV                                                 :SP Normalized
VSH_GR      .V/V                                                :Volume of Shale from GR
VSH_SP      .V/V                                                :Volume of Shale from SP
~A        DEPTH           ASFL             DT            DTL             GR           GR_1        GR_NORM            ILD           RHOB             SP        SP_NORM         VSH_GR         VSH_SP
# ...
      8771.0000         0.4506       113.4977       113.6417        40.8123        57.6541        78.9442         0.4998         2.2359       -47.3768        -4.5183         0.9775         0.9098
      8771.5000         0.4482       111.6101       113.0785        40.4518        55.9818        78.3879         0.4991         2.2421       -47.0165        -4.1613         0.9657         0.9189
      8772.0000         0.4451       111.6138       112.4216        40.4058        55.7792        78.3475         0.4996          2.247       -46.6561        -3.8042         0.9648         0.9281
      8772.5000         0.4403       112.3602       112.2713         40.611         56.472        78.7192         0.5005         2.2525       -46.2952        -3.4465         0.9727         0.9373
      8773.0000         0.4327       112.6002       112.2785        40.4097        57.1131        78.4241         0.5014         2.2556       -45.9138        -3.0684         0.9665          0.947
      8773.5000          0.428       112.9601       112.3853        39.6702        57.7541         77.246         0.5022         2.2571       -45.3064        -2.4643         0.9414         0.9625
      8774.0000         0.4236       112.6447        112.443        38.5565        58.3951        75.4541         0.5031         2.2586        -44.699        -1.8601         0.9033         0.9779
      8774.5000         0.4194        112.375       112.4769        38.7333        57.9029        75.7792          0.504         2.2585       -44.1139        -1.2783         0.9102         0.9929
      8775.0000         0.4143       112.2437       112.5307        40.8879        57.4039        79.3489         0.5044         2.2568       -43.5721        -0.7398         0.9861              1
      8775.5000          0.415       112.1644       112.4263        42.8077        56.8389        82.5334         0.5047         2.2533       -43.0305        -0.2014              1              1
      8776.0000          0.419        112.158       112.1567        43.7192        56.1979        84.0638         0.5049         2.2429       -42.0091         0.8167              1              1
      8776.5000         0.4228       112.9768        111.482        43.3554        55.5569        83.5021         0.5051         2.2154       -41.4119         1.4106              1              1
      8777.0000         0.4256       113.2966       111.0905        42.4882        54.9158        82.1146         0.5054         2.1887       -41.9332         0.8861              1              1
      8777.5000         0.4285       112.3994       112.2039        41.6444        55.3876        80.7654         0.5056         2.1925       -42.4544         0.3616              1              1
      8778.0000          0.432       110.8723       114.8692        40.8503        55.7412        79.4977         0.5058         2.2107       -43.0262        -0.2135         0.9893              1
      8778.5000         0.4358       110.4813       117.2348        40.3625        55.9796        78.7326          0.506         2.2247       -43.6396        -0.8301          0.973              1
      8779.0000         0.4398       119.1283        118.343        40.1927        56.2183        78.4891         0.5063         2.2358        -44.523        -1.7168         0.9679         0.9816
      8779.5000         0.4431       119.9543       118.1104        40.2103        56.4569        78.5531         0.5065         2.2436       -46.1307        -3.3278         0.9692         0.9403
      8780.0000          0.446       117.4075        117.233        40.4418        56.6953        78.9679         0.5067         2.2468       -46.6978        -3.8982          0.978         0.9257
      8780.5000         0.4486       115.6548       115.7952        40.8126        56.7606        79.6113          0.507         2.2414       -46.5386        -3.7422         0.9917         0.9297
      8781.0000         0.4511       113.0417        114.189        41.1019        56.7815         80.121         0.5057         2.2316       -46.3796        -3.5865              1         0.9337
      8781.5000          0.452       113.1213       112.6789        41.2273        56.9837        80.3618          0.504         2.2261       -46.2205        -3.4307              1         0.9377
      8782.0000          0.452       111.5219       111.7304        40.9351        57.5095        79.9175         0.5023         2.2325       -46.0614        -3.2748         0.9982         0.9417
      8782.5000         0.4496       111.4362       110.6127         40.561         57.407        79.3389         0.5007         2.2638       -45.9023         -3.119         0.9859         0.9457
      8783.0000         0.4471       111.2375       110.3855        40.4833         56.335        79.2465         0.4998         2.2838       -45.6583        -2.8783          0.984         0.9518
      8783.5000         0.4388       110.5604       110.8542        40.6967        55.2111        79.6317         0.4992         2.2848       -45.3588         -2.582         0.9922         0.9594
      8784.0000         0.4303       112.4607       112.9427        40.8242        53.9124        79.8759         0.4986         2.2574        -45.539        -2.7655         0.9974         0.9547
      8784.5000         0.4213       115.0591       115.8649        40.6664        54.4187        79.6522          0.498         2.2036       -46.1319        -3.3617         0.9926         0.9394
      8785.0000         0.4099       116.0813       116.6806        40.3075        54.9245        79.0985         0.4974         2.1961       -46.7249        -3.9579         0.9808         0.9242
      8785.5000         0.4122       116.4319       116.8052        40.0584        55.4309        78.7249         0.4964         2.2278       -49.2231        -6.4594         0.9729           0.86
      8786.0000         0.4227       116.4314       116.0859        40.1277        55.9373        78.8737         0.4954          2.233       -51.2538        -8.4934          0.976         0.8079
      8786.5000         0.4322       116.1622       114.8863         40.355        56.5734        79.2816         0.4943         2.2157       -52.0926        -9.3354         0.9847         0.7863
      8787.0000         0.4395       114.6031       113.4122        40.4282        57.2415        79.4368         0.4953         2.2238       -53.2037       -10.4498          0.988         0.7577
      8787.5000         0.4468       111.9705       112.1269        40.1495        57.4811        79.0147         0.4964          2.239       -54.7704       -12.0198          0.979         0.7174
      8788.0000         0.4542        111.365       112.0202        39.5927        56.6091        78.1364         0.4975         2.2521       -53.8196       -11.0723         0.9603         0.7417
      8788.5000         0.4545       114.6326        112.571        38.7672         55.384        76.8172         0.4986         2.2482       -52.8699       -10.1258         0.9323          0.766
      8789.0000         0.4404        120.827       113.9967        38.6461        57.5157        76.6536         0.4976         2.2267       -51.9191        -9.1783         0.9288         0.7903
      8789.5000         0.4284       121.3201       116.1399        39.0492        58.7088          77.35          0.494         2.2187       -50.7127        -7.9752         0.9436         0.8211
      8790.0000         0.4167       119.1969       117.8688        39.6169        59.3177        78.3164         0.4904          2.224       -49.0014        -6.2671         0.9642         0.8649
      8790.5000         0.4073       117.1967       118.5445        38.8083        58.6927        77.0249         0.4868         2.2554       -47.0056        -4.2746         0.9367          0.916
      8791.0000         0.4055       119.1981       117.5925         37.938        58.0197        75.6323         0.4832         2.2824       -46.0162        -3.2885         0.9071         0.9413
