#------------------------------------------------------------------------------
# Created by    : vladimir.rabinovich
# Created on    : 09/19/2023 17:20:06
#------------------------------------------------------------------------------
~Version Information Section
VERS.           2.0     :   CWLS log ASCII Standard - VERSION 2.0
WRAP.           NO      :   One line per depth step
~Well Information Section
#MNEM       .UNIT                                         VALUE :DESCRIPTION
#------------------------------------------------------------------------------
STRT        .FT                                             325 :START DEPTH
STOP        .FT                                           10896 :STOP DEPTH
STEP        .FT                                             0.5 :STEP      
NULL        .                                           -999.25 :NULL      
COMP        .                                      GETTY OIL CO :COMPANY   
WELL        .                               OCS G03737 ST00BP00 :WELL      
FLD         .                                           WILDCAT :FIELD     
LOC         .                                                   :LOCATION  
CNTY        .                             GALVESTON LARGE BLOCK :LOCATION  
STAT        .                                             TEXAS :STATE     
CTRY        .                                     UNITED STATES :COUNTRY   
SRVC        .                                                   :SERVICE COMPANY
DATE        .                             9/13/2023 11:10:15 AM :LOG DATE  
API         .                                    42706400540000 :API NUMBER
UWI         .                                    42706400540000 :UNIQUE WELL ID
XCOORD      .                                  1098214.74516992 :SURFACE X 
YCOORD      .                                   10573216.961531 :SURFACE Y 
LAT         .                                         29.123847 :LATITUDE  
LON         .                                        -94.698615 :LONGITUDE 
ELEV        .FT                                              99 :ELEVATION VALUE
ELEV_TYPE   .                                                KB :ELEVATION REFERENCE TYPE
~Curve Information Section
#MNEM       .UNIT                                      API CODE :CURVE DESCRIPTION
#------------------------------------------------------------------------------
DEPT        .FT                                                 :DEPTH     
ASFL        .OHMM                                               :          
DT          .US/F                                               :          
DTL         .US/F                                               :          
GR          .GAPI                                               :          
GR_1        .GAPI                                               :          
GR_NORM     .GAPI                                               :GammaRay Normalized
ILD         .OHMM                                               :          
RHOB        .G/CC                                               :          
SP          .MV                                                 :          
SP_NORM     .MV                                                 :SP Normalized
VSH_GR      .V/V                                                :Volume of Shale from GR
VSH_SP      .V/V                                                :Volume of Shale from SP
~A        DEPTH           ASFL             DT            DTL             GR           GR_1        GR_NORM            ILD           RHOB             SP        SP_NORM         VSH_GR         VSH_SP
       325.0000         1.9976        -999.25        -999.25        -999.25         39.272         74.686         0.2975        -999.25      -111.4636        -1.4044         0.8869         0.9265
       325.5000         1.9974        -999.25        -999.25        -999.25        43.8687        76.8524         0.4921        -999.25      -110.3464        -1.4914          0.933         0.9107
       326.0000         1.9971        -999.25        -999.25        -999.25        45.0698        75.6231         2.5682        -999.25      -109.4447        -1.7938         0.9069         0.8557
       326.5000         1.9971        -999.25        -999.25        -999.25        45.5359        73.6589           2.64        -999.25      -108.5365        -2.0898         0.8651         0.8019
       327.0000         1.9971        -999.25        -999.25        -999.25        45.0876        70.7802          2.658        -999.25      -107.4541        -2.2115         0.8038         0.7797
       327.5000          1.997        -999.25        -999.25        -999.25        44.6393        67.9016         2.6702        -999.25      -105.9406        -1.9022         0.7426          0.836
       328.0000          1.997        -999.25        -999.25        -999.25         44.191        66.6934         2.6824        -999.25      -104.4209        -1.5866         0.7169         0.8933
       328.5000          1.997        -999.25        -999.25        -999.25        42.7533        65.0278         2.6946        -999.25      -102.5895        -0.9594         0.6814              1
       329.0000         1.9969        -999.25        -999.25        -999.25        41.6635        63.7102         2.7056        -999.25      -101.0955        -0.6695         0.6534              1
       329.5000         1.9969        -999.25        -999.25        -999.25        43.0092         64.828         2.7156        -999.25      -100.0056        -0.7838         0.6772              1
       330.0000         1.9969        -999.25        -999.25        -999.25           45.1         66.691         2.7255        -999.25       -99.1652        -1.1475         0.7168         0.9732
       330.5000         1.9968        -999.25        -999.25        -999.25         47.109        68.4721         2.7354        -999.25       -98.5157        -1.7022         0.7547         0.8723
       331.0000         1.9968        -999.25        -999.25        -999.25        48.5369        69.6722         2.7393        -999.25       -98.0188        -2.1827         0.7803          0.785
       331.5000         1.9968        -999.25        -999.25        -999.25        49.3346         70.242           2.74        -999.25       -97.5508         -1.821         0.7924         0.8507
       332.0000         1.9967        -999.25        -999.25        -999.25         49.092        69.7716         2.7408        -999.25       -97.2402        -1.6166         0.7824         0.8879
       332.5000         1.9967        -999.25        -999.25        -999.25        48.2567        68.7085         2.7415        -999.25       -96.9297        -1.4124         0.7598          0.925
       333.0000         1.9967        -999.25        -999.25        -999.25        47.4595        67.6834         2.7405        -999.25       -96.6587        -1.2476         0.7379          0.955
       333.5000         1.9966        -999.25        -999.25        -999.25        46.8417        66.8378         2.7372        -999.25       -96.5571        -1.2523           0.72         0.9541
       334.0000         1.9966        -999.25        -999.25        -999.25        47.1362        66.9044         2.7338        -999.25       -96.4557        -1.2571         0.7214         0.9532
       334.5000         1.9966        -999.25        -999.25        -999.25        47.8876         67.428         2.7305        -999.25       -96.3818        -1.2895         0.7325         0.9474
       335.0000         1.9965        -999.25        -999.25        -999.25        49.3058        68.6183         2.7144        -999.25       -96.3278        -1.3417         0.7578         0.9379
       335.5000         1.9965        -999.25        -999.25        -999.25         51.456        70.5407         2.6941        -999.25       -96.2736        -1.3938         0.7987         0.9284
       336.0000         1.9871        -999.25        -999.25        -999.25        52.8303        71.6871         2.6737        -999.25       -96.2194        -1.4458         0.8231         0.9189
       336.5000         1.9695        -999.25        -999.25        -999.25        53.8432        72.4722         2.6062        -999.25       -96.1422        -1.4749         0.8398         0.9137
       337.0000         1.9454        -999.25        -999.25        -999.25        55.1152        73.5163         2.4971        -999.25       -96.0408        -1.4797          0.862         0.9128
       337.5000         1.9216        -999.25        -999.25        -999.25        56.4077         74.581         2.3214        -999.25       -95.9393        -1.4845         0.8847         0.9119
       338.0000         1.8981        -999.25        -999.25        -999.25         57.529        75.4745         2.1192        -999.25        -95.719        -1.3704         0.9037         0.9326
       338.5000         1.8057        -999.25        -999.25        -999.25         58.441        76.1586         2.1177        -999.25       -95.3842        -1.1419         0.9183         0.9742
       339.0000         1.7954        -999.25        -999.25        -999.25        59.2622         76.752         2.1163        -999.25       -95.0428        -0.9067         0.9309              1
       339.5000         1.8137        -999.25        -999.25        -999.25        60.0638        77.3257         2.1151        -999.25       -94.6433        -0.6135         0.9431              1
       340.0000         1.8344        -999.25        -999.25        -999.25        60.7637        77.7978         2.1142        -999.25       -94.2438        -0.3202         0.9531              1
       340.5000         1.8566        -999.25        -999.25        -999.25        61.2858         78.092         2.1132        -999.25       -93.9447        -0.1274         0.9594              1
       341.0000         1.8739        -999.25        -999.25        -999.25        60.8575        77.4359         2.1123        -999.25       -93.6897         0.0214         0.9454              1
       341.5000         1.8867        -999.25        -999.25        -999.25        56.2067        72.5572         2.1113        -999.25       -93.4346         0.1702         0.8416              1
       342.0000         1.8994        -999.25        -999.25        -999.25        54.5823         70.705         2.1056        -999.25       -93.2164         0.2822         0.8022              1
       342.5000         1.8757        -999.25        -999.25        -999.25        53.1376        69.0325          2.093        -999.25       -93.0297          0.398         0.7666              1
       343.0000         1.8165        -999.25        -999.25        -999.25        52.6589        68.3259         2.0804        -999.25       -92.8428         0.5168         0.7516              1
       343.5000         1.7288        -999.25        -999.25        -999.25        54.8555        70.2947         2.0428        -999.25        -92.656         0.6354         0.7935              1
       344.0000          1.705        -999.25        -999.25        -999.25        57.8763        73.0876         2.0005        -999.25       -92.4606         0.7627         0.8529              1
       344.5000         1.6821        -999.25        -999.25        -999.25        60.3354        75.3189         1.9545        -999.25       -92.2548         0.9003         0.9004              1
       345.0000         1.6656        -999.25        -999.25        -999.25        62.5795        77.3351         1.9081        -999.25        -92.049         1.0379         0.9433              1
