#------------------------------------------------------------------------------
# Created by    : vladimir.rabinovich
# Created on    : 09/19/2023 17:22:43
#------------------------------------------------------------------------------
~Version Information Section
VERS.           2.0     :   CWLS log ASCII Standard - VERSION 2.0
WRAP.           NO      :   One line per depth step
~Well Information Section
#MNEM       .UNIT                                         VALUE :DESCRIPTION
#------------------------------------------------------------------------------
STRT        .FT                                            3600 :START DEPTH
STOP        .FT                                            7940 :STOP DEPTH
STEP        .FT                                             0.5 :STEP      
NULL        .                                           -999.25 :NULL      
COMP        .                          SEAGULL ENERGY E & P INC :COMPANY   
WELL        .                               OCS G09015 ST00BP00 :WELL      
FLD         .                                 BRAZOS BLOCK 0431 :FIELD     
LOC         .                                                   :LOCATION  
CNTY        .                                BRAZOS LARGE BLOCK :LOCATION  
STAT        .                                             TEXAS :STATE     
CTRY        .                                     UNITED STATES :COUNTRY   
SRVC        .                                                   :SERVICE COMPANY
DATE        .                             9/13/2023 11:09:51 AM :LOG DATE  
API         .                                    42704402370000 :API NUMBER
UWI         .                                    42704402370000 :UNIQUE WELL ID
XCOORD      .                                  876086.487249857 :SURFACE X 
YCOORD      .                                  10366258.6106956 :SURFACE Y 
LAT         .                                        28.5443209 :LATITUDE  
LON         .                                       -95.3810825 :LONGITUDE 
ELEV        .FT                                              90 :ELEVATION VALUE
ELEV_TYPE   .                                                KB :ELEVATION REFERENCE TYPE
~Curve Information Section
#MNEM       .UNIT                                      API CODE :CURVE DESCRIPTION
#------------------------------------------------------------------------------
DEPT        .FT                                                 :DEPTH     
DCAL        .IN                                                 :          
DPHI        .%                                                  :          
GR          .GAPI                                               :          
GR_NORM     .GAPI                                               :GammaRay Normalized
ILD         .OHMM                                               :          
ILM         .OHMM                                               :          
NPHI        .%                                                  :          
SGRD        .OHMM                                               :          
SP          .MV                                                 :          
SP_NORM     .MV                                                 :SP Normalized
VSH_GR      .V/V                                                :Volume of Shale from GR
VSH_SP      .V/V                                                :Volume of Shale from SP
~A        DEPTH           DCAL           DPHI             GR        GR_NORM            ILD            ILM           NPHI           SGRD             SP        SP_NORM         VSH_GR         VSH_SP
# ...
      4748.0000         1.1395        27.5387        69.9608       72.98219         0.4694          0.575        45.5839         0.7635       -67.8236      -15.27772      0.8506848      0.3011726
      4748.5000         1.0666        30.9206         63.014       60.08256         0.4192           0.53        44.3567         0.7525       -69.1871      -16.64471      0.5762246       0.229226
      4749.0000         1.0557         32.421        60.3392       55.11439         0.3636         0.4897        42.8026         0.7428       -70.1128      -17.57388      0.4705189      0.1803219
      4749.5000         1.0483        33.8522        57.5743       49.97893         0.3358         0.4541        41.4502         0.7305       -70.3414      -17.80597      0.3612539      0.1681071
      4750.0000         1.0732        34.0656        55.2739       45.70588         0.3155         0.4216        40.5563         0.7138        -70.134      -17.60205      0.2703379      0.1788396
      4750.5000         1.1027        34.2788        54.2366       43.77793         0.3063          0.396        39.7561          0.698       -69.1505      -16.62202      0.2293177        0.23042
      4751.0000         1.1398        34.0295        55.9916       47.03419         0.3158         0.3801        39.4283         0.6842       -67.8575       -15.3325      0.2985998      0.2982892
      4751.5000         1.1779        32.2122        57.4517       49.74294          0.336         0.3941        39.5963         0.6724       -64.0553      -11.53378      0.3562327       0.498222
      4752.0000         1.1832         30.466        61.1403       56.58916           0.38         0.4241        41.0421         0.6747        -62.153      -9.634968       0.501897      0.5981596
      4752.5000          1.159        28.7519        65.1147       63.96597         0.4168         0.4564        41.8937         0.7036       -61.5658      -9.051247      0.6588503      0.6288818
      4753.0000         1.1824         27.049        67.6591       68.68785         0.4504         0.4914        41.8693         0.7384       -62.1875      -9.676426       0.759316      0.5959776
      4753.5000         1.2365        26.1671        68.5271       70.29728         0.4737         0.5323        41.5839         0.7694       -63.4916      -10.98401      0.7935591      0.5271574
      4754.0000         1.2618        26.2711        67.3824       68.16989         0.4775         0.5413        40.9424         0.7916       -64.7117      -12.20759      0.7482955      0.4627585
      4754.5000         1.2539        26.7201        64.2249       62.30555         0.4601         0.5468        40.4805         0.7964       -65.7959      -13.29527      0.6235224      0.4055122
      4755.0000         1.2333        27.6908        60.1096       54.66294         0.4331         0.5363        40.5147         0.7782       -66.4078      -13.91065      0.4609136      0.3731238
      4755.5000         1.2128         29.829        56.8188       48.55111         0.4154         0.5053        40.4501         0.7475       -66.8962      -14.40253      0.3308747      0.3472352
      4756.0000         1.1683        31.5672        53.9979       43.31168         0.4022         0.4775        40.3856          0.715        -66.781      -14.29081      0.2193974      0.3531153
      4756.5000         1.1597        32.5779        53.5498       42.47764         0.3923         0.4637        40.4554         0.6955       -65.7196      -13.23289       0.201652      0.4087954
      4757.0000         1.1497         31.199        54.5615       44.35388         0.3866         0.4577           41.9         0.6933       -64.5913      -12.10807      0.2415719      0.4679961
      4757.5000         1.1384        29.3729        57.7687       50.30631         0.3895         0.4571        42.4135         0.6956       -64.5009      -12.02115      0.3682193      0.4725709
      4758.0000          1.168        28.0893        60.4619       55.30445         0.3927         0.4644        42.1688         0.7161       -65.6328      -13.15653      0.4745628      0.4128143
      4758.5000         1.2597        27.7761        62.8966       59.82264         0.3937         0.4736        40.6964         0.7473       -66.4594      -13.98661      0.5706944      0.3691258
      4759.0000         1.3448        28.2878        63.3591       60.67921          0.396         0.4794        40.0394         0.7644       -67.2893      -14.81999      0.5889194      0.3252636
      4759.5000         1.4052        29.5137        64.4219       62.65034         0.3985         0.4799        39.6717          0.763       -68.0128      -15.54698      0.6308582      0.2870012
      4760.0000         1.4394        29.9851        64.3547       62.52348         0.4011         0.4755         40.065         0.7389       -68.5278      -16.06546      0.6281592      0.2597128
      4760.5000         1.4333        31.0038        62.4425       58.97116         0.4039         0.4684        41.0195          0.711        -69.043      -16.58413       0.552578      0.2324141
      4761.0000         1.4271        31.8442        61.0699       56.42067         0.4047         0.4615        40.9633         0.7049       -69.1031      -16.64772      0.4983121      0.2290674
      4761.5000         1.3913        32.0309        59.5772       53.64722         0.3961         0.4546        40.7459         0.7033       -69.0015       -16.5496      0.4393027      0.2342317
      4762.0000         1.3295        31.6976        58.9307        52.4448         0.3757          0.449          40.78         0.7023       -68.8286      -16.38018      0.4137192      0.2431486
      4762.5000          1.262        30.9174        60.0319       54.48722         0.3583         0.4449        40.8532         0.7012       -68.6818      -16.23686       0.457175      0.2506917
      4763.0000         1.1846        30.6096        60.9048       56.10575         0.3435         0.4398        41.9156            0.7       -69.3058      -16.86434      0.4916118      0.2176664
      4763.5000         1.0904        32.0393        61.6473        57.4822          0.333         0.4231        42.5093         0.6994       -70.0632      -17.62522       0.520898      0.1776199
      4764.0000         1.0341        34.1503         61.905       57.95853         0.3251         0.4046        42.5101         0.6989       -70.6602       -18.2257      0.5310326      0.1460158
      4764.5000         0.9959        35.3323        58.6716       51.95328         0.3176           0.39         41.968         0.6984       -70.9734      -18.54238      0.4032612      0.1293486
      4765.0000         0.9832        36.1077        53.7036       42.72752         0.3131         0.3753        41.4522         0.6735       -70.5193      -18.09176      0.2069685      0.1530651
      4765.5000         0.9574        35.7805        53.8204       42.94227         0.3116         0.3635        40.8557          0.653       -69.7468      -17.32274      0.2115376      0.1935399
      4766.0000         0.9665        34.5681        55.7463       46.51582         0.3137         0.3684        40.8297         0.6489       -69.1121      -16.69152      0.2875707      0.2267621
      4766.5000         0.9757        32.5843        58.1119       50.90574         0.3181         0.3808        41.2825         0.6598       -68.6675       -16.2504      0.3809732      0.2499787
      4767.0000         0.9898        32.1093        59.6868       53.82762         0.3241         0.3917        41.6628          0.685       -68.5786      -16.16498      0.4431409      0.2544746
      4767.5000         1.0448        31.5824        64.0005        61.8344         0.3383         0.4004        41.7444         0.6922       -68.5989      -16.18876      0.6134979       0.253223
      4768.0000         1.1193        31.5111        62.7896       59.58416         0.3559         0.4089        42.1456         0.6854       -68.5963      -16.18964      0.5656204      0.2531768
