#------------------------------------------------------------------------------
# Created by    : vladimir.rabinovich
# Created on    : 09/19/2023 17:19:48
#------------------------------------------------------------------------------
~Version Information Section
VERS.           2.0     :   CWLS log ASCII Standard - VERSION 2.0
WRAP.           NO      :   One line per depth step
~Well Information Section
#MNEM       .UNIT                                         VALUE :DESCRIPTION
#------------------------------------------------------------------------------
STRT        .FT                                            3926 :START DEPTH
STOP        .FT                                            8446 :STOP DEPTH
STEP        .FT                                             0.5 :STEP      
NULL        .                                           -999.25 :NULL      
COMP        .                             WALTER OIL & GAS CORP :COMPANY   
WELL        .                               OCS G06101 ST00BP00 :WELL      
FLD         .                                           WILDCAT :FIELD     
LOC         .                                                   :LOCATION  
CNTY        .                             GALVESTON LARGE BLOCK :LOCATION  
STAT        .                                             TEXAS :STATE     
CTRY        .                                     UNITED STATES :COUNTRY   
SRVC        .                                                   :SERVICE COMPANY
DATE        .                             9/13/2023 11:19:36 AM :LOG DATE  
API         .                                    42706402050000 :API NUMBER
UWI         .                                    42706402050000 :UNIQUE WELL ID
XCOORD      .                                  1036351.71170487 :SURFACE X 
YCOORD      .                                  10440832.2127806 :SURFACE Y 
LAT         .                                         28.757227 :LATITUDE  
LON         .                                        -94.885733 :LONGITUDE 
ELEV        .FT                                              88 :ELEVATION VALUE
ELEV_TYPE   .                                                KB :ELEVATION REFERENCE TYPE
~Curve Information Section
#MNEM       .UNIT                                      API CODE :CURVE DESCRIPTION
#------------------------------------------------------------------------------
DEPT        .FT                                                 :DEPTH     
ASFL        .OHMM                                               :          
CALI        .IN                                                 :          
CILD        .MMHO                                               :          
GR          .GAPI                                               :          
GR_1        .GAPI                                               :          
GR_NORM     .GAPI                                               :GammaRay Normalized
ILD         .OHMM                                               :          
ILM         .OHMM                                               :          
NPHI        .%                                                  :          
RFOC        .OHMM                                               :          
RHOB        .G/C3                                               :          
SP          .MV                                                 :          
SP_NORM     .MV                                                 :SP Normalized
VSH_GR      .V/V                                                :Volume of Shale from GR
VSH_SP      .V/V                                                :Volume of Shale from SP
~A        DEPTH           ASFL           CALI           CILD             GR           GR_1        GR_NORM            ILD            ILM           NPHI           RFOC           RHOB             SP        SP_NORM         VSH_GR         VSH_SP
# ...
      6952.0000         0.8836        10.1682       1484.496        77.3916        77.7175       78.87855         0.6819         0.7046        33.9446         0.9147         2.3991       -53.8951      -6.241646      0.9761393      0.9108337
      6952.5000         0.8782        10.1883       1528.004        76.1669        77.0116       77.27162         0.6774         0.7034        33.0864         0.9437         2.3951       -52.1537      -4.498718      0.9419494      0.9357326
      6953.0000         0.8726        10.2102       1575.387         74.942        74.5269       75.66444         0.6644         0.6951        32.3193          0.951         2.3846       -50.9609       -3.30439      0.9077539      0.9527944
      6953.5000          0.867        10.2324       1628.488        73.5276         72.587       73.80853         0.6442         0.6751        32.0271         0.9375         2.3728       -53.2109       -5.55286      0.8682666      0.9206734
      6954.0000         0.8614        10.2335       1687.305        72.0052        72.1086       71.81087         0.6214          0.651        33.1835         0.9098         2.3604       -55.1324      -7.472832      0.8257633      0.8932453
      6954.5000         0.8651        10.2092       1771.607        70.9937        71.1005       70.48377          0.591         0.6251         33.925         0.8793         2.3448       -55.0383      -7.377205      0.7975271      0.8946114
      6955.0000           0.87        10.1342       1865.891        70.3676        69.9465       69.66251         0.5597         0.6002        33.7261         0.8469         2.3283       -56.5104      -8.847775      0.7800535      0.8736032
      6955.5000          0.875        10.0329       1962.014         69.741        68.8429       68.84059         0.5282         0.5758        33.6227         0.8157          2.311       -60.7869      -13.12275      0.7625658      0.8125322
      6956.0000         0.8799         9.9491        2061.82        67.3043        68.4927       65.64292         0.4952         0.5486        33.8393         0.7979         2.2844       -65.0908      -17.42511      0.6945302      0.7510698
      6956.5000         0.8848         9.8795       2311.238        63.2035        70.7112       60.26111         0.4628         0.5165        34.2668         0.7984          2.242       -67.4261      -19.75889      0.5800236      0.7177301
      6957.0000         0.8897         9.8161       2544.766        59.7721        66.8881        55.7579         0.4299         0.4854        34.2244         0.8164          2.199       -72.2526      -24.58386      0.4842106       0.648802
      6957.5000         0.8861         9.7565       2650.871        55.3886        60.8966       50.00504         0.4002         0.4563        33.2361         0.8594         2.1611       -82.7992      -35.12893      0.3618094      0.4981581
      6958.0000         0.8702         9.7133       2716.324         52.691         52.168       46.46494          0.377         0.4306        31.9049         0.9211         2.1393       -92.7029      -45.03111      0.2864881      0.3566985
      6958.5000         0.8505         9.6752       2746.559        50.4745        49.4158       43.55628         0.3617         0.4119         30.567         0.9714         2.1412       -96.8839      -49.21058      0.2246017      0.2969917
      6959.0000         0.8328         9.6532       2774.223        53.4175        51.6608       47.41946         0.3565         0.4006        30.1856         0.9891          2.174       -94.2699      -46.59504      0.3067969      0.3343565
      6959.5000          0.823         9.6379       2796.656        55.6043        55.1863       50.29014         0.3566         0.3951        30.9528         0.9353         2.2102        -90.001      -42.32462      0.3678753      0.3953626
      6960.0000         0.8131         9.6429       2819.063        57.7911        58.0816        53.1608         0.3574         0.3914        31.7899         0.8553         2.2366       -84.9436      -37.26569      0.4289532      0.4676329
      6960.5000         0.8084         9.6556       2841.496        59.7758          59.98       55.76621         0.3551         0.3863        32.4855          0.805         2.2518       -82.7163      -35.03686      0.4843875      0.4994734
      6961.0000         0.8052         9.6604       2863.926        61.0986        61.1313       57.50288          0.351         0.3796        33.1278         0.7978         2.2496       -81.1888      -33.50783      0.5213379      0.5213168
      6961.5000         0.8031         9.6614       2950.289         60.987        62.0523        57.3569         0.3407         0.3671         33.737         0.8057         2.2341       -81.7344       -34.0519       0.518232      0.5135443
      6962.0000         0.8036         9.6555       3041.082        59.6234        61.8734       55.56768         0.3292         0.3515        34.0247         0.8028         2.2082       -85.8627      -38.17868      0.4801634      0.4545903
      6962.5000          0.804         9.6425       3131.977        58.3242        60.0453       53.86297         0.3166         0.3364        33.9138         0.7956         2.1847        -92.261      -44.57545       0.443893      0.3632079
      6963.0000         0.8039         9.6294       3231.008        57.0237        57.4137       52.15656         0.3024         0.3222        33.3384         0.7934         2.1664       -98.4584      -50.77131      0.4075865      0.2746955
      6963.5000         0.8021         9.6224       3736.434        55.7245        54.3225       50.45185         0.2879         0.3082        32.6683         0.8183         2.1498      -104.6759      -56.98729       0.371316      0.1858959
      6964.0000         0.8003         9.6192       3840.016        54.4241        50.8873       48.74557         0.2729         0.2953        32.0629          0.849         2.1373      -109.3314      -61.64126      0.3350121      0.1194106
      6964.5000         0.7921         9.5988       3860.223        53.1249         48.439       47.04087         0.2638         0.2834        31.7507          0.876         2.1294      -112.3523      -64.66063      0.2987419     0.07627673
      6965.0000         0.7839         9.5558       3863.516        52.1183        47.3611        45.7202         0.2582         0.2757        31.5721         0.8665         2.1271      -113.7372        -66.044      0.2706425      0.0565143
      6965.5000          0.778         9.5622       3844.402        51.1451        48.1176       44.44337         0.2563         0.2706        31.4815         0.8047         2.1314      -112.5782      -64.88348      0.2434761      0.0730932
      6966.0000         0.7824         9.5634       3825.289         50.172        49.9532       43.16667         0.2552         0.2688        31.5397         0.7402         2.1384      -110.1224      -62.42614      0.2163122      0.1081979
      6966.5000         0.7868         9.5605       3806.199        49.1989        51.3745       41.88996         0.2562         0.2683        31.7699          0.701         2.1462      -108.0031      -60.30531      0.1891481      0.1384955
      6967.0000         0.7912         9.5595       3787.086        48.3416        50.5471       40.76526         0.2573          0.268        32.0751         0.7003         2.1526      -106.6495      -58.95018      0.1652184      0.1578545
      6967.5000         0.7952         9.5605        3766.52          47.64        49.0881        39.8449         0.2582         0.2688        31.9089         0.7363         2.1474      -106.3391      -58.63826      0.1456362      0.1623105
      6968.0000         0.7963         9.5626       3735.223        47.1686        47.6945       39.22669         0.2589         0.2696        31.7206         0.7827         2.1413       -108.317      -60.61463      0.1324827      0.1340767
      6968.5000         0.7975         9.5674       3720.539        46.8453        46.9336       38.80285         0.2596         0.2683        31.5388         0.8076         2.1353      -110.8833       -63.1794      0.1234649     0.09743712
