#------------------------------------------------------------------------------
# Created by    : vladimir.rabinovich
# Created on    : 09/19/2023 17:19:55
#------------------------------------------------------------------------------
~Version Information Section
VERS.           2.0     :   CWLS log ASCII Standard - VERSION 2.0
WRAP.           NO      :   One line per depth step
~Well Information Section
#MNEM       .UNIT                                         VALUE :DESCRIPTION
#------------------------------------------------------------------------------
STRT        .FT                                            1601 :START DEPTH
STOP        .FT                                            6340 :STOP DEPTH
STEP        .FT                                             0.5 :STEP      
NULL        .                                           -999.25 :NULL      
COMP        .                 FAIRWAYS OFFSHORE EXPLORATION INC :COMPANY   
WELL        .                                ST TR 00629-L SE/4 :WELL      
FLD         .                                       BLOCK 630-L :FIELD     
LOC         .                                                   :LOCATION  
CNTY        .                      MATAGORDA ISLAND LARGE BLOCK :LOCATION  
STAT        .                                             TEXAS :STATE     
CTRY        .                                     UNITED STATES :COUNTRY   
SRVC        .                                                   :SERVICE COMPANY
DATE        .                             9/13/2023 11:19:05 AM :LOG DATE  
API         .                                    42703302840100 :API NUMBER
UWI         .                                    42703302840100 :UNIQUE WELL ID
XCOORD      .                                  449566.970470722 :SURFACE X 
YCOORD      .                                  10204940.3648147 :SURFACE Y 
LAT         .                                        28.0716107 :LATITUDE  
LON         .                                       -96.6925833 :LONGITUDE 
ELEV        .FT                                              82 :ELEVATION VALUE
ELEV_TYPE   .                                                KB :ELEVATION REFERENCE TYPE
~Curve Information Section
#MNEM       .UNIT                                      API CODE :CURVE DESCRIPTION
#------------------------------------------------------------------------------
DEPT        .FT                                                 :DEPTH     
ASFL        .OHMM                                               :          
CILD        .MMHO                                               :          
GR          .GAPI                                               :          
GR_NORM     .GAPI                                               :GammaRay Normalized
ILD         .OHMM                                               :          
SP          .MV                                                 :          
SP_NORM     .MV                                                 :SP Normalized
VSH_GR      .V/V                                                :Volume of Shale from GR
VSH_SP      .V/V                                                :Volume of Shale from SP
~A        DEPTH           ASFL           CILD             GR        GR_NORM            ILD             SP        SP_NORM         VSH_GR         VSH_SP
# ...
      3827.0000         0.7959       2819.625        34.1489       31.62224         0.4011      -101.2646      -56.95322              0     0.05164027
      3827.5000         0.7918       2818.891        34.5532       32.21619         0.4027      -101.3843      -57.07292              0     0.04961149
      3828.0000         0.7882       2818.156        35.4704       33.56715         0.4029      -101.5114      -57.20002     0.01206702     0.04745729
      3828.5000         0.7939       2780.871         36.387       34.91723         0.4029        -101.64      -57.32862     0.04079218     0.04527761
      3829.0000         0.7996        2741.98        37.2748        36.2248         0.4029      -101.8158      -57.50443     0.06861269     0.04229788
      3829.5000         0.8076       2683.141         38.101       37.44145         0.4029      -102.0703      -57.75892      0.0944989     0.03798443
      3830.0000         0.8277       2625.996        38.9265       38.65705         0.4029      -102.2936      -57.98222      0.1203629      0.0341996
      3830.5000          0.851       2581.008        39.8174       39.96921         0.4029      -102.3838      -58.07242       0.148281     0.03267088
      3831.0000         0.8646        2603.02        39.8823       40.06221         0.4029      -102.3699      -58.05853      0.1502598     0.03290635
      3831.5000         0.8595       2625.027        39.6859       39.76956         0.4029      -102.3494      -58.03802      0.1440331     0.03325382
      3832.0000         0.8489       2647.023        39.5405       39.55217         0.4002      -102.2054      -57.89402      0.1394078     0.03569457
      3832.5000         0.8383       2669.035        39.7781       39.90007          0.397      -102.0614      -57.75002        0.14681      0.0381352
      3833.0000         0.8272       2702.551        40.0158       40.24813         0.3951      -101.9053      -57.59392      0.1542155     0.04078105
      3833.5000         0.8236       2730.238        40.2535       40.59618         0.3951      -101.7288      -57.41742      0.1616209     0.04377255
      3834.0000         0.8233       2744.973        39.7104        39.7918         0.3951      -101.5521      -57.24072      0.1445064     0.04676741
      3834.5000         0.8244       2729.074        38.9057       38.60133         0.3942      -101.4092      -57.09782      0.1191773     0.04918942
      3835.0000         0.8274       2627.887        38.5372       38.05466          0.393      -101.3429      -57.03152       0.107546     0.05031314
      3835.5000         0.8214       2539.434        39.4269       39.36502         0.3918      -101.2766      -56.96523       0.135426     0.05143686
      3836.0000         0.8142       2488.324        40.3166        40.6754         0.3906      -101.2103      -56.89892      0.1633065     0.05256071
      3836.5000         0.8038       2452.328        40.1357       40.40562         0.3894       -101.144      -56.83262      0.1575664     0.05368443
      3837.0000         0.7901       2429.816        39.6722       39.71873         0.3882      -101.1726      -56.86122      0.1429516     0.05319964
      3837.5000         0.7855       2407.293        39.1569        38.9554         0.3873      -101.2378      -56.92642      0.1267106     0.05209454
      3838.0000         0.7808       2390.766        38.6414       38.19176         0.3873      -101.3468      -57.03542       0.110463     0.05024706
      3838.5000         0.7762           2381        38.2006       37.53838         0.3873      -101.5898      -57.27842     0.09656135     0.04612848
      3839.0000         0.7843       2376.734        37.8321       36.99171          0.387      -101.8328      -57.52142     0.08493009     0.04200977
      3839.5000         0.7926       2381.008        38.2577       37.61712         0.3819      -102.0757      -57.76432     0.09823649     0.03789287
      3840.0000         0.8008       2405.637        38.8116       38.43185         0.3767      -102.3142      -58.00282      0.1155714     0.03385046
      3840.5000         0.8113       2444.402        39.6115       39.60969         0.3696      -102.5522      -58.24082      0.1406317     0.02981658
      3841.0000         0.8268       2498.727        40.4113       40.78737          0.362      -102.7654      -58.45403      0.1656888     0.02620296
      3841.5000         0.8424       2603.742        40.5146       40.93706         0.3544      -102.8702      -58.55882      0.1688736     0.02442674
      3842.0000         0.8608       2698.844        39.6108       39.60032         0.3476       -102.975      -58.66362      0.1404324     0.02265051
      3842.5000         0.8237       2757.586        38.4706       37.91465         0.3443      -102.9926      -58.68122      0.1045671     0.02235219
      3843.0000         0.7935       2818.141        37.8275       36.96268         0.3411      -102.9315      -58.62012     0.08431236     0.02338772
      3843.5000          0.786       2862.969        37.4676       36.42871         0.3378      -102.8602      -58.54882     0.07295129     0.02459626
      3844.0000         0.7845       2900.512        37.5364       36.52748         0.3375      -102.5638      -58.25242     0.07505271     0.02962003
      3844.5000         0.7891       2932.211        37.9399       37.12024         0.3394      -102.2677      -57.95632     0.08766458     0.03463861
      3845.0000         0.7912       2951.645        38.3436        37.7133         0.3412      -101.9863      -57.67492       0.100283     0.03940815
      3845.5000         0.7899       2939.988        38.7468       38.30562         0.3431      -101.7825      -57.47112      0.1128855     0.04286233
      3846.0000         0.7875       2910.547        39.1505       38.89869         0.3446      -101.3905      -57.07912       0.125504     0.04950637
      3846.5000         0.7781       2879.828        40.3374       40.64771         0.3455      -101.2465      -56.93512      0.1627171     0.05194712
      3847.0000         0.7698       2840.176        41.5815       42.48115         0.3464      -101.2052      -56.89382      0.2017265     0.05264709
      3847.5000         0.7627         2800.5        41.8033       42.80573         0.3473      -101.2072      -56.89582      0.2086326     0.05261321
      3848.0000         0.7555       2741.441          40.77       41.27786         0.3482      -101.2649      -56.95352      0.1761246     0.05163522
      3848.5000         0.7482       2678.285        39.6023       39.55161         0.3472      -101.5149      -57.20352      0.1393959     0.04739794
      3849.0000         0.7405       2619.359         39.335        39.1543         0.3462      -101.8481      -57.53672      0.1309426     0.04175051
      3849.5000         0.7327       2593.043        39.7636       39.78412         0.3452      -102.5389      -58.22752       0.144343     0.03004197
      3850.0000          0.725       2580.078        40.5525       40.94571         0.3442      -103.4048      -59.09342      0.1690577     0.01536573
      3850.5000         0.6513       2600.051        41.5155       42.36426         0.3428      -104.2664      -59.95502      0.1992396   0.0007622929
      3851.0000         0.6276       2620.035        42.4131        43.6863         0.3414      -105.0846      -60.77322      0.2273681              0
      3851.5000         0.6173       2640.008        43.3107       45.00834           0.34      -105.1023      -60.79092      0.2554967              0
      3852.0000         0.6165       2664.004        44.4241       46.64889         0.3387      -104.7656      -60.45422      0.2904019              0
      3852.5000         0.6168       3066.207        45.6907       48.51554         0.3383      -104.4292      -60.11782       0.330118              0
      3853.0000         0.6286       3132.551        47.3491       50.96048          0.338      -103.9233      -59.61192      0.3821379    0.006577573
