#------------------------------------------------------------------------------
# Created by    : vladimir.rabinovich
# Created on    : 09/19/2023 17:19:47
#------------------------------------------------------------------------------
~Version Information Section
VERS.           2.0     :   CWLS log ASCII Standard - VERSION 2.0
WRAP.           NO      :   One line per depth step
~Well Information Section
#MNEM       .UNIT                                         VALUE :DESCRIPTION
#------------------------------------------------------------------------------
STRT        .FT                                             380 :START DEPTH
STOP        .FT                                            8002 :STOP DEPTH
STEP        .FT                                             0.5 :STEP      
NULL        .                                           -999.25 :NULL      
COMP        .                               AMOCO PRODUCTION CO :COMPANY   
WELL        .                               OCS G07253 ST00BP00 :WELL      
FLD         .                                           WILDCAT :FIELD     
LOC         .                                                   :LOCATION  
CNTY        .                             GALVESTON LARGE BLOCK :LOCATION  
STAT        .                                             TEXAS :STATE     
CTRY        .                                     UNITED STATES :COUNTRY   
SRVC        .                                                   :SERVICE COMPANY
DATE        .                             9/13/2023 11:19:27 AM :LOG DATE  
API         .                                    42706401230000 :API NUMBER
UWI         .                                    42706401230000 :UNIQUE WELL ID
XCOORD      .                                  925879.569593371 :SURFACE X 
YCOORD      .                                  10358786.1357032 :SURFACE Y 
LAT         .                                         28.526408 :LATITUDE  
LON         .                                        -95.225632 :LONGITUDE 
ELEV        .FT                                             100 :ELEVATION VALUE
ELEV_TYPE   .                                                KB :ELEVATION REFERENCE TYPE
~Curve Information Section
#MNEM       .UNIT                                      API CODE :CURVE DESCRIPTION
#------------------------------------------------------------------------------
DEPT        .FT                                                 :DEPTH     
ASFL        .OHMM                                               :          
CILD        .MMHO                                               :          
GR          .GAPI                                               :          
GR_NORM     .GAPI                                               :GammaRay Normalized
ILD         .OHMM                                               :          
SP          .MV                                                 :          
SP_NORM     .MV                                                 :SP Normalized
VSH_GR      .V/V                                                :Volume of Shale from GR
VSH_SP      .V/V                                                :Volume of Shale from SP
~A        DEPTH           ASFL           CILD             GR        GR_NORM            ILD             SP        SP_NORM         VSH_GR         VSH_SP
# ...
      5468.0000         0.8379       1107.115         54.149       59.70832         0.8783       -46.2917      -8.196461      0.5682622      0.8488668
      5468.5000         0.8664       1083.656        52.1964       56.69727          0.891        -47.489      -9.393761      0.5041973      0.8196644
      5469.0000         0.8949       1060.172        50.2438       53.68623         0.9124        -48.675      -10.57976      0.4401326      0.7907375
      5469.5000         0.9235       1049.682        48.2911       50.67503         0.9338       -49.8611      -11.76586      0.3760644      0.7618083
      5470.0000          0.952       1044.949        46.1138       47.31746         0.9552       -51.0472      -12.95196      0.3046269       0.732879
      5470.5000         0.9846       1040.215         43.849       43.82497         0.9767       -50.8527      -12.75746      0.2303185      0.7376229
      5471.0000         1.0081       1031.137        45.8167       46.85931         0.9833       -50.4338      -12.33856      0.2948789      0.7478399
      5471.5000         0.9803       1042.516        48.5259        51.0371         0.9804       -50.0146      -11.91936      0.3837681      0.7580644
      5472.0000         0.9507         1064.6        49.2756       52.19319         0.9776       -49.5958      -11.50056      0.4083657       0.768279
      5472.5000         0.9211       1085.332        48.7824       51.43264         0.9747       -49.1769      -11.08166      0.3921838      0.7784961
      5473.0000         0.9053       1097.324        48.2892       50.67209         0.9709       -48.7631      -10.66786      0.3760019      0.7885888
      5473.5000         0.8939       1109.303        47.7961       49.91169         0.9641       -48.5012      -10.40596      0.3598233      0.7949765
      5474.0000         0.9025       1121.283         47.303        49.1513         0.9572       -48.2393      -10.14406      0.3436446      0.8013644
      5474.5000         0.9095       1120.184        47.2287       49.03672         0.9504       -48.1981      -10.10286      0.3412067      0.8023692
      5475.0000         0.9084       1115.361         48.843       51.52609         0.9436       -48.4475      -10.35226      0.3941721      0.7962863
      5475.5000         0.9073       1110.541        50.9879       54.83368         0.9367       -48.6969      -10.60166      0.4645464      0.7902034
      5476.0000         0.9015       1108.592        53.1328       58.14127         0.9299       -48.9208      -10.82556      0.5349207      0.7847424
      5476.5000         0.8957       1120.645        54.8245          60.75         0.9239       -48.8484      -10.75316      0.5904256      0.7865083
      5477.0000         0.8899       1132.713        56.2578       62.96025         0.9268       -48.7759      -10.68066      0.6374521      0.7882765
      5477.5000         0.8841       1144.768        57.5231       64.91144         0.9298       -48.2668      -10.17156      0.6789668      0.8006936
      5478.0000         0.8901       1156.822        57.8886       65.47505         0.9327       -46.6974      -8.602161      0.6909586      0.8389717
      5478.5000         0.8981       1162.336        58.2856       66.08727         0.9357       -45.1281      -7.032864      0.7039844      0.8772472
      5479.0000         0.9061       1146.592        58.6842       66.70194         0.9386       -44.0693      -5.974064      0.7170626      0.9030716
      5479.5000         0.9142       1124.121        59.0831       67.31707         0.9415       -43.3646      -5.269363      0.7301504      0.9202594
      5480.0000         0.9222       1076.004        58.0918       65.78841         0.9445       -42.6592      -4.563961      0.6976258      0.9374644
      5480.5000         0.9109       1081.906         57.058       64.19421         0.9432       -42.1226      -4.027363      0.6637067      0.9505521
      5481.0000          0.895       1106.189        56.0243       62.60018         0.9326       -41.3351      -3.239861       0.629791      0.9697595
      5481.5000         0.8792       1130.475        54.9905         61.006          0.922       -41.6279      -3.532661      0.5958723       0.962618
      5482.0000         0.8633       1154.783        53.9568       59.41195         0.9115        -42.034      -3.938763      0.5619563      0.9527131
      5482.5000         0.8482       1178.518        54.8807       60.83667         0.9009       -42.4398      -4.344563      0.5922696      0.9428155
      5483.0000         0.8334       1201.676        55.9681       62.51353         0.8903       -42.8458      -4.750561      0.6279474      0.9329131
      5483.5000         0.8185       1224.834        57.1229       64.29429         0.8798       -43.2519      -5.156662      0.6658359      0.9230083
      5484.0000         0.8037       1247.969        59.4077       67.81763         0.8693       -43.7048      -5.609562      0.7408007      0.9119619
      5484.5000         0.7905        1262.85        61.1643       70.52644         0.8587        -45.213      -7.117764       0.798435      0.8751765
      5485.0000         0.8355       1232.512        59.8996       68.57618         0.8482       -46.6837      -8.588463        0.75694      0.8393058
      5485.5000          0.875       1203.102        58.6336       66.62392         0.8377       -47.9172       -9.82196      0.7154025      0.8092205
      5486.0000         0.9103       1181.693        57.4463       64.79301         0.8329       -49.1507      -11.05546      0.6764471       0.779135
      5486.5000         0.9455       1160.285        56.2752       62.98709         0.8503       -50.3879      -12.29266      0.6380232      0.7489594
      5487.0000         0.9684       1138.902         55.043       61.08694         0.8677       -51.6352      -13.53996      0.5975945      0.7185375
      5487.5000         0.9888       1117.494        53.4574       58.64183         0.8851       -52.8038      -14.70856      0.5455708      0.6900351
      5488.0000         1.0092       1096.111        51.6595       55.86934         0.9025       -53.8151      -15.71986      0.4865816      0.6653692
      5488.5000         1.0247       1080.643        49.9098       53.17117         0.9141       -54.3896      -16.29436      0.4291739      0.6513571
      5489.0000         1.0387       1066.625        51.0416       54.91648         0.9029       -54.6728      -16.57756      0.4663082      0.6444498
      5489.5000         1.0355       1100.438        52.7882       57.60988         0.8918       -54.6584      -16.56316      0.5236145      0.6448009
      5490.0000         1.0297       1123.021        54.5336       60.30142         0.8807       -54.4675      -16.37226      0.5808813       0.649457
      5490.5000         1.0217       1145.605        56.2802       62.99479         0.8696       -54.2767      -16.18146      0.6381871      0.6541107
      5491.0000         1.0136       1168.188        57.7185       65.21275         0.8585       -54.0858      -15.99056      0.6853777      0.6587667
      5491.5000         1.0056       1189.709        57.0131       64.12498         0.8474       -54.2024      -16.10716      0.6622337      0.6559229
      5492.0000         0.9976       1202.576        56.1367       62.77352           0.84       -54.4974      -16.40216      0.6334791      0.6487278
      5492.5000         0.9896       1215.455        55.1266       61.21585         0.8345       -54.7923      -16.69706      0.6003373       0.641535
      5493.0000         0.9815       1228.324        54.1154       59.65652          0.829       -55.0873      -16.99206        0.56716        0.63434
      5493.5000         0.9737       1245.467        53.1053       58.09888         0.8235       -55.3822      -17.28696      0.5340186      0.6271473
      5494.0000         0.9687       1220.959        54.5036       60.25515         0.8181       -55.7967      -17.70146      0.5798967      0.6170375
