#------------------------------------------------------------------------------
# Created by    : vladimir.rabinovich
# Created on    : 09/19/2023 17:19:47
#------------------------------------------------------------------------------
~Version Information Section
VERS.           2.0     :   CWLS log ASCII Standard - VERSION 2.0
WRAP.           NO      :   One line per depth step
~Well Information Section
#MNEM       .UNIT                                         VALUE :DESCRIPTION
#------------------------------------------------------------------------------
STRT        .FT                                             970 :START DEPTH
STOP        .FT                                            9511 :STOP DEPTH
STEP        .FT                                             0.5 :STEP      
NULL        .                                           -999.25 :NULL      
COMP        .                                SHELL OFFSHORE INC :COMPANY   
WELL        .                               OCS G06097 ST00BP00 :WELL      
FLD         .                                           WILDCAT :FIELD     
LOC         .                                                   :LOCATION  
CNTY        .                             GALVESTON LARGE BLOCK :LOCATION  
STAT        .                                             TEXAS :STATE     
CTRY        .                                     UNITED STATES :COUNTRY   
SRVC        .                                                   :SERVICE COMPANY
DATE        .                             9/13/2023 11:19:27 AM :LOG DATE  
API         .                                    42706401130000 :API NUMBER
UWI         .                                    42706401130000 :UNIQUE WELL ID
XCOORD      .                                  1026820.46089783 :SURFACE X 
YCOORD      .                                  10482391.3243497 :SURFACE Y 
LAT         .                                         28.871086 :LATITUDE  
LON         .                                        -94.917566 :LONGITUDE 
ELEV        .FT                                             107 :ELEVATION VALUE
ELEV_TYPE   .                                                KB :ELEVATION REFERENCE TYPE
~Curve Information Section
#MNEM       .UNIT                                      API CODE :CURVE DESCRIPTION
#------------------------------------------------------------------------------
DEPT        .FT                                                 :DEPTH     
ASFL        .OHMM                                               :          
CALI        .IN                                                 :          
CILD        .MMHO                                               :          
DT          .US/F                                               :          
GR          .GAPI                                               :          
GR_NORM     .GAPI                                               :GammaRay Normalized
ILD         .OHMM                                               :          
ILM         .OHMM                                               :          
RHOB        .G/C3                                               :          
SP          .MV                                                 :          
SP_NORM     .MV                                                 :SP Normalized
VSH_GR      .V/V                                                :Volume of Shale from GR
VSH_SP      .V/V                                                :Volume of Shale from SP
~A        DEPTH           ASFL           CALI           CILD             DT             GR        GR_NORM            ILD            ILM           RHOB             SP        SP_NORM         VSH_GR         VSH_SP
# ...
      8361.0000         1.1737         7.0666       954.5781        98.4558        73.3411       67.99457         1.0404         1.0639         2.3689       -44.6136      -5.092644      0.7445652      0.9272479
      8361.5000         1.1554          6.931       959.9219        99.4772        74.3019       69.46484         1.0389         1.0673         2.3722         -44.34      -4.819042      0.7758477      0.9311565
      8362.0000         1.1387           6.81       965.2715       101.4985          75.21        70.8513         1.0381          1.067         2.3707       -43.8976       -4.37664      0.8053468      0.9374766
      8362.5000         1.1235         6.8193       970.6152       102.7344        76.0286       72.09546         1.0373         1.0615         2.3662       -43.4552      -3.934242      0.8318183      0.9437965
      8363.0000         1.1083         6.8838        984.207       103.0579        76.6873       73.08531         1.0364         1.0411         2.3687       -43.0606      -3.539642       0.852879      0.9494337
      8363.5000          1.093         6.9724       1006.027       102.2599        77.2871       73.98152         1.0316         1.0208         2.3716       -42.7181      -3.197144      0.8719473      0.9543265
      8364.0000         1.0757         7.0686       1036.863       101.2505        77.8558       74.82826         1.0242         1.0015         2.3755       -42.3749      -2.853943       0.889963      0.9592294
      8364.5000         1.0584         7.1424       1053.322       100.8795        78.4214       75.67009         1.0169         0.9855          2.376       -42.1231      -2.602142      0.9078742      0.9628266
      8365.0000         1.0434         7.1014       1062.574       100.8318        78.9833       76.50602         1.0095         0.9776         2.3749       -41.8896      -2.368641        0.92566      0.9661623
      8365.5000         1.0508         7.0025       1070.104       101.0652        79.4667       77.21711         1.0048         0.9751         2.3785       -41.7648      -2.243843      0.9407896      0.9679451
      8366.0000         1.0634         6.9095       1077.521       101.1276        79.9496       77.92744         1.0001         0.9824         2.3948       -41.6666      -2.145641      0.9559029       0.969348
      8366.5000          1.086          6.906       1070.463       100.8392        80.4385       78.64728         0.9994         0.9931         2.4166        -41.643      -2.122044      0.9712187      0.9696851
      8367.0000          1.111         6.9356       1062.857        99.9227        80.9484       79.40054         1.0018         1.0041         2.4426       -41.7461      -2.225143      0.9872454      0.9682122
      8367.5000         1.1325         6.9482       1053.805        98.4728        81.4575       80.15249         1.0041         1.0107          2.473       -41.8492      -2.328243              1      0.9667394
      8368.0000         1.1491         6.9206       1043.365        97.4697        81.7437       80.55001         1.0065         1.0125         2.4929       -41.9301      -2.409142              1      0.9655837
      8368.5000         1.1601         6.8851       1037.613        96.9323        77.3141       73.44846         0.9987         1.0106         2.4848       -42.0032      -2.482243      0.8606054      0.9645394
      8369.0000         1.1676          6.879       1035.463        98.8906        73.5101       67.34171         0.9903         1.0069         2.4443        -42.094      -2.573044      0.7306746      0.9632422
      8369.5000         1.1762         6.8812        1034.84       100.5596        73.4648       67.21207         0.9818         1.0035         2.4233       -42.3375      -2.816544      0.7279163      0.9597636
      8370.0000         1.1889         6.8712       1036.449       102.3217        74.2664       68.42918         0.9722         1.0002         2.3988       -42.7236      -3.202641      0.7538124       0.954248
      8370.5000         1.2025         6.8745        1039.27       103.1901         75.069       69.64787         0.9599         0.9979         2.3902       -43.5263      -4.005341       0.779742      0.9427809
      8371.0000         1.2176         6.8992       1049.223       100.8113        75.8705       70.86481         0.9476         0.9967         2.4053         -47.22      -7.699043      0.8056344      0.8900137
      8371.5000         1.2328         6.9487        1079.59        99.0065        76.6732       72.08366         0.9353         0.9976         2.4253       -50.2531      -10.73214      0.8315673      0.8466837
      8372.0000         1.2282         7.0093       1094.549        98.2869        77.2094       72.87874          0.923         0.9964         2.4331       -49.0901      -9.569141      0.8484838       0.863298
      8372.5000         1.1898         7.0494       1108.668        98.2211        77.7197       73.63263         0.9107         0.9933         2.4287       -47.6807       -8.15974       0.864524      0.8834323
      8373.0000         1.1545         7.0613       1144.086        98.7346        78.2209       74.37203         0.8995         0.9818         2.4089       -46.7126      -7.191643       0.880256      0.8972623
      8373.5000         1.1163         7.0381       1170.836        100.849        78.5856       74.89438         0.8889         0.9527         2.4042       -46.1723       -6.65134      0.8913698      0.9049808
      8374.0000         1.0729          7.128       1189.461       103.1195        78.9502       75.41657         0.8783         0.9261         2.4013       -46.0816      -6.560642      0.9024802      0.9062765
      8374.5000         1.0279         7.2508       1207.617       103.9867        79.3153       75.93954         0.8677         0.9006         2.3952       -45.9909       -6.46994      0.9136074      0.9075723
      8375.0000         1.0115         7.3321       1234.143       105.0188         79.702       76.49687         0.8571         0.8811         2.3866       -45.8159      -6.294941      0.9254653      0.9100723
      8375.5000         0.9967         7.3973       1258.242       105.2982        80.1016       77.07473         0.8479          0.866         2.3843        -45.621       -6.10004      0.9377602      0.9128566
      8376.0000         0.9839         7.4359       1271.939       104.9747        80.5017       77.65337         0.8438          0.855         2.3932       -45.4261      -5.905144      0.9500718      0.9156408
      8376.5000          0.971         7.4931       1275.029       104.7198        80.8662        78.1754         0.8396         0.8455         2.4028       -45.2316      -5.710644      0.9611787      0.9184194
      8377.0000         0.9664         7.5484       1271.828       104.8961        81.2026       78.65273         0.8355         0.8489         2.4089       -45.0223      -5.501343      0.9713348      0.9214094
      8377.5000         0.9617         7.5984       1268.633       105.4624        81.5397       79.13121         0.8364         0.8498         2.4076        -44.787      -5.266041      0.9815151      0.9247708
      8378.0000         0.9607         7.6606       1263.723       105.8979        81.8761       79.60853         0.8406         0.8446         2.3821        -44.552       -5.03104      0.9916708       0.928128
      8378.5000         0.9765         7.7095       1257.395       105.7887        82.1135       79.92844         0.8449         0.8422         2.3546       -44.3167      -4.795742      0.9984775      0.9314894
      8379.0000         0.9922         7.7388       1250.094       107.2175        82.3083        80.1806         0.8491         0.8439         2.3462       -44.0698      -4.548843              1      0.9350165
      8379.5000         1.0161         7.6594        1235.01        108.821        82.1154       79.81627         0.8534         0.8457         2.3497       -43.8106      -4.289642      0.9960908      0.9387194
