#------------------------------------------------------------------------------
# Created by    : vladimir.rabinovich
# Created on    : 09/19/2023 17:22:39
#------------------------------------------------------------------------------
~Version Information Section
VERS.           2.0     :   CWLS log ASCII Standard - VERSION 2.0
WRAP.           NO      :   One line per depth step
~Well Information Section
#MNEM       .UNIT                                         VALUE :DESCRIPTION
#------------------------------------------------------------------------------
STRT        .FT                                            3496 :START DEPTH
STOP        .FT                                          7091.5 :STOP DEPTH
STEP        .FT                                             0.5 :STEP      
NULL        .                                           -999.25 :NULL      
COMP        .                          SEAGULL ENERGY E & P INC :COMPANY   
WELL        .                               OCS G07251 ST00BP00 :WELL      
FLD         .                              GALVESTON BLOCK 0349 :FIELD     
LOC         .                                                   :LOCATION  
CNTY        .                             GALVESTON LARGE BLOCK :LOCATION  
STAT        .                                             TEXAS :STATE     
CTRY        .                                     UNITED STATES :COUNTRY   
SRVC        .                                                   :SERVICE COMPANY
DATE        .                             9/13/2023 11:19:36 AM :LOG DATE  
API         .                                    42706402300000 :API NUMBER
UWI         .                                    42706402300000 :UNIQUE WELL ID
XCOORD      .                                  1015542.86720011 :SURFACE X 
YCOORD      .                                  10434819.2372955 :SURFACE Y 
LAT         .                                         28.739771 :LATITUDE  
LON         .                                        -94.950355 :LONGITUDE 
ELEV        .FT                                              93 :ELEVATION VALUE
ELEV_TYPE   .                                                KB :ELEVATION REFERENCE TYPE
~Curve Information Section
#MNEM       .UNIT                                      API CODE :CURVE DESCRIPTION
#------------------------------------------------------------------------------
DEPT        .FT                                                 :DEPTH     
DCAL        .IN                                                 :          
DPHI        .%                                                  :          
DRHO        .G/C3                                               :          
GR          .GAPI                                               :          
GR_NORM     .GAPI                                               :GammaRay Normalized
ILD         .OHMM                                               :          
ILM         .OHMM                                               :          
NPHI        .%                                                  :          
SGRD        .OHMM                                               :          
SP          .MV                                                 :          
SP_NORM     .MV                                                 :SP Normalized
VSH_GR      .V/V                                                :Volume of Shale from GR
VSH_SP      .V/V                                                :Volume of Shale from SP
~A        DEPTH           DCAL           DPHI           DRHO             GR        GR_NORM            ILD            ILM           NPHI           SGRD             SP        SP_NORM         VSH_GR         VSH_SP
# ...
      3990.0000         0.2516        30.2877        -0.0067        86.3826       89.55429          0.663         0.6885        47.7812         0.7872       -47.2006      -3.369919              1      0.9481551
      3990.5000         0.2699        30.2425        -0.0072        87.4723       91.02042         0.6586         0.6821        47.8306         0.7796       -47.3992      -3.574493              1      0.9450078
      3991.0000         0.2804        30.1842        -0.0072        88.7352       92.71931          0.651         0.6724         47.888         0.7824       -47.5267      -3.707962              1      0.9429544
      3991.5000         0.2865        30.1833        -0.0065        89.8481       94.21662         0.6475         0.6671        47.9781          0.791       -47.6133      -3.800537              1      0.9415302
      3992.0000         0.3006        30.1956        -0.0052        88.4763       92.37512          0.655         0.6685        48.0742         0.7936       -47.7012      -3.894405              1      0.9400861
      3992.5000         0.3248        30.0959        -0.0033        86.3795        89.5594         0.6681         0.6736        48.0753         0.7913       -47.8163      -4.015476              1      0.9382234
      3993.0000         0.3261        30.5007        -0.0013        85.2698        88.0701         0.6837         0.6868        47.9423         0.7878       -48.1021      -4.307251              1      0.9337346
      3993.5000         0.3252        30.4503        -0.0004        80.3368       81.44324         0.7018         0.7189        47.4987         0.7889       -48.8058      -5.016922              1      0.9228166
      3994.0000         0.3279        30.0671         0.0003        78.6741       79.21085         0.7251         0.7485        46.9755          0.795       -49.8185      -6.035595      0.9832095      0.9071447
      3994.5000         0.3367        29.4807         0.0003        76.0881       75.73775          0.742         0.7706        46.2987         0.8208       -50.8181      -7.041164      0.9093139      0.8916744
      3995.0000          0.348         28.826        -0.0012        71.7744       69.94308         0.7489         0.7851        45.2847         0.8787       -51.9781      -8.207138      0.7860229      0.8737363
      3995.5000         0.3536         28.527        -0.0053        67.7822       64.58042         0.7523         0.7966        44.3141         0.9354       -53.1915       -9.42651      0.6719239      0.8549768
      3996.0000         0.3557        28.5861        -0.0151        66.8192       63.28824         0.7486         0.7826        44.1977          0.985       -53.9448      -10.18578      0.6444306      0.8432957
      3996.5000         0.3587        29.4555        -0.0277        67.3431       63.99408         0.7444         0.7534        44.2652         0.9903       -52.2313      -8.478252      0.6594485      0.8695654
      3997.0000         0.3549         29.644        -0.0364        71.3141       69.33196         0.7384         0.7283        44.9572         0.9245       -50.0329      -6.285824      0.7730205       0.903295
      3997.5000         0.3511        29.4204        -0.0385        76.1932       75.89011         0.7317         0.7072        46.1996         0.8494       -48.5595      -4.818398      0.9125555      0.9258708
      3998.0000         0.3562        29.0227        -0.0351        82.2084       83.97488         0.7172         0.6975        47.8153         0.7935       -47.6574      -3.922264              1      0.9396574
      3998.5000          0.362        28.4978        -0.0284        85.4512       88.33427         0.6926         0.6956        48.6232         0.7852       -47.2999      -3.570736              1      0.9450656
      3999.0000         0.3671        28.3076        -0.0177        86.2899       89.46311         0.6668         0.6946        49.1937         0.7867       -47.3643      -3.641109              1       0.943983
      3999.5000         0.3778        28.4937        -0.0065        85.7665       88.76167         0.6491         0.6951        49.5098         0.7871       -47.6149      -3.897678              1      0.9400357
      4000.0000         0.3881        28.6699         0.0032        84.5516       87.13098          0.643         0.6986        49.5192         0.7916       -47.7134      -4.002155              1      0.9384284
      4000.5000         0.3901        28.3935         0.0088         82.894       84.90544         0.6422         0.6959        49.3542         0.7967       -47.4891      -3.783825              1      0.9417873
      4001.0000          0.387        28.0547         0.0067        80.4275       81.59293         0.6435         0.6906         49.091         0.7965       -47.0931      -3.393799              1      0.9477877
      4001.5000         0.3912         28.145         0.0054        79.7916        80.7403         0.6527         0.6946        48.8929         0.7962       -46.6851      -2.991768              1      0.9539728
      4002.0000         0.4025        28.5598         0.0037         80.338       81.47638         0.6693         0.7026        48.8641          0.792       -46.5923      -2.904938              1      0.9553087
      4002.5000         0.4029        28.6303         0.0019        78.0674       78.42712         0.6937         0.7158        48.8749         0.7845       -46.5591      -2.877712      0.9665344      0.9557275
      4003.0000         0.4207        28.6193        -0.0009        77.0671       77.08482         0.7161          0.734        48.8599         0.7838       -46.9918       -3.31638       0.937975      0.9489788
      4003.5000         0.4508        28.6322        -0.0037        75.8943       75.51074         0.7405         0.7651        48.7289         0.8092       -47.6314      -3.961956      0.9044839      0.9390469
      4004.0000         0.4726        28.1183        -0.0067        74.7527       73.97856         0.7671         0.7966          47.97         0.8607       -48.3734      -4.709927      0.8718843      0.9275396
      4004.5000         0.4732        27.1137        -0.0098         74.593       73.76581         0.7865         0.8183        46.3918         0.9293       -48.9756      -5.318096      0.8673576      0.9181831
      4005.0000         0.4799        26.3234        -0.0133        75.0298       74.35461         0.8005         0.8349        45.4965         0.9918       -49.1887       -5.53717      0.8798854      0.9148127
      4005.5000         0.4815         25.561        -0.0171        76.0922       75.78407         0.8053         0.8442        45.0648         1.0128       -48.7557      -5.110138      0.9102994      0.9213825
      4006.0000         0.4808        25.2067        -0.0208        76.0164       75.68407         0.8074         0.8464        44.8015         1.0049       -47.9303      -4.290714      0.9081717       0.933989
      4006.5000         0.4882        25.3543         -0.022         75.877       75.49861         0.8086         0.8392        44.9677         0.9565       -47.0539      -3.420284      0.9042258      0.9473802
      4007.0000         0.4822        25.4422        -0.0221        75.9127       75.54843         0.8036         0.8272         45.655         0.9056       -46.5756      -2.947956      0.9052858      0.9546468
      4007.5000         0.4719        25.3254        -0.0192        76.1403       75.85612         0.7908         0.8131        46.5721         0.8896       -46.2967      -2.675026      0.9118325      0.9588457
      4008.0000         0.4672        25.2329        -0.0134        76.0231       75.70049         0.7689         0.7898        47.4052          0.903       -46.0898      -2.474098      0.9085211       0.961937
      4008.5000          0.465        25.3209        -0.0061        75.6971       75.26429         0.7435         0.7655        48.1582         0.8929       -46.0882       -2.47847      0.8992402      0.9618697
