#------------------------------------------------------------------------------
# Created by    : vladimir.rabinovich
# Created on    : 09/19/2023 17:19:40
#------------------------------------------------------------------------------
~Version Information Section
VERS.           2.0     :   CWLS log ASCII Standard - VERSION 2.0
WRAP.           NO      :   One line per depth step
~Well Information Section
#MNEM       .UNIT                                         VALUE :DESCRIPTION
#------------------------------------------------------------------------------
STRT        .FT                                             305 :START DEPTH
STOP        .FT                                          9892.5 :STOP DEPTH
STEP        .FT                                             0.5 :STEP      
NULL        .                                           -999.25 :NULL      
COMP        .                         ATLANTIC RICHFIELD CO THE :COMPANY   
WELL        .                               OCS G07247 ST00BP00 :WELL      
FLD         .                                           WILDCAT :FIELD     
LOC         .                                                   :LOCATION  
CNTY        .                             GALVESTON LARGE BLOCK :LOCATION  
STAT        .                                             TEXAS :STATE     
CTRY        .                                     UNITED STATES :COUNTRY   
SRVC        .                                                   :SERVICE COMPANY
DATE        .                             9/13/2023 11:19:27 AM :LOG DATE  
API         .                                    42706401220000 :API NUMBER
UWI         .                                    42706401220000 :UNIQUE WELL ID
XCOORD      .                                  995038.545578968 :SURFACE X 
YCOORD      .                                  10445559.0196594 :SURFACE Y 
LAT         .                                         28.768363 :LATITUDE  
LON         .                                        -95.014888 :LONGITUDE 
ELEV        .FT                                              98 :ELEVATION VALUE
ELEV_TYPE   .                                                KB :ELEVATION REFERENCE TYPE
~Curve Information Section
#MNEM       .UNIT                                      API CODE :CURVE DESCRIPTION
#------------------------------------------------------------------------------
DEPT        .FT                                                 :DEPTH     
ALL         .OHMM                                               :          
CILD        .MMHO                                               :          
GR          .GAPI                                               :          
GR_NORM     .GAPI                                               :GammaRay Normalized
ILD         .OHMM                                               :          
SP          .MV                                                 :          
VSH_GR      .V/V                                                :Volume of Shale from GR
~A        DEPTH            ALL           CILD             GR        GR_NORM            ILD             SP         VSH_GR
# ...
       372.0000        -999.25        -999.25        40.6915       70.31164        -999.25        -999.25      0.7938646
       372.5000        -999.25        -999.25        39.8441       69.00574        -999.25        -999.25      0.7660795
       373.0000        -999.25        -999.25        38.9968       67.69997        -999.25        -999.25      0.7382972
       373.5000        -999.25        -999.25        38.1494       66.39405        -999.25        -999.25      0.7105117
       374.0000        -999.25        -999.25         37.302       65.08814        -999.25        -999.25      0.6827264
       374.5000        -999.25        -999.25         36.457       63.78593        -999.25        -999.25      0.6550198
       375.0000        -999.25        -999.25        35.6706       62.57402        -999.25        -999.25      0.6292344
       375.5000        -999.25        -999.25        34.8842       61.36211        -999.25        -999.25      0.6034492
       376.0000        -999.25        -999.25        34.0978        60.1502        -999.25        -999.25      0.5776639
       376.5000        -999.25        -999.25        33.3115       58.93844        -999.25        -999.25      0.5518817
       377.0000        -999.25        -999.25        32.4427       57.59955        -999.25        -999.25      0.5233946
       377.5000        -999.25        -999.25        31.5072       56.15787        -999.25        -999.25      0.4927207
       378.0000        -999.25        -999.25        30.5601       54.69831        -999.25        -999.25      0.4616663
       378.5000        -999.25        -999.25        29.5478       53.13826        -999.25        -999.25      0.4284735
       379.0000        -999.25        -999.25        28.5841       51.65313        -999.25        -999.25       0.396875
       379.5000        -999.25        -999.25        27.7271       50.33241        -999.25        -999.25      0.3687747
       380.0000        -999.25        -999.25        27.0448       49.28094        -999.25        -999.25      0.3464029
       380.5000        -999.25        -999.25        26.4606       48.38063        -999.25        -999.25      0.3272475
       381.0000        -999.25        -999.25        25.8765       47.48048        -999.25        -999.25      0.3080953
       381.5000        -999.25        -999.25        25.6554       47.13975        -999.25        -999.25      0.3008458
       382.0000        -999.25        -999.25        25.4418       46.81057        -999.25        -999.25       0.293842
       382.5000        -999.25        -999.25        25.2281       46.48125        -999.25        -999.25       0.286835
       383.0000        -999.25        -999.25        25.0145       46.15207        -999.25        -999.25      0.2798313
       383.5000        -999.25        -999.25        24.8009       45.82289        -999.25        -999.25      0.2728275
       384.0000        -999.25        -999.25        24.5873       45.49372        -999.25        -999.25      0.2658238
       384.5000        -999.25        -999.25        24.5701       45.46721        -999.25        -999.25      0.2652597
       385.0000        -999.25        -999.25        24.5737       45.47276        -999.25        -999.25      0.2653778
       385.5000        -999.25        -999.25        24.5774       45.47846        -999.25        -999.25      0.2654992
       386.0000        -999.25        -999.25        24.5811       45.48417        -999.25        -999.25      0.2656205
       386.5000        -999.25        -999.25        24.5847       45.48971        -999.25        -999.25      0.2657385
       387.0000        -999.25        -999.25        24.8113       45.83892        -999.25        -999.25      0.2731685
       387.5000        -999.25        -999.25        25.0594       46.22126        -999.25        -999.25      0.2813035
       388.0000        -999.25        -999.25        25.3076       46.60376        -999.25        -999.25      0.2894418
       388.5000        -999.25        -999.25        25.5822       47.02694        -999.25        -999.25      0.2984455
       389.0000         1.4624        -2.1606        25.9404       47.57896         1.2038         5.9341      0.3101906
       389.5000         1.5013        33.9302        26.2986       48.13098         1.2659        10.1909      0.3219357
       390.0000          1.511       202.8003        26.6419       48.66003            1.3        13.0205      0.3331921
       390.5000         1.5207       371.6704        26.9024       49.06148         1.3375        14.5624      0.3417336
       391.0000         1.5286       540.5283        27.1421       49.43088         1.3758        15.8075      0.3495931
       391.5000         1.5359       698.3203        27.2148       49.54291         1.4068        16.6826      0.3519768
       392.0000         1.5433       687.4248        27.3003       49.67468         1.4306        17.4328      0.3547805
       392.5000          1.551       676.5283        27.4981        49.9795         1.4544        17.8889       0.361266
       393.0000         1.5588       665.6318        27.6959       50.28433         1.4706        18.1709      0.3677517
       393.5000         1.5667       654.7363        27.8937       50.58916         1.4823        18.3716      0.3742374
       394.0000         1.5746       646.9121        28.3083        51.2281          1.494        18.5724       0.387832
       394.5000         1.5825       639.3623        28.7603       51.92466         1.5057        18.7731      0.4026523
       395.0000         1.5903       631.8115        29.5122       53.08341         1.5166        18.9754      0.4273066
       395.5000         1.5982       624.2451        30.4917        54.5929         1.5274        19.1862      0.4594233
       396.0000         1.6059       616.3242        31.0642       55.47517         1.5381        19.3969      0.4781951
       396.5000         1.6135       608.4033        31.3737       55.95214         1.5488        19.6075      0.4883433
       397.0000         1.6211       600.4814        31.6833       56.42926         1.5758        19.8391       0.498495
       397.5000         1.6288       592.5605        31.9927       56.90607         1.6046        20.1338      0.5086398
       398.0000         1.6366        581.832        32.0969       57.06665         1.6335        20.4286      0.5120563
       398.5000         1.6474       571.0107        32.1824       57.19842         1.6609        20.7704        0.51486
       399.0000         1.6582       560.1885        32.2678       57.33001         1.6875        21.2089      0.5176598
       399.5000         1.6734        551.043        31.5073       56.15802          1.714        21.6403      0.4927239
       400.0000         1.6892       546.3906        30.6522       54.84024         1.7393        21.7012      0.4646859
       400.5000         1.7057       541.7373        29.7899       53.51137         1.7616        21.7621      0.4364121
       401.0000         1.7335        537.085        28.9276       52.18248         1.7839        21.8231      0.4081379
       401.5000         1.7349       539.0107        28.1456       50.97735         1.7767        21.8517      0.3824969
       402.0000         1.7162       557.4893        27.9546       50.68301         1.7673        21.8637      0.3762344
       402.5000         1.6912       575.9668        29.3382       52.81525         1.7579        21.8756      0.4216011
       403.0000         1.6536       618.4043        30.5293       54.65084         1.7458        21.8876      0.4606561
       403.5000         1.6091       669.6689        31.4976       56.14308         1.6781        21.8995      0.4924059
       404.0000         1.5827       720.5498        32.2709        57.3348         1.5615        22.0182      0.5177616
       404.5000         1.5665       748.0898        33.0442       58.52651         1.3972        22.1668      0.5431173
       405.0000         1.5576        769.168        33.6347       59.43653         1.3525        22.3154      0.5624794
