#------------------------------------------------------------------------------
# Created by    : vladimir.rabinovich
# Created on    : 09/19/2023 17:22:21
#------------------------------------------------------------------------------
~Version Information Section
VERS.           2.0     :   CWLS log ASCII Standard - VERSION 2.0
WRAP.           NO      :   One line per depth step
~Well Information Section
#MNEM       .UNIT                                         VALUE :DESCRIPTION
#------------------------------------------------------------------------------
STRT        .FT                                            2180 :START DEPTH
STOP        .FT                                            6738 :STOP DEPTH
STEP        .FT                                             0.5 :STEP      
NULL        .                                           -999.25 :NULL      
COMP        .                          SEAGULL ENERGY E & P INC :COMPANY   
WELL        .                               OCS G08131 ST00BP00 :WELL      
FLD         .                              GALVESTON BLOCK 0384 :FIELD     
LOC         .                                                   :LOCATION  
CNTY        .                             GALVESTON LARGE BLOCK :LOCATION  
STAT        .                                             TEXAS :STATE     
CTRY        .                                     UNITED STATES :COUNTRY   
SRVC        .                                                   :SERVICE COMPANY
DATE        .                             9/13/2023 11:19:36 AM :LOG DATE  
API         .                                    42706401890000 :API NUMBER
UWI         .                                    42706401890000 :UNIQUE WELL ID
XCOORD      .                                  986765.057424596 :SURFACE X 
YCOORD      .                                  10402321.6077632 :SURFACE Y 
LAT         .                                          28.64909 :LATITUDE  
LON         .                                        -95.038398 :LONGITUDE 
ELEV        .FT                                             100 :ELEVATION VALUE
ELEV_TYPE   .                                                KB :ELEVATION REFERENCE TYPE
~Curve Information Section
#MNEM       .UNIT                                      API CODE :CURVE DESCRIPTION
#------------------------------------------------------------------------------
DEPT        .FT                                                 :DEPTH     
CALN        .IN                                                 :          
DRHO        .G/CM3                                              :          
GR          .GAPI                                               :          
GR_NORM     .GAPI                                               :GammaRay Normalized
ILD         .OHMM                                               :          
ILM         .OHMM                                               :          
NPSS        .V/V                                                :Neutron Porosity Sandstone
RHOB        .G/CM3                                              :          
SFL         .OHMM                                               :          
SP          .MV                                                 :          
SP_NORM     .MV                                                 :SP Normalized
TENN        .LB                                                 :          
VSH_GR      .V/V                                                :Volume of Shale from GR
VSH_SP      .V/V                                                :Volume of Shale from SP
~A        DEPTH           CALN           DRHO             GR        GR_NORM            ILD            ILM           NPSS           RHOB            SFL             SP        SP_NORM           TENN         VSH_GR         VSH_SP
# ...
      6122.0000          11.28        -0.0127        62.3529       51.74261         0.7764          0.806         0.3546         2.2194         0.9246       -14.1176      -12.17585           3000      0.3987789      0.8260592
      6122.5000          11.28        -0.0108        61.1765       50.68385         0.7617         0.7908         0.3546         2.2122         0.9067        -15.098      -13.15625           3000      0.3762521      0.8120536
      6123.0000          11.28        -0.0088        62.1569       51.56621         0.7404         0.7759         0.3612         2.2133         0.8658       -15.6863      -13.74455           3000      0.3950257      0.8036492
      6123.5000          11.36        -0.0069        65.8824       54.91916         0.7132         0.7683          0.387         2.2204         0.8346       -13.5294      -11.58765           3040      0.4663651      0.8344621
      6124.0000          11.54        -0.0029        69.6078       58.27202            0.7          0.761          0.414         2.2276         0.8342            -10      -8.058252           3120      0.5377026      0.8848821
      6124.5000           11.7              0         72.449        60.8291         0.6874         0.7468         0.4371         2.2327         0.8115           -5.6      -3.658252           3200      0.5921085      0.9477392
      6125.0000          11.58          0.001        74.2857       62.48213          0.669         0.7398         0.4378         2.2316         0.7398           -3.6      -1.658252           3200      0.6272793      0.9763107
      6125.5000          11.42              0         74.898        63.0332         0.6629         0.7329         0.4273         2.2255         0.6629           -3.4      -1.458252           3120      0.6390043      0.9791678
      6126.0000          11.32        -0.0029        76.1224       64.13516         0.6629         0.7195           0.42         2.2214         0.6569           -3.8      -1.858252           3040      0.6624503      0.9734535
      6126.5000          11.32        -0.0069        75.5102       63.58418         0.6629         0.7194         0.4329         2.2143          0.651           -4.4      -2.458252           3040      0.6507272      0.9648821
      6127.0000           11.3        -0.0098        73.0612       61.38008         0.6629         0.7194         0.4365         2.2061         0.6165           -6.2      -4.258252           2960      0.6038315      0.9391678
      6127.5000          11.28        -0.0108        65.6863       54.74267         0.6629         0.7193         0.4224          2.199         0.6393           -8.8      -6.858253           3000        0.46261       0.902025
      6128.0000           11.3        -0.0069        64.5098       53.68382         0.6629         0.7192         0.4026          2.198         0.6812       -11.3725      -9.430753           3000      0.4400813       0.865275
      6128.5000          11.38         -0.002        65.6863       54.74267         0.6629         0.7192         0.3918         2.2102         0.7591       -13.7255      -11.78375           3000        0.46261      0.8316607
      6129.0000          11.46          0.002        66.6667       55.62503         0.6629         0.7191         0.3828         2.2214         0.8305        -14.902      -12.96025           3040      0.4813836      0.8148535
      6129.5000           11.6          0.002        66.0784       55.09556         0.6629          0.719         0.3798         2.2276         0.8078       -15.2941      -13.35235           3040      0.4701183      0.8092521
      6130.0000          11.76          0.002        66.4706       55.44854          0.669         0.7254         0.3792         2.2276          0.779       -15.8824      -13.94065           3120      0.4776284      0.8008478
      6130.5000           11.6          0.005         67.451        56.3309         0.6751         0.7254         0.3858         2.2235         0.7652       -16.6667      -14.72495           3120      0.4964021      0.7896435
      6131.0000          11.36          0.007         67.451        56.3309         0.6874         0.7384         0.3852         2.2235         0.7859       -16.8627      -14.92095           3120      0.4964021      0.7868435
      6131.5000          11.36          0.007        66.4706       55.44854         0.7063         0.7584         0.3744         2.2245         0.8146       -16.4706      -14.52885           3120      0.4776284      0.7924449
      6132.0000          11.42          0.005        64.1176       53.33084         0.7254          0.772         0.3654         2.2306         0.8759       -14.7059      -12.76415           3080      0.4325711       0.817655
      6132.5000          11.48          0.003        64.7059       53.86031          0.745         0.7859         0.3702         2.2429         0.9442       -11.7647      -9.822952           3040      0.4438365      0.8596721
      6133.0000          11.56          0.002        70.8163       59.35967         0.7584            0.8         0.3996          2.254         0.9262           -8.6      -6.658253           3040       0.560844      0.9048821
      6133.5000           11.6          0.002        77.7551       65.60458         0.7789         0.8146         0.4273          2.261         0.8759           -5.4      -3.458252           3000      0.6937146      0.9505964
      6134.0000          11.54          0.004           83.8       71.04501         0.7929         0.8295         0.4494          2.262          0.822           -2.6     -0.6582522           3040      0.8094682      0.9905964
      6134.5000          11.42          0.004        90.9804       77.50736         0.8073         0.8447         0.4569          2.258         0.8073           -0.6       1.341748           3080      0.9469652              1
      6135.0000          11.32              0        92.1569       78.56621          0.822          0.868         0.4621          2.253         0.7929         0.3922       2.333948           3080      0.9694938              1
      6135.5000          11.26        -0.0049        91.9608       78.38972         0.8447         0.8919          0.465          2.248         0.7859         0.5882       2.529948           3120      0.9657387              1
      6136.0000           11.2        -0.0069        90.7843       77.33087         0.8601            0.9         0.4644          2.248         0.7859         0.5882       2.529948           3080        0.94321              1
      6136.5000          11.14        -0.0059           87.8         74.645         0.8601            0.9         0.4569          2.252            0.8         0.5882       2.529948           3040      0.8860639              1
      6137.0000          11.04        -0.0039             86         73.025         0.8601            0.9         0.4469          2.257         0.8371         0.5882       2.529948           3040      0.8515958              1
      6137.5000             11         -0.002           84.4         71.585         0.8601            0.9         0.4365          2.261         0.8601         0.3922       2.333948           3000      0.8209574              1
      6138.0000          10.98         -0.002             83         70.325         0.8601            0.9         0.4267          2.261          0.868              0       1.941748           3000      0.7941489              1
      6138.5000             11              0             82         69.425          0.868            0.9         0.4224          2.257          0.868           -0.6       1.341748           3000          0.775              1
      6139.0000          11.14          0.002           81.4         68.885         0.8601            0.9         0.4146          2.254         0.8601           -1.8      0.1417477           3040      0.7635107              1
      6139.5000          11.22          0.004           83.2         70.505         0.8524         0.8919         0.4074          2.257         0.8759           -2.2     -0.2582524           3080      0.7979786      0.9963107
