#------------------------------------------------------------------------------
# Created by    : vladimir.rabinovich
# Created on    : 09/19/2023 17:20:45
#------------------------------------------------------------------------------
~Version Information Section
VERS.           2.0     :   CWLS log ASCII Standard - VERSION 2.0
WRAP.           NO      :   One line per depth step
~Well Information Section
#MNEM       .UNIT                                         VALUE :DESCRIPTION
#------------------------------------------------------------------------------
STRT        .FT                                            2110 :START DEPTH
STOP        .FT                                            6746 :STOP DEPTH
STEP        .FT                                             0.5 :STEP      
NULL        .                                           -999.25 :NULL      
COMP        .                       HOUSTON OIL & MINERALS CORP :COMPANY   
WELL        .                                ST TR 00694-L NE/4 :WELL      
FLD         .                                           WILDCAT :FIELD     
LOC         .                                                   :LOCATION  
CNTY        .                      MATAGORDA ISLAND LARGE BLOCK :LOCATION  
STAT        .                                             TEXAS :STATE     
CTRY        .                                     UNITED STATES :COUNTRY   
SRVC        .                                                   :SERVICE COMPANY
DATE        .                             9/13/2023 11:12:01 AM :LOG DATE  
API         .                                    42703302070000 :API NUMBER
UWI         .                                    42703302070000 :UNIQUE WELL ID
XCOORD      .                                  400461.464340365 :SURFACE X 
YCOORD      .                                  10145980.2526086 :SURFACE Y 
LAT         .                                        27.9055609 :LATITUDE  
LON         .                                       -96.8388291 :LONGITUDE 
ELEV        .FT                                              25 :ELEVATION VALUE
ELEV_TYPE   .                                                KB :ELEVATION REFERENCE TYPE
~Curve Information Section
#MNEM       .UNIT                                      API CODE :CURVE DESCRIPTION
#------------------------------------------------------------------------------
DEPT        .FT                                                 :DEPTH     
ASN         .OHMM                                               :          
CILD        .MMHO                                               :          
ILD         .OHMM                                               :          
SP          .MV                                                 :          
SP_NORM     .MV                                                 :SP Normalized
VSH_SP      .V/V                                                :Volume of Shale from SP
~A        DEPTH            ASN           CILD            ILD             SP        SP_NORM         VSH_SP
      2110.0000         1.9896          6.498         9.9725        -12.529        -4.9818      0.9171722
      2110.5000         1.7717        13.0474         9.9547       -19.6307        -6.6403      0.8711028
      2111.0000         1.7557         23.613          9.932       -33.2252        -7.2445      0.8543195
      2111.5000         1.7534        35.4639          9.866       -36.1335         1.5743              1
      2112.0000         1.7511        79.1917         2.9225       -42.1309        -4.7184      0.9244889
      2112.5000         1.7427       127.1038         2.2209        -45.155        -8.0377      0.8322861
      2113.0000         1.7327       673.3936         1.7538       -45.5363        -8.7142      0.8134944
      2113.5000         1.7204       795.9355         1.2768       -45.2127        -8.6859      0.8142806
      2114.0000         1.7068       851.5332         1.2364        -44.889        -8.6574      0.8150722
      2114.5000         1.6935       919.9561         1.2038       -44.5653        -8.6289      0.8158639
      2115.0000         1.6812       954.5527         1.0654       -43.8693        -8.2282      0.8269944
      2115.5000         1.6713       970.5186         0.9786       -42.8623        -7.5164      0.8467667
      2116.0000         1.6571       983.1055         0.9522       -41.5345        -6.4838        0.87545
      2116.5000         1.6453       989.5117         0.9381       -39.6464         -4.891      0.9196944
      2117.0000         1.6363        995.918         0.9281       -38.5841        -4.1239      0.9410028
      2117.5000         1.6304       998.3809         0.9245       -37.8403        -3.6754      0.9534611
      2118.0000          1.626       993.9707          0.921       -37.4295        -3.4821      0.9588305
      2118.5000         1.6215       981.4014         0.9174       -37.0184        -3.1185      0.9689305
      2119.0000         1.6165       962.7715         0.9312       -36.6426        -2.7901      0.9780528
      2119.5000         1.6114       944.1416          0.945       -36.6113        -2.8063      0.9776028
      2120.0000         1.6072       917.5967         0.9674         -36.58        -2.8224      0.9771556
      2120.5000         1.6223       885.5898         1.0027       -36.6194        -2.9092      0.9747444
      2121.0000         1.6195       853.6064         1.0381       -36.7271        -3.0644      0.9704334
      2121.5000         1.6165       822.4932         1.0893       -36.8348        -3.2195       0.966125
      2122.0000          1.615       793.3594         1.1518       -37.3541        -3.7863      0.9503806
      2122.5000         1.6773       770.9863         1.2025       -37.9048        -4.3844      0.9337667
      2123.0000         1.7208       748.6133         1.2308       -39.2579         -5.785      0.8948611
      2123.5000         1.7592       728.5527         1.2592        -41.283        -7.8575      0.8372917
      2124.0000         1.7843       715.5977         1.2759       -43.2987        -9.9207      0.7799805
      2124.5000            1.8       712.3662         1.2825       -44.9384       -11.6078      0.7331167
      2125.0000         1.8207       714.2705         1.2892       -46.5613       -13.2782      0.6867167
      2125.5000         1.8503       716.1748         1.2754       -48.2085       -14.9728      0.6396444
      2126.0000         1.8971       723.6768         1.2443       -50.0592        -16.871      0.5869167
      2126.5000         1.9241       746.3662         1.2133       -52.5904       -19.4496      0.5152889
      2127.0000         1.9376       769.0557          1.178       -54.2637       -21.1703      0.4674917
      2127.5000           1.94        794.707         1.1426       -55.1676       -22.1217      0.4410639
      2128.0000         1.9424       821.7852         1.1072       -56.1699       -23.1714      0.4119056
      2128.5000         1.9301        848.876         1.0699       -57.2801       -24.3291      0.3797472
      2129.0000         1.9075       869.1885         1.0321       -58.3489       -25.4453      0.3487417
      2129.5000         1.8596        886.291         0.9943       -59.3309       -26.4748      0.3201444
      2130.0000         1.8298       903.3936         0.9705        -60.313       -27.5043      0.2915472
      2130.5000         1.8229       901.4707         0.9492       -60.9794       -28.2182      0.2717167
      2131.0000         1.8168       897.1426         0.9278       -61.6365       -28.9227      0.2521472
      2131.5000         1.8116       892.8135         0.9147       -62.4246       -29.7583      0.2289361
      2132.0000         1.8038       888.4854         0.9102        -63.297       -30.6781      0.2033861
      2132.5000          1.787        893.666         0.9163       -64.0453       -31.4739      0.1812806
      2133.0000         1.7686       913.1895         0.9271       -64.7257       -32.2017      0.1610639
      2133.5000         1.7484       937.6357         0.9379       -65.2598       -32.7833      0.1449084
      2134.0000         1.7259       962.0703         0.9487       -65.6356       -33.2065      0.1331528
      2134.5000         1.6989        979.042         0.9595       -66.0115       -33.6298      0.1213945
      2135.0000         1.6788       989.0342         0.9653       -66.3213       -33.9871      0.1114695
      2135.5000         1.6613       999.0283         0.9705       -66.5695       -34.2827      0.1032583
      2136.0000         1.6595       1005.894         0.9758       -66.8176       -34.5783     0.09504721
      2136.5000         1.6576       1006.363         0.9791       -67.0374       -34.8455     0.08762497
      2137.0000         1.6645       1006.833         0.9657       -67.0972       -34.9528     0.08464442
      2137.5000         1.6721       1007.303         0.9523       -67.1322       -35.0352      0.0823556
      2138.0000         1.6611       1011.969         0.9389       -67.0427       -34.9932     0.08352227
      2138.5000         1.6503       1018.071         0.9254       -66.9532       -34.9511     0.08469168
      2139.0000         1.6414       1024.172         0.8857       -66.8639       -34.9093     0.08585273
      2139.5000         1.6324       1030.277         0.8441       -66.5518       -34.6446     0.09320556
      2140.0000         1.6238       1053.201         0.8024       -66.0817        -34.222      0.1049444
      2140.5000         1.6167       1089.318         0.7636       -65.6117       -33.7994      0.1166833
      2141.0000         1.6097       1125.436         0.7294       -65.0612       -33.2964      0.1306556
      2141.5000         1.6012       1170.926         0.6952       -64.4888       -32.7714      0.1452389
      2142.0000         1.5848       1216.789         0.6725       -63.9164       -32.2465      0.1598195
      2142.5000         1.5717       1256.756         0.6523       -63.6265        -32.004      0.1665555
      2143.0000         1.5632       1286.268         0.6322       -63.5402       -31.9651      0.1676361
      2143.5000         1.5553       1315.779          0.612        -63.454       -31.9264      0.1687111
      2144.0000         1.5582       1345.305         0.5962       -64.9359       -33.4557      0.1262306
      2144.5000         1.5611         1380.9         0.5811       -65.2834       -33.8507      0.1152583
      2145.0000         1.5627       1416.707          0.566       -65.5339       -34.1486      0.1069833
      2145.5000         1.5344       1444.463         0.5509       -65.4812       -34.1434      0.1071278
      2146.0000         1.5157       1466.109         0.5358       -65.4285       -34.1381       0.107275
      2146.5000         1.4971       1487.756         0.5224       -65.3757       -34.1328      0.1074222
      2147.0000         1.4831       1492.623         0.5134       -65.3231       -34.1276      0.1075666
      2147.5000         1.4728       1492.648         0.5043       -64.9785       -33.8305      0.1158194
