#------------------------------------------------------------------------------
# Created by    : vladimir.rabinovich
# Created on    : 09/19/2023 17:20:33
#------------------------------------------------------------------------------
~Version Information Section
VERS.           2.0     :   CWLS log ASCII Standard - VERSION 2.0
WRAP.           NO      :   One line per depth step
~Well Information Section
#MNEM       .UNIT                                         VALUE :DESCRIPTION
#------------------------------------------------------------------------------
STRT        .FT                                             526 :START DEPTH
STOP        .FT                                            9568 :STOP DEPTH
STEP        .FT                                             0.5 :STEP      
NULL        .                                           -999.25 :NULL      
COMP        .                       BLUE DOLPHIN EXPLORATION CO :COMPANY   
WELL        .                                OCS 00713 ST00BP00 :WELL      
FLD         .                              GALVESTON BLOCK 0288 :FIELD     
LOC         .                                                   :LOCATION  
CNTY        .                             GALVESTON LARGE BLOCK :LOCATION  
STAT        .                                             TEXAS :STATE     
CTRY        .                                     UNITED STATES :COUNTRY   
SRVC        .                                                   :SERVICE COMPANY
DATE        .                             9/13/2023 11:19:25 AM :LOG DATE  
API         .                                    42706000630000 :API NUMBER
UWI         .                                    42706000630000 :UNIQUE WELL ID
XCOORD      .                                  1101981.32688909 :SURFACE X 
YCOORD      .                                  10481575.8265757 :SURFACE Y 
LAT         .                                          28.87198 :LATITUDE  
LON         .                                        -94.682732 :LONGITUDE 
ELEV        .FT                                              58 :ELEVATION VALUE
ELEV_TYPE   .                                                KB :ELEVATION REFERENCE TYPE
~Curve Information Section
#MNEM       .UNIT                                      API CODE :CURVE DESCRIPTION
#------------------------------------------------------------------------------
DEPT        .FT                                                 :DEPTH     
ASN         .OHMM                                               :          
CALI        .IN                                                 :          
DT          .US/F                                               :          
ILD         .OHMM                                               :          
SP          .MV                                                 :          
SP_NORM     .MV                                                 :SP Normalized
VSH_SP      .V/V                                                :Volume of Shale from SP
~A        DEPTH            ASN           CALI             DT            ILD             SP        SP_NORM         VSH_SP
# ...
      7125.5000         0.8448         9.4274        99.7748         0.8184       -35.1754      0.4023628              1
      7126.0000         0.8509         9.6801       105.1404         0.8411       -35.6336     -0.0582695              1
      7126.5000         0.8567         9.8695       109.2725         0.8713       -35.2849      0.2879944              1
      7127.0000          0.868         9.8633       107.0039         0.8793       -34.9489       0.621563              1
      7127.5000         0.8916         9.8783       109.9241         0.8833          -35.3      0.2680321              1
      7128.0000         0.9239         9.9061       108.2958         0.8897       -35.8511     -0.2855034              1
      7128.5000          0.936          9.897        99.2572          0.896       -36.2878     -0.7246361              1
      7129.0000         0.9358         9.8499        94.5714         0.8856        -36.403     -0.8422699              1
      7129.5000          0.924         9.8072        95.3141         0.8671       -36.2845     -0.7262039              1
      7130.0000         0.9021         9.7867       101.2288         0.8486       -36.0975     -0.5416336              1
      7130.5000         0.8752          9.766       104.0748          0.829       -35.6311    -0.07766724              1
      7131.0000         0.8632         9.7258       105.9282          0.812       -34.8386      0.7123985              1
      7131.5000         0.8635         9.6887       111.8058         0.7961       -33.7241       1.824467              1
      7132.0000         0.8623         9.6567       108.3243         0.7894       -32.8311       2.715031              1
      7132.5000         0.8545         9.6187        93.2812         0.7827       -33.4008       2.142899              1
      7133.0000         0.8437         9.5705         89.408           0.77       -34.8386      0.7026672              1
      7133.5000         0.8292         9.5235        94.0289         0.7645       -36.3989     -0.8600655              1
      7134.0000         0.8081         9.4782       112.9183         0.7819       -36.5594      -1.022999      0.9994103
      7134.5000         0.8065         9.4536       113.3822         0.7851       -35.5267    0.007266998              1
      7135.0000         0.8267         9.5111       108.7477         0.7812       -34.7264      0.8051338              1
      7135.5000         0.8366         9.5587       107.2186         0.7728       -35.1686      0.3605042              1
      7136.0000         0.8285         9.5749       101.4603         0.7648       -36.7132      -1.186531      0.9952171
      7136.5000         0.8185         9.4677        93.3556         0.7596        -37.765      -2.240765      0.9681855
      7137.0000         0.8268         9.3632        99.4877         0.7626        -38.347      -2.825199         0.9532
      7137.5000         0.8396         9.3293       104.9734         0.7689       -37.6111      -2.091732      0.9720069
      7138.0000         0.8394         9.3226       105.0995         0.7761       -37.1453      -1.628368       0.983888
      7138.5000         0.8302         9.3651         96.729         0.7723       -37.7672      -2.252697      0.9678796
      7139.0000          0.823         9.4485        105.649          0.772       -38.0265      -2.514431      0.9611684
      7139.5000         0.8164         9.5807       115.0261         0.7717        -36.272     -0.7623634              1
      7140.0000         0.8094         9.6815        112.603         0.7682       -35.1855       0.321701              1
      7140.5000         0.7975         9.4222       108.1442         0.7548       -34.9575      0.5472679              1
      7141.0000         0.7806          9.296       112.2427         0.7478       -35.0546      0.4477386              1
      7141.5000         0.7633         9.3667       106.3427         0.7456       -35.4044     0.09550476              1
      7142.0000         0.7759         9.4328        95.8711         0.7453       -36.1127     -0.6152306              1
      7142.5000         0.7964         9.4068       104.2708         0.7536       -36.5785      -1.083462        0.99786
      7143.0000         0.8199         9.3734       113.2786         0.7661       -35.7147     -0.2220955              1
      7143.5000         0.8326         9.4481       115.5665         0.7795         -35.36      0.1301689              1
      7144.0000         0.8322         9.4303       109.4773         0.7839       -35.2746      0.2131386              1
      7144.5000         0.8237         9.4144        99.0103          0.776       -35.3861     0.09920502              1
      7145.0000         0.8124         9.3985        97.9636         0.7726       -35.4263     0.05657196              1
      7145.5000         0.7985          9.392        99.7827          0.766       -34.8807      0.5997391              1
      7146.0000         0.7806         9.3988       102.7665         0.7537       -34.3622       1.115803              1
      7146.5000         0.7683         9.4588        108.277         0.7495       -34.0274       1.448174              1
      7147.0000         0.7751         9.5502       109.3777         0.7453        -34.056       1.417141              1
      7147.5000         0.7901         9.6828       108.0586         0.7357       -34.2078       1.262905              1
      7148.0000         0.8012         9.7811       106.0498         0.7315       -34.7275      0.7407722              1
      7148.5000         0.7965         9.6077       102.8499         0.7243       -35.4572    0.008640289              1
      7149.0000         0.7787         9.4305       104.7122          0.731       -35.7001     -0.2366943              1
      7149.5000         0.7624          9.339        110.824         0.7298        -35.332      0.1289749              1
      7150.0000         0.7437         9.3236       109.5178         0.7192       -35.0822      0.3763428              1
      7150.5000         0.7392         9.3052       108.8298         0.7153       -35.1039      0.3522072              1
      7151.0000         0.7328         9.2873       108.1666         0.7122       -35.6379      -0.184227              1
      7151.5000         0.7277         9.2775       103.6403         0.7211       -37.2318       -1.78056      0.9799857
      7152.0000         0.7489         9.2676       101.1857         0.7223       -38.4519       -3.00309      0.9486387
      7152.5000         0.7631         9.2628       122.8899         0.7218       -38.3885      -2.942123       0.950202
      7153.0000          0.764         9.3303       121.4216         0.7267       -37.1375      -1.693558      0.9822165
      7153.5000          0.767         9.4614       113.9993         0.7341       -36.0823      -0.640789              1
      7154.0000         0.7746         9.4754       108.4707         0.7414       -35.3842     0.05487442              1
      7154.5000         0.7854          9.273       109.0472         0.7488       -34.7432      0.6934471              1
      7155.0000         0.7905         9.1917       109.5792         0.7562       -34.3192       1.115013              1
      7155.5000         0.7911           9.15       109.8939          0.757       -34.2446        1.18718              1
      7156.0000         0.8025         9.1408       107.8379         0.7745       -34.2916       1.137745              1
      7156.5000         0.8208         9.3381        103.745         0.7924          -34.1       1.326912              1
      7157.0000         0.8398         9.4224       106.0002         0.8112       -33.8823       1.542175              1
      7157.5000         0.8516         9.5762       106.4203         0.8275       -33.5394       1.882648              1
      7158.0000         0.8562         9.7414       105.2098         0.8401       -33.2238       2.195812              1
      7158.5000         0.8512         9.8842       104.5546         0.8335       -33.2997       2.117477              1
