#------------------------------------------------------------------------------
# Created by    : vladimir.rabinovich
# Created on    : 09/19/2023 17:19:48
#------------------------------------------------------------------------------
~Version Information Section
VERS.           2.0     :   CWLS log ASCII Standard - VERSION 2.0
WRAP.           NO      :   One line per depth step
~Well Information Section
#MNEM       .UNIT                                         VALUE :DESCRIPTION
#------------------------------------------------------------------------------
STRT        .FT                                             960 :START DEPTH
STOP        .FT                                            9172 :STOP DEPTH
STEP        .FT                                             0.5 :STEP      
NULL        .                                           -999.25 :NULL      
COMP        .                                ODECO OIL & GAS CO :COMPANY   
WELL        .                               OCS G06101 ST00BP00 :WELL      
FLD         .                                           WILDCAT :FIELD     
LOC         .                                                   :LOCATION  
CNTY        .                             GALVESTON LARGE BLOCK :LOCATION  
STAT        .                                             TEXAS :STATE     
CTRY        .                                     UNITED STATES :COUNTRY   
SRVC        .                                                   :SERVICE COMPANY
DATE        .                             9/13/2023 11:19:27 AM :LOG DATE  
API         .                                    42706401070000 :API NUMBER
UWI         .                                    42706401070000 :UNIQUE WELL ID
XCOORD      .                                  1041316.87817256 :SURFACE X 
YCOORD      .                                  10447909.9182991 :SURFACE Y 
LAT         .                                         28.776905 :LATITUDE  
LON         .                                        -94.870587 :LONGITUDE 
ELEV        .FT                                              92 :ELEVATION VALUE
ELEV_TYPE   .                                                KB :ELEVATION REFERENCE TYPE
~Curve Information Section
#MNEM       .UNIT                                      API CODE :CURVE DESCRIPTION
#------------------------------------------------------------------------------
DEPT        .FT                                                 :DEPTH     
ASFL        .OHMM                                               :          
GR          .GAPI                                               :          
GR_NORM     .GAPI                                               :GammaRay Normalized
ILD         .OHMM                                               :          
SP          .MV                                                 :          
SP_NORM     .MV                                                 :SP Normalized
VSH_GR      .V/V                                                :Volume of Shale from GR
VSH_SP      .V/V                                                :Volume of Shale from SP
~A        DEPTH           ASFL             GR        GR_NORM            ILD             SP        SP_NORM         VSH_GR         VSH_SP
# ...
      7509.0000          0.861        69.7115       72.42215         0.8755       -60.2204        2.40978      0.8387691              1
      7509.5000         0.8561        70.0313       72.84516         0.8794       -60.3054       2.285702      0.8477694              1
      7510.0000         0.8512        71.5776       74.89053         0.8833       -60.4055       2.140481      0.8912878              1
      7510.5000         0.8463        73.0364       76.82015         0.8872       -60.5166       1.979853      0.9323437              1
      7511.0000         0.8401        74.4125       78.64039         0.8911       -60.6275       1.819513      0.9710721              1
      7511.5000         0.8333        75.5251       80.11209          0.895       -60.7386       1.658884              1              1
      7512.0000         0.8266        75.3534       79.88497         0.8988       -60.8495       1.498544      0.9975526              1
      7512.5000         0.8199        74.8064       79.16142         0.9027       -60.9604       1.338199      0.9821579              1
      7513.0000         0.8187        73.9469       78.02452         0.9066       -61.0715       1.177576      0.9579685              1
      7513.5000         0.8239        73.0886       76.88921         0.9105       -61.2081      0.9812508      0.9338129              1
      7514.0000         0.8292        72.2292       75.75243         0.9144       -61.3584      0.7657478      0.9096262              1
      7514.5000          0.835        71.3698       74.61565         0.9143       -61.5087      0.5502396      0.8854395              1
      7515.0000         0.8408        70.5005        73.4658         0.9127        -61.659      0.3347366      0.8609744              1
      7515.5000         0.8466        69.5693       72.23404         0.9111       -61.8093      0.1192337      0.8347668              1
      7516.0000         0.8524         68.637       71.00085         0.9096       -61.9595    -0.09613037      0.8085287      0.9983978
      7516.5000         0.8582        67.9696       70.11803          0.908       -62.1097     -0.3114944      0.7897454      0.9948084
      7517.0000         0.8637         67.538       69.54714         0.9064       -62.2599     -0.5268585      0.7775987       0.991219
      7517.5000         0.8606        67.7957       69.88802         0.9049       -62.4103     -0.7425057      0.7848514      0.9876249
      7518.0000         0.8571        68.4637       70.77161         0.9029       -62.5416     -0.9314072      0.8036514      0.9844766
      7518.5000         0.8517        68.9974       71.47756         0.8969       -62.6598      -1.101974      0.8186715      0.9816338
      7519.0000         0.8464        69.5304       72.18259         0.8909        -62.778      -1.272537      0.8336722      0.9787911
      7519.5000         0.8411        70.0641       72.88855         0.8849       -62.8962      -1.443098      0.8486925      0.9759483
      7520.0000         0.8357        70.5978        73.5945         0.8789       -63.0146      -1.613943      0.8637127       0.973101
      7520.5000         0.8304        71.1315       74.30045         0.8729       -63.1192      -1.765472       0.878733      0.9705755
      7521.0000         0.8251        71.0026       74.12994         0.8674       -63.1319      -1.788335      0.8751052      0.9701944
      7521.5000         0.8197        70.2599       73.14754         0.8629       -63.1446      -1.811198      0.8542029      0.9698133
      7522.0000         0.8181        69.5159       72.16341         0.8584       -63.1573      -1.834061       0.833264      0.9694323
      7522.5000          0.817        68.5664       70.90746         0.8539         -63.17      -1.856924      0.8065416      0.9690512
      7523.0000         0.8159        67.9076       70.03603         0.8494       -63.1785      -1.873912      0.7880005      0.9687681
      7523.5000         0.8148        68.6855         71.065         0.8449       -63.1827      -1.884876      0.8098937      0.9685854
      7524.0000         0.8137        69.4624       72.09265         0.8413        -63.187      -1.895979      0.8317586      0.9684004
      7524.5000         0.8126        70.2391       73.12003         0.8388       -63.1913      -1.907077      0.8536175      0.9682154
      7525.0000         0.8115         71.016       74.14767         0.8364       -63.2902      -2.050621      0.8754823       0.965823
      7525.5000         0.8104        71.7927       75.17505         0.8339       -63.5355      -2.399126      0.8973415      0.9600146
      7526.0000         0.8122        72.2478       75.77704          0.833       -64.4229      -3.646567      0.9101498      0.9392239
      7526.5000         0.8143        72.1638       75.66592         0.8355       -65.3115      -4.895696      0.9077856      0.9184051
      7527.0000         0.8163        71.0513       74.19436         0.8381       -66.6184       -6.73044      0.8764757       0.887826
      7527.5000         0.8184        69.8331       72.58299         0.8406       -67.8632      -8.478239      0.8421913       0.858696
      7528.0000         0.8205        68.6478       71.01512         0.8431       -68.8491      -9.863585      0.8088323      0.8356069
      7528.5000         0.8226        68.0717       70.25309         0.8466       -69.7864      -11.18089      0.7926189      0.8136518
      7529.0000         0.8247        70.3838       73.31142         0.8529       -70.1022       -11.6281      0.8576897      0.8061983
      7529.5000         0.8268        72.1417       75.63669         0.8593       -70.4178      -12.07502      0.9071636      0.7987496
      7530.0000         0.8295        73.1774       77.00667         0.8668       -69.7001      -11.07533      0.9363121      0.8154112
      7530.5000         0.8336        73.9336       78.00693         0.8762       -68.8528      -9.894186      0.9575942      0.8350969
      7531.0000         0.8377         74.632       78.93074         0.8855       -67.9982      -8.702832      0.9772498      0.8549528
      7531.5000         0.8418        74.8103       79.16659         0.8948       -67.1909      -7.577701      0.9822678       0.873705
      7532.0000         0.8459        74.5483       78.82003         0.9042       -66.6815      -6.869626      0.9748943      0.8855062
      7532.5000         0.8491        74.1268       78.26249         0.9166       -66.1722       -6.16169      0.9630317      0.8973052
      7533.0000         0.8519        73.5068       77.44238         0.9307       -65.6628      -5.453615      0.9455824      0.9091064
      7533.5000         0.8547        72.8868       76.62228         0.9447       -65.1921      -4.799715      0.9281337      0.9200048
      7534.0000         0.8575        72.2675       75.80309         0.9587       -65.0085      -4.547757      0.9107041      0.9242041
      7534.5000         0.8633        71.6713       75.01447         0.9713        -64.825      -4.295938       0.893925      0.9284011
      7535.0000         0.8705        71.0835       74.23696         0.9831       -64.6414      -4.043991      0.8773822      0.9326001
      7535.5000         0.8778        70.4963       73.46024         0.9948       -64.4579      -3.792172      0.8608561      0.9367971
      7536.0000          0.885        69.9092       72.68365         1.0066       -64.4014      -3.718152      0.8443331      0.9380308
      7536.5000         0.8912         69.322       71.90692         1.0184       -64.5779      -3.970345      0.8278068      0.9338276
      7537.0000         0.8856        68.8636       71.30058         1.0154       -64.7545      -4.222665       0.814906      0.9296222
      7537.5000           0.88        68.4442       70.74582         1.0102       -64.8585      -4.373344      0.8031026      0.9271109
      7538.0000         0.8772        68.0243        70.1904         1.0049       -64.9221      -4.467467      0.7912851      0.9255422
