#------------------------------------------------------------------------------
# Created by    : vladimir.rabinovich
# Created on    : 09/19/2023 17:22:52
#------------------------------------------------------------------------------
~Version Information Section
VERS.           2.0     :   CWLS log ASCII Standard - VERSION 2.0
WRAP.           NO      :   One line per depth step
~Well Information Section
#MNEM       .UNIT                                         VALUE :DESCRIPTION
#------------------------------------------------------------------------------
STRT        .FT                                             873 :START DEPTH
STOP        .FT                                           11612 :STOP DEPTH
STEP        .FT                                             0.5 :STEP      
NULL        .                                           -999.25 :NULL      
COMP        .                                   MARATHON OIL CO :COMPANY   
WELL        .                               OCS G04137 ST00BP04 :WELL      
FLD         .                       MATAGORDA ISLAND BLOCK 0527 :FIELD     
LOC         .                                                   :LOCATION  
CNTY        .                      MATAGORDA ISLAND LARGE BLOCK :LOCATION  
STAT        .                                             TEXAS :STATE     
CTRY        .                                     UNITED STATES :COUNTRY   
SRVC        .                                                   :SERVICE COMPANY
DATE        .                             9/13/2023 11:19:05 AM :LOG DATE  
API         .                                    42703400590000 :API NUMBER
UWI         .                                    42703400590000 :UNIQUE WELL ID
XCOORD      .                                  609906.580547661 :SURFACE X 
YCOORD      .                                  10277311.7025511 :SURFACE Y 
LAT         .                                         28.282909 :LATITUDE  
LON         .                                        -96.202007 :LONGITUDE 
ELEV        .FT                                              95 :ELEVATION VALUE
ELEV_TYPE   .                                                KB :ELEVATION REFERENCE TYPE
~Curve Information Section
#MNEM       .UNIT                                      API CODE :CURVE DESCRIPTION
#------------------------------------------------------------------------------
DEPT        .FT                                                 :DEPTH     
GR          .GAPI                                               :          
GR_NORM     .GAPI                                               :GammaRay Normalized
ILD         .OHMM                                               :          
SP          .MV                                                 :          
SP_NORM     .MV                                                 :SP Normalized
VSH_GR      .V/V                                                :Volume of Shale from GR
VSH_SP      .V/V                                                :Volume of Shale from SP
~A        DEPTH             GR        GR_NORM            ILD             SP        SP_NORM         VSH_GR         VSH_SP
# ...
      3117.5000        36.7928        43.4967         0.3334       -99.8221       -13.9871       0.223334     0.07235009
      3118.0000        36.7107       43.31359         0.3537       -99.6936      -13.86073      0.2194382     0.08137621
      3118.5000        40.2291       51.17876         0.3696       -98.9209      -13.09016      0.3867821      0.1364174
      3119.0000        42.3245       55.86303         0.3812       -98.0349      -12.20628      0.4864475      0.1995517
      3119.5000        43.4917       58.47252         0.3912       -97.2274      -11.40091      0.5419686      0.2570779
      3120.0000        44.2245       60.11097         0.4062       -96.3721      -10.54774      0.5768291      0.3180188
      3120.5000        44.7438       61.27222         0.4256       -95.6295      -9.807266      0.6015367      0.3709095
      3121.0000        45.2336       62.36747         0.4393       -95.0005      -9.180397      0.6248398      0.4156859
      3121.5000        45.8129        63.6628         0.4443       -94.4978      -8.679825      0.6524001      0.4514411
      3122.0000         46.265       64.67383         0.4399       -94.3135      -8.497643      0.6739112      0.4644541
      3122.5000        46.5456       65.30148         0.4216       -94.9733      -9.159569      0.6872655      0.4171737
      3123.0000        46.4464       65.08017         0.4068       -96.1338       -10.3222      0.6825568      0.3341288
      3123.5000        45.9707       64.01726         0.3937       -97.1731      -11.36363      0.6599417      0.2597406
      3124.0000         44.856       61.52597         0.3829       -97.9725      -12.16516      0.6069356      0.2024885
      3124.5000        42.6438       56.58144         0.3796       -98.2837      -12.47848      0.5017328      0.1801088
      3125.0000        41.1104       53.15423         0.3892       -98.1824      -12.37931      0.4288135      0.1871921
      3125.5000        40.7109       52.26165         0.4007       -98.1052      -12.30424      0.4098224      0.1925545
      3126.0000        40.7557       52.36224         0.4099       -98.0902      -12.29137      0.4119626      0.1934738
      3126.5000        40.8979       52.68051         0.4125       -98.0752       -12.2785      0.4187342      0.1943932
      3127.0000        41.2305       53.42441         0.4178       -98.0992      -12.30462      0.4345619      0.1925272
      3127.5000        41.7112       54.49934         0.4278       -98.1469      -12.35444      0.4574328      0.1889687
      3128.0000        42.2562       55.71801         0.4373       -98.3427      -12.55237      0.4833619      0.1748308
      3128.5000        41.2332        53.4317         0.4434       -98.4255       -12.6373      0.4347171      0.1687644
      3129.0000        39.9894       50.65186         0.4474       -98.4774      -12.69133      0.3755715       0.164905
      3129.5000        39.3598       49.24493         0.4487       -98.5282      -12.74426      0.3456369      0.1611246
      3130.0000         39.235       48.96638         0.4471       -98.6083      -12.82648      0.3397103      0.1552516
      3130.5000        41.1924       53.34221         0.4446       -98.6936      -12.91391      0.4328129      0.1490064
      3131.0000        42.3297       55.88487         0.4439       -98.8859      -13.10834      0.4869122      0.1351188
      3131.5000        41.4938        54.0168         0.4436       -99.1034      -13.32796       0.447166      0.1194311
      3132.0000        40.6095       52.04052         0.4442       -99.3485       -13.5752      0.4051175      0.1017718
      3132.5000        39.7195       50.05151         0.4493        -99.608      -13.83682      0.3627981     0.08308411
      3133.0000        38.8246       48.05156         0.4531       -99.9309      -14.16184      0.3202459      0.0598684
      3133.5000        37.6766       45.48587         0.4568      -100.1864      -14.41947      0.2656567      0.0414663
      3134.0000        36.5964        43.0717         0.4631       -98.7202       -12.9554      0.2142914       0.146043
      3134.5000        36.0774         41.912         0.4788       -97.8833      -12.12063       0.189617      0.2056694
      3135.0000        36.0224       41.78947         0.4982       -97.6638      -11.90326        0.18701      0.2211958
      3135.5000        36.1553       42.08698         0.5169       -97.5291      -11.77068      0.1933401       0.230666
      3136.0000        36.4667       42.78349         0.5391       -97.3262      -11.56991      0.2081593      0.2450066
      3136.5000        36.8642       43.67244         0.5712       -96.7844      -11.03024      0.2270732      0.2835546
      3137.0000        37.5123       45.12157          0.613       -96.4064      -10.65437      0.2579058      0.3104025
      3137.5000        38.1557       46.56018          0.655         -96.25      -10.50009      0.2885145       0.321422
      3138.0000        37.9069       46.00447         0.6872       -96.0698      -10.32202      0.2766909      0.3341413
      3138.5000        37.8183       45.80683         0.7003       -95.7402      -9.994537      0.2724858       0.357533
      3139.0000        38.7543       47.89953         0.7037       -95.3055      -9.561966      0.3170112       0.388431
      3139.5000         40.397       51.57191         0.7098       -94.6902      -8.948799       0.395147      0.4322286
      3140.0000        43.5368       58.59073         0.7216       -93.9957      -8.256424      0.5444837       0.481684
      3140.5000        48.2255       69.07182          0.735       -93.3639      -7.626755      0.7674856      0.5266604
      3141.0000         49.791       72.57167         0.7376       -92.8204      -7.085373      0.8419504      0.5653305
      3141.5000        50.5009       74.15894         0.7267       -92.0083      -6.275406      0.8757222      0.6231853
      3142.0000        50.8177       74.86751         0.7143       -90.9912      -5.260437       0.890798      0.6956831
      3142.5000        50.9906       75.25443         0.7162       -90.0382      -4.309563      0.8990303      0.7636027
      3143.0000         50.978       75.22667         0.7309       -89.1851      -3.458588      0.8984398      0.8243866
      3143.5000        51.2329        75.7969         0.7573       -88.6305       -2.90612      0.9105723      0.8638486
      3144.0000        51.9667       77.43758         0.7934       -87.9336      -2.211342      0.9454803      0.9134756
      3144.5000        53.0506       79.86086         0.8205       -87.2687      -1.548569      0.9970395      0.9608165
      3145.0000        53.1035       79.97953         0.8418       -86.8324      -1.114395      0.9995645      0.9918289
      3145.5000        52.9122       79.55235         0.8653       -86.5465     -0.8306274      0.9904756              1
      3146.0000         51.238       75.81042         0.8915       -86.3501     -0.6363525      0.9108601              1
      3146.5000        49.6832        72.3354         0.9228       -86.1521     -0.4404755      0.8369235              1
      3147.0000        49.8086       72.61613         0.9538       -85.9529     -0.2434082      0.8428963              1
      3147.5000        50.2576       73.62018         0.9843       -85.8662     -0.1588364      0.8642591              1
      3148.0000        50.7198       74.65378         1.0062       -85.8075     -0.1022644      0.8862506              1
      3148.5000        51.1097       75.52575         1.0228       -85.7715    -0.06838989      0.9048032              1
      3149.0000        51.1262       75.56304         1.0361       -85.7289    -0.02791595      0.9055966              1
      3149.5000        50.5834       74.35017         1.0459       -85.6536     0.04525757       0.879791              1
      3150.0000        49.3958       71.69595         1.0495       -85.7435    -0.04676819      0.8233182              1
      3150.5000        48.2811       70.46122         1.0465       -85.9135      -0.218895      0.7970473              1
