#------------------------------------------------------------------------------
# Created by    : vladimir.rabinovich
# Created on    : 09/19/2023 17:22:53
#------------------------------------------------------------------------------
~Version Information Section
VERS.           2.0     :   CWLS log ASCII Standard - VERSION 2.0
WRAP.           NO      :   One line per depth step
~Well Information Section
#MNEM       .UNIT                                         VALUE :DESCRIPTION
#------------------------------------------------------------------------------
STRT        .FT                                             411 :START DEPTH
STOP        .FT                                           10036 :STOP DEPTH
STEP        .FT                                             0.5 :STEP      
NULL        .                                           -999.25 :NULL      
COMP        .                          HUMBLE OIL & REFINING CO :COMPANY   
WELL        .                                     ST TR 00278-L :WELL      
FLD         .                                           WILDCAT :FIELD     
LOC         .                                                   :LOCATION  
CNTY        .                             GALVESTON LARGE BLOCK :LOCATION  
STAT        .                                             TEXAS :STATE     
CTRY        .                                     UNITED STATES :COUNTRY   
SRVC        .                                                   :SERVICE COMPANY
DATE        .                             9/13/2023 11:19:42 AM :LOG DATE  
API         .                                    42706000220000 :API NUMBER
UWI         .                                    42706000220000 :UNIQUE WELL ID
XCOORD      .                                  941560.719964966 :SURFACE X 
YCOORD      .                                  10497824.1170516 :SURFACE Y 
LAT         .                                        28.9094621 :LATITUDE  
LON         .                                       -95.1847519 :LONGITUDE 
ELEV        .FT                                              10 :ELEVATION VALUE
ELEV_TYPE   .                                                KB :ELEVATION REFERENCE TYPE
~Curve Information Section
#MNEM       .UNIT                                      API CODE :CURVE DESCRIPTION
#------------------------------------------------------------------------------
DEPT        .FT                                                 :DEPTH     
LAT         .OHMM                                               :          
LN          .OHMM                                               :          
SN          .OHMM                                               :          
SP          .MV                                                 :          
SP_NORM     .MV                                                 :SP Normalized
VSH_SP      .V/V                                                :Volume of Shale from SP
~A        DEPTH            LAT             LN             SN             SP        SP_NORM         VSH_SP
       411.0000         0.5027         3.1955              0        -0.6492       3.088224              1
       411.5000         0.5023         3.2298              0         -0.665       3.104024              1
       412.0000          0.502         3.2641              0         -0.681       3.120024              1
       412.5000         0.5016         3.2984              0         -0.697       3.136024              1
       413.0000         0.5012         3.3604         0.1817         -0.692       3.131024              1
       413.5000         0.5031         3.4389         1.3176        -0.6324       3.071424              1
       414.0000         0.5055         3.5175         1.5994        -0.5728       3.011824              1
       414.5000         0.5079          3.596         1.8813        -0.5132       2.952224              1
       415.0000         0.5103         3.6842         2.2764        -0.0979       2.536924              1
       415.5000         0.5126         3.8583         2.7671         6.7351      -4.296075      0.8265224
       416.0000          0.515         4.0325         3.1491        17.6805      -15.24148      0.2504486
       416.5000         0.5174         4.2067         3.4423         25.799      -22.43413              0
       417.0000         0.5197         4.5125         3.7356        30.8392      -12.97774      0.3695926
       417.5000         0.5223         4.6324         3.9841        37.2148      -4.856758      0.7970127
       418.0000         0.5248         4.6804         4.2199         41.304      -4.958145      0.7916766
       418.5000         0.5273         4.6837          4.441        43.6434      -4.788521      0.8006042
       419.0000         0.5298         4.6895         4.6061        45.9828      -4.618896      0.8095317
       419.5000         0.5323         4.6969         4.6816        48.1805      -4.307575      0.8259171
       420.0000         0.5348         4.7044         4.6872        49.9891      -3.607151      0.8627815
       420.5000         0.5373         4.8338         4.6304        51.7977      -2.906723      0.8996462
       421.0000         0.5388         4.9828         4.5735        53.6064      -2.206402      0.9365051
       421.5000         0.5394         5.1318         4.5167        55.5023      -1.593277      0.9687749
       422.0000           0.54         5.2903         4.4478        57.4022      -1.247662      0.9869652
       422.5000         0.5405         5.4529         4.3682        59.2743      -2.673714      0.9119098
       423.0000         0.5411         5.6154         4.2886        60.2493      -3.202663      0.8840703
       423.5000         0.5416         5.7779          4.209        61.2242      -3.731518      0.8562359
       424.0000         0.5422         5.9404          4.131        62.1993      -4.260567      0.8283913
       424.5000         0.5427         6.0679         4.1153        63.1743       -4.78952      0.8005516
       425.0000         0.5427         6.1944         4.0996        64.0785      -5.247669      0.7764385
       425.5000         0.5423         6.3208          4.084        64.5798      -5.302925      0.7735302
       426.0000          0.542         6.4473         4.0915        65.0812      -5.358273      0.7706172
       426.5000         0.5416         6.5217         4.1539        65.5825      -5.413521      0.7677094
       427.0000         0.5412         6.5664         4.2164        66.0837      -5.468678      0.7648064
       427.5000         0.5409         6.6111         4.2789        66.5851      -5.524025      0.7618935
       428.0000         0.5405         6.6557         4.3414        66.7252      -5.218075      0.7779961
       428.5000         0.5416         6.7004         4.4184        66.8129      -4.859726      0.7968565
       429.0000         0.5485          6.717         4.5608        66.9004      -4.501179      0.8157274
       429.5000         0.5554         6.7227         4.7032        66.9879      -4.142632      0.8345984
       430.0000         0.5624         6.7873         4.8456        67.0754      -3.784084      0.8534693
       430.5000         0.5695         6.9543         5.0361        67.1631      -3.425735      0.8723297
       431.0000         0.5772         7.1099         5.2364        67.2506      -3.067184      0.8912008
       431.5000         0.7485         7.2625         5.4367        67.3401       -2.71064      0.9099663
       432.0000         3.5756          7.415          5.637        67.4646      -2.389084      0.9268903
       432.5000         4.4963         7.5448         5.7923        67.5892      -2.067642      0.9438083
       433.0000         4.7943         7.6015         5.9417        67.7139      -1.842056      0.9556813
       433.5000         5.0924         7.6582          6.091        67.8385      -1.895477      0.9528696
       434.0000         5.3642         7.7149         6.2173        67.9631      -1.948898       0.950058
       434.5000         5.5609         7.7678         6.2523        68.0876       -2.00222      0.9472516
       435.0000         5.7576         7.7895         5.8311        68.2123      -2.055748      0.9444343
       435.5000         5.9543         7.8112         5.6397         68.351       -2.12326       0.940881
       436.0000         6.1534         7.8329         5.4908        68.4927      -2.193787      0.9371691
       436.5000         6.3579         7.8546         5.3992        68.6345      -2.264412       0.933452
       437.0000         6.5624         7.8764         5.3937        68.7762       -2.33493      0.9297405
       437.5000         6.7669         7.8933         5.4025        68.9181      -2.405655      0.9260182
       438.0000         7.0883          7.907         5.4415        68.9861      -2.402473      0.9261856
       438.5000         7.4173         7.9208         5.5107        68.9897        -2.3349      0.9297421
       439.0000         7.5942         7.9342         5.5881        68.9934      -2.267418      0.9332938
       439.5000         7.7509         7.9424         5.7153        68.9971      -2.199944      0.9368451
       440.0000         7.8231         7.9506         5.8425        69.0101      -2.141769      0.9399069
       440.5000         7.8954         7.9588         5.9697        69.2823      -2.342789      0.9293269
       441.0000         7.9676         7.9607         6.0968        69.5547      -2.544014      0.9187361
       441.5000         7.9762         7.9604         6.2256        69.8269      -2.745026      0.9081566
       442.0000         7.9085         7.9463         6.3601        70.0992      -2.946152       0.897571
       442.5000         7.8409         7.9093         6.4946        70.3961      -3.171875      0.8856908
       443.0000         7.7733          7.828          6.629        70.8351      -3.539696      0.8663318
       443.5000         7.7056         7.7466         6.7317        71.2742      -3.907616      0.8469676
       444.0000          7.646         7.6652         6.8184        71.7133      -4.275543       0.827603
       444.5000         7.6006         7.5718         6.9051        71.6436      -4.134666      0.8350176
       445.0000         7.5552         7.4653         6.7834        71.2745      -3.694382      0.8581904
       445.5000         7.5098         7.3589         6.5782        70.9056      -3.254311      0.8813521
       446.0000         7.4644         7.2524         6.3401        70.3892      -2.666725      0.9122776
       446.5000          7.419          7.156         6.0917        69.8075      -2.013855      0.9466392
       447.0000         7.3736         7.1078         5.8724        69.2258       -1.36097      0.9810016
       447.5000         7.3282         7.0596          5.751        68.6442     -0.7081985              1
       448.0000         7.2717         7.0141         5.6296        68.0625    -0.05532074              1
       448.5000         7.2141         7.0375         5.5082         67.481      0.5973587              1
