#------------------------------------------------------------------------------
# Created by    : vladimir.rabinovich
# Created on    : 09/19/2023 17:22:17
#------------------------------------------------------------------------------
~Version Information Section
VERS.           2.0     :   CWLS log ASCII Standard - VERSION 2.0
WRAP.           NO      :   One line per depth step
~Well Information Section
#MNEM       .UNIT                                         VALUE :DESCRIPTION
#------------------------------------------------------------------------------
STRT        .FT                                             996 :START DEPTH
STOP        .FT                                            8436 :STOP DEPTH
STEP        .FT                                             0.5 :STEP      
NULL        .                                           -999.25 :NULL      
COMP        .                                    TDC ENERGY LLC :COMPANY   
WELL        .                               OCS G03738 ST00BP00 :WELL      
FLD         .                              GALVESTON BLOCK 0255 :FIELD     
LOC         .                                                   :LOCATION  
CNTY        .                             GALVESTON LARGE BLOCK :LOCATION  
STAT        .                                             TEXAS :STATE     
CTRY        .                                     UNITED STATES :COUNTRY   
SRVC        .                                                   :SERVICE COMPANY
DATE        .                             9/13/2023 11:18:53 AM :LOG DATE  
API         .                                    42706400460000 :API NUMBER
UWI         .                                    42706400460000 :UNIQUE WELL ID
XCOORD      .                                   1080542.6436948 :SURFACE X 
YCOORD      .                                  10548065.2081286 :SURFACE Y 
LAT         .                                        29.0539695 :LATITUDE  
LON         .                                       -94.7527854 :LONGITUDE 
ELEV        .FT                                              94 :ELEVATION VALUE
ELEV_TYPE   .                                                KB :ELEVATION REFERENCE TYPE
~Curve Information Section
#MNEM       .UNIT                                      API CODE :CURVE DESCRIPTION
#------------------------------------------------------------------------------
DEPT        .FT                                                 :DEPTH     
CALI        .IN                                                 :          
CILD        .MMHO                                               :          
DT          .US/F                                               :          
GR          .GAPI                                               :          
GR_NORM     .GAPI                                               :GammaRay Normalized
ILD         .OHMM                                               :          
ILM         .OHMM                                               :          
RHOB        .G/C3                                               :          
SFL         .OHMM                                               :          
SP          .MV                                                 :          
SP_NORM     .MV                                                 :SP Normalized
VSH_GR      .V/V                                                :Volume of Shale from GR
VSH_SP      .V/V                                                :Volume of Shale from SP
~A        DEPTH           CALI           CILD             DT             GR        GR_NORM            ILD            ILM           RHOB            SFL             SP        SP_NORM         VSH_GR         VSH_SP
# ...
      5461.0000        13.3887       2491.375         92.125         53.623       59.79956         0.3789         0.4432         1.9824         0.5823       -97.8945      -44.78716      0.5702035      0.2535474
      5461.5000        13.7556         2464.5        80.2461        53.9863       60.33134         0.3616         0.4494         1.9738         0.5514       -100.832      -47.72466       0.581518      0.2045891
      5462.0000          13.98         2935.5        80.0026        52.6211       58.31598         0.3321         0.4528         1.9722         0.6398      -103.1211      -50.01376      0.5386379      0.1664374
      5462.5000         14.036         3499.5        82.4375        49.8867       54.28294         0.3104         0.4313         1.9792          0.916      -104.8789      -51.77155      0.4528284      0.1371408
      5463.0000        13.9847         3888.5        97.9063         47.291       50.45429         0.2917         0.3797         1.9934          1.134      -105.5516      -52.44425      0.3713678      0.1259291
      5463.5000        13.6467       4022.375       106.1367        45.0547       47.15527         0.2744         0.3311         2.0091         0.6445      -104.8945      -51.78716      0.3011759      0.1368807
      5464.0000        13.3643       4032.188       110.6953        43.0137       44.14404         0.2589          0.296         2.0251         0.3723      -102.7695      -49.66216      0.2371073      0.1722974
      5464.5000         13.244        4088.75       114.5449        41.5303       41.95449         0.2442         0.2722         2.0351         0.3233       -99.6016      -46.49426       0.190521      0.2250957
      5465.0000        13.0713         4205.5       114.8613        45.3281       47.54738         0.2325         0.2558         2.0389         0.3119       -95.8672      -42.75986      0.3095187      0.2873357
      5465.5000        12.9271       4340.375       114.1372        48.9648       52.90288         0.2213         0.2725         1.9949         0.2935       -94.1445      -41.03716      0.4234656      0.3160474
      5466.0000        12.8633       4367.125       112.0039        50.1709       54.67662         0.2121         0.2958         1.9433         0.3624       -92.3242      -39.21686      0.4612046      0.3463857
      5466.5000        12.8348           3687       109.2305        51.2793       56.30637         0.2382         0.3274         1.9337         0.4478       -88.6523      -35.54495      0.4958802      0.4075841
      5467.0000        12.8534           3123        106.752        53.0332       58.88735         0.2838          0.368         1.9487         0.4539       -85.8223      -32.71496      0.5507947      0.4547507
      5467.5000        12.8458           2715       104.7402          55.25       62.15046         0.3375         0.4067         1.9613          0.438       -84.0967      -30.98936      0.6202226      0.4835107
      5468.0000        12.8389           2309       103.1348         57.582       65.58334         0.4014         0.4617         1.9734         0.4938       -83.4175      -30.31016      0.6932626      0.4948307
      5468.5000        12.8349         2116.5       101.8369        59.6309       68.59902         0.4597         0.5124          1.985         0.6614       -84.0742      -30.96686       0.757426      0.4838857
      5469.0000         12.876       1955.875       100.9102        60.7451       70.23734         0.5057         0.5595          2.004         0.9426       -85.8262      -32.71886      0.7922839      0.4546857
      5469.5000         12.924       1796.375       100.8594        60.7897       70.29948         0.5492         0.6035          2.023         1.1277       -88.1543      -35.04695      0.7936059      0.4158841
      5470.0000         12.972       1688.375       100.7124        60.6541       70.09606         0.5895         0.6447         2.0384         1.1724       -90.3848      -37.27746      0.7892779       0.378709
      5470.5000        12.9167       1625.438       100.2095          60.49       69.85066         0.6215         0.6724         2.0283         1.1791        -92.752      -39.64465      0.7840567      0.3392558
      5471.0000        12.8608       1678.313        99.3018         60.326       69.60538         0.6152         0.6823         2.0142         1.1677       -95.2793      -42.17195       0.778838      0.2971341
      5471.5000         12.814       1770.125        99.3916        60.1632       69.36191         0.5998         0.6693         2.0035         1.1525       -97.8516      -44.74426      0.7736576      0.2542624
      5472.0000        12.7715       1877.875       100.7822        60.0009       69.11916         0.5685         0.6486         1.9966         1.1265      -100.1973      -47.08996      0.7684927      0.2151674
      5472.5000        12.7592       2014.875       102.0928        59.8118       68.83689         0.5267          0.621         1.9934         1.0842       -102.543      -49.43565      0.7624871      0.1760724
      5473.0000        12.7469       2124.688       103.3564        59.1953       67.92482         0.4835         0.5881         1.9941         1.0417       -103.998      -50.89066      0.7430813      0.1518224
      5473.5000        12.7321       2210.188       104.5205        56.8613       64.48183          0.454         0.5583         1.9881         1.0143      -100.9805      -47.87315      0.6698263      0.2021141
      5474.0000        12.7157       2271.438       101.8906        55.1562        61.9656         0.4476         0.5298         1.9765         0.9975         -93.75      -40.64265      0.6162893      0.3226224
      5474.5000        12.6994        2169.75        99.6113        54.2646       60.64812         0.4457         0.5017         1.9666          0.934       -83.5547      -30.44736      0.5882579      0.4925441
      5475.0000         12.693         2032.5        97.3301        54.0998       60.40168         0.4662         0.4844         1.9583         0.7244       -76.6094      -23.50205      0.5830145      0.6082991
      5475.5000        12.6953        1931.75        96.6182        55.4199       62.34341         0.4944         0.5054         1.9657         0.5627       -70.8164      -17.70905      0.6243278      0.7048491
      5476.0000        12.7469       1832.125        97.9063         58.291       66.57069         0.5333          0.546         1.9837         0.5188       -67.9961      -14.88876      0.7142701      0.7518541
      5476.5000        12.8469        1735.25        99.7207        60.7227       70.15048         0.5766         0.5944         2.0078         0.6256       -67.4883      -14.38095      0.7904358      0.7603175
      5477.0000        13.0916       1631.125       101.1963        61.8608       71.82403         0.6217         0.6422         2.0309         0.7321       -68.4688      -15.36146      0.8260431      0.7439757
      5477.5000        13.5332       1524.625       100.6797        62.0098       72.04002         0.6584         0.6826         2.0331         0.8247       -70.9512      -17.84386      0.8306386      0.7026024
      5478.0000        13.6688       1439.844       100.5615        61.4209       71.16859         0.6822         0.7091         2.0228         0.9009       -73.5371      -20.42976      0.8120977      0.6595041
      5478.5000        13.6858       1413.266       101.7031        60.8164        70.2711         0.7076         0.7263          2.017         0.9305       -75.5781      -22.47076       0.793002      0.6254874
      5479.0000        13.9702       1445.813        97.8789         60.618       69.96313         0.7222          0.722         2.0149         0.9152       -77.1533      -24.04595      0.7864497      0.5992342
      5479.5000         14.292       1539.375        95.4758        60.7869       70.19641         0.7021         0.6821         2.0099         0.8879        -78.001      -24.89365       0.791413      0.5851058
