#------------------------------------------------------------------------------
# Created by    : vladimir.rabinovich
# Created on    : 09/19/2023 17:20:24
#------------------------------------------------------------------------------
~Version Information Section
VERS.           2.0     :   CWLS log ASCII Standard - VERSION 2.0
WRAP.           NO      :   One line per depth step
~Well Information Section
#MNEM       .UNIT                                         VALUE :DESCRIPTION
#------------------------------------------------------------------------------
STRT        .FT                                            1590 :START DEPTH
STOP        .FT                                            8991 :STOP DEPTH
STEP        .FT                                             0.5 :STEP      
NULL        .                                           -999.25 :NULL      
COMP        .                                 C & K OFFSHORE CO :COMPANY   
WELL        .                                OCS 00507 ST00BP00 :WELL      
FLD         .                                           WILDCAT :FIELD     
LOC         .                                                   :LOCATION  
CNTY        .                           HIGH ISLAND LARGE BLOCK :LOCATION  
STAT        .                                             TEXAS :STATE     
CTRY        .                                     UNITED STATES :COUNTRY   
SRVC        .                                                   :SERVICE COMPANY
DATE        .                             9/13/2023 11:19:15 AM :LOG DATE  
API         .                                    42708300260000 :API NUMBER
UWI         .                                    42708300260000 :UNIQUE WELL ID
XCOORD      .                                  1287575.74118613 :SURFACE X 
YCOORD      .                                  10681645.7296129 :SURFACE Y 
LAT         .                                         29.428295 :LATITUDE  
LON         .                                        -94.108714 :LONGITUDE 
ELEV        .FT                                              73 :ELEVATION VALUE
ELEV_TYPE   .                                                KB :ELEVATION REFERENCE TYPE
~Curve Information Section
#MNEM       .UNIT                                      API CODE :CURVE DESCRIPTION
#------------------------------------------------------------------------------
DEPT        .FT                                                 :DEPTH     
ASN         .OHMM                                               :          
CALI        .IN                                                 :          
CILD        .MMHO                                               :          
DT          .US/F                                               :          
GR          .GAPI                                               :          
GR_NORM     .GAPI                                               :GammaRay Normalized
ILD         .OHMM                                               :          
SP          .MV                                                 :          
SP_NORM     .MV                                                 :SP Normalized
VSH_GR      .V/V                                                :Volume of Shale from GR
VSH_SP      .V/V                                                :Volume of Shale from SP
~A        DEPTH            ASN           CALI           CILD             DT             GR        GR_NORM            ILD             SP        SP_NORM         VSH_GR         VSH_SP
# ...
      7012.5000         0.5414         9.9915       4003.547       112.1372        50.6815       49.60188          0.272      -113.0802       -67.4681      0.3532314     0.03616998
      7013.0000         0.5533        10.1387       3999.977       113.0431        51.6379       50.79738         0.2915      -112.9033      -67.28738      0.3786676     0.03875166
      7013.5000         0.5631        10.1391       3992.832       112.6147        53.7079       53.38488         0.3111      -112.5792      -66.95947      0.4337208     0.04343611
      7014.0000          0.547        10.1049       3704.227       116.7776         56.142        56.4275         0.3306      -111.8511      -66.22755      0.4984574     0.05389219
      7014.5000         0.5451        10.1117       3415.617       119.1014        55.9009       56.12613         0.3502      -107.4032      -61.77583      0.4920453      0.1174881
      7015.0000         0.5918        10.0799       3127.012       112.9446        55.0991       55.12387         0.3634       -99.7904      -54.15922      0.4707206      0.2262969
      7015.5000         0.6328        10.0258       2626.922        94.8459         55.713       55.89125          0.374       -91.6935       -46.0585      0.4870479      0.3420215
      7016.0000         0.6931         9.9544        2565.77        87.9137        56.6791       57.09888         0.3671       -85.5233      -39.88449       0.512742      0.4302216
      7016.5000         0.7057         9.9217           2748        95.8455        54.0621       53.82763         0.3427       -91.5425      -45.89987       0.443141      0.3442875
      7017.0000          0.697         9.9038           3474       100.0648        50.3982       49.24775         0.3184       -92.8441      -47.19765      0.3456968      0.3257478
      7017.5000          0.674         9.9386       4003.828       102.9056        47.6689       45.83612         0.2934      -101.6375      -55.98724       0.273109      0.2001823
      7018.0000          0.651         9.9749       4026.867        85.0975        45.7249       43.40612         0.2678      -104.3195      -58.66542      0.2214069      0.1619225
      7018.5000         0.6343         9.9753       4053.043         88.347        43.9224         41.153         0.2421      -104.8235      -59.16561      0.1734681       0.154777
      7019.0000         0.6194         9.9318       4036.371          97.16        41.7933       38.49163         0.2165      -109.3676      -63.70589      0.1168431      0.0899159
      7019.5000         0.6102         9.9042       4023.797        97.2747        39.7449       35.93113         0.2151      -110.9625      -65.29697     0.06236438     0.06718608
      7020.0000         0.6011         9.9097       4017.922        97.1979        39.1723       35.21537         0.2203        -112.51      -66.84065     0.04713562     0.04513353
      7020.5000         0.5819         9.9221       4012.047        98.6814        41.7993       38.49913         0.2271       -114.017      -68.34384      0.1170027     0.02365941
      7021.0000         0.5831         9.9273       4006.172        100.359        44.9988        42.4985         0.2351      -114.6348      -68.95782      0.2020957     0.01488822
      7021.5000         0.6091         9.9316       3780.707       101.5603        45.5699       43.21238          0.243      -115.0457      -69.36491      0.2172846    0.009072767
      7022.0000         0.6359         9.9296       3751.324       101.9004        45.4808         43.101         0.2509      -114.8494      -69.16479      0.2149149      0.0119315
      7022.5000         0.6669         9.9275       3727.395       101.4607        46.6752         44.594         0.2559      -114.6528      -68.96437      0.2466809      0.0147947
      7023.0000         0.6768         9.9237       3731.438       100.4132        48.1912         46.489         0.2476      -114.7214      -69.02916          0.287     0.01386915
      7023.5000         0.5978         9.9164       4063.641        99.0568        47.8992         46.124         0.2393      -115.6001      -69.90404      0.2792341    0.001370893
      7024.0000         0.5509         9.9091       4181.969        98.2986        47.6003       45.75037          0.231      -116.4799      -70.78002      0.2712846              0
      7024.5000         0.5098         9.9146       4239.836         98.155        47.0983       45.12288         0.2227      -117.4159      -71.71221      0.2579335              0
      7025.0000         0.4699         9.9223        4024.43        98.2134        44.8413       42.30163         0.2144      -116.4137      -70.70619       0.197907              0
      7025.5000         0.4743         9.9447       4002.125        97.9625        41.6104         38.263         0.2061      -112.9293      -67.21797      0.1119787     0.03974326
      7026.0000          0.515         9.9671       4000.625         97.037        40.6257       37.03213         0.1978      -110.4386      -64.72346     0.08578994     0.07537918
      7026.5000         0.5359         10.017       3999.129         96.131        42.2932        39.1165         0.2075      -110.6689      -64.94994      0.1301383     0.07214367
      7027.0000         0.5568        10.0818       3984.074        95.1672         43.766        40.9575         0.2212      -110.5831      -64.86033      0.1693084     0.07342388
      7027.5000          0.576        10.1719       3750.402        93.5819        43.8582       41.07275          0.232      -108.5938      -62.86721      0.1717606      0.1018969
      7028.0000         0.5951        10.2341       3604.906        92.9818        43.1757       40.21963         0.2423      -106.0878       -60.3574      0.1536091      0.1377515
      7028.5000         0.6151        10.1247       3292.215        92.3547         43.154        40.1925         0.2525       -99.9053      -54.17107      0.1530319      0.2261275
      7029.0000         0.6355        10.0195       2832.434        92.3499        43.7355       40.91938         0.2628       -98.1643      -52.42626      0.1684974      0.2510534
      7029.5000         0.6694         9.9955       2379.418        95.7864        45.2427       42.80338         0.3424       -97.8917      -52.14985      0.2085824      0.2550022
      7030.0000         0.8398        10.4731       2118.676       100.4045        49.5521       48.19012         0.4316       -94.6288      -48.88313      0.3231941      0.3016696
      7030.5000         0.8626         10.662       1999.992       106.9479         53.275       52.84375         0.5284       -88.4486      -42.69912      0.4222074      0.3900126
      7031.0000         0.8812        10.9715       2002.465       108.8514        55.1896         55.237         0.6251       -82.2686       -36.5153      0.4731277      0.4783529
      7031.5000         0.8995        11.1044       1821.262       107.8464         58.761       59.70125         0.7363       -76.0785      -30.32138      0.5681117      0.5668374
      7032.0000         0.9228        11.1115       1708.605       107.0021        65.3804        67.9755         0.8212       -69.8984      -24.13746      0.7441596      0.6551791
      7032.5000         0.9045         11.084       1470.553       106.4387        70.1462       73.93275         0.8601       -63.2791      -17.51435      0.8709097       0.749795
      7033.0000         0.8827        11.0362         1232.9       106.6796        70.8347       74.79338         0.8783       -49.0295      -3.260933      0.8892209      0.9534152
      7033.5000         0.8626        11.0008       1249.072       107.6433        70.3613       74.20162         0.8589       -47.4845      -1.712116      0.8766302      0.9755412
      7034.0000         0.8444        11.0136        1332.32        108.708        70.6047       74.50587         0.8395        -46.834        -1.0578      0.8831037      0.9848886
      7034.5000         0.8264        11.0385       1394.869       110.1776         68.389       71.73625         0.8201       -46.5279     -0.7478828      0.8241756       0.989316
