#------------------------------------------------------------------------------
# Created by    : vladimir.rabinovich
# Created on    : 09/19/2023 17:21:25
#------------------------------------------------------------------------------
~Version Information Section
VERS.           2.0     :   CWLS log ASCII Standard - VERSION 2.0
WRAP.           NO      :   One line per depth step
~Well Information Section
#MNEM       .UNIT                                         VALUE :DESCRIPTION
#------------------------------------------------------------------------------
STRT        .FT                                            2957 :START DEPTH
STOP        .FT                                            7390 :STOP DEPTH
STEP        .FT                                             0.5 :STEP      
NULL        .                                           -999.25 :NULL      
COMP        .                              DEVON LOUISIANA CORP :COMPANY   
WELL        .                               OCS G09039 ST00BP00 :WELL      
FLD         .                              GALVESTON BLOCK 0273 :FIELD     
LOC         .                                                   :LOCATION  
CNTY        .                             GALVESTON LARGE BLOCK :LOCATION  
STAT        .                                             TEXAS :STATE     
CTRY        .                                     UNITED STATES :COUNTRY   
SRVC        .                                                   :SERVICE COMPANY
DATE        .                             9/13/2023 11:19:54 AM :LOG DATE  
API         .                                    42706403330000 :API NUMBER
UWI         .                                    42706403330000 :UNIQUE WELL ID
XCOORD      .                                  1020560.14583294 :SURFACE X 
YCOORD      .                                  10500181.0477632 :SURFACE Y 
LAT         .                                        28.9197225 :LATITUDE  
LON         .                                       -94.9380297 :LONGITUDE 
ELEV        .FT                                              98 :ELEVATION VALUE
ELEV_TYPE   .                                                KB :ELEVATION REFERENCE TYPE
~Curve Information Section
#MNEM       .UNIT                                      API CODE :CURVE DESCRIPTION
#------------------------------------------------------------------------------
DEPT        .FT                                                 :DEPTH     
CALI        .IN                                                 :          
DCAL        .IN                                                 :          
DPHI        .%                                                  :          
DRHO        .G/C3                                               :          
GR          .GAPI                                               :          
GR_NORM     .GAPI                                               :GammaRay Normalized
ILD         .OHMM                                               :          
ILM         .OHMM                                               :          
LL3         .OHMM                                               :          
NPHI        .%                                                  :          
SP          .MV                                                 :          
SP_NORM     .MV                                                 :SP Normalized
VSH_GR      .V/V                                                :Volume of Shale from GR
VSH_SP      .V/V                                                :Volume of Shale from SP
~A        DEPTH           CALI           DCAL           DPHI           DRHO             GR        GR_NORM            ILD            ILM            LL3           NPHI             SP        SP_NORM         VSH_GR         VSH_SP
# ...
      4145.0000        12.3489          2.479        26.0375          0.111        42.7516       44.25672         0.7164         0.8838         1.6384        26.2594       -55.5813      -45.90971      0.2395046      0.3441471
      4145.5000         12.421         2.4106        27.3781         0.0925        42.4806       43.94565         0.7204         0.8619          1.582        27.0417       -56.1855      -46.51814      0.2328862      0.3354552
      4146.0000        13.0916          2.712        30.2157         0.0843        42.1678       43.58666         0.7305         0.8535         1.6536        27.2259       -56.7324      -47.06926      0.2252481       0.327582
      4146.5000        13.4825         3.3715         31.285         0.1093        41.9569       43.34451         0.7491         0.8564          1.671         26.878       -57.0901      -47.43119      0.2200959      0.3224116
      4147.0000        13.5669         3.5613        31.4206         0.1251        41.7984       43.16244         0.7807         0.8685         1.8237        26.4532       -57.2062      -47.55152      0.2162221      0.3206925
      4147.5000        13.4045         3.4334        28.1128         0.1338        41.6578        43.0009         0.8323         0.8984         1.7971        26.0072       -56.8372      -47.18675       0.212785      0.3259036
      4148.0000        13.1709         3.1639         22.989         0.1154        41.7454       43.10102         0.9072         0.9397         2.1096        25.4435        -56.053      -46.40678      0.2149153      0.3370461
      4148.5000        12.8886         2.7866        18.0023         0.0915        42.0505       43.45055         0.9991         1.0177         2.1763        24.9313       -55.1266       -45.4846      0.2223521      0.3502199
      4149.0000        12.5629         2.4673        14.8309         0.0698        42.2511       43.68025          1.093         1.1553         2.6569         23.555        -54.241      -44.60323      0.2272393      0.3628109
      4149.5000        12.2856         2.2733        11.6625         0.0596        42.0152       43.40944         1.1599         1.2782         3.0555         21.815        -53.456      -43.82246      0.2214774      0.3739648
      4150.0000        12.1752         2.1897        10.8055         0.0437        41.7496       43.10456         1.1729         1.3905         3.0105        20.3988       -52.6385      -43.00919      0.2149907       0.385583
      4150.5000        12.0094         1.9899        10.5436         0.0563        41.6362       42.97421         1.1392         1.4862         3.1702        19.8622       -51.7322      -42.10712      0.2122172      0.3984697
      4151.0000         11.579         1.6745        11.5582         0.0557        42.7402       44.23981         1.0621         1.5132         3.4626        20.3391       -51.2294      -41.60855      0.2391449      0.4055921
      4151.5000        11.2857         1.3928        15.4718         0.0435        43.7521        45.3998         0.9392           1.43         3.8152        21.9374       -51.9841      -42.36748      0.2638256      0.3947503
      4152.0000         11.111         1.2476        20.1626         0.0436        44.5488       46.31303         0.8025         1.1958         3.2641        24.2327        -54.778       -45.1656       0.283256      0.3547771
      4152.5000        11.3493         1.4099        26.2052         0.0568        45.1135       46.96023         0.6732         0.9222          1.841        27.1651       -59.2802      -49.67204      0.2970262      0.2903995
      4153.0000        11.5997         1.6703        32.9117         0.0803        43.5399       45.15553         0.5533         0.7485         1.5816        30.7348       -64.4766      -54.87267      0.2586282      0.2161048
      4153.5000        11.8429          2.015        36.7836         0.1023        41.5724       42.89914         0.4588         0.6058         1.2597        34.7891       -68.9768      -59.37709      0.2106199      0.1517559
      4154.0000        12.3577         2.6073        38.0108         0.0997        40.1719       41.29291         0.3928         0.4954         0.9797        37.4516       -71.8059      -62.21042      0.1764449      0.1112797
      4154.5000        13.0708         3.0403        38.3362         0.0911        39.4711       40.48901         0.3504          0.419         0.8212        38.4062       -72.7213      -63.13005      0.1593406     0.09814218
      4155.0000         13.465         3.3526        38.2563         0.0912        40.4898        41.6568         0.3285         0.3898         0.7332        37.4445       -71.9679      -62.38088      0.1841871      0.1088445
      4155.5000        13.7076         3.6132        37.2418         0.0987        42.5923       44.06734         0.3209         0.3854         0.8116        35.4518       -69.6093       -60.0265      0.2354754      0.1424785
      4156.0000        13.7978         3.7052        35.5347          0.111        44.7647       46.55804         0.3168         0.3923         0.9127        33.7916       -66.2935      -56.71494       0.288469      0.1897866
      4156.5000        13.4235         3.2599         34.022         0.1064        46.7874       48.87708         0.3136         0.4052         1.0999        33.0131       -63.6769      -54.10256      0.3378102      0.2271063
      4157.0000        12.9111          2.921        33.1252         0.0857        48.1517       50.44116         0.3118         0.4152         1.4852        32.7861       -63.1687      -53.59859      0.3710885      0.2343058
      4157.5000        12.7066         2.7606        34.0234          0.074        48.4131       50.74058         0.3127         0.4133         1.5471        32.7073        -65.323      -55.75712      0.3774592      0.2034697
      4158.0000        12.5917         2.5925        35.7015         0.0851        48.2444       50.54682         0.3164         0.4034          1.015        32.5692       -68.8364      -59.27475      0.3733366      0.1532178
      4158.5000        12.6736         2.5949         37.259         0.1034        48.4422        50.7733         0.3224         0.3914         0.8333        32.2653       -71.5175      -61.96008      0.3781554       0.114856
      4159.0000        12.8259         2.7272        37.1993         0.1182        50.4402       53.06403          0.329          0.378         0.7602        32.3255       -71.5118      -61.95861      0.4268943       0.114877
      4159.5000        12.7858         2.8022        35.5659         0.1063        52.7267       55.68556         0.3362         0.3702         0.8247         32.648       -68.4387      -58.88973      0.4826715      0.1587181
      4160.0000        12.4858         2.7475        32.6956         0.0805        55.2748       58.60706         0.3465         0.3777         0.8406        33.0377       -62.1124      -52.56767      0.5448312      0.2490334
      4160.5000        12.1252         2.4837        29.7596         0.0533        56.6624       60.19786         0.3632         0.4016         0.8492        32.8223       -54.6955      -45.15499      0.5786778      0.3549287
      4161.0000        11.7882         2.1254        26.9511         0.0385        56.2457       59.71973         0.3859         0.4287         0.9533        31.2987       -49.5047      -39.96842      0.5685049      0.4290226
      4161.5000        11.4693         1.8133        25.8788         0.0411        50.0068       52.56547         0.4135         0.4616         1.2196        28.6746       -48.6686      -39.13655      0.4162866      0.4409065
      4162.0000        11.2023         1.5014        24.7633           0.05        44.9255       46.73859         0.4389         0.4975         1.3384        26.3847       -52.4229      -42.89508      0.2923105      0.3872131
      4162.5000        11.0168         1.2558        23.9108         0.0476        41.7418       43.08763         0.4518         0.5293         1.5585        24.2873        -58.369      -48.84541      0.2146304      0.3022085
