#------------------------------------------------------------------------------
# Created by    : vladimir.rabinovich
# Created on    : 09/19/2023 17:20:58
#------------------------------------------------------------------------------
~Version Information Section
VERS.           2.0     :   CWLS log ASCII Standard - VERSION 2.0
WRAP.           NO      :   One line per depth step
~Well Information Section
#MNEM       .UNIT                                         VALUE :DESCRIPTION
#------------------------------------------------------------------------------
STRT        .FT                                             521 :START DEPTH
STOP        .FT                                           11050 :STOP DEPTH
STEP        .FT                                             0.5 :STEP      
NULL        .                                           -999.25 :NULL      
COMP        .                                      SHELL OIL CO :COMPANY   
WELL        .                                     ST TR 00335-L :WELL      
FLD         .                                           WILDCAT :FIELD     
LOC         .                                                   :LOCATION  
CNTY        .                                BRAZOS LARGE BLOCK :LOCATION  
STAT        .                                             TEXAS :STATE     
CTRY        .                                     UNITED STATES :COUNTRY   
SRVC        .                                                   :SERVICE COMPANY
DATE        .                             9/13/2023 11:18:52 AM :LOG DATE  
API         .                                    42704000130000 :API NUMBER
UWI         .                                    42704000130000 :UNIQUE WELL ID
XCOORD      .                                  903482.990868916 :SURFACE X 
YCOORD      .                                   10450808.276789 :SURFACE Y 
LAT         .                                        28.7782296 :LATITUDE  
LON         .                                       -95.3008656 :LONGITUDE 
ELEV        .FT                                              81 :ELEVATION VALUE
ELEV_TYPE   .                                                DF :ELEVATION REFERENCE TYPE
~Curve Information Section
#MNEM       .UNIT                                      API CODE :CURVE DESCRIPTION
#------------------------------------------------------------------------------
DEPT        .FT                                                 :DEPTH     
ASN         .OHMM                                               :          
CILD        .MMHO                                               :          
ILD         .OHMM                                               :          
SP          .MV                                                 :          
SP_NORM     .MV                                                 :SP Normalized
VSH_SP      .V/V                                                :Volume of Shale from SP
~A        DEPTH            ASN           CILD            ILD             SP        SP_NORM         VSH_SP
# ...
     11009.0000         0.3916       1583.973         0.2012       -44.8345     -0.9320602              1
     11009.5000         0.3951       1579.158         0.2008       -44.6951     -0.7926598              1
     11010.0000         0.3984       1581.406         0.2005       -44.6187      -0.716259              1
     11010.5000         0.4015       1590.605            0.2       -44.5421     -0.6396599              1
     11011.0000         0.4015       1611.422         0.1991       -44.5214     -0.6189613              1
     11011.5000         0.4016        -999.25         0.1981       -44.5856     -0.6831627              1
     11012.0000         0.4013        -999.25         0.1971       -44.6498     -0.7473602              1
     11012.5000          0.398        -999.25         0.1962       -44.7362     -0.8337593              1
     11013.0000         0.3947        -999.25         0.1952       -44.8845     -0.9820595              1
     11013.5000         0.3914        -999.25         0.1943       -45.0327       -1.13026      0.9959294
     11014.0000         0.3884        -999.25         0.1929       -45.1852      -1.282761      0.9911637
     11014.5000         0.3869        -999.25          0.191        -45.347      -1.444561      0.9861075
     11015.0000         0.3854        -999.25         0.1891       -45.3897      -1.487263       0.984773
     11015.5000         0.3839        -999.25         0.1872       -45.2548       -1.35236      0.9889888
     11016.0000         0.3824        -999.25         0.1853       -45.0128      -1.110359      0.9965513
     11016.5000         0.3821        -999.25         0.1833       -44.6273     -0.7248611              1
     11017.0000         0.3823        -999.25         0.1834       -44.3326     -0.4301605              1
     11017.5000         0.3825        -999.25         0.1836       -44.0912     -0.1887627              1
     11018.0000         0.3828        -999.25         0.1838       -43.8701       0.032341              1
     11018.5000         0.3832        -999.25          0.184       -43.7133      0.1891403              1
     11019.0000         0.3839        -999.25         0.1842       -43.5563       0.346138              1
     11019.5000         0.3846       1775.953          0.185       -43.4091      0.4933395              1
     11020.0000         0.3853       1757.998          0.186       -43.3621      0.5403404              1
     11020.5000          0.386       1728.336         0.1869       -43.3151      0.5873375              1
     11021.0000         0.3862       1703.387         0.1879       -43.2682      0.6342392              1
     11021.5000         0.3862       1678.148         0.1888       -43.4114      0.4910393              1
     11022.0000         0.3862       1656.539         0.1902        -43.566      0.3364372              1
     11022.5000         0.3863       1698.818         0.1917       -43.7203      0.1821404              1
     11023.0000         0.3863       1724.299         0.1933          -43.9    0.002437592              1
     11023.5000         0.3863       1739.178         0.1948       -44.0945     -0.1920624              1
     11024.0000         0.3866        1745.57         0.1963       -44.2891     -0.3866615              1
     11024.5000         0.3874       1735.115         0.1979       -44.4836     -0.5811615              1
     11025.0000         0.3882       1724.635         0.1987       -44.6781     -0.7756615              1
     11025.5000         0.3889       1712.736         0.1996       -44.8353     -0.9328613              1
     11026.0000         0.3897        1703.02         0.2005       -44.8376     -0.9351616              1
     11026.5000         0.3904       1698.656         0.2013       -44.8378       -0.93536              1
     11027.0000         0.3911       1697.004         0.2022       -44.7785     -0.8760605              1
     11027.5000         0.3917       1700.105         0.2028       -44.7194     -0.8169594              1
     11028.0000         0.3923       1703.211          0.203       -44.6602     -0.7577591              1
     11028.5000         0.3928       1713.266         0.2032       -44.6396     -0.7371597              1
     11029.0000         0.3922       1724.346         0.2034        -44.624     -0.7215614              1
     11029.5000         0.3915       1742.037         0.2036       -44.6084     -0.7059593              1
     11030.0000         0.3909       1773.957         0.2038       -44.5928      -0.690361              1
     11030.5000           0.39       1831.838         0.2038          -44.6     -0.6975594              1
     11031.0000         0.3892       1904.621         0.2033       -44.6243      -0.721859              1
     11031.5000         0.3883        -999.25         0.2028       -44.6486     -0.7461624              1
     11032.0000         0.3876        -999.25         0.2022       -44.6729      -0.770462              1
     11032.5000         0.3869        -999.25         0.2017       -44.6971     -0.7946625              1
     11033.0000         0.3862        -999.25         0.2012       -44.7286     -0.8261604              1
     11033.5000         0.3848        -999.25         0.1991       -44.7785     -0.8760605              1
     11034.0000         0.3834        -999.25          0.197       -44.8283     -0.9258614              1
     11034.5000          0.382        -999.25         0.1948       -44.8782     -0.9757614              1
     11035.0000         0.3806        -999.25         0.1926        -44.928      -1.025562      0.9992012
     11035.5000         0.3799        -999.25         0.1905       -44.9884       -1.08596      0.9973137
     11036.0000         0.3794        -999.25         0.1883       -45.0651      -1.162663      0.9949168
     11036.5000         0.3788        -999.25         0.1861       -45.1416      -1.239162      0.9925262
     11037.0000         0.3783        -999.25         0.1839       -45.2183      -1.315861      0.9901294
     11037.5000         0.3775        -999.25         0.1818        -45.295      -1.392559      0.9877325
     11038.0000         0.3767        -999.25         0.1796       -45.3427      -1.440262      0.9862418
     11038.5000         0.3759        -999.25         0.1774       -45.3779       -1.47546      0.9851419
     11039.0000         0.3752        -999.25         0.1757       -45.4132      -1.510761      0.9840387
     11039.5000         0.3747        -999.25         0.1745       -45.4485      -1.546062      0.9829355
     11040.0000         0.3742        -999.25         0.1732       -45.4838       -1.58136      0.9818325
     11040.5000         0.3737        -999.25         0.1719       -45.5191      -1.616661      0.9807293
     11041.0000         0.3732        -999.25         0.1707       -45.4559      -1.553459      0.9827044
     11041.5000         0.3716        -999.25         0.1698       -45.3727      -1.470261      0.9853044
     11042.0000         0.3696        -999.25           0.17       -45.2896      -1.387161      0.9879012
     11042.5000         0.3677        -999.25         0.1702       -45.2064      -1.303963      0.9905012
     11043.0000         0.3658        -999.25         0.1704       -45.1669      -1.264462      0.9917356
     11043.5000          0.365        -999.25         0.1705       -45.2286       -1.32616      0.9898075
     11044.0000         0.3653        -999.25         0.1707       -45.4018      -1.499359       0.984395
     11044.5000          0.366       1961.156         0.1709       -45.7842       -1.88176       0.972445
     11045.0000         0.3686       1916.447         0.1711        -46.045      -2.142559       0.964295
     11045.5000         0.3712       1859.625         0.1713       -46.2298      -2.327362      0.9585199
     11046.0000         0.3738       1761.963         0.1715       -46.3588       -2.45636      0.9544888
     11046.5000         0.3762       1748.936         0.1717       -46.3447      -2.442261      0.9549294
