#------------------------------------------------------------------------------
# Created by    : vladimir.rabinovich
# Created on    : 09/19/2023 17:22:54
#------------------------------------------------------------------------------
~Version Information Section
VERS.           2.0     :   CWLS log ASCII Standard - VERSION 2.0
WRAP.           NO      :   One line per depth step
~Well Information Section
#MNEM       .UNIT                                         VALUE :DESCRIPTION
#------------------------------------------------------------------------------
STRT        .FT                                             410 :START DEPTH
STOP        .FT                                            7624 :STOP DEPTH
STEP        .FT                                             0.5 :STEP      
NULL        .                                           -999.25 :NULL      
COMP        .                                      SHELL OIL CO :COMPANY   
WELL        .                                     ST TR 00249-L :WELL      
FLD         .                                           WILDCAT :FIELD     
LOC         .                                                   :LOCATION  
CNTY        .                             GALVESTON LARGE BLOCK :LOCATION  
STAT        .                                             TEXAS :STATE     
CTRY        .                                     UNITED STATES :COUNTRY   
SRVC        .                                                   :SERVICE COMPANY
DATE        .                             9/13/2023 11:19:42 AM :LOG DATE  
API         .                                    42706000200000 :API NUMBER
UWI         .                                    42706000200000 :UNIQUE WELL ID
XCOORD      .                                  981084.037319939 :SURFACE X 
YCOORD      .                                  10535303.7769946 :SURFACE Y 
LAT         .                                         29.014458 :LATITUDE  
LON         .                                       -95.0633058 :LONGITUDE 
ELEV        .FT                                              11 :ELEVATION VALUE
ELEV_TYPE   .                                                KB :ELEVATION REFERENCE TYPE
~Curve Information Section
#MNEM       .UNIT                                      API CODE :CURVE DESCRIPTION
#------------------------------------------------------------------------------
DEPT        .FT                                                 :DEPTH     
LAT         .OHMM                                               :          
SN          .OHMM                                               :          
SP          .MV                                                 :          
SP_NORM     .MV                                                 :SP Normalized
VSH_SP      .V/V                                                :Volume of Shale from SP
~A        DEPTH            LAT             SN             SP        SP_NORM         VSH_SP
# ...
       894.0000         1.1643         1.1383      -140.9087       -20.2685     0.08245232
       894.5000         1.1505         1.1362      -140.9065      -20.28928     0.08146268
       895.0000         1.1366         1.1297      -140.9045      -20.31027     0.08046323
       895.5000         1.1228         1.1053      -140.8259      -20.25467     0.08311099
       896.0000         1.1089          1.081      -140.6924      -20.14417     0.08837309
       896.5000         1.0973         1.0566      -140.5591      -20.03385     0.09362611
       897.0000         1.0895          1.092      -139.9114      -19.40916      0.1233735
       897.5000         1.0817         1.1063      -138.4131      -17.93384      0.1936268
       898.0000         1.0739         1.0927      -137.4365      -16.98022      0.2390369
       898.5000         1.0662         1.0791      -138.3005      -17.86723      0.1967984
       899.0000         1.0503         1.0655      -139.1646      -18.75431      0.1545566
       899.5000         0.9839         1.0519      -140.0286       -19.6413      0.1123189
       900.0000         1.0405         1.0383      -140.8926       -20.5283     0.07008108
       900.5000         1.0228         1.0572      -141.3684      -21.02708     0.04632932
       901.0000         0.9852          1.077      -141.1887      -20.87039     0.05379086
       901.5000         0.9487         1.0668      -141.0093      -20.71397      0.0612397
       902.0000         0.9286         1.0495      -140.8296      -20.55727     0.06870124
       902.5000         0.9085         1.0323      -140.7898      -20.54046     0.06950197
       903.0000         0.8866         0.9906      -140.7524      -20.52605     0.07018825
       903.5000         0.8399         0.9342      -140.7151      -20.51175     0.07086908
       904.0000         0.7932         0.8777      -140.6775      -20.49715     0.07156445
       904.5000          0.752         0.8213      -140.6401      -20.48273     0.07225073
       905.0000         0.7116         0.7687      -140.6028      -20.46842     0.07293229
       905.5000         0.6808         0.7341       -140.856      -20.74462     0.05977994
       906.0000         0.6548         0.8021      -141.1133       -21.0249     0.04643322
       906.5000         0.6303         0.8981      -141.3706      -21.30521     0.03308541
       907.0000         0.6247         0.9552      -141.1484        -21.106     0.04257166
       907.5000         0.6191         1.0124      -140.1003      -20.08088     0.09138671
       908.0000         0.6135         1.0252      -139.0276      -19.03118      0.1413723
       908.5000         0.6069         0.9497      -138.2656      -18.29216      0.1765638
       909.0000         0.6001         0.8743       -137.938      -17.98756      0.1910684
       909.5000         0.5933         0.7988      -137.6104      -17.68295      0.2055737
       910.0000         0.6401         0.6318      -147.1841      -27.27964              0
       910.5000         0.6466         0.5996      -143.2979      -23.41644              0
       911.0000         0.6607         0.5673       -137.562      -17.70352      0.2045942
       911.5000         0.6788         0.5542      -132.8315      -12.99602      0.4287611
       912.0000         0.7385         0.5647      -130.1562      -10.34372       0.555061
       912.5000         0.7982         0.5751      -127.4808      -7.691299      0.6813667
       913.0000         0.8526         0.5856      -125.4213        -5.6548      0.7783428
       913.5000         0.8978          0.596      -124.0186      -4.275093      0.8440432
       914.0000         0.9035         0.6189      -122.6155      -2.894981      0.9097628
       914.5000         0.8999         0.6552       -121.903      -2.205475      0.9425964
       915.0000         0.8962         0.6915      -121.4055      -1.730972      0.9651918
       915.5000         0.8926         0.7278      -120.9081      -1.256554      0.9877831
       916.0000          0.889          0.767      -120.5665     -0.9379501              1
       916.5000         0.8779         0.8115      -120.3302     -0.7246399              1
       917.0000         0.8627         0.8559      -120.0938     -0.5112381              1
       917.5000         0.8475         0.9003      -119.8574     -0.2978287              1
       918.0000         0.8322         0.9113       -119.621    -0.08441925              1
       918.5000          0.817         0.9155      -119.3813      0.1322861              1
       919.0000         0.8017         0.9197      -119.0367      0.4634781              1
       919.5000         0.7865         0.9239      -118.6921      0.7952728              1
       920.0000         0.7712         0.9281      -118.3474       1.127174              1
       920.5000         0.7559         0.9321      -118.0684       1.393379              1
       921.0000         0.7406         0.9326      -117.9761       1.472878              1
       921.5000         0.7252         0.9332      -117.8839       1.552269              1
       922.0000         0.7099         0.9337      -117.7917       1.631668              1
       922.5000         0.6946         0.9343      -118.4163       0.994278              1
       923.0000         0.6792         0.9348      -119.1492      0.2485733              1
       923.5000         0.6639          0.957       -119.882     -0.4970322              1
       924.0000         0.6488           0.99      -120.6147      -1.242523      0.9884513
       924.5000         0.6402          1.023      -121.3477      -1.988327      0.9529368
       925.0000         0.6316          1.056      -122.0435       -2.69693      0.9191938
       925.5000          0.623         1.0838       -122.583      -3.249222      0.8928942
       926.0000         0.6144         1.1012      -123.1227      -3.801727      0.8665844
       926.5000         0.6058         1.1187      -123.6622      -4.354027      0.8402845
       927.0000         0.5972         1.1361      -124.1064      -4.811028      0.8185225
       927.5000         0.5887         1.1471      -124.3768      -5.094223       0.805037
       928.0000         0.5818         1.1282      -124.6471      -5.377327      0.7915559
       928.5000         0.5749         1.1094      -124.9174      -5.660423      0.7780751
       929.0000          0.568         1.0905      -125.0787      -5.834518      0.7697848
       929.5000         0.5611         1.0749      -125.0255      -5.794121      0.7717085
       930.0000         0.5548         1.0618       -124.972      -5.753426      0.7736464
       930.5000           0.55         1.0487      -124.8358       -5.63002      0.7795228
       931.0000         0.5451         1.0357      -124.2035      -5.010521      0.8090228
       931.5000         0.5403         1.0587      -123.5714      -4.391228       0.838513
       932.0000         0.5381         1.0839      -122.9392      -3.771828      0.8680082
       932.5000         0.5418         1.1091      -121.1248      -1.970222      0.9537989
       933.0000         0.5456         1.1343      -119.2936      -0.151825              1
       933.5000         0.5494         1.1595      -118.0583       1.070679              1
       934.0000         0.5592         1.2064      -117.1123       2.003883              1
       934.5000         0.6069         1.2584      -116.2277       2.875679              1
       935.0000         0.6546         1.3077       -115.775       3.315575              1
       935.5000         0.7023          1.326      -115.3223       3.755478              1
       936.0000         0.7578         1.3399      -114.8695        4.19548              1
       936.5000         0.8237         1.3493      -115.1332       3.918976              1
       937.0000         0.8895         1.3874      -115.4294       3.609978              1
       937.5000         0.9554         1.4286      -115.7258       3.300781              1
