#------------------------------------------------------------------------------
# Created by    : vladimir.rabinovich
# Created on    : 09/19/2023 17:22:21
#------------------------------------------------------------------------------
~Version Information Section
VERS.           2.0     :   CWLS log ASCII Standard - VERSION 2.0
WRAP.           NO      :   One line per depth step
~Well Information Section
#MNEM       .UNIT                                         VALUE :DESCRIPTION
#------------------------------------------------------------------------------
STRT        .FT                                            2180 :START DEPTH
STOP        .FT                                            6738 :STOP DEPTH
STEP        .FT                                             0.5 :STEP      
NULL        .                                           -999.25 :NULL      
COMP        .                          SEAGULL ENERGY E & P INC :COMPANY   
WELL        .                               OCS G08131 ST00BP00 :WELL      
FLD         .                              GALVESTON BLOCK 0384 :FIELD     
LOC         .                                                   :LOCATION  
CNTY        .                             GALVESTON LARGE BLOCK :LOCATION  
STAT        .                                             TEXAS :STATE     
CTRY        .                                     UNITED STATES :COUNTRY   
SRVC        .                                                   :SERVICE COMPANY
DATE        .                             9/13/2023 11:19:36 AM :LOG DATE  
API         .                                    42706401890000 :API NUMBER
UWI         .                                    42706401890000 :UNIQUE WELL ID
XCOORD      .                                  986765.057424596 :SURFACE X 
YCOORD      .                                  10402321.6077632 :SURFACE Y 
LAT         .                                          28.64909 :LATITUDE  
LON         .                                        -95.038398 :LONGITUDE 
ELEV        .FT                                             100 :ELEVATION VALUE
ELEV_TYPE   .                                                KB :ELEVATION REFERENCE TYPE
~Curve Information Section
#MNEM       .UNIT                                      API CODE :CURVE DESCRIPTION
#------------------------------------------------------------------------------
DEPT        .FT                                                 :DEPTH     
CALN        .IN                                                 :          
DRHO        .G/CM3                                              :          
GR          .GAPI                                               :          
GR_NORM     .GAPI                                               :GammaRay Normalized
ILD         .OHMM                                               :          
ILM         .OHMM                                               :          
NPSS        .V/V                                                :Neutron Porosity Sandstone
RHOB        .G/CM3                                              :          
SFL         .OHMM                                               :          
SP          .MV                                                 :          
SP_NORM     .MV                                                 :SP Normalized
TENN        .LB                                                 :          
VSH_GR      .V/V                                                :Volume of Shale from GR
VSH_SP      .V/V                                                :Volume of Shale from SP
~A        DEPTH           CALN           DRHO             GR        GR_NORM            ILD            ILM           NPSS           RHOB            SFL             SP        SP_NORM           TENN         VSH_GR         VSH_SP
# ...
      3134.0000          13.28          0.017           89.4       76.01891         1.0279              1         0.5118           2.14         0.9908           -2.6       0.864028       1647.059      0.9152958              1
      3134.5000          13.04          0.012           89.6       76.19808         1.0279              1         0.5112          2.137         1.0185           -2.6      0.8625286       1647.059      0.9191082              1
      3135.0000          13.28          0.007           90.4       76.91727         1.0279              1         0.5094           2.13          1.047           -2.6      0.8610291       1647.059      0.9344099              1
      3135.5000          13.48          0.004             92       78.35645         1.0279         1.0092         0.5094          2.119         1.0862           -2.6      0.8595297       1647.059      0.9650309              1
      3136.0000          13.66          0.004           92.8       79.07564         1.0374         1.0092         0.5124          2.114         1.0862           -2.6      0.8580306       1647.059      0.9803327              1
      3136.5000          13.74          0.007           93.6       79.79482         1.0375         1.0092         0.5202          2.114          1.028           -2.4       1.056531       1647.059      0.9956344              1
      3137.0000          13.76          0.008           93.4       79.61401         1.0375         1.0092         0.5214          2.113         0.9821           -2.2       1.255032       1647.059      0.9917874              1
      3137.5000           13.7          0.008           92.4        78.7132         1.0375         1.0093          0.516           2.11         0.9391           -1.8       1.653532       1647.059      0.9726212              1
      3138.0000          13.52          0.006           91.2       77.63237         1.0375         1.0093         0.5184          2.107         0.9145           -1.6       1.852033       1647.059      0.9496249              1
      3138.5000          13.36          0.004           91.4       77.81155         1.0376         1.0093         0.5298          2.108         0.9396           -1.4       2.050533       1647.059      0.9534373              1
      3139.0000          13.22          0.005             93       79.25074         1.0093              1          0.537          2.111         0.9652           -1.2       2.249034       1647.059      0.9840583              1
      3139.5000          13.18          0.009           94.8       80.86993         1.0093              1         0.5334          2.116         0.9739             -1       2.447535       1647.059              1              1
      3140.0000          13.16          0.014             95        81.0491         1.0093              1         0.5256          2.122         0.9826             -1       2.446035       1647.059              1              1
      3140.5000        13.1794          0.019        93.4051       79.61288         1.0189         1.0003         0.5238          2.126         0.9828        -0.9994       2.445136       1647.059      0.9917634              1
      3141.0000        13.2184         0.0219        90.8152       77.28115         1.0194         1.0007         0.5226          2.128         0.9831        -1.3978       2.045237       1647.059      0.9421521              1
      3141.5000        13.2575         0.0239         89.025       75.66916         1.0198         0.9923         0.5167         2.1289         0.9835        -1.3965       2.045037       1647.059      0.9078544              1
      3142.0000        13.2765         0.0258        88.0365       74.77869         1.0299         0.9927         0.5143         2.1279         0.9927        -1.3949       2.045138       1647.059      0.8889082              1
      3142.5000        13.2955         0.0278        88.2462       74.96661         1.0303         1.0021         0.5185         2.1259         0.9668        -1.3936       2.044938       1647.059      0.8929065              1
      3143.0000        13.3143         0.0297        89.2558       75.87443         1.0403         1.0026         0.5155         2.1268         0.9499        -1.3922       2.044839       1647.059      0.9122218              1
      3143.5000        13.2933         0.0317        89.4654       76.06226         1.0408         1.0123         0.5019         2.1308         0.9587        -1.3909        2.04464       1647.059      0.9162182              1
      3144.0000        13.3124         0.0346         89.475       76.07008         1.0509         1.0128         0.4812         2.1367         0.9854        -1.5881        1.84594       1647.059      0.9163846              1
      3144.5000        13.3314         0.0366        89.4865       76.07961         1.0515         1.0227         0.4729         2.1387         1.0322        -1.9828       1.449741       1647.059      0.9165875              1
      3145.0000        13.3704         0.0335        90.2961       76.80743          1.052         1.0232          0.483         2.1327         1.0815         -2.179       1.252042       1647.059      0.9320729              1
      3145.5000        13.5094         0.0235        92.7055       78.97507         1.0622         1.0236         0.4931         2.1188          1.082        -2.5727       0.856842       1647.059      0.9781931              1
      3146.0000        13.7484         0.0164         94.515       80.60281         1.0627         1.0241         0.5002         2.1049         1.0432        -2.5703      0.8577428       1647.059              1              1
      3146.5000        13.7875         0.0154        95.1266       81.15244         1.0534         1.0246         0.4913          2.103         0.9874        -2.5678      0.8587434       1647.059              1              1
      3147.0000        13.5865         0.0213        95.3362       81.34025         1.0539         1.0251         0.4818         2.1079         0.9878        -2.1703       1.254744       1647.059              1              1
      3147.5000        13.2855         0.0283        94.5459       80.62817         1.0447         1.0161         0.4753         2.1177         0.9882        -1.9711       1.452445       1647.059              1              1
      3148.0000        13.1643         0.0342        94.1556       80.27608         1.0452         1.0166          0.477         2.1246         0.9886        -1.7723       1.649745       1647.059              1              1
      3148.5000        13.2033         0.0342        93.7653         79.924          1.036          1.017         0.4926         2.1295          0.989        -1.5739       1.846646       1647.059      0.9983829              1
      3149.0000        13.3424         0.0331        93.1769       79.39362         1.0365         1.0175         0.5075         2.1334         0.9801        -1.3759       2.043146       1647.059      0.9870984              1
      3149.5000        13.5214         0.0301        92.1865       78.50144         1.0466         1.0087         0.5105         2.1334          0.962        -0.9817       2.435847       1647.059      0.9681158              1
      3150.0000        13.6604          0.027        91.5961       77.96927         1.0471         1.0091         0.5028         2.1333         0.9623        -0.7846       2.631448       1647.059       0.956793              1
      3150.5000           13.8          0.029           90.6       77.07196          1.047          1.009         0.4914         2.1402         0.9714        -0.5828       2.831748        1648.19      0.9377013              1
      3151.0000          13.86          0.031           90.8       77.25114         1.0466         1.0086         0.4806           2.15         1.0086        -0.1811       3.231949       1650.075      0.9415137              1
      3151.5000          13.92          0.032           90.4       76.89033         1.0559         1.0175         0.4688         2.1571         1.0462        -0.3683        3.04325       1651.961      0.9338368              1
