#------------------------------------------------------------------------------
# Created by    : vladimir.rabinovich
# Created on    : 09/19/2023 17:20:39
#------------------------------------------------------------------------------
~Version Information Section
VERS.           2.0     :   CWLS log ASCII Standard - VERSION 2.0
WRAP.           NO      :   One line per depth step
~Well Information Section
#MNEM       .UNIT                                         VALUE :DESCRIPTION
#------------------------------------------------------------------------------
STRT        .FT                                             520 :START DEPTH
STOP        .FT                                           11478 :STOP DEPTH
STEP        .FT                                             0.5 :STEP      
NULL        .                                           -999.25 :NULL      
COMP        .                                      SHELL OIL CO :COMPANY   
WELL        .                                OCS 00730 ST00BP00 :WELL      
FLD         .                                           WILDCAT :FIELD     
LOC         .                                                   :LOCATION  
CNTY        .                             GALVESTON LARGE BLOCK :LOCATION  
STAT        .                                             TEXAS :STATE     
CTRY        .                                     UNITED STATES :COUNTRY   
SRVC        .                                                   :SERVICE COMPANY
DATE        .                             9/13/2023 11:19:42 AM :LOG DATE  
API         .                                    42706000260000 :API NUMBER
UWI         .                                    42706000260000 :UNIQUE WELL ID
XCOORD      .                                  961416.888637646 :SURFACE X 
YCOORD      .                                  10353223.2377546 :SURFACE Y 
LAT         .                                         28.512881 :LATITUDE  
LON         .                                        -95.114699 :LONGITUDE 
ELEV        .FT                                              72 :ELEVATION VALUE
ELEV_TYPE   .                                                KB :ELEVATION REFERENCE TYPE
~Curve Information Section
#MNEM       .UNIT                                      API CODE :CURVE DESCRIPTION
#------------------------------------------------------------------------------
DEPT        .FT                                                 :DEPTH     
ASN         .OHMM                                               :          
CILD        .MMHO                                               :          
ILD         .OHMM                                               :          
LAT         .OHMM                                               :          
LN          .OHMM                                               :          
SP          .MV                                                 :          
SP_NORM     .MV                                                 :SP Normalized
VSH_SP      .V/V                                                :Volume of Shale from SP
~A        DEPTH            ASN           CILD            ILD            LAT             LN             SP        SP_NORM         VSH_SP
# ...
      5623.5000         0.5867       2219.445          0.455        -999.25        -999.25       -50.5613        -3.3036      0.9579484
      5624.0000         0.5836       2210.383         0.4565        -999.25        -999.25       -50.6311      -3.368179      0.9558652
      5624.5000         0.5805       2201.125          0.458        -999.25        -999.25       -50.6907      -3.422562      0.9541109
      5625.0000         0.5774       2209.598         0.4595        -999.25        -999.25       -50.7503       -3.47694      0.9523568
      5625.5000         0.5743       2232.992          0.461        -999.25        -999.25       -50.8099      -3.531315      0.9506028
      5626.0000         0.5712       2256.387         0.4624        -999.25        -999.25       -50.6466      -3.362797      0.9560388
      5626.5000          0.568       2272.539         0.4669        -999.25        -999.25       -50.3318      -3.042774      0.9663621
      5627.0000         0.5629       2287.266         0.4779        -999.25        -999.25        -50.017      -2.722755      0.9766853
      5627.5000         0.5574        2301.98          0.489        -999.25        -999.25       -49.7019      -2.402435      0.9870182
      5628.0000         0.5519       2316.707            0.5        -999.25        -999.25       -49.3871      -2.082417      0.9973414
      5628.5000         0.5464           2258         0.5111        -999.25        -999.25        -48.955      -1.645096              1
      5629.0000         0.5592       2170.563         0.5222        -999.25        -999.25       -48.4597      -1.144577              1
      5629.5000         0.5773       2083.125         0.5332        -999.25        -999.25       -47.9644     -0.6440544              1
      5630.0000         0.5955        1995.75         0.5443        -999.25        -999.25       -48.1683     -0.8427353              1
      5630.5000         0.6137       1923.715         0.5553        -999.25        -999.25       -48.6542      -1.323414              1
      5631.0000         0.6324       1858.141         0.5664        -999.25        -999.25       -49.1406      -1.804588              1
      5631.5000          0.651       1792.613         0.5775        -999.25        -999.25       -49.6264      -2.285172      0.9908009
      5632.0000         0.6696       1714.559         0.5885        -999.25        -999.25       -50.1129      -2.766449      0.9752758
      5632.5000         0.6882       1647.715         0.5996        -999.25        -999.25       -50.5987      -3.247032      0.9597732
      5633.0000         0.7135       1580.824         0.6106        -999.25        -999.25       -51.0706      -3.713707      0.9447191
      5633.5000         0.7389       1526.051         0.6217        -999.25        -999.25       -51.4907       -4.12859      0.9313358
      5634.0000         0.7613       1503.723         0.6328        -999.25        -999.25       -51.9114      -4.544067      0.9179333
      5634.5000         0.7748        1481.17         0.6438        -999.25        -999.25       -52.3315       -4.95895        0.90455
      5635.0000         0.7658       1466.375         0.6525        -999.25        -999.25       -52.7522      -5.374428      0.8911475
      5635.5000         0.7568       1505.674         0.6504        -999.25        -999.25       -53.1723      -5.789303      0.8777644
      5636.0000         0.7479       1552.053         0.6431        -999.25        -999.25       -53.5466      -6.158386      0.8658585
      5636.5000         0.7389       1614.678         0.6276        -999.25        -999.25       -53.3735      -5.980064      0.8716108
      5637.0000         0.7295       1677.303         0.6121        -999.25        -999.25       -52.8112      -5.412544      0.8899179
      5637.5000         0.7187       1739.744         0.5966        -999.25        -999.25       -52.1849      -4.781021      0.9102896
      5638.0000         0.7079       1802.006         0.5811        -999.25        -999.25       -51.5582      -4.149105       0.930674
      5638.5000         0.6971       1880.014         0.5656        -999.25        -999.25       -50.9319      -3.517582      0.9510458
      5639.0000         0.6863       1938.283         0.5501        -999.25        -999.25       -50.3056      -2.886063      0.9714173
      5639.5000         0.6756        1951.59         0.5346        -999.25        -999.25       -49.9359      -2.511143      0.9835115
      5640.0000         0.6673       1964.898         0.5191        -999.25        -999.25       -49.9761      -2.546124      0.9823831
      5640.5000          0.659        1971.58         0.5036        -999.25        -999.25       -50.3165      -2.881302      0.9715709
      5641.0000         0.6507       1974.734         0.4934        -999.25        -999.25       -50.6569      -3.216476      0.9607588
      5641.5000         0.6439       1977.891         0.4877        -999.25        -999.25       -50.9974      -3.551758      0.9499433
      5642.0000         0.6393       1981.045         0.4821        -999.25        -999.25       -51.3378      -3.886936      0.9391311
      5642.5000         0.6348       1984.199         0.4764        -999.25        -999.25       -51.6785       -4.22242       0.928309
      5643.0000         0.6302       1987.352         0.4707        -999.25        -999.25       -51.7551      -4.293797      0.9260066
      5643.5000          0.626       1981.473          0.465        -999.25        -999.25       -51.7279      -4.261379      0.9270523
      5644.0000         0.6245       1998.109         0.4593        -999.25        -999.25       -51.7007      -4.228954      0.9280983
      5644.5000          0.623       2010.988         0.4537        -999.25        -999.25        -51.688      -4.211037      0.9286762
      5645.0000         0.6215       2018.373          0.448        -999.25        -999.25       -51.7906      -4.308414       0.925535
      5645.5000         0.6199       2025.766         0.4423        -999.25        -999.25       -51.6768      -4.189392      0.9293745
      5646.0000         0.6184        2033.15         0.4366        -999.25        -999.25        -51.123      -3.630375      0.9474072
      5646.5000         0.6154       2040.541          0.431        -999.25        -999.25       -50.5686      -3.070751      0.9654596
      5647.0000         0.6118       2047.928         0.4264        -999.25        -999.25       -50.0148      -2.511734      0.9834924
      5647.5000         0.6082       2055.316         0.4258        -999.25        -999.25       -49.8597       -2.35141      0.9886642
      5648.0000         0.6046       2058.484         0.4251        -999.25        -999.25       -49.8444      -2.330891      0.9893261
      5648.5000          0.601       2060.254         0.4245        -999.25        -999.25        -49.829      -2.310268      0.9899914
      5649.0000         0.5974       2062.461         0.4238        -999.25        -999.25       -49.8137      -2.289753      0.9906532
      5649.5000         0.5938       2066.609         0.4232        -999.25        -999.25       -49.5063      -1.977131              1
      5650.0000         0.5902       2070.758         0.4225        -999.25        -999.25        -49.096      -1.561611              1
      5650.5000         0.5865       2074.906         0.4219        -999.25        -999.25       -48.6854      -1.145786              1
      5651.0000         0.5828       2079.055         0.4212        -999.25        -999.25        -48.275     -0.7301674              1
      5651.5000         0.5847       2083.203         0.4206        -999.25        -999.25       -47.7465     -0.1964455              1
      5652.0000         0.5888       2087.352         0.4199        -999.25        -999.25       -46.6707      0.8845749              1
      5652.5000          0.593       2091.504         0.4193        -999.25        -999.25       -47.2022      0.3582916              1
