#------------------------------------------------------------------------------
# Created by    : vladimir.rabinovich
# Created on    : 09/19/2023 17:22:40
#------------------------------------------------------------------------------
~Version Information Section
VERS.           2.0     :   CWLS log ASCII Standard - VERSION 2.0
WRAP.           NO      :   One line per depth step
~Well Information Section
#MNEM       .UNIT                                         VALUE :DESCRIPTION
#------------------------------------------------------------------------------
STRT        .FT                                            3744 :START DEPTH
STOP        .FT                                            9989 :STOP DEPTH
STEP        .FT                                             0.5 :STEP      
NULL        .                                           -999.25 :NULL      
COMP        .                          SEAGULL ENERGY E & P INC :COMPANY   
WELL        .                               OCS G07243 ST00BP00 :WELL      
FLD         .                                           WILDCAT :FIELD     
LOC         .                                                   :LOCATION  
CNTY        .                             GALVESTON LARGE BLOCK :LOCATION  
STAT        .                                             TEXAS :STATE     
CTRY        .                                     UNITED STATES :COUNTRY   
SRVC        .                                                   :SERVICE COMPANY
DATE        .                             9/13/2023 11:19:34 AM :LOG DATE  
API         .                                    42706403030000 :API NUMBER
UWI         .                                    42706403030000 :UNIQUE WELL ID
XCOORD      .                                   1005609.3052046 :SURFACE X 
YCOORD      .                                  10500547.7567395 :SURFACE Y 
LAT         .                                          28.92005 :LATITUDE  
LON         .                                        -94.984771 :LONGITUDE 
ELEV        .FT                                              96 :ELEVATION VALUE
ELEV_TYPE   .                                                KB :ELEVATION REFERENCE TYPE
~Curve Information Section
#MNEM       .UNIT                                      API CODE :CURVE DESCRIPTION
#------------------------------------------------------------------------------
DEPT        .FT                                                 :DEPTH     
DCAL        .IN                                                 :          
DPHI        .%                                                  :          
GR          .GAPI                                               :          
GR_NORM     .GAPI                                               :GammaRay Normalized
ILD         .OHMM                                               :          
ILM         .OHMM                                               :          
NPHI        .%                                                  :          
SFL         .OHMM                                               :          
SP          .MV                                                 :          
SP_NORM     .MV                                                 :SP Normalized
VSH_GR      .V/V                                                :Volume of Shale from GR
VSH_SP      .V/V                                                :Volume of Shale from SP
~A        DEPTH           DCAL           DPHI             GR        GR_NORM            ILD            ILM           NPHI            SFL             SP        SP_NORM         VSH_GR         VSH_SP
# ...
      7516.0000         1.4037        21.6077        62.7567       75.86324          0.802         0.7967        39.3732         0.8038       -42.2552      -5.231332      0.9119839      0.9442874
      7516.5000          1.462        20.9686        62.5222       75.55526         0.8079         0.8034        38.8392         0.8293       -42.3795      -5.386976       0.905431      0.9416038
      7517.0000         1.5589        19.8329        62.1237       75.03188          0.806          0.803         38.543         0.8529       -42.4901      -5.525185      0.8942954       0.939221
      7517.5000         1.6807        19.5137        61.1721       73.78207         0.8024         0.8011        38.4965         0.8534       -42.5622      -5.614392      0.8677037      0.9376829
      7518.0000         1.7766        20.8098        59.7832       71.95795         0.7967         0.7996        39.1247         0.8419       -42.6428      -5.714417      0.8288925      0.9359583
      7518.5000         1.8139        21.7397         58.713       70.55238          0.793         0.8004        40.8512         0.8242       -42.7186      -5.808338      0.7989869       0.934339
      7519.0000          1.817        21.7762        59.1046        71.0667         0.7888         0.7973        41.8098         0.8049       -42.7803       -5.88431      0.8099297      0.9330291
      7519.5000         1.7577        21.1814        60.9064       73.43311         0.7857         0.7911         41.693         0.7835       -42.8365      -5.953281       0.860279        0.93184
      7520.0000         1.6869        20.2546         63.821       77.26106         0.7803         0.7837        40.3969         0.7658       -42.8757      -6.000618      0.9417247      0.9310238
      7520.5000         1.6472        19.6233        66.6027       80.91447         0.7624         0.7764        38.7181         0.7531       -42.7734      -5.867861              1      0.9333128
      7521.0000         1.6356        20.5255        65.9753       80.09048         0.7437         0.7687        38.4379         0.7393       -42.6224      -5.673124              1      0.9366702
      7521.5000         1.6384         20.894        64.2682       77.84841         0.7335         0.7589        37.8532         0.7258       -42.4811      -5.490729      0.9542215       0.939815
      7522.0000         1.6844        22.1821        63.1104        76.3278         0.7296         0.7459        37.8429         0.7129       -42.3782      -5.357214      0.9218682       0.942117
      7522.5000         1.7047        23.6167        63.3084       76.58784         0.7229         0.7249        40.9052         0.7024       -42.2977      -5.252204      0.9274009      0.9439275
      7523.0000         1.5413        23.9804        63.6697       77.06236         0.7201         0.7037        43.2146         0.6907       -42.2465      -5.184486      0.9374969      0.9450951
      7523.5000         1.3292         24.424        64.1814       77.73441         0.7367         0.6853         44.309         0.6753       -42.2206      -5.148966      0.9517959      0.9457075
      7524.0000         1.3589        25.0966        63.1805       76.41986         0.7581          0.684        45.1508          0.661       -42.3695       -5.33592      0.9238268      0.9424841
      7524.5000          1.419         25.867        59.3255       71.35681         0.7757         0.7079        47.2045         0.6809       -42.6667       -5.71162      0.8161024      0.9360065
      7525.0000         1.4561        22.8968        55.6323       66.50628         0.7926          0.763        47.1346         0.7615        -42.878      -5.977989      0.7128996       0.931414
      7525.5000          1.469        18.7672        53.9357       64.27801         0.8086         0.8395        42.0837         0.8681       -43.0467      -6.190145      0.6654895      0.9277561
      7526.0000         1.4876        16.0226        53.9896        64.3488         0.8228         0.9028        38.2408         0.9792       -43.2244      -6.413755      0.6669958      0.9239008
      7526.5000         1.5133         17.001        57.1475       68.49628         0.8407         0.9017        41.8741         1.0574       -43.4368      -6.681527      0.7552401       0.919284
      7527.0000         1.5241         19.447        62.0349       74.91526           0.86         0.8925         44.741         0.9625       -43.6917      -7.003389      0.8918141      0.9137347
      7527.5000         1.5206        21.5054         65.344       79.26134         0.8745          0.874        44.7457         0.8899       -43.8483      -7.200145      0.9842837      0.9103423
      7528.0000         1.5102        23.0239        68.0219        82.7784         0.8702         0.8538        43.3067          0.836        -43.893      -7.254483              1      0.9094055
      7528.5000         1.4699        22.3774        69.6948       84.97555         0.8641         0.8509         38.456         0.8297        -43.808      -7.143739              1      0.9113148
      7529.0000         1.4031        21.7794        70.0996       85.50719         0.8593         0.8577        36.3967         0.8505       -43.6777      -6.975351              1      0.9142181
      7529.5000         1.3855        21.5519        68.9346       83.97712         0.8531         0.8702        35.9044         0.8722       -43.5233      -6.776288              1      0.9176502
      7530.0000         1.3974        21.2283        66.6224       80.94035         0.8471         0.8689        35.4981         0.8877       -43.3622        -6.5687              1      0.9212293
      7530.5000          1.396        20.7256        64.7206       78.44257         0.8416         0.8586        38.3448         0.8917       -43.2311      -6.399282      0.9668633      0.9241503
      7531.0000         1.4132        21.5054        63.2108       76.45966         0.8378          0.844        40.9766         0.8822       -43.1263       -6.26335      0.9246735      0.9264939
      7531.5000         1.4549        22.6895         62.972       76.14602         0.8349         0.8306        41.9042         0.8621       -43.1335      -6.269958      0.9180004        0.92638
      7532.0000         1.5117        23.1171        63.7184       77.12631         0.8305         0.8218        41.2522         0.8436       -43.1225      -6.253402      0.9388577      0.9266655
      7532.5000         1.3379        23.1201        64.8994       78.67741          0.822         0.8155        42.1631         0.8273       -43.0535       -6.16303      0.9718599      0.9282236
      7533.0000         1.1944        22.1265        66.2161       80.40673         0.8134         0.8122        43.0768         0.8171       -43.0026      -6.095695              1      0.9293846
      7533.5000         1.2049        22.2162        66.9729       81.40067         0.8099         0.8098        42.6777         0.8169       -42.9647      -6.044901              1      0.9302603
      7534.0000         1.2826        22.0931        67.2643       81.78339         0.8124         0.8112        42.0115         0.8223       -42.9412      -6.012435              1      0.9308201
      7534.5000         1.3736        20.5588        66.6593       80.98881         0.8182         0.8181        42.5189         0.8287        -42.923      -5.986718              1      0.9312635
      7535.0000         1.4332        19.6908         65.444       79.39267         0.8298         0.8291        43.0248         0.8415       -42.8619      -5.906401      0.9870781      0.9326482
      7535.5000         1.4601        20.8034        64.5779       78.25517         0.8381         0.8426         43.353         0.8574       -42.8298      -5.862987      0.9628758      0.9333968
      7536.0000         1.4347        20.3333        64.3516       77.95795         0.8232         0.8523        43.3524         0.8744       -42.8274      -5.857379      0.9565521      0.9334935
