#------------------------------------------------------------------------------
# Created by    : vladimir.rabinovich
# Created on    : 09/19/2023 17:19:40
#------------------------------------------------------------------------------
~Version Information Section
VERS.           2.0     :   CWLS log ASCII Standard - VERSION 2.0
WRAP.           NO      :   One line per depth step
~Well Information Section
#MNEM       .UNIT                                         VALUE :DESCRIPTION
#------------------------------------------------------------------------------
STRT        .FT                                             305 :START DEPTH
STOP        .FT                                          9892.5 :STOP DEPTH
STEP        .FT                                             0.5 :STEP      
NULL        .                                           -999.25 :NULL      
COMP        .                         ATLANTIC RICHFIELD CO THE :COMPANY   
WELL        .                               OCS G07247 ST00BP00 :WELL      
FLD         .                                           WILDCAT :FIELD     
LOC         .                                                   :LOCATION  
CNTY        .                             GALVESTON LARGE BLOCK :LOCATION  
STAT        .                                             TEXAS :STATE     
CTRY        .                                     UNITED STATES :COUNTRY   
SRVC        .                                                   :SERVICE COMPANY
DATE        .                             9/13/2023 11:19:27 AM :LOG DATE  
API         .                                    42706401220000 :API NUMBER
UWI         .                                    42706401220000 :UNIQUE WELL ID
XCOORD      .                                  995038.545578968 :SURFACE X 
YCOORD      .                                  10445559.0196594 :SURFACE Y 
LAT         .                                         28.768363 :LATITUDE  
LON         .                                        -95.014888 :LONGITUDE 
ELEV        .FT                                              98 :ELEVATION VALUE
ELEV_TYPE   .                                                KB :ELEVATION REFERENCE TYPE
~Curve Information Section
#MNEM       .UNIT                                      API CODE :CURVE DESCRIPTION
#------------------------------------------------------------------------------
DEPT        .FT                                                 :DEPTH     
ALL         .OHMM                                               :          
CILD        .MMHO                                               :          
GR          .GAPI                                               :          
GR_NORM     .GAPI                                               :GammaRay Normalized
ILD         .OHMM                                               :          
SP          .MV                                                 :          
VSH_GR      .V/V                                                :Volume of Shale from GR
~A        DEPTH            ALL           CILD             GR        GR_NORM            ILD             SP         VSH_GR
# ...
      9852.5000         0.7136       1661.268        65.3391       79.59668         0.6906        20.2603      0.9914187
      9853.0000         0.7122       1668.658        65.3505       79.46372         0.6935        20.2955      0.9885898
      9853.5000         0.7108       1676.059        65.3618       79.33076         0.6963        20.3239      0.9857608
      9854.0000         0.7094       1678.939        65.3732       79.19779         0.6992        20.3447      0.9829317
      9854.5000         0.7098       1680.449        65.3845       79.06483         0.7021        20.3655      0.9801028
      9855.0000         0.7102       1674.143        65.3602       78.93188         0.7047        20.3864       0.977274
      9855.5000         0.7106       1661.938        64.8318       78.79891         0.7069        20.4073      0.9744449
      9856.0000         0.7109       1644.979        64.3032       78.66595         0.7092        20.4281      0.9716159
      9856.5000         0.7112       1624.664        62.6443       78.53299         0.7114        20.4484       0.968787
      9857.0000         0.7115        1603.01        60.8256       78.40003         0.7137        20.4673      0.9659581
      9857.5000         0.7118       1576.564         56.125       78.26707         0.7159        20.4861      0.9631291
      9858.0000         0.7121       1550.119        36.5312       80.56064         0.7182        20.5049              1
      9858.5000         0.7126       1528.271        16.9375       82.85423          0.721        20.5237              1
      9859.0000          0.713       1506.809         2.0873       82.66309         0.7238        20.5425              1
      9859.5000         0.7135       1484.818         1.8085       82.47195         0.7266        20.5613              1
      9860.0000          0.714        1499.91         1.8061       82.28083         0.7294        20.5779              1
      9860.5000         0.7151       1519.863         1.8067        82.0897         0.7322        20.5859              1
      9861.0000          0.718       1539.793         1.8103       81.89857          0.734         20.594              1
      9861.5000         0.7209       1559.748         1.8139       81.70744         0.7357         20.602              1
      9862.0000         0.7238        1578.48         1.8175       81.51631         0.7374          20.61              1
      9862.5000         0.7267       1589.355          1.821       81.32517         0.7391         20.618              1
      9863.0000         0.7295       1595.057         1.8246       81.13404         0.7402        20.6261              1
      9863.5000         0.7322       1575.941         1.8266       80.94291         0.7411        20.6297              1
      9864.0000          0.735       1561.162         1.8091       80.75179          0.742        20.6257              1
      9864.5000         0.7377       1548.777         1.7915       80.56065         0.7427        20.6218              1
      9865.0000         0.7404       1536.369          1.774       80.36951         0.7414        20.6178              1
      9865.5000         0.7426       1523.984         1.7564       80.17839         0.7401        20.6139              1
      9866.0000         0.7448       1515.594         1.7389       79.98726         0.7388        20.6099      0.9997289
      9866.5000          0.747       1512.893         1.7214       79.79613         0.7388         20.608      0.9956623
      9867.0000         0.7492       1510.313         1.7039       79.94903         0.7393        20.6104      0.9989155
      9867.5000         0.7514       1509.031         1.6958       80.10194         0.7399        20.6128              1
      9868.0000         0.7536        1507.75          1.699       80.25484         0.7404        20.6152              1
      9868.5000         0.7549       1507.145         1.7022       80.40775         0.7409        20.6176              1
      9869.0000         0.7554       1507.078         1.7055       80.56065         0.7414          20.62              1
      9869.5000          0.756       1507.012         1.7087       80.71355         0.7418        20.6224              1
      9870.0000         0.7566       1506.943         1.7119       80.86646         0.7422        20.6248              1
      9870.5000         0.7531       1506.877         1.7151       81.01936         0.7427        20.6272              1
      9871.0000         0.7487       1506.811         1.7228       81.17227         0.7431        20.6296              1
      9871.5000         0.7442       1506.742         1.7331       81.32517         0.7435         20.632              1
      9872.0000         0.7399       1506.676         1.7434       80.97231         0.7439        20.6344              1
      9872.5000         0.7356       1506.609         1.7537       80.61945         0.7433        20.6368              1
      9873.0000         0.7313       1506.859         1.7641       80.26659         0.7419        20.6464              1
      9873.5000         0.7279       1507.107         1.7744       79.91374         0.7406          20.66      0.9981647
      9874.0000         0.7258       1507.355         1.7697       79.56088         0.7393        20.6737      0.9906571
      9874.5000         0.7236       1507.604         1.7541       79.20802         0.7379        20.6873      0.9831494
      9875.0000         0.7214       1507.881         1.7386       78.85516         0.7366         20.701      0.9756418
      9875.5000         0.7198        1508.34         1.7231        78.5023         0.7352        20.7146      0.9681341
      9876.0000         0.7183       1508.799         1.7076       78.14944         0.7342        20.7283      0.9606265
      9876.5000         0.7168       1509.479          1.692        77.7966         0.7331        20.7329      0.9531192
      9877.0000         0.7163        1510.91         1.6919       77.44374          0.732        20.7353      0.9456115
      9877.5000         0.7163       1512.346         1.6977       77.09088         0.7309        20.7377      0.9381039
      9878.0000         0.7162       1513.775         1.7036       76.73802         0.7273        20.7401      0.9305962
      9878.5000         0.7161       1515.273         1.7094       77.19673         0.7232        20.7366       0.940356
      9879.0000         0.7158       1517.174         1.7209       77.65546         0.7192        20.7274      0.9501161
      9879.5000         0.7154       1519.076         1.8726       78.11417         0.7167        20.7182      0.9598759
      9880.0000          0.715       1520.979         2.1642       78.57288         0.7143        20.7113      0.9696357
      9880.5000        -999.25        -999.25        -999.25       79.03159        -999.25        -999.25      0.9793956
      9881.0000        -999.25        -999.25        -999.25       79.49031        -999.25        -999.25      0.9891555
      9881.5000        -999.25        -999.25        -999.25       79.94903        -999.25        -999.25      0.9989155
      9882.0000        -999.25        -999.25        -999.25       80.40774        -999.25        -999.25              1
      9882.5000        -999.25        -999.25        -999.25       80.86646        -999.25        -999.25              1
      9883.0000        -999.25        -999.25        -999.25       81.32517        -999.25        -999.25              1
      9883.5000        -999.25        -999.25        -999.25       81.04716        -999.25        -999.25              1
      9884.0000        -999.25        -999.25        -999.25       80.76915        -999.25        -999.25              1
      9884.5000        -999.25        -999.25        -999.25       80.49115        -999.25        -999.25              1
      9885.0000        -999.25        -999.25        -999.25       80.21314        -999.25        -999.25              1
      9885.5000        -999.25        -999.25        -999.25       79.93513        -999.25        -999.25      0.9986197
