#------------------------------------------------------------------------------
# Created by    : vladimir.rabinovich
# Created on    : 09/19/2023 17:19:46
#------------------------------------------------------------------------------
~Version Information Section
VERS.           2.0     :   CWLS log ASCII Standard - VERSION 2.0
WRAP.           NO      :   One line per depth step
~Well Information Section
#MNEM       .UNIT                                         VALUE :DESCRIPTION
#------------------------------------------------------------------------------
STRT        .FT                                            3460 :START DEPTH
STOP        .FT                                           13634 :STOP DEPTH
STEP        .FT                                             0.5 :STEP      
NULL        .                                           -999.25 :NULL      
COMP        .                                SHELL OFFSHORE INC :COMPANY   
WELL        .                               OCS G06107 ST00BP00 :WELL      
FLD         .                                           WILDCAT :FIELD     
LOC         .                                                   :LOCATION  
CNTY        .                             GALVESTON LARGE BLOCK :LOCATION  
STAT        .                                             TEXAS :STATE     
CTRY        .                                     UNITED STATES :COUNTRY   
SRVC        .                                                   :SERVICE COMPANY
DATE        .                             9/13/2023 11:19:27 AM :LOG DATE  
API         .                                    42706401270000 :API NUMBER
UWI         .                                    42706401270000 :UNIQUE WELL ID
XCOORD      .                                  941908.785460496 :SURFACE X 
YCOORD      .                                  10441108.8632451 :SURFACE Y 
LAT         .                                         28.753553 :LATITUDE  
LON         .                                        -95.180411 :LONGITUDE 
ELEV        .FT                                              90 :ELEVATION VALUE
ELEV_TYPE   .                                                KB :ELEVATION REFERENCE TYPE
~Curve Information Section
#MNEM       .UNIT                                      API CODE :CURVE DESCRIPTION
#------------------------------------------------------------------------------
DEPT        .FT                                                 :DEPTH     
ASFL        .OHMM                                               :          
CALI        .IN                                                 :          
CILD        .MMHO                                               :          
DT          .US/F                                               :          
GR          .GAPI                                               :          
GR_1        .GAPI                                               :          
GR_NORM     .GAPI                                               :GammaRay Normalized
ILD         .OHMM                                               :          
ILM         .OHMM                                               :          
RHOB        .G/C3                                               :          
SP          .MV                                                 :          
VSH_GR      .V/V                                                :Volume of Shale from GR
~A        DEPTH           ASFL           CALI           CILD             DT             GR           GR_1        GR_NORM            ILD            ILM           RHOB             SP         VSH_GR
# ...
     12275.0000        -999.25         6.8386       2207.402       108.3174        -999.25        54.8557       72.94366         0.4576         0.4458          2.451        -999.25       0.849865
     12275.5000        -999.25         6.8444       2257.922       108.3065        -999.25        56.9453       75.99863         0.4421         0.4377          2.439        -999.25      0.9148644
     12276.0000        -999.25         6.8585        2323.43       108.4021        -999.25        59.0198       79.03152         0.4254         0.4319         2.4303        -999.25       0.979394
     12276.5000        -999.25         6.8696       2383.676       108.6454        -999.25         59.824       80.20724         0.4111         0.4271         2.4284        -999.25              1
     12277.0000        -999.25          6.879       2442.094       109.0022        -999.25        59.9886        80.4479          0.404         0.4225         2.4259        -999.25              1
     12277.5000        -999.25         6.8878       2464.727       109.2883        -999.25        60.4763        81.1609         0.4022         0.4174         2.4223        -999.25              1
     12278.0000        -999.25         6.8955       2457.281       109.6844        -999.25        61.3197       82.39394         0.4059         0.4147         2.4199        -999.25              1
     12278.5000        -999.25         6.9037       2411.215        109.948        -999.25        62.3911       83.96033         0.4158         0.4176         2.4218        -999.25              1
     12279.0000        -999.25          6.913       2305.105       109.5692        -999.25        64.5695       87.14511         0.4331          0.426         2.4261        -999.25              1
     12279.5000        -999.25         6.9223       2202.844       107.6379        -999.25        66.2386       89.58532         0.4601         0.4432         2.4309        -999.25              1
     12280.0000        -999.25         6.9265       2073.449       104.0942        -999.25        66.8035       90.41119         0.4992         0.4705         2.4366        -999.25              1
     12280.5000        -999.25         6.9275       1871.359        99.4976        -999.25        63.8653       86.11559         0.5441         0.5255          2.445        -999.25              1
     12281.0000        -999.25         6.9311        1749.66        94.9263        -999.25        60.2787       80.87202         0.5743         0.5653         2.4546        -999.25              1
     12281.5000        -999.25         6.9294       1642.336         90.851        -999.25        56.8795       75.90242         0.6138          0.589         2.4668        -999.25      0.9128174
     12282.0000        -999.25          6.923       1521.852        87.2061        -999.25        50.2534       66.21513         0.6572         0.6148         2.4717        -999.25       0.706705
     12282.5000        -999.25         6.9046        1467.48        88.2388        -999.25        45.2584       58.91251         0.6929          0.635         2.4723        -999.25        0.55133
     12283.0000        -999.25         6.8842        1456.18        92.8354        -999.25        42.7178       55.19818         0.6937         0.6414         2.4758        -999.25      0.4723017
     12283.5000        -999.25         6.8626       1466.164        95.8552        -999.25        43.7437       56.69803         0.6677         0.6404         2.4821        -999.25      0.5042135
     12284.0000        -999.25         6.8421       1540.887        97.0398        -999.25        44.9823       58.50886         0.6189         0.6119         2.4904        -999.25      0.5427417
     12284.5000        -999.25         6.8517       1685.266        97.7498        -999.25        46.4185       60.60855         0.5808         0.5834         2.4847        -999.25      0.5874161
     12285.0000        -999.25         6.8631       1811.016        99.1888        -999.25         47.172       61.71017         0.5553         0.5596         2.4743        -999.25      0.6108548
     12285.5000        -999.25         6.8719        1881.08       102.7679        -999.25        47.1068       61.61485         0.5395         0.5364         2.4667        -999.25      0.6088266
     12286.0000        -999.25         6.8703       1943.955       106.3395        -999.25        47.1353       61.65652         0.5287         0.5142           2.46        -999.25      0.6097131
     12286.5000        -999.25          6.867       1986.023       106.2395        -999.25        48.5968       63.79322         0.5153         0.5051         2.4607        -999.25      0.6551749
     12287.0000        -999.25         6.8636       2005.008       104.4335        -999.25        50.7346       66.91865         0.5124         0.5017         2.4695        -999.25      0.7216734
     12287.5000        -999.25         6.8696       2020.143       100.8544        -999.25        53.8957       71.54014         0.5095            0.5         2.4773        -999.25      0.8200029
     12288.0000        -999.25         6.8691       2031.053        95.3667        -999.25        58.5208       78.30199         0.5048         0.4984         2.4849        -999.25      0.9638722
     12288.5000        -999.25         6.8623       2047.127        93.2709        -999.25        59.4377       79.64248         0.5005         0.4954           2.49        -999.25      0.9923932
     12289.0000        -999.25         6.8537        2071.68        93.0988        -999.25        56.9352       75.98386         0.4964         0.4905          2.483        -999.25      0.9145503
     12289.5000        -999.25         6.8448       2102.508         97.665        -999.25         51.307       67.75549         0.4915         0.4838         2.4733        -999.25      0.7394786
     12290.0000        -999.25         6.8372       2133.086       103.8007        -999.25         48.579       63.76719         0.4837         0.4763         2.4662        -999.25      0.6546211
     12290.5000        -999.25          6.849       2156.371       110.2805        -999.25        47.6849       62.46002         0.4752         0.4703          2.457        -999.25       0.626809
     12291.0000        -999.25         6.8805       2174.191       111.4373        -999.25        49.9595       65.78545         0.4687         0.4649         2.4482        -999.25      0.6975629
     12291.5000        -999.25         6.8876       2179.281       108.9592        -999.25        53.0244       70.26631         0.4671         0.4607          2.442        -999.25      0.7929003
     12292.0000        -999.25         6.8923       2175.406       107.0608        -999.25        56.5248       75.38386         0.4677         0.4603         2.4419        -999.25      0.9017842
     12292.5000        -999.25         6.8908       2134.605        105.375        -999.25        60.4763        81.1609         0.4698         0.4638         2.4505        -999.25              1
     12293.0000        -999.25         6.8923        2078.41       104.1854        -999.25        61.7047       82.95682         0.4794         0.4732         2.4615        -999.25              1
     12293.5000        -999.25          6.898       2017.359       102.8135        -999.25        59.0173       79.02785         0.4944         0.4873         2.4731        -999.25      0.9793161
     12294.0000        -999.25         6.9031       1964.912       100.5708        -999.25        56.8237       75.82085         0.5146         0.5035         2.4835        -999.25      0.9110819
     12294.5000        -999.25          6.908       1903.658        96.5918        -999.25        55.8258       74.36192          0.531         0.5155         2.4776        -999.25      0.8800409
     12295.0000        -999.25         6.9113       1864.121        96.5159        -999.25        57.4646       76.75783         0.5374         0.5196         2.4583        -999.25      0.9310176
