#------------------------------------------------------------------------------
# Created by    : vladimir.rabinovich
# Created on    : 09/19/2023 17:20:25
#------------------------------------------------------------------------------
~Version Information Section
VERS.           2.0     :   CWLS log ASCII Standard - VERSION 2.0
WRAP.           NO      :   One line per depth step
~Well Information Section
#MNEM       .UNIT                                         VALUE :DESCRIPTION
#------------------------------------------------------------------------------
STRT        .FT                                            2998 :START DEPTH
STOP        .FT                                           12526 :STOP DEPTH
STEP        .FT                                             0.5 :STEP      
NULL        .                                           -999.25 :NULL      
COMP        .                                 CALIFORNIA CO THE :COMPANY   
WELL        .                               OCS G01117 ST00BP00 :WELL      
FLD         .                                       HIGH ISLAND :FIELD     
LOC         .                                                   :LOCATION  
CNTY        .                           HIGH ISLAND LARGE BLOCK :LOCATION  
STAT        .                                             TEXAS :STATE     
CTRY        .                                     UNITED STATES :COUNTRY   
SRVC        .                                                   :SERVICE COMPANY
DATE        .                             9/13/2023 11:19:15 AM :LOG DATE  
API         .                                    42708000660000 :API NUMBER
UWI         .                                    42708000660000 :UNIQUE WELL ID
XCOORD      .                                  1214371.69372255 :SURFACE X 
YCOORD      .                                  10618355.5582238 :SURFACE Y 
LAT         .                                         29.252113 :LATITUDE  
LON         .                                        -94.336419 :LONGITUDE 
ELEV        .FT                                              77 :ELEVATION VALUE
ELEV_TYPE   .                                                KB :ELEVATION REFERENCE TYPE
~Curve Information Section
#MNEM       .UNIT                                      API CODE :CURVE DESCRIPTION
#------------------------------------------------------------------------------
DEPT        .FT                                                 :DEPTH     
ASN         .OHMM                                               :          
CILD        .OHMM                                               :          
ILD         .OHMM                                               :          
SP          .MV                                                 :          
SP_NORM     .MV                                                 :SP Normalized
VSH_SP      .V/V                                                :Volume of Shale from SP
~A        DEPTH            ASN           CILD            ILD             SP        SP_NORM         VSH_SP
# ...
      9952.0000          1.077        1235.66         0.7434       -44.6218       2.651058              1
      9952.5000          1.069       1247.195         0.7315       -44.9949       2.277828              1
      9953.0000         1.0658       1258.705         0.7196       -45.3672       1.905529              1
      9953.5000         1.0711       1270.217         0.7078       -45.7403       1.532429              1
      9954.0000         1.0763        1281.75         0.6959       -46.1127       1.160027              1
      9954.5000         1.0816       1292.666         0.7215       -46.4857      0.7870293              1
      9955.0000         1.0868       1285.547         0.7489       -46.8581      0.4146271              1
      9955.5000         1.0921       1278.416         0.7763       -47.1998     0.07292938              1
      9956.0000         1.0974       1271.287         0.8038       -47.4391     -0.1663704              1
      9956.5000         1.1043       1253.547         0.8312       -47.6785     -0.4057732              1
      9957.0000         1.1286        1228.48         0.8621       -47.9178     -0.6450729              1
      9957.5000         1.1528       1203.367         0.9298       -48.1572     -0.8844719              1
      9958.0000         1.1715       1178.303         0.9973       -48.3702      -1.097473       0.998477
      9958.5000         1.1873       1153.238         1.0731       -48.5392      -1.266472      0.9958364
      9959.0000         1.2031       1127.199         1.1067       -48.7078      -1.435074       0.993202
      9959.5000         1.2189       1092.059         1.1184       -48.8765      -1.603771      0.9905661
      9960.0000         1.2346       1056.969         1.1116       -49.0452      -1.772472      0.9879301
      9960.5000         1.2504       1019.298         1.1047       -49.2142      -1.941471      0.9852895
      9961.0000         1.2662       953.9824         1.0979       -49.3734      -2.100674       0.982802
      9961.5000         1.2819       900.1055         1.0911        -49.512      -2.239273      0.9806364
      9962.0000         1.2977       862.0938         1.0842       -49.6502      -2.377472       0.978477
      9962.5000         1.3135        892.123         1.0774       -49.7888      -2.516071      0.9763114
      9963.0000         1.3287       918.1924         1.0488       -49.9274      -2.654671      0.9741458
      9963.5000         1.3129       921.5322         1.0185       -50.0657      -2.792973      0.9719848
      9964.0000         1.2971       925.1094         1.0024       -50.2009      -2.928173      0.9698723
      9964.5000         1.2813       929.8604         0.9862       -50.2907      -3.017971      0.9684692
      9965.0000         1.2656       935.6094           0.97       -50.3806      -3.107872      0.9670645
      9965.5000         1.2524       937.2461         0.9538       -50.4705      -3.197773      0.9656598
      9966.0000         1.2428        934.417         0.9377       -50.5604       -3.28767      0.9642552
      9966.5000         1.2332       931.5889         0.9241       -50.6502      -3.377472       0.962852
      9967.0000         1.2236       935.3418         0.9323       -50.7401      -3.467373      0.9614473
      9967.5000         1.2201       953.4473         0.9405         -50.83      -3.557274      0.9600426
      9968.0000         1.2237       981.4814         0.9486       -50.9199      -3.647171       0.958638
      9968.5000         1.2272       1019.639         0.9301       -51.0097      -3.736973      0.9572348
      9969.0000         1.2203       1057.795         0.8882       -51.0996      -3.826874      0.9558301
      9969.5000         1.1756       1098.436         0.8465       -50.9279       -3.65517       0.958513
      9970.0000         1.1378        1144.77         0.8046       -50.7229      -3.450172      0.9617161
      9970.5000         1.1277       1188.426         0.7628       -50.5179      -3.245171      0.9649192
      9971.0000         1.0645        1219.77         0.7514        -50.313      -3.040272      0.9681208
      9971.5000         1.0404       1246.295         0.7481       -50.1083      -2.835571      0.9713192
      9972.0000         1.0214       1260.457         0.7447       -49.9034      -2.630672      0.9745207
      9972.5000         1.0268        1272.09         0.7414       -49.6985      -2.425774      0.9777223
      9973.0000         1.0337       1245.127          0.738       -49.4935      -2.220772      0.9809254
      9973.5000         1.0393        1223.59         0.7346       -49.2886      -2.015873       0.984127
      9974.0000         1.0435       1207.285         0.7313       -49.0839      -1.811172      0.9873254
      9974.5000         1.0477       1191.006         0.7279       -48.8345      -1.561771      0.9912223
      9975.0000         1.0519       1174.701          0.728       -48.5702      -1.297474       0.995352
      9975.5000         1.0562       1176.197         0.7347       -48.3066      -1.033871      0.9994708
      9976.0000         1.0697       1184.971         0.7413       -48.0429     -0.7701721              1
      9976.5000         1.0935       1193.756          0.748       -47.7787     -0.5059738              1
      9977.0000          1.093       1202.527         0.7547       -47.5151     -0.2423706              1
      9977.5000         1.0823       1207.779         0.7614       -47.2508     0.02192688              1
      9978.0000         1.0766       1212.762         0.7681       -46.9872      0.2855263              1
      9978.5000         1.0738        1217.75         0.7747       -46.8669      0.4058266              1
      9979.0000          1.071       1222.738         0.7787       -46.7856      0.4871292              1
      9979.5000         1.0893       1224.734         0.7821       -46.7045      0.5682297              1
      9980.0000         1.1158       1207.115         0.7855       -46.6234      0.6493263              1
      9980.5000         1.1424       1189.496         0.7889       -46.5421       0.730629              1
      9981.0000          1.169       1171.879         0.8105        -46.461      0.8117294              1
      9981.5000         1.1955        1154.26         0.8353        -46.415      0.8577271              1
      9982.0000         1.2182       1136.203         0.8601        -46.836      0.4367294              1
      9982.5000         1.2329       1107.049         0.8849       -47.2576     0.01512909              1
      9983.0000         1.2476       1077.896         0.9096       -47.6785     -0.4057732              1
      9983.5000         1.2527       1048.791          0.916       -48.0995     -0.8267708              1
      9984.0000         1.2577       1022.364         0.9106       -48.5204      -1.247673      0.9961301
      9984.5000         1.2628       996.2773         0.9052       -48.5315      -1.258774      0.9959567
      9985.0000         1.2826       997.8828         0.8998       -48.3459      -1.073174      0.9988567
      9985.5000          1.297       1027.912         0.8945       -48.1603     -0.8875732              1
      9986.0000         1.3085       1056.627         0.9196       -47.9747      -0.701973              1
      9986.5000          1.327       1078.115         0.9573       -47.7891     -0.5163727              1
      9987.0000         1.3572       1062.371         0.9951       -47.5906     -0.3178711              1
      9987.5000          1.379        1001.68         1.0328       -47.2963    -0.02357101              1
      9988.0000          1.382       949.9678         1.1013       -47.0019      0.2708282              1
      9988.5000         1.3999       930.1348         1.1884       -46.7082      0.5645294              1
      9989.0000         1.4506       910.2773         1.2754       -46.6259      0.6468277              1
      9989.5000          1.494       900.0439         1.3471       -46.7349      0.5378265              1
