#------------------------------------------------------------------------------
# Created by    : vladimir.rabinovich
# Created on    : 09/19/2023 17:21:54
#------------------------------------------------------------------------------
~Version Information Section
VERS.           2.0     :   CWLS log ASCII Standard - VERSION 2.0
WRAP.           NO      :   One line per depth step
~Well Information Section
#MNEM       .UNIT                                         VALUE :DESCRIPTION
#------------------------------------------------------------------------------
STRT        .FT                                             404 :START DEPTH
STOP        .FT                                            9564 :STOP DEPTH
STEP        .FT                                             0.5 :STEP      
NULL        .                                           -999.25 :NULL      
COMP        .                               AMOCO PRODUCTION CO :COMPANY   
WELL        .                               OCS G03108 ST00BP01 :WELL      
FLD         .                                           WILDCAT :FIELD     
LOC         .                                                   :LOCATION  
CNTY        .                      MATAGORDA ISLAND LARGE BLOCK :LOCATION  
STAT        .                                             TEXAS :STATE     
CTRY        .                                     UNITED STATES :COUNTRY   
SRVC        .                                                   :SERVICE COMPANY
DATE        .                             9/13/2023 11:12:09 AM :LOG DATE  
API         .                                    42703400030000 :API NUMBER
UWI         .                                    42703400030000 :UNIQUE WELL ID
XCOORD      .                                  482242.907024332 :SURFACE X 
YCOORD      .                                  10146341.7942038 :SURFACE Y 
LAT         .                                         27.913374 :LATITUDE  
LON         .                                         -96.58609 :LONGITUDE 
ELEV        .FT                                              95 :ELEVATION VALUE
ELEV_TYPE   .                                                KB :ELEVATION REFERENCE TYPE
~Curve Information Section
#MNEM       .UNIT                                      API CODE :CURVE DESCRIPTION
#------------------------------------------------------------------------------
DEPT        .FT                                                 :DEPTH     
CALI        .IN                                                 :          
CILD        .MMHO                                               :          
GR          .GAPI                                               :          
GR_NORM     .GAPI                                               :GammaRay Normalized
ILD         .OHMM                                               :          
RHOB        .G/C3                                               :          
SFL         .OHMM                                               :          
SP          .MV                                                 :          
SP_NORM     .MV                                                 :SP Normalized
VSH_GR      .V/V                                                :Volume of Shale from GR
VSH_SP      .V/V                                                :Volume of Shale from SP
~A        DEPTH           CALI           CILD             GR        GR_NORM            ILD           RHOB            SFL             SP        SP_NORM         VSH_GR         VSH_SP
# ...
      4589.0000        16.3982        -999.25        64.0168       100.3965         0.5047         2.2228         0.6725        -35.397        -0.8796              1              1
      4589.5000        16.5303        -999.25         63.859       100.1316          0.513          2.223         0.6674       -35.6171        -1.1059              1              1
      4590.0000        16.6493        -999.25        63.9213       100.2427         0.5215         2.2286         0.6741       -36.0519         -1.547              1              1
      4590.5000        16.5797        -999.25         64.149       100.6361         0.5315         2.2362         0.6904       -36.2825        -1.7838              1              1
      4591.0000        16.3518        -999.25        63.3373       99.25481         0.5421          2.231         0.6923       -36.2404        -1.7479              1              1
      4591.5000        16.2548        -999.25        62.3564       97.58447         0.5492         2.2322         0.6795       -36.0342         -1.548              1              1
      4592.0000        16.3333        -999.25        61.6002        96.2978         0.5556         2.2383          0.698       -35.7855        -1.3055              1              1
      4592.5000        16.4098        -999.25        61.4944       96.12176         0.5624         2.2326         0.6797       -35.7034        -1.2296              1              1
      4593.0000        16.4831        -999.25        61.9652       96.93031         0.5697         2.2225         0.6824       -35.7013        -1.2338              1              1
      4593.5000        16.5544        -999.25        61.4119       95.99011         0.5778          2.215         0.7098       -35.6242        -1.1629              1              1
      4594.0000        16.6113        -999.25        60.6692        94.7265         0.5861           2.21         0.7305       -35.3997        -0.9446              1              1
      4594.5000        16.6374        -999.25        59.8623       93.35326         0.5944          2.205         0.7267       -35.7697        -1.3209              1              1
      4595.0000        16.6348        -999.25        59.0441       91.96091          0.603         2.2237         0.7396       -36.0225        -1.5799              1              1
      4595.5000        16.6323        -999.25        58.1873       90.50247         0.6116          2.263         0.7512        -35.751        -1.3146              1              1
      4596.0000        16.6295        -999.25        57.4696       89.28156           0.62         2.2579         0.7621       -35.6815        -1.2513              1              1
      4596.5000        16.6257        -999.25        57.3289       89.04592         0.6274         2.2528         0.7986       -35.6667        -1.2428              1              1
      4597.0000        16.6212        -999.25        57.7729       89.80867         0.6336         2.2476         0.8322       -35.5471        -1.1294              1              1
      4597.5000        16.5414        -999.25         58.132        90.4265         0.6354         2.2441         0.7761       -35.9883        -1.5768              1              1
      4598.0000        16.4088        -999.25        58.1779       90.50948          0.625         2.2489         0.7472       -37.2416        -2.8364              1      0.9880514
      4598.5000        16.2463        -999.25        56.4074       87.49083         0.6116          2.294         0.7812       -37.3231        -2.9241              1      0.9867986
      4599.0000        16.3141        -999.25        53.5138       82.55456         0.6012         2.2969         0.8133       -37.3007        -2.9079              1        0.98703
      4599.5000        16.4616        -999.25         49.926       76.43272         0.5967           2.29         0.7988       -37.1602        -2.7737      0.9241003      0.9889472
      4600.0000        16.5685        -999.25        44.8136       67.70753         0.5925         2.2774         0.8011       -36.9735        -2.5932       0.738458      0.9915257
      4600.5000         16.602        -999.25        41.1944       61.53209         0.5887         2.2672         0.7647       -36.8074        -2.4333      0.6070657        0.99381
      4601.0000        16.6355        -999.25        39.3157       58.32867         0.5852         2.2497         0.7036       -36.6954        -2.3275      0.5389079      0.9953215
      4601.5000        16.5332        -999.25        38.7912       57.43764         0.5817         2.2193         0.6677       -36.6171        -2.2555      0.5199499        0.99635
      4602.0000        16.0519        -999.25        40.5195       60.39346           0.58         2.1999         0.6664       -36.6251        -2.2697      0.5828395      0.9961472
      4602.5000        15.7739        -999.25          42.99       64.61681         0.5798         2.1779         0.6812       -36.8083        -2.4591      0.6726981      0.9934414
      4603.0000        15.6927        -999.25        45.4605          68.84          0.582         2.1564         0.6928       -37.0853        -2.7424      0.7625531      0.9893943
      4603.5000        15.6423        -999.25        48.1811       73.49023         0.5847         2.1349         0.6988       -37.3196        -2.9829      0.8614942      0.9859586
      4604.0000        15.6128        -999.25        49.9138       76.45355           0.59         2.1134         0.7003       -37.5402        -3.2097      0.9245437      0.9827186
      4604.5000        15.7395        -999.25        50.8688       78.08891         0.5955         2.0918         0.7023       -37.6771        -3.3529      0.9593384      0.9806728
      4605.0000        15.9241        -999.25        51.6132       79.36462         0.6008         1.7405         0.7067       -37.4033        -3.0853      0.9864814      0.9844957
      4605.5000           16.3        -999.25        52.0309        80.0825         0.6061         1.7299         0.7114       -36.8044        -2.4926              1      0.9929628
      4606.0000        16.5076        -999.25        52.0256       80.07805          0.611         1.7229         0.7164       -36.1915        -1.8859              1              1
      4606.5000        16.5938        -999.25        52.4158       80.74915         0.6157         1.7402         0.7217       -35.8746        -1.5753              1              1
      4607.0000        16.6277        -999.25        51.8629       79.80962         0.6213         1.7943         0.7329       -36.0532        -1.7601      0.9959494              1
      4607.5000        16.6382        -999.25        51.7523       79.62537          0.627         1.8518         0.7364       -36.4307        -2.1438      0.9920291      0.9979457
      4608.0000        16.6158        -999.25        52.8459        81.4974         0.6298         1.9093         0.7301       -36.4812        -2.2006              1      0.9971343
      4608.5000        16.3526        -999.25         54.124       83.68443         0.6322         1.9705         0.7185       -36.2715        -1.9971              1              1
      4609.0000        16.1766        -999.25        55.5018       86.04177         0.6342         2.1007         0.7071       -36.2174        -1.9492              1              1
      4609.5000        16.0083        -999.25         56.633       87.97797         0.6361         2.1237          0.712       -36.2817        -2.0198              1      0.9997171
      4610.0000        15.6245        -999.25        57.3909       89.27679         0.6369         2.1467         0.7322       -36.3878        -2.1321              1      0.9981129
      4610.5000         15.539        -999.25         57.321        89.1622         0.6367         2.1696          0.726        -36.212        -1.9625              1              1
      4611.0000        15.4862        -999.25        56.8502       88.36287         0.6363         2.1926         0.7066       -36.4666        -2.2234              1      0.9968086
