#------------------------------------------------------------------------------
# Created by    : vladimir.rabinovich
# Created on    : 09/19/2023 17:21:39
#------------------------------------------------------------------------------
~Version Information Section
VERS.           2.0     :   CWLS log ASCII Standard - VERSION 2.0
WRAP.           NO      :   One line per depth step
~Well Information Section
#MNEM       .UNIT                                         VALUE :DESCRIPTION
#------------------------------------------------------------------------------
STRT        .FT                                             930 :START DEPTH
STOP        .FT                                           10010 :STOP DEPTH
STEP        .FT                                             0.5 :STEP      
NULL        .                                           -999.25 :NULL      
COMP        .                 FAIRWAYS SPEC SALES & SERVICE INC :COMPANY   
WELL        .                               OCS G02357 ST00BP00 :WELL      
FLD         .                            HIGH ISLAND BLOCK 0154 :FIELD     
LOC         .                                                   :LOCATION  
CNTY        .                           HIGH ISLAND LARGE BLOCK :LOCATION  
STAT        .                                             TEXAS :STATE     
CTRY        .                                     UNITED STATES :COUNTRY   
SRVC        .                                                   :SERVICE COMPANY
DATE        .                             9/13/2023 11:20:04 AM :LOG DATE  
API         .                                    42708400540000 :API NUMBER
UWI         .                                    42708400540000 :UNIQUE WELL ID
XCOORD      .                                  1183911.52517142 :SURFACE X 
YCOORD      .                                  10615048.6542629 :SURFACE Y 
LAT         .                                         29.242029 :LATITUDE  
LON         .                                        -94.431816 :LONGITUDE 
ELEV        .FT                                              73 :ELEVATION VALUE
ELEV_TYPE   .                                                KB :ELEVATION REFERENCE TYPE
~Curve Information Section
#MNEM       .UNIT                                      API CODE :CURVE DESCRIPTION
#------------------------------------------------------------------------------
DEPT        .FT                                                 :DEPTH     
CALI        .IN                                                 :          
DRHO        .G/C3                                               :          
DT          .US/F                                               :          
GR          .GAPI                                               :          
GR_1        .GAPI                                               :          
GR_NORM     .GAPI                                               :GammaRay Normalized
ILD         .OHMM                                               :          
NPHI        .%                                                  :          
RHOB        .G/C3                                               :          
SFL         .OHMM                                               :          
SP          .MV                                                 :          
SP_NORM     .MV                                                 :SP Normalized
VSH_GR      .V/V                                                :Volume of Shale from GR
VSH_SP      .V/V                                                :Volume of Shale from SP
~A        DEPTH           CALI           DRHO             DT             GR           GR_1        GR_NORM            ILD           NPHI           RHOB            SFL             SP        SP_NORM         VSH_GR         VSH_SP
# ...
      2892.0000        -999.25        -999.25        -999.25        -999.25        63.8764       76.51019         0.6576        -999.25        -999.25         0.8532        31.2245      -6.575975      0.9257486      0.8374557
      2892.5000        -999.25        -999.25        -999.25        -999.25        62.4441       74.67618         0.6488        -999.25        -999.25         0.8027        30.5169      -7.276794      0.8867272      0.8056002
      2893.0000        -999.25        -999.25        -999.25        -999.25        61.2112       73.09928         0.6233        -999.25        -999.25         0.7698        29.8916      -7.895311      0.8531762      0.7774858
      2893.5000        -999.25        -999.25        -999.25        -999.25        59.6487       71.09738         0.5987        -999.25        -999.25         0.7134        30.6575      -7.122629      0.8105826      0.8126078
      2894.0000        -999.25        -999.25        -999.25        -999.25        58.5885       69.74318          0.579        -999.25        -999.25         0.6729        31.4047      -6.368647      0.7817698      0.8468797
      2894.5000        -999.25        -999.25        -999.25        -999.25        60.1043       71.71056         0.5644        -999.25        -999.25         0.6469        28.9955      -8.771063      0.8236288      0.7376789
      2895.0000        -999.25        -999.25        -999.25        -999.25        62.9543       75.39832         0.5559        -999.25        -999.25         0.6108        28.7672       -8.99258      0.9020918        0.72761
      2895.5000        -999.25        -999.25        -999.25        -999.25        65.8459       79.13969         0.5646        -999.25        -999.25         0.5748        30.7957      -6.957298      0.9816956      0.8201228
      2896.0000        -999.25        -999.25        -999.25        -999.25        68.0513       81.99627         0.5734        -999.25        -999.25         0.5498         31.123      -6.623217              1      0.8353083
      2896.5000        -999.25        -999.25        -999.25        -999.25         69.335       83.66438         0.5867        -999.25        -999.25         0.5624        28.7979      -8.941534              1      0.7299303
      2897.0000        -999.25        -999.25        -999.25        -999.25        69.1882       83.48794         0.6052        -999.25        -999.25         0.5909        28.3466      -9.386051              1       0.709725
      2897.5000        -999.25        -999.25        -999.25        -999.25        68.6412       82.79546         0.6244        -999.25        -999.25         0.6339         30.027      -7.698868              1      0.7864151
      2898.0000        -999.25        -999.25        -999.25        -999.25        68.8276       83.04867         0.6422        -999.25        -999.25          0.691        29.3517      -8.367386              1      0.7560279
      2898.5000        -999.25        -999.25        -999.25        -999.25        69.0483        83.3461         0.6634        -999.25        -999.25         0.7604        28.3882      -9.324102              1      0.7125408
      2899.0000        -999.25        -999.25        -999.25        -999.25        67.7086       81.63149         0.6756        -999.25        -999.25         0.8049         28.672      -9.033524              1       0.725749
      2899.5000        -999.25        -999.25        -999.25        -999.25        66.9656       80.68629         0.6778        -999.25        -999.25          0.778        31.8774      -5.821342              1      0.8717571
      2900.0000        -999.25        -999.25        -999.25        -999.25        68.6639       82.88899         0.6789        -999.25        -999.25         0.7241        34.6647       -3.02726              1      0.9987609
      2900.5000        -999.25        -999.25        -999.25        -999.25        71.8615       87.02496         0.6619        -999.25        -999.25         0.6679          35.31      -2.375175              1              1
      2901.0000        -999.25        -999.25        -999.25        -999.25        75.5746       91.82561         0.6406        -999.25        -999.25          0.613        34.8326      -2.845795              1              1
      2901.5000        -999.25        -999.25        -999.25        -999.25        76.0081       92.39743         0.6134        -999.25        -999.25         0.5633        35.0613      -2.610313              1              1
      2902.0000        -999.25        -999.25        -999.25        -999.25        77.5187       94.35811         0.5854        -999.25        -999.25         0.5275        33.7825      -3.882328              1      0.9598942
      2902.5000        -999.25        -999.25        -999.25        -999.25        76.7926        93.4347         0.5665        -999.25        -999.25         0.5333        32.5927      -5.065346              1      0.9061207
      2903.0000        -999.25        -999.25        -999.25        -999.25        74.4302       90.40138         0.5579        -999.25        -999.25         0.5536        30.9172      -6.734064              1      0.8302698
      2903.5000        -999.25        -999.25        -999.25        -999.25         73.361       89.03558         0.5495        -999.25        -999.25         0.5404        30.4285      -7.215982              1      0.8083645
      2904.0000        -999.25        -999.25        -999.25        -999.25        73.7224       89.51442         0.5484        -999.25        -999.25         0.5315        30.7609      -6.876799              1      0.8237819
      2904.5000        -999.25        -999.25        -999.25        -999.25        73.5703       89.33114         0.5479        -999.25        -999.25         0.5283        30.7183      -6.912617              1      0.8221538
      2905.0000        -999.25        -999.25        -999.25        -999.25        73.4185       89.14827         0.5478        -999.25        -999.25         0.5504        31.5852      -6.038935              1      0.8618666
      2905.5000        -999.25        -999.25        -999.25        -999.25        73.4423        89.1918          0.548        -999.25        -999.25         0.5715        32.2946       -5.32275              1      0.8944204
      2906.0000        -999.25        -999.25        -999.25        -999.25         73.912        89.8103         0.5481        -999.25        -999.25         0.5864        31.7913      -5.819269              1      0.8718514
      2906.5000        -999.25        -999.25        -999.25        -999.25        76.1799       92.74747         0.5483        -999.25        -999.25         0.5843        31.4391      -6.164686              1      0.8561506
      2907.0000        -999.25        -999.25        -999.25        -999.25        78.4688       95.71172         0.5487        -999.25        -999.25          0.582        31.3045      -6.292503              1      0.8503408
      2907.5000        -999.25        -999.25        -999.25        -999.25        78.0831       95.22724         0.5493        -999.25        -999.25         0.5859        31.3065      -6.283722              1      0.8507399
      2908.0000        -999.25        -999.25        -999.25        -999.25        76.8473        93.6466         0.5498        -999.25        -999.25         0.5987        30.3346      -7.248838              1       0.806871
      2908.5000        -999.25        -999.25        -999.25        -999.25        75.6115       92.06597         0.5504        -999.25        -999.25         0.6123        30.9559      -6.620756              1      0.8354202
      2909.0000        -999.25        -999.25        -999.25        -999.25        72.1414       87.60434          0.551        -999.25        -999.25          0.598        31.6554      -5.914474              1      0.8675239
      2909.5000        -999.25        -999.25        -999.25        -999.25        68.7241       83.21079         0.5498        -999.25        -999.25         0.5851        31.9232      -5.639891              1      0.8800049
