#------------------------------------------------------------------------------
# Created by    : vladimir.rabinovich
# Created on    : 09/19/2023 17:20:35
#------------------------------------------------------------------------------
~Version Information Section
VERS.           2.0     :   CWLS log ASCII Standard - VERSION 2.0
WRAP.           NO      :   One line per depth step
~Well Information Section
#MNEM       .UNIT                                         VALUE :DESCRIPTION
#------------------------------------------------------------------------------
STRT        .FT                                             501 :START DEPTH
STOP        .FT                                            8659 :STOP DEPTH
STEP        .FT                                             0.5 :STEP      
NULL        .                                           -999.25 :NULL      
COMP        .                                      SHELL OIL CO :COMPANY   
WELL        .                                OCS 00705 ST00BP00 :WELL      
FLD         .                                           WILDCAT :FIELD     
LOC         .                                                   :LOCATION  
CNTY        .                             GALVESTON LARGE BLOCK :LOCATION  
STAT        .                                             TEXAS :STATE     
CTRY        .                                     UNITED STATES :COUNTRY   
SRVC        .                                                   :SERVICE COMPANY
DATE        .                             9/13/2023 11:19:25 AM :LOG DATE  
API         .                                    42706000440000 :API NUMBER
UWI         .                                    42706000440000 :UNIQUE WELL ID
XCOORD      .                                  1104214.94625617 :SURFACE X 
YCOORD      .                                  10500066.5450575 :SURFACE Y 
LAT         .                                         28.922918 :LATITUDE  
LON         .                                        -94.676571 :LONGITUDE 
ELEV        .FT                                              41 :ELEVATION VALUE
ELEV_TYPE   .                                                KB :ELEVATION REFERENCE TYPE
~Curve Information Section
#MNEM       .UNIT                                      API CODE :CURVE DESCRIPTION
#------------------------------------------------------------------------------
DEPT        .FT                                                 :DEPTH     
ASN         .OHMM                                               :          
CILD        .MMHO                                               :          
DT          .US/F                                               :          
ILD         .OHMM                                               :          
LAT         .OHMM                                               :          
SP          .MV                                                 :          
SP_NORM     .MV                                                 :SP Normalized
VSH_SP      .V/V                                                :Volume of Shale from SP
~A        DEPTH            ASN           CILD             DT            ILD            LAT             SP        SP_NORM         VSH_SP
# ...
      5929.0000         0.3477       3467.234       112.0609         0.3847        -999.25       -96.3218      -47.79141              0
      5929.5000         0.3421       3527.496        113.079          0.377        -999.25       -97.0533      -48.52215              0
      5930.0000         0.3365       3556.227       114.8707         0.3694        -999.25       -97.7692      -49.23729              0
      5930.5000          0.331       3575.605       115.6232         0.3617        -999.25       -98.1409      -49.60822              0
      5931.0000         0.3263       3584.547       115.6971          0.354        -999.25       -97.4556      -48.92216              0
      5931.5000         0.3216       3592.973       115.7791         0.3717        -999.25       -95.3201       -46.7859              0
      5932.0000         0.3168       3535.117       113.8372         0.3959        -999.25       -91.2268      -42.69184              0
      5932.5000          0.312       3360.488       111.8449         0.4201        -999.25        -87.889      -39.35328     0.01658268
      5933.0000         0.3134       3079.949       109.8527         0.4443        -999.25       -86.1467      -37.61021     0.06127666
      5933.5000         0.3184       2799.766       107.8605         0.4685        -999.25       -84.4045      -35.86726      0.1059678
      5934.0000         0.3233        2519.23       106.8786         0.5036        -999.25       -79.5757      -31.03769      0.2298028
      5934.5000         0.3426       2249.469       107.8269         0.5625        -999.25       -77.6246      -29.08583      0.2798505
      5935.0000         0.3949           1922       108.7751         0.6213        -999.25       -75.6068      -27.06726      0.3316087
      5935.5000         0.4759       1755.236       110.2787         0.6801        -999.25       -73.3491       -24.8088      0.3895178
      5936.0000          0.524       1636.963       111.7345          0.739        -999.25       -72.1791      -23.63804      0.4195374
      5936.5000          0.558       1579.018        109.977         0.7647        -999.25       -71.3702      -22.82838      0.4402979
      5937.0000         0.5769       1533.572       108.7596         0.7863        -999.25       -70.9976      -22.45501      0.4498715
      5937.5000         0.5906       1541.631       109.1147         0.7604        -999.25        -70.994      -22.45066      0.4499831
      5938.0000         0.5985         1569.5       111.1025         0.7174        -999.25       -70.9905       -22.4464      0.4500924
      5938.5000         0.5895         1615.1       112.2754         0.6745        -999.25       -71.1324      -22.58753      0.4464735
      5939.0000         0.5539       1664.389       112.7596         0.6315        -999.25       -71.9491      -23.40347      0.4255522
      5939.5000         0.5132       1725.514       112.6159         0.5877        -999.25       -72.7657      -24.21931      0.4046332
      5940.0000          0.479        1835.75       111.7459         0.5416        -999.25       -73.5835      -25.03635      0.3836834
      5940.5000         0.4485         1952.5       111.8008         0.4955        -999.25       -74.4001      -25.85218      0.3627645
      5941.0000         0.4179        2069.25       112.5533         0.4494        -999.25       -75.9646      -27.41592      0.3226687
      5941.5000         0.3983       2316.777       112.6997         0.4033        -999.25       -78.4357      -29.88626      0.2593267
      5942.0000         0.3849        2935.09       112.4776         0.3869        -999.25       -80.7113       -32.1611      0.2009975
      5942.5000         0.3715       3289.691       111.9707         0.3767        -999.25       -82.8823      -34.33134      0.1453503
      5943.0000         0.3612       3319.082       110.6847         0.3666        -999.25       -85.7512      -37.19947     0.07180845
      5943.5000          0.356       3324.934       108.7975         0.3589        -999.25       -88.7756      -40.22311              0
      5944.0000         0.3478       3284.348       106.9322         0.4057        -999.25       -90.9867      -42.43345              0
      5944.5000         0.3755       3235.543       106.3117         0.4525        -999.25       -87.4446      -38.89059     0.02844649
      5945.0000         0.4052       3179.367       106.5311         0.4993        -999.25       -82.7446      -34.18982      0.1489789
      5945.5000         0.4469       3125.043       108.3746         0.5461        -999.25       -80.9468      -32.39126      0.1950959
      5946.0000         0.4986       3021.652       109.9472         0.5931        -999.25        -79.149       -30.5927      0.2412128
      5946.5000          0.542       2711.438       109.5806         0.6442        -999.25       -77.0247      -28.46763      0.2957017
      5947.0000         0.5749       2401.223       107.8802         0.6954        -999.25       -74.8113      -26.25348      0.3524749
      5947.5000         0.6077           1460       105.8595         0.7466        -999.25       -72.7246      -24.16602      0.4059996
      5948.0000         0.6395       1262.574       104.5787         0.7978        -999.25       -70.6647      -22.10535      0.4588371
      5948.5000         0.6659       1233.492       104.5072         0.8489        -999.25       -68.4003      -19.84019      0.5169183
      5949.0000         0.6923       1206.617       105.4899         0.9044        -999.25       -66.1002      -17.53932      0.5759148
      5949.5000         0.7186       1109.984       106.7075           0.96        -999.25       -62.9781      -14.41647       0.655988
      5950.0000         0.7374       1075.801       107.9251         1.0155        -999.25       -56.1264      -7.564003      0.8316922
      5950.5000         0.7559       1098.236       109.0891         1.0612        -999.25       -56.1514      -7.588242      0.8310707
      5951.0000         0.7745           1125       110.2516         1.0333        -999.25       -60.0181      -11.45418      0.7319441
      5951.5000         0.7823       1298.305       111.1972         0.9525        -999.25       -63.6336      -15.06891      0.6392587
      5952.0000         0.7469       1578.135       111.7796         0.8714        -999.25       -71.0624      -22.49696       0.448796
      5952.5000         0.6372       1857.611        112.097         0.7919        -999.25       -73.8357      -25.26949      0.3777053
      5953.0000          0.601        1950.75         112.45         0.7455        -999.25        -76.609      -28.04203      0.3066146
      5953.5000         0.5647         2024.5       112.6551         0.6991        -999.25       -77.1691      -28.60136      0.2922727
      5954.0000         0.5288       2098.313       112.7293         0.6527        -999.25       -77.4763      -28.90781      0.2844151
      5954.5000         0.4928       2167.852       112.7307         0.6064        -999.25       -77.7832      -29.21395      0.2765655
      5955.0000         0.4745       2225.887       112.6594           0.56        -999.25       -78.0905      -29.52048      0.2687056
      5955.5000         0.4638       2288.512       112.3705          0.532        -999.25       -78.1212      -29.55042       0.267938
      5956.0000         0.4532       2334.488       111.6507         0.5132        -999.25       -77.0824      -28.51085      0.2945935
      5956.5000         0.4426       2361.121       110.4762         0.5009        -999.25       -76.0435       -27.4712      0.3212513
      5957.0000          0.433       2385.652       110.1959         0.4887        -999.25       -75.0046      -26.43153      0.3479094
      5957.5000          0.427       2458.152       110.1247         0.4764        -999.25       -74.3627      -25.78887      0.3643879
      5958.0000          0.421       2531.684        109.981         0.4642        -999.25       -74.3091       -25.7345      0.3657819
