#------------------------------------------------------------------------------
# Created by    : vladimir.rabinovich
# Created on    : 09/19/2023 17:19:45
#------------------------------------------------------------------------------
~Version Information Section
VERS.           2.0     :   CWLS log ASCII Standard - VERSION 2.0
WRAP.           NO      :   One line per depth step
~Well Information Section
#MNEM       .UNIT                                         VALUE :DESCRIPTION
#------------------------------------------------------------------------------
STRT        .FT                                            3127 :START DEPTH
STOP        .FT                                           13892 :STOP DEPTH
STEP        .FT                                             0.5 :STEP      
NULL        .                                           -999.25 :NULL      
COMP        .                                       MONSANTO CO :COMPANY   
WELL        .                                     ST TR 00010-L :WELL      
FLD         .                                           WILDCAT :FIELD     
LOC         .                                                   :LOCATION  
CNTY        .                           HIGH ISLAND LARGE BLOCK :LOCATION  
STAT        .                                             TEXAS :STATE     
CTRY        .                                     UNITED STATES :COUNTRY   
SRVC        .                                                   :SERVICE COMPANY
DATE        .                             9/13/2023 11:19:15 AM :LOG DATE  
API         .                                    42708300750000 :API NUMBER
UWI         .                                    42708300750000 :UNIQUE WELL ID
XCOORD      .                                  1327265.43976741 :SURFACE X 
YCOORD      .                                  10725214.5969587 :SURFACE Y 
LAT         .                                        29.5491158 :LATITUDE  
LON         .                                       -93.9851741 :LONGITUDE 
ELEV        .FT                                              54 :ELEVATION VALUE
ELEV_TYPE   .                                                KB :ELEVATION REFERENCE TYPE
~Curve Information Section
#MNEM       .UNIT                                      API CODE :CURVE DESCRIPTION
#------------------------------------------------------------------------------
DEPT        .FT                                                 :DEPTH     
ASFL        .OHMM                                               :          
CILD        .MMHO                                               :          
ILD         .OHMM                                               :          
SP          .MV                                                 :          
SP_NORM     .MV                                                 :SP Normalized
VSH_SP      .V/V                                                :Volume of Shale from SP
~A        DEPTH           ASFL           CILD            ILD             SP        SP_NORM         VSH_SP
# ...
     13843.0000         0.8137       1388.613         0.7246       -37.7413      -2.384472      0.9765344
     13843.5000         0.8251       1384.006         0.7204        -37.543      -2.222527      0.9792792
     13844.0000         0.8361       1379.398         0.7144       -37.3585      -2.074379      0.9817902
     13844.5000         0.8426       1374.793         0.7084       -37.1741      -1.926331      0.9842995
     13845.0000         0.8482       1372.955         0.7024       -36.9894      -1.777985      0.9868138
     13845.5000         0.8478        1372.02         0.6975       -36.8669      -1.691841      0.9882739
     13846.0000         0.8407       1371.084         0.7048       -36.8806      -1.741894      0.9874255
     13846.5000         0.8335       1370.283         0.7121       -36.8943      -1.791946      0.9865772
     13847.0000         0.8259        1383.82         0.7194       -37.4039      -2.337902      0.9773237
     13847.5000         0.8182       1397.357         0.7192       -38.6865      -3.656857      0.9549685
     13848.0000         0.8118       1410.867         0.7048       -39.7689      -4.775612      0.9360066
     13848.5000         0.8055       1401.182         0.6904       -45.4825      -10.52556      0.8385498
     13849.0000          0.807       1377.115          0.676       -46.1967      -11.27612      0.8258286
     13849.5000         0.8408        1397.68         0.6616       -45.5579      -10.67367      0.8360395
     13850.0000         0.8493       1418.195         0.6472       -44.9005      -10.05262      0.8465657
     13850.5000         0.8357        1438.76         0.6358       -44.2444      -9.432877      0.8570699
     13851.0000         0.7979       1450.559         0.6336        -43.587      -8.811832      0.8675961
     13851.5000         0.7824       1459.227         0.6315       -43.0385      -8.299686      0.8762765
     13852.0000          0.767        1467.92         0.6293       -42.5899       -7.88744      0.8832637
     13852.5000         0.7496       1476.588         0.6299       -42.1414      -7.475292      0.8902493
     13853.0000         0.7584        1487.59         0.6368       -41.6928      -7.063046      0.8972365
     13853.5000         0.7672       1507.658         0.6436       -41.2443      -6.650902       0.904222
     13854.0000          0.776       1527.777         0.6504       -40.7958       -6.23875      0.9112076
     13854.5000         0.7816       1546.951         0.6573       -40.3779      -5.857204      0.9176745
     13855.0000          0.787       1557.656         0.6632        -40.285      -5.800659      0.9186329
     13855.5000         0.7918       1544.814         0.6655       -40.1918      -5.743813      0.9195964
     13856.0000         0.7928       1531.975         0.6677       -40.9181      -6.506466      0.9066701
     13856.5000         0.7887       1519.133         0.6699       -42.2921      -7.916821      0.8827658
     13857.0000         0.7847       1506.293          0.671       -43.5055      -9.166576      0.8615835
     13857.5000         0.7805       1493.451         0.6718       -44.5039      -10.20133      0.8440453
     13858.0000         0.7761       1481.914         0.6727       -44.9734      -10.70718      0.8354715
     13858.5000         0.7757       1477.346         0.6735       -47.2322      -13.00234      0.7965705
     13859.0000         0.8007       1472.775         0.7006       -47.8624      -13.66889      0.7852731
     13859.5000          0.822       1468.205         0.7049       -47.1754      -13.01824       0.796301
     13860.0000         0.8343       1466.986          0.705       -46.1349       -12.0141      0.8133204
     13860.5000         0.8265       1467.908         0.7049        -45.097      -11.01255      0.8302957
     13861.0000         0.8186        1468.83         0.7048       -44.0566       -10.0085      0.8473135
     13861.5000         0.8107       1469.752         0.7033       -43.0804      -9.068657      0.8632431
     13862.0000         0.8023       1470.674         0.6965       -42.1562      -8.180813      0.8782913
     13862.5000         0.7939       1463.025         0.6897       -41.6669      -7.704636      0.8863621
     13863.0000         0.7812       1454.258         0.6894       -41.2875      -7.325233      0.8927926
     13863.5000         0.7887        1445.49         0.6905       -40.9082      -6.945934      0.8992215
     13864.0000         0.8015       1436.699         0.6915       -40.6339      -6.671635      0.9038706
     13864.5000         0.8142       1427.932         0.6951       -40.4102      -6.447933      0.9076622
     13865.0000         0.8256       1403.492         0.7012       -40.1866      -6.224335      0.9114519
     13865.5000         0.8372       1374.084         0.7074       -39.9636      -6.001335      0.9152316
     13866.0000         0.8487       1352.477         0.7109       -39.5478      -5.585533      0.9222791
     13866.5000         0.8507       1336.232         0.7092       -39.1252      -5.162933      0.9294418
     13867.0000         0.8415       1337.424         0.7075       -38.5234      -4.561134      0.9396418
     13867.5000          0.839       1362.213         0.6967        -37.787      -3.824734      0.9521232
     13868.0000         0.8365       1387.645         0.6834       -36.5167      -2.554436      0.9736536
     13868.5000         0.8298        1421.92         0.6702       -34.7745     -0.8122368              1
     13869.0000          0.823       1456.096         0.6569       -35.3491      -1.386833      0.9934435
     13869.5000          0.816       1490.658         0.6436       -35.7939      -1.831635      0.9859045
     13870.0000         0.8049       1495.277         0.6295       -36.1967      -2.234436      0.9790773
     13870.5000         0.7937       1499.896          0.615       -36.4948      -2.532536      0.9740248
     13871.0000         0.7834       1504.518         0.6005       -36.3827      -2.420437      0.9759248
     13871.5000          0.774       1509.137          0.586       -36.1535      -2.191235      0.9798096
     13872.0000         0.7752        1514.91         0.5799       -35.3799      -1.417637      0.9929214
     13872.5000         0.7803       1522.561          0.581       -34.3748     -0.4125366              1
     13873.0000         0.7853       1530.211         0.5821       -34.7331     -0.7708359              1
     13873.5000         0.7816       1537.885         0.5817       -35.0433      -1.081036      0.9986265
     13874.0000         0.7755       1545.535         0.5787        -35.312      -1.349735      0.9940723
     13874.5000         0.7693       1555.072         0.5757       -35.0389      -1.076633      0.9987012
     13875.0000          0.763        1566.92         0.5727       -34.6089     -0.6466331              1
     13875.5000         0.7543       1578.768         0.5697       -34.1777      -0.215435              1
     13876.0000         0.7455        1590.59         0.5667       -33.7477      0.2145653              1
     13876.5000         0.7368       1602.438         0.5638       -33.3152      0.6470642              1
     13877.0000         0.7261       1612.844         0.5609       -32.8556       1.106667              1
     13877.5000         0.7136       1623.127          0.558       -32.3959       1.566364              1
     13878.0000         0.7045       1631.512         0.5552       -31.9449       2.017365              1
     13878.5000         0.6967       1629.959         0.5543       -31.5396       2.422665              1
     13879.0000         0.6889       1628.404         0.5552       -31.1714       2.790865              1
     13879.5000         0.6796       1608.498         0.5561       -30.9663       2.995966              1
     13880.0000         0.6699        1588.43          0.557       -31.4049       2.557365              1
     13880.5000           0.68       1568.361         0.5628       -31.8448       2.117464              1
