#------------------------------------------------------------------------------
# Created by    : vladimir.rabinovich
# Created on    : 09/19/2023 17:21:35
#------------------------------------------------------------------------------
~Version Information Section
VERS.           2.0     :   CWLS log ASCII Standard - VERSION 2.0
WRAP.           NO      :   One line per depth step
~Well Information Section
#MNEM       .UNIT                                         VALUE :DESCRIPTION
#------------------------------------------------------------------------------
STRT        .FT                                            4200 :START DEPTH
STOP        .FT                                            8641 :STOP DEPTH
STEP        .FT                                             0.5 :STEP      
NULL        .                                           -999.25 :NULL      
COMP        .                                       HUNT OIL CO :COMPANY   
WELL        .                               OCS G25526 ST00BP00 :WELL      
FLD         .                                           WILDCAT :FIELD     
LOC         .                                                   :LOCATION  
CNTY        .                             GALVESTON LARGE BLOCK :LOCATION  
STAT        .                                             TEXAS :STATE     
CTRY        .                                     UNITED STATES :COUNTRY   
SRVC        .                                                   :SERVICE COMPANY
DATE        .                             9/13/2023 11:19:33 AM :LOG DATE  
API         .                                    42706404520000 :API NUMBER
UWI         .                                    42706404520000 :UNIQUE WELL ID
XCOORD      .                                  1090250.84236946 :SURFACE X 
YCOORD      .                                  10532258.5226608 :SURFACE Y 
LAT         .                                         29.010895 :LATITUDE  
LON         .                                        -94.721682 :LONGITUDE 
ELEV        .FT                                             108 :ELEVATION VALUE
ELEV_TYPE   .                                                KB :ELEVATION REFERENCE TYPE
~Curve Information Section
#MNEM       .UNIT                                      API CODE :CURVE DESCRIPTION
#------------------------------------------------------------------------------
DEPT        .FT                                                 :DEPTH     
CALI        .IN                                                 :          
DCAL        .IN                                                 :          
DFL         .OHMM                                               :          
DLOD        .LB                                                 :          
DPHI        .DEC                                                :          
DRHO        .G/C3                                               :          
GR          .GAPI                                               :          
GR_NORM     .GAPI                                               :GammaRay Normalized
HDCN        .MMHO                                               :          
HO24        .OHMM                                               :          
HO30        .OHMM                                               :          
HO40        .OHMM                                               :          
HO60        .OHMM                                               :          
HO90        .OHMM                                               :          
HT24        .OHMM                                               :          
HT30        .OHMM                                               :          
HT40        .OHMM                                               :          
HT60        .OHMM                                               :          
HT90        .OHMM                                               :          
NPHI        .DEC                                                :          
RHOB        .G/C3                                               :          
RWA         .OHMM                                               :          
SP_NORM     .MV                                                 :SP Normalized
SPA         .MV                                                 :          
TENS        .LBS                                                :          
VSH_GR      .V/V                                                :Volume of Shale from GR
VSH_SP      .V/V                                                :Volume of Shale from SP
~A        DEPTH           CALI           DCAL            DFL           DLOD           DPHI           DRHO             GR        GR_NORM           HDCN           HO24           HO30           HO40           HO60           HO90           HT24           HT30           HT40           HT60           HT90           NPHI           RHOB            RWA        SP_NORM            SPA           TENS         VSH_GR         VSH_SP
# ...
      6560.0000        12.7958         0.5458         0.3612       1406.216         0.3442        -0.0135        53.2721       48.47665       4308.061         0.3006         0.2805         0.2667         0.2509         0.2338           0.29          0.273         0.2611         0.2472         0.2321         0.3204         2.0821         0.0341      -76.29292        105.774       3435.267      0.3292904              0
      6560.5000        12.8149         0.5649         0.2953       1396.025         0.3432        -0.0139        51.8484       46.78366       4663.079         0.2563          0.243         0.2335         0.2224         0.2101         0.2573          0.245         0.2363         0.2259         0.2145         0.3277         2.0837         0.0331      -76.43154       105.6793        3430.49      0.2932695              0
      6561.0000         12.811          0.561          0.256        1389.91         0.3435        -0.0123        49.0687       43.47852       4885.754         0.2336         0.2243         0.2175         0.2094         0.2003         0.2336         0.2256         0.2198         0.2127         0.2047         0.3434         2.0833         0.0332      -76.14179       105.8687       3434.073      0.2229471              0
      6561.5000        12.8132         0.5632         0.2533       1396.025         0.3421        -0.0072        47.3895       41.48176       4964.238         0.2239         0.2173         0.2125         0.2065         0.1997         0.2203         0.2153         0.2115         0.2069         0.2014         0.3501         2.0856         0.0323      -75.87001       106.0462       3438.167       0.180463              0
      6562.0000        12.8177         0.5677         0.2337        1402.14         0.3413         0.0017        47.7493       41.90919       4993.468         0.2196         0.2149         0.2114         0.2071         0.2021         0.2124         0.2093         0.2068         0.2038         0.2003          0.346         2.0869         0.0314      -75.84804        106.058       3439.532      0.1895573              0
      6562.5000        12.8155         0.5655         0.2154        1402.14         0.3391         0.0067        50.0857       44.68662        5062.14         0.2095         0.2072         0.2054         0.2031         0.2005         0.2068         0.2044         0.2026         0.2003         0.1975         0.3396         2.0905         0.0306      -75.75477       106.1171       3433.561      0.2486515              0
      6563.0000        12.8323         0.5823         0.1952       1396.025         0.3363         0.0035        52.2917         47.309       5143.005         0.2033         0.2011         0.1994         0.1973         0.1948         0.2059         0.2029         0.2006         0.1978         0.1944         0.3384          2.095         0.0291      -75.47392       106.3006       3422.642      0.3044468              0
      6563.5000        12.8082         0.5582         0.1961       1396.025          0.336        -0.0036         54.555       49.99952       5089.643         0.2094          0.205         0.2017         0.1975         0.1927         0.2147         0.2099         0.2062         0.2017         0.1965         0.3484         2.0956         0.0308      -75.05062       106.5786       3416.841      0.3616919              0
      6564.0000         12.815          0.565          0.211       1383.795         0.3421        -0.0103         57.877       53.94873       4823.637         0.2336         0.2263         0.2209         0.2143         0.2068         0.2355         0.2278         0.2221         0.2152         0.2073         0.3642         2.0856         0.0357       -74.1097       107.1999       3421.959      0.4457177              0
      6564.5000        12.8178         0.5678         0.2797       1393.986         0.3491        -0.0163        59.5876       55.98214       4479.711         0.2808         0.2685         0.2597         0.2492         0.2375         0.2608         0.2503         0.2427         0.2335         0.2232         0.3741         2.0739         0.0408      -72.47315       108.2826       3428.272      0.4889816              0
      6565.0000        12.7717         0.5217         0.3193       1412.331         0.3493         -0.016        58.3777       54.54334       4347.546          0.297           0.28         0.2681         0.2542          0.239         0.2757         0.2626         0.2533         0.2423           0.23          0.369         2.0736         0.0406      -71.70186       108.7914       3434.243      0.4583689              0
      6565.5000        12.7991         0.5491         0.2932       1426.599         0.3438        -0.0166        55.6397       51.28777        4380.11         0.2768          0.262         0.2516         0.2394          0.226         0.2727         0.2601          0.251         0.2403         0.2283         0.3561         2.0828         0.0369      -72.31329       108.3831       3439.021      0.3891015              0
      6566.0000        12.7637         0.5137         0.2767       1416.408         0.3375        -0.0176        54.6437       50.10328       4424.007         0.2634         0.2525         0.2446         0.2351         0.2245         0.2645         0.2537         0.2459         0.2366          0.226         0.3484         2.0932         0.0356      -72.22874       108.4364       3446.016      0.3638995              0
      6566.5000        12.7434         0.4934         0.2761       1428.638         0.3358         -0.014        55.8901       51.58479       4414.313         0.2612         0.2508         0.2432         0.2342          0.224         0.2649         0.2541         0.2464          0.237         0.2265         0.3496          2.096         0.0358      -71.75174         108.75       3459.494      0.3954211              0
      6567.0000        12.7338         0.4838         0.3201       1444.944         0.3357        -0.0115        55.6867       51.34262        4324.24         0.2764         0.2633          0.254         0.2429         0.2305         0.2756          0.263          0.254         0.2432         0.2313         0.3581         2.0961         0.0373      -72.11334       108.5074       3470.413      0.3902686              0
      6567.5000        12.7293         0.4793         0.3459       1469.403         0.3378        -0.0135        52.6619       47.74608       4209.322         0.2981          0.282         0.2706         0.2573         0.2427         0.2906         0.2753         0.2644         0.2516         0.2376         0.3641         2.0926         0.0399      -73.05478       107.8802       3471.948      0.3137464              0
      6568.0000        12.7011         0.4511           0.39        1461.25         0.3446        -0.0186        50.3934        45.0487       4172.563         0.3075         0.2914           0.28         0.2666         0.2519         0.2985         0.2812         0.2691          0.255         0.2397         0.3567         2.0814         0.0403      -73.89794       107.3182       3463.759      0.2563553              0
      6568.5000        12.7185         0.4685         0.3797        1461.25         0.3526        -0.0227        50.8158       45.55056       4320.031         0.3006         0.2842         0.2725         0.2589          0.244         0.2899         0.2727         0.2607         0.2467         0.2315          0.348         2.0683         0.0386      -74.34876       107.0164       3450.451      0.2670332              0
      6569.0000         12.701          0.451         0.3444       1426.599          0.357        -0.0255        51.0453       45.82307       4652.752         0.2752         0.2584         0.2467         0.2331         0.2184         0.2683         0.2526         0.2417         0.2288         0.2149         0.3534         2.0609         0.0376       -74.5854       106.8567       3440.044      0.2728313              0
      6569.5000        12.6937         0.4437          0.271       1434.753         0.3543        -0.0226        51.9527       46.90155       4999.977         0.2415         0.2284         0.2191         0.2082         0.1963         0.2469         0.2332         0.2236         0.2123            0.2         0.3562         2.0655         0.0353      -74.56341       106.8685       3439.191      0.2957776              0
