#------------------------------------------------------------------------------
# Created by    : vladimir.rabinovich
# Created on    : 09/19/2023 17:22:46
#------------------------------------------------------------------------------
~Version Information Section
VERS.           2.0     :   CWLS log ASCII Standard - VERSION 2.0
WRAP.           NO      :   One line per depth step
~Well Information Section
#MNEM       .UNIT                                         VALUE :DESCRIPTION
#------------------------------------------------------------------------------
STRT        .FT                                             862 :START DEPTH
STOP        .FT                                           11792 :STOP DEPTH
STEP        .FT                                             0.5 :STEP      
NULL        .                                           -999.25 :NULL      
COMP        .                     FREEPORT-MCMORAN OIL & GAS CO :COMPANY   
WELL        .                               OCS G08155 ST00BP00 :WELL      
FLD         .                            HIGH ISLAND BLOCK 0262 :FIELD     
LOC         .                                                   :LOCATION  
CNTY        .                           HIGH ISLAND LARGE BLOCK :LOCATION  
STAT        .                                             TEXAS :STATE     
CTRY        .                                     UNITED STATES :COUNTRY   
SRVC        .                                                   :SERVICE COMPANY
DATE        .                             9/13/2023 11:19:59 AM :LOG DATE  
API         .                                    42708403380000 :API NUMBER
UWI         .                                    42708403380000 :UNIQUE WELL ID
XCOORD      .                                  1194111.75057656 :SURFACE X 
YCOORD      .                                  10524686.1808471 :SURFACE Y 
LAT         .                                         28.993839 :LATITUDE  
LON         .                                         -94.39647 :LONGITUDE 
ELEV        .FT                                              98 :ELEVATION VALUE
ELEV_TYPE   .                                                KB :ELEVATION REFERENCE TYPE
~Curve Information Section
#MNEM       .UNIT                                      API CODE :CURVE DESCRIPTION
#------------------------------------------------------------------------------
DEPT        .FT                                                 :DEPTH     
DT          .US/F                                               :          
GR          .GAPI                                               :          
GR_NORM     .GAPI                                               :GammaRay Normalized
ILD         .OHMM                                               :          
ILM         .OHMM                                               :          
SFL         .OHMM                                               :          
SP          .MV                                                 :          
SP_NORM     .MV                                                 :SP Normalized
VSH_GR      .V/V                                                :Volume of Shale from GR
VSH_SP      .V/V                                                :Volume of Shale from SP
~A        DEPTH             DT             GR        GR_NORM            ILD            ILM            SFL             SP        SP_NORM         VSH_GR         VSH_SP
# ...
      7428.0000       104.4718        68.3763       59.38404         0.5963         0.5795         0.6015       -60.4213      -6.536621      0.5613626      0.7085989
      7428.5000       107.6755        68.2903       59.28892         0.5978          0.564         0.5961       -61.8522      -7.968872      0.5593387      0.6332173
      7429.0000       110.8634        70.6467       61.90757         0.5992         0.5532         0.5803       -62.3436       -8.46162      0.6150548      0.6072831
      7429.5000        113.375        73.2886       64.84346         0.5996         0.5511         0.5597       -61.9017      -8.021065      0.6775205      0.6304703
      7430.0000       114.2533        78.3219       70.43645         0.5984         0.5613         0.5577       -60.9658      -7.086517      0.7965202       0.679657
      7430.5000       114.8503        80.3325       72.67088         0.5976          0.572         0.5638       -59.8416      -5.963661      0.8440612      0.7387547
      7431.0000       114.1249        80.9016       73.30365         0.5984          0.583         0.5766       -58.4647      -4.588108      0.8575245      0.8111522
      7431.5000       112.5492        79.3613       71.59264         0.5993         0.5924         0.5889       -57.3823      -3.507061      0.8211201      0.8680494
      7432.0000       111.4828        77.1847       69.17463         0.6104         0.5969         0.5962       -56.4945      -2.620605       0.769673       0.914705
      7432.5000        112.209        77.4817       69.50507         0.6223         0.6014         0.6036       -55.8777      -2.005154      0.7767035      0.9470972
      7433.0000       113.2427        80.4399       72.79239         0.6327         0.5999         0.5994       -55.2821      -1.410904      0.8466465      0.9783735
      7433.5000       114.2336        83.5663       76.26659         0.6434         0.5966         0.5932       -55.0391       -1.16925      0.9205658      0.9910921
      7434.0000       114.5476        84.9321       77.78459         0.6444         0.5907         0.5871       -54.7962     -0.9276962      0.9528636              1
      7434.5000        114.035        83.7539       76.47591         0.6448         0.5851         0.5844       -54.6786     -0.8114471      0.9250194              1
      7435.0000       114.0317        82.7505       75.36146         0.6438          0.583         0.5823        -54.571     -0.7051926      0.9013076              1
      7435.5000       114.8326        83.5468       76.24667         0.6406         0.5843          0.586       -54.4871     -0.6226387      0.9201418              1
      7436.0000       115.8905         85.147       78.02511         0.6374         0.5931         0.5938       -54.4371     -0.5739899      0.9579811              1
      7436.5000       116.3303        85.9247       78.88965         0.6371         0.6056         0.6078       -54.4359     -0.5741386      0.9763755              1
      7437.0000       115.1814        83.9883       76.73853          0.637         0.6213         0.6237       -54.5057     -0.6452827      0.9306069              1
      7437.5000       112.9713         80.057       72.37085         0.6412         0.6369         0.6411       -54.5736     -0.7145348      0.8376777              1
      7438.0000        109.896        79.2559       71.48117         0.6482         0.6519         0.6482       -54.6364     -0.7786789      0.8187483              1
      7438.5000       107.5706        82.8394       75.46328         0.6525         0.6525         0.6512       -54.6992     -0.8428307       0.903474              1
      7439.0000       107.8184        86.4347       79.45849         0.6518         0.6481          0.651       -54.8371     -0.9820786      0.9884785              1
      7439.5000       109.5159        88.1976        81.4177         0.6505          0.641         0.6455       -54.9822      -1.128525              1      0.9932355
      7440.0000       110.7651        86.8293        79.8978         0.6445         0.6305         0.6366       -55.2632      -1.410873      0.9978254      0.9783751
      7440.5000       111.4678        81.2997       73.75423         0.6386         0.6194         0.6235       -55.6855      -1.834522      0.8671112      0.9560778
      7441.0000       110.7612        74.3358         66.017         0.6328         0.6084         0.6149       -56.2294      -2.379768      0.7024893      0.9273806
      7441.5000       108.7949        70.4905       61.74488         0.6298         0.6046         0.6195       -57.0475      -3.199219      0.6115932      0.8842517
      7442.0000       107.3295        71.0181       62.33153         0.6277          0.601         0.6383       -58.0518      -4.204865      0.6240751      0.8313229
      7442.5000       107.9894        74.5938       66.30496         0.6257            0.6         0.6573       -59.0861      -5.240513      0.7086162      0.7768151
      7443.0000       108.6428        82.7456       75.36296         0.6236         0.5989         0.6508       -59.9002      -6.055962      0.9013396      0.7338967
      7443.5000       109.1423        88.9749       82.28484         0.6216          0.599         0.6215       -60.0442      -6.201309              1      0.7262469
      7444.0000       111.2882        93.8557       87.70838         0.6195            0.6          0.595       -59.5472      -5.705654              1       0.752334
      7444.5000        114.193        93.2617       87.04882         0.6185         0.6032         0.5827       -58.6224      -4.782204              1      0.8009366
      7445.0000       115.1407        91.1866       84.74358         0.6178         0.6076         0.5759       -57.6832      -3.844353              1      0.8502972
      7445.5000        115.236        89.1096       82.43624         0.6171         0.6114         0.5741       -56.8378      -3.000298              1      0.8947212
      7446.0000       114.9664        87.0345       80.13101          0.619         0.6156         0.5744       -56.1851      -2.348949              1      0.9290026
      7446.5000       114.1602        84.9595       77.82589         0.6231         0.6221         0.5758        -55.724      -1.889194      0.9537423      0.9532003
      7447.0000       113.7283        83.9852       76.74376         0.6272         0.6286         0.5837       -55.4983      -1.664841      0.9307183      0.9650084
      7447.5000       113.7617        83.6688       76.39265         0.6314         0.6338         0.5918       -55.5735      -1.741394      0.9232478      0.9609793
      7448.0000       113.7158        81.7218       74.22975          0.638         0.6387          0.603       -55.6774      -1.846638      0.8772287      0.9554401
      7448.5000       112.7419         78.361       70.49596         0.6446         0.6436         0.6162       -55.8017       -1.97229      0.7977863      0.9488268
      7449.0000       112.3693         77.595       69.64528         0.6514         0.6478         0.6276        -55.971      -2.142937      0.7796868      0.9398454
      7449.5000       113.1771         78.783       70.96571         0.6553         0.6513         0.6328       -56.1404      -2.313683       0.807781      0.9308588
      7450.0000       113.8574        79.9906       72.30793         0.6578         0.6549         0.6372       -56.3035      -2.478134      0.8363389      0.9222035
      7450.5000        112.991         80.296       72.64769         0.6591         0.6581          0.639       -56.4667      -2.642681      0.8435678      0.9135431
      7451.0000       111.5582        79.5841       71.85712         0.6577         0.6564         0.6421       -56.6091      -2.786427      0.8267473      0.9059775
      7451.5000         109.66        77.0948       69.09167         0.6565         0.6547         0.6413       -56.8319      -3.010578       0.767908      0.8941801
      7452.0000       107.6335        72.0692       63.50811         0.6531         0.6514         0.6294       -57.6402      -3.820225      0.6491087      0.8515671
