#------------------------------------------------------------------------------
# Created by    : vladimir.rabinovich
# Created on    : 09/19/2023 17:20:57
#------------------------------------------------------------------------------
~Version Information Section
VERS.           2.0     :   CWLS log ASCII Standard - VERSION 2.0
WRAP.           NO      :   One line per depth step
~Well Information Section
#MNEM       .UNIT                                         VALUE :DESCRIPTION
#------------------------------------------------------------------------------
STRT        .FT                                             598 :START DEPTH
STOP        .FT                                           10008 :STOP DEPTH
STEP        .FT                                             0.5 :STEP      
NULL        .                                           -999.25 :NULL      
COMP        .                                        SUN OIL CO :COMPANY   
WELL        .                               OCS G01712 ST00BP00 :WELL      
FLD         .                                           WILDCAT :FIELD     
LOC         .                                                   :LOCATION  
CNTY        .                                BRAZOS LARGE BLOCK :LOCATION  
STAT        .                                             TEXAS :STATE     
CTRY        .                                     UNITED STATES :COUNTRY   
SRVC        .                                                   :SERVICE COMPANY
DATE        .                             9/13/2023 11:18:52 AM :LOG DATE  
API         .                                    42704300120000 :API NUMBER
UWI         .                                    42704300120000 :UNIQUE WELL ID
XCOORD      .                                   818594.06951761 :SURFACE X 
YCOORD      .                                  10373365.4427938 :SURFACE Y 
LAT         .                                         28.560597 :LATITUDE  
LON         .                                        -95.560517 :LONGITUDE 
ELEV        .FT                                              89 :ELEVATION VALUE
ELEV_TYPE   .                                                KB :ELEVATION REFERENCE TYPE
~Curve Information Section
#MNEM       .UNIT                                      API CODE :CURVE DESCRIPTION
#------------------------------------------------------------------------------
DEPT        .FT                                                 :DEPTH     
ASN         .OHMM                                               :          
CALI        .IN                                                 :          
CILD        .MMHO                                               :          
ILD         .OHMM                                               :          
SP          .MV                                                 :          
SP_NORM     .MV                                                 :SP Normalized
VSH_SP      .V/V                                                :Volume of Shale from SP
~A        DEPTH            ASN           CALI           CILD            ILD             SP        SP_NORM         VSH_SP
# ...
      3110.5000         0.6986        13.8829       1338.477         0.6311       -49.9588      -3.758965      0.9489081
      3111.0000         0.6964        13.8582       1345.516         0.6297       -45.9282      0.2534676              1
      3111.5000         0.6999        13.8419       1352.555         0.6283       -43.8681       2.295395              1
      3112.0000         0.7035        13.8228       1338.439         0.6272       -43.9119       2.233425              1
      3112.5000         0.7071        13.7979        1321.82          0.626       -44.0004       2.126755              1
      3113.0000         0.7122        13.7734       1305.193         0.6249       -44.1556       1.953384              1
      3113.5000         0.7176        13.7514       1288.574         0.6283       -44.3108       1.780018              1
      3114.0000         0.7231        13.7294       1271.949          0.634       -44.4289       1.643745              1
      3114.5000         0.7286        13.7067       1252.563         0.6398       -44.5375       1.516979              1
      3115.0000         0.7359        13.6918       1231.867         0.6455       -44.6143       1.422005              1
      3115.5000         0.7432        13.6907       1211.156         0.6511        -44.691       1.327133              1
      3116.0000         0.7492        13.7212       1190.461         0.6564       -44.7645       1.235466              1
      3116.5000         0.7549          13.78       1169.764         0.6618       -44.8348       1.146996              1
      3117.0000         0.7606        13.8747       1155.555         0.6654       -44.9051       1.058525              1
      3117.5000          0.766        14.0194       1144.928         0.6671       -45.0007      0.9447556              1
      3118.0000         0.7713        14.1932       1139.576         0.6691       -45.2031      0.7241898              1
      3118.5000         0.7763        14.3556       1150.012         0.6741       -45.4122      0.4969139              1
      3119.0000         0.7813        14.4418       1160.447         0.6792       -45.6436       0.247345              1
      3119.5000         0.7852        14.4812       1170.883          0.689       -45.9378    -0.06502533              1
      3120.0000         0.7889        14.4465       1181.318         0.7007       -46.2777     -0.4230919              1
      3120.5000         0.7915         14.414        1191.76         0.7102       -46.8098      -0.973362              1
      3121.0000         0.7935        14.4157       1202.195         0.7149       -47.5423      -1.724033       0.986592
      3121.5000         0.7964        14.5319       1212.799         0.7196       -48.2548      -2.454704       0.973061
      3122.0000         0.8003        14.6947       1251.855         0.7244       -49.7423      -3.960373      0.9451783
      3122.5000         0.8052        14.7999       1276.771         0.7266       -53.0273      -7.263546      0.8840084
      3123.0000         0.8114        14.8191       1288.674         0.7288       -54.3139      -8.568314      0.8598461
      3123.5000         0.8232        14.8207       1300.887         0.7309       -55.4498      -9.722382      0.8384744
      3124.0000         0.8292        14.7969       1315.811         0.7323         -56.08      -10.37075      0.8264675
      3124.5000          0.838        14.7615       1340.473         0.7305       -57.5341      -11.84302      0.7992033
      3125.0000         0.8526        14.7429       1396.223         0.7286       -60.3874       -14.7145      0.7460278
      3125.5000         0.8773        14.7019       1465.014         0.7236       -62.8969      -17.24216      0.6992192
      3126.0000         0.9621        14.6309        1514.09         0.7141       -64.9727      -19.33614      0.6604419
      3126.5000         0.9496         14.353       1573.234         0.6979       -67.3879       -21.7695      0.6153796
      3127.0000         0.9043        14.0283       1789.525         0.6836       -68.8318      -23.23158      0.5883042
      3127.5000          0.859        13.8684       1900.057         0.6718       -70.9944      -25.41234      0.5479196
      3128.0000         0.8136        13.8757       2057.938         0.6581       -72.3508      -26.78691      0.5224646
      3128.5000         0.7683        13.9449       2126.906         0.5989       -73.5587      -28.01299      0.4997595
      3129.0000          0.723        13.9914       2230.336         0.5194       -74.2305      -28.70295      0.4869823
      3129.5000         0.6777        14.0269       2374.234         0.4523       -75.3495      -29.84013      0.4659236
      3130.0000         0.6733        14.0561           2215          0.468       -72.2484      -26.75719       0.523015
      3130.5000         0.7049        14.0852       1875.793         0.4894       -69.8313      -24.35826      0.5674396
      3131.0000         0.7485        14.1297       1799.072         0.5108       -57.8055      -12.35063      0.7898031
      3131.5000         0.7708        14.1899        1722.35         0.5649       -47.2559      -1.819202      0.9848296
      3132.0000         0.8071        14.2486       1211.629         0.6232       -46.1253     -0.7067757              1
      3132.5000         0.8288        14.2784        1154.35         0.6803       -45.5135     -0.1131439              1
      3133.0000         0.8463        14.3054        1095.08         0.7159       -45.1332      0.2489853              1
      3133.5000          0.861        14.3298       1032.828         0.7518       -44.9295      0.4345169              1
      3134.0000         0.8746        14.3555       879.8838         0.7879       -44.7728      0.5730476              1
      3134.5000         0.8993        14.3842       859.4355          0.819       -44.6783      0.6493797              1
      3135.0000         0.9395         14.367       875.7754         0.8438       -44.6995      0.6100044              1
      3135.5000         0.9547        14.2751       892.1152         0.8538       -44.7303      0.5610352              1
      3136.0000         0.9698        14.2197       908.4551         0.8553       -44.7758      0.4973679              1
      3136.5000         0.9749        14.2289       924.7949         0.8377       -44.8213      0.4336967              1
      3137.0000         0.9653        14.2855       949.1963         0.8202       -45.0476      0.1920853              1
      3137.5000         0.9556        14.3844       990.3418         0.7994       -45.2905    -0.02812576              1
      3138.0000         0.9379        14.4781       1031.486         0.7758       -45.5134     -0.2283401              1
      3138.5000         0.9256        14.5198        1059.07         0.7703       -45.9353     -0.6275482              1
      3139.0000         0.9315        14.5636       1079.568         0.7648        -46.505      -1.174561      0.9957424
      3139.5000          0.951        14.6179       1100.064         0.7712       -47.5329      -2.179771      0.9712251
      3140.0000         0.9721         14.654       1122.055         0.7779       -48.5453      -3.169483      0.9470858
      3140.5000         0.9806        14.6779       1099.531         0.7906       -55.8482       -10.4497      0.7695196
      3141.0000         0.9916         14.664       1075.502         0.8046       -53.5215      -8.100304      0.8268219
      3141.5000         0.9942        14.6304       1029.225         0.8147       -49.9513      -4.507416      0.9144533
      3142.0000         0.9925        14.5958       981.7891         0.8248        -48.675      -3.208427      0.9461359
      3142.5000         0.9848        14.5653       939.5879         0.8215       -48.0704      -2.581139      0.9614356
      3143.0000         0.9744        14.5385       936.8154         0.8096       -47.3326      -1.820648      0.9799842
      3143.5000         0.9639        14.5182       902.8955         0.7977       -46.2095     -0.6748581              1
