#------------------------------------------------------------------------------
# Created by    : vladimir.rabinovich
# Created on    : 09/19/2023 17:21:25
#------------------------------------------------------------------------------
~Version Information Section
VERS.           2.0     :   CWLS log ASCII Standard - VERSION 2.0
WRAP.           NO      :   One line per depth step
~Well Information Section
#MNEM       .UNIT                                         VALUE :DESCRIPTION
#------------------------------------------------------------------------------
STRT        .FT                                            3400 :START DEPTH
STOP        .FT                                            8653 :STOP DEPTH
STEP        .FT                                             0.5 :STEP      
NULL        .                                           -999.25 :NULL      
COMP        .                          KING RANCH OIL & GAS INC :COMPANY   
WELL        .                               OCS G13784 ST00BP00 :WELL      
FLD         .                                           WILDCAT :FIELD     
LOC         .                                                   :LOCATION  
CNTY        .                             GALVESTON LARGE BLOCK :LOCATION  
STAT        .                                             TEXAS :STATE     
CTRY        .                                     UNITED STATES :COUNTRY   
SRVC        .                                                   :SERVICE COMPANY
DATE        .                             9/13/2023 11:19:54 AM :LOG DATE  
API         .                                    42706403430000 :API NUMBER
UWI         .                                    42706403430000 :UNIQUE WELL ID
XCOORD      .                                   967589.17441186 :SURFACE X 
YCOORD      .                                  10424680.8833423 :SURFACE Y 
LAT         .                                         28.709654 :LATITUDE  
LON         .                                        -95.099391 :LONGITUDE 
ELEV        .FT                                             106 :ELEVATION VALUE
ELEV_TYPE   .                                                KB :ELEVATION REFERENCE TYPE
~Curve Information Section
#MNEM       .UNIT                                      API CODE :CURVE DESCRIPTION
#------------------------------------------------------------------------------
DEPT        .FT                                                 :DEPTH     
CALI        .IN                                                 :          
DPHI        .%                                                  :          
DRHO        .G/C3                                               :          
DTLN        .US/F                                               :          
GR          .GAPI                                               :          
GR_1        .GAPI                                               :          
GR_NORM     .GAPI                                               :GammaRay Normalized
ILD         .OHMM                                               :          
ILM         .OHMM                                               :          
NPHI        .%                                                  :          
SFL         .OHMM                                               :          
SP          .MV                                                 :          
SP_NORM     .MV                                                 :SP Normalized
VSH_GR      .V/V                                                :Volume of Shale from GR
VSH_SP      .V/V                                                :Volume of Shale from SP
~A        DEPTH           CALI           DPHI           DRHO           DTLN             GR           GR_1        GR_NORM            ILD            ILM           NPHI            SFL             SP        SP_NORM         VSH_GR         VSH_SP
# ...
      3757.0000        -999.25        -999.25        -999.25       122.3884        -999.25        63.6274        67.8493          0.677         0.7001        -999.25         0.8231       -62.7329      -4.263336      0.7414746      0.9404385
      3757.5000        -999.25        -999.25        -999.25       122.1333        -999.25        64.1312       68.45406           0.69         0.7239        -999.25         0.8484       -63.6696      -5.203171      0.7543418       0.915706
      3758.0000        -999.25        -999.25        -999.25       122.0591        -999.25        62.6478       66.67419         0.6974         0.7411        -999.25         0.9415        -64.418      -5.954704      0.7164722      0.8959289
      3758.5000        -999.25        -999.25        -999.25       121.5848        -999.25        61.1301       64.85316         0.7124         0.7501        -999.25         0.9957       -65.0892       -6.62904      0.6777267      0.8781832
      3759.0000        -999.25        -999.25        -999.25       120.1792        -999.25        60.1758       63.70821          0.713         0.7556        -999.25         0.9262       -65.5431      -7.086071      0.6533661       0.866156
      3759.5000        -999.25        -999.25        -999.25       118.8478        -999.25        60.3967       63.97349         0.6993         0.7577        -999.25         0.8587       -65.7322      -7.278305      0.6590104      0.8610972
      3760.0000        -999.25        -999.25        -999.25       118.5496        -999.25         61.119       64.84045         0.6878         0.7553        -999.25         0.8278       -64.6184      -6.167637      0.6774565      0.8903254
      3760.5000        -999.25        -999.25        -999.25       120.5986        -999.25        62.3205       66.28246         0.6758          0.744        -999.25         0.8321       -63.1362      -4.688572      0.7081373      0.9292481
      3761.0000        -999.25        -999.25        -999.25       124.0802        -999.25        64.4905       68.88667         0.6625          0.725        -999.25         0.8208       -61.8931      -3.448605      0.7635462      0.9618788
      3761.5000        -999.25        -999.25        -999.25        128.123        -999.25        66.8223       71.68504         0.6454         0.7021        -999.25         0.7517       -60.8713      -2.429939      0.8230858      0.9886858
      3762.0000        -999.25        -999.25        -999.25       130.4949        -999.25        67.0576       71.96761         0.6288         0.6748        -999.25          0.692       -60.2858      -1.847572       0.829098              1
      3762.5000        -999.25        -999.25        -999.25        130.821        -999.25        65.9659       70.65775         0.6128         0.6515        -999.25         0.5888       -62.5735      -4.138409      0.8012288      0.9437261
      3763.0000        -999.25        -999.25        -999.25        130.343        -999.25         63.289       67.44569         0.6033          0.631        -999.25          0.605       -66.8693       -8.43734      0.7328871      0.8305963
      3763.5000        -999.25        -999.25        -999.25       128.0051        -999.25        61.3618       65.13326         0.6025         0.6111        -999.25         0.6901       -70.7802      -12.35137      0.6836863      0.7275955
      3764.0000        -999.25        -999.25        -999.25        124.826        -999.25        59.6368       63.06346         0.6036         0.6031        -999.25         0.7138        -74.691      -16.26531      0.6396481      0.6245971
      3764.5000        -999.25        -999.25        -999.25       121.3557        -999.25        57.5405       60.54811         0.6053         0.6038        -999.25         0.6843        -77.415      -18.99244        0.58613      0.5528305
      3765.0000        -999.25        -999.25        -999.25       116.3109        -999.25        55.3594         57.931         0.6095         0.6171        -999.25         0.6574       -77.9001      -19.48067      0.5304467      0.5399823
      3765.5000        -999.25        -999.25        -999.25       107.8409        -999.25        53.1527       55.28316         0.6244         0.6529        -999.25         0.7047       -77.0596      -18.64331      0.4741097      0.5620182
      3766.0000        -999.25        -999.25        -999.25       103.4716        -999.25        51.4584       53.25021         0.6487         0.6987        -999.25         0.9943       -75.7208      -17.30764      0.4308555      0.5971673
      3766.5000        -999.25        -999.25        -999.25       105.3248        -999.25         52.368       54.34193         0.6731         0.7571        -999.25         1.2306       -74.1896      -15.77957      0.4540836      0.6373797
      3767.0000        -999.25        -999.25        -999.25       111.7909        -999.25         54.028       56.33413         0.6942         0.8048        -999.25         1.1664       -72.4254      -14.01851      0.4964708      0.6837234
      3767.5000        -999.25        -999.25        -999.25       118.0562        -999.25        56.5082       59.31059          0.713          0.816        -999.25          0.987       -70.8696      -12.46584      0.5597997      0.7245831
      3768.0000        -999.25        -999.25        -999.25       122.4731        -999.25        58.6224       61.84782         0.7207         0.8144        -999.25         0.8775       -69.3225      -10.92188      0.6137834      0.7652137
      3768.5000        -999.25        -999.25        -999.25       124.3866        -999.25        59.6151       63.03927         0.7198         0.8018        -999.25         0.8242       -67.7373      -9.339806      0.6391335      0.8068472
      3769.0000        -999.25        -999.25        -999.25       124.9407        -999.25        60.0945       63.61476         0.7104         0.7793        -999.25         0.8252       -66.4274      -8.033043      0.6513778      0.8412357
      3769.5000        -999.25        -999.25        -999.25        124.964        -999.25        60.3206       63.88628         0.6996         0.7465        -999.25         0.8298        -65.183      -6.791775       0.657155      0.8739007
      3770.0000        -999.25        -999.25        -999.25       127.2714        -999.25        61.4096       65.19328         0.6897          0.717        -999.25         0.8459       -63.9889      -5.600811      0.6849635      0.9052418
      3770.5000        -999.25        -999.25        -999.25       129.3589        -999.25        62.9433       67.03394          0.683         0.6947        -999.25         0.7959        -63.013      -4.628044      0.7241263       0.930841
      3771.0000        -999.25        -999.25        -999.25       131.3479        -999.25        64.3378       68.70753         0.6773         0.6838        -999.25         0.6932       -62.2318      -3.849979      0.7597348      0.9513164
      3771.5000        -999.25        -999.25        -999.25       132.1714        -999.25        64.9713       69.46795         0.6727         0.6794        -999.25         0.6333       -61.6421      -3.263412      0.7759138      0.9667523
      3772.0000        -999.25        -999.25        -999.25       129.6145        -999.25        63.6801       67.91871         0.6685         0.6801        -999.25         0.6342       -61.2206      -2.845043      0.7429513       0.977762
      3772.5000        -999.25        -999.25        -999.25       128.4832        -999.25        62.1599       66.09469          0.664         0.6764        -999.25         0.7055        -60.844      -2.471581      0.7041423        0.98759
      3773.0000        -999.25        -999.25        -999.25       129.5735        -999.25        61.1938       64.93556         0.6592          0.671        -999.25         0.7272       -60.5508      -2.181511        0.67948      0.9952234
      3773.5000        -999.25        -999.25        -999.25       130.6938        -999.25        63.4852       67.68546         0.6551         0.6652        -999.25         0.7224       -60.0581      -1.691948      0.7379884              1
