#------------------------------------------------------------------------------
# Created by    : vladimir.rabinovich
# Created on    : 09/19/2023 17:20:09
#------------------------------------------------------------------------------
~Version Information Section
VERS.           2.0     :   CWLS log ASCII Standard - VERSION 2.0
WRAP.           NO      :   One line per depth step
~Well Information Section
#MNEM       .UNIT                                         VALUE :DESCRIPTION
#------------------------------------------------------------------------------
STRT        .FT                                             880 :START DEPTH
STOP        .FT                                           10998 :STOP DEPTH
STEP        .FT                                             0.5 :STEP      
NULL        .                                           -999.25 :NULL      
COMP        .                        HUGHES TEXAS PETROLEUM LTD :COMPANY   
WELL        .                                ST TR 00564-L NE/4 :WELL      
FLD         .                       MATAGORDA ISLAND BLOCK 0565 :FIELD     
LOC         .                                                   :LOCATION  
CNTY        .                      MATAGORDA ISLAND LARGE BLOCK :LOCATION  
STAT        .                                             TEXAS :STATE     
CTRY        .                                     UNITED STATES :COUNTRY   
SRVC        .                                                   :SERVICE COMPANY
DATE        .                             9/13/2023 11:12:01 AM :LOG DATE  
API         .                                    42703303560000 :API NUMBER
UWI         .                                    42703303560000 :UNIQUE WELL ID
XCOORD      .                                  580856.659723482 :SURFACE X 
YCOORD      .                                  10268633.8274002 :SURFACE Y 
LAT         .                                         28.256926 :LATITUDE  
LON         .                                       -96.2914173 :LONGITUDE 
ELEV        .FT                                              25 :ELEVATION VALUE
ELEV_TYPE   .                                                KB :ELEVATION REFERENCE TYPE
~Curve Information Section
#MNEM       .UNIT                                      API CODE :CURVE DESCRIPTION
#------------------------------------------------------------------------------
DEPT        .FT                                                 :DEPTH     
ASFL        .OHMM                                               :          
GR          .GAPI                                               :          
GR_NORM     .GAPI                                               :GammaRay Normalized
ILD         .OHMM                                               :          
SP          .MV                                                 :          
SP_NORM     .MV                                                 :SP Normalized
VSH_GR      .V/V                                                :Volume of Shale from GR
VSH_SP      .V/V                                                :Volume of Shale from SP
~A        DEPTH           ASFL             GR        GR_NORM            ILD             SP        SP_NORM         VSH_GR         VSH_SP
# ...
      8314.0000           0.61        55.5154        83.7645         0.4663        -43.689      -1.772831              1      0.9845434
      8314.5000          0.584        55.1108       83.00992         0.4733       -44.4057      -2.489532              1      0.9702094
      8315.0000         0.5603        54.2056        81.3259         0.4804       -45.0972       -3.18103              1      0.9563794
      8315.5000         0.5453        53.3004       79.64185         0.4872       -45.7053      -3.789131      0.9923798      0.9442174
      8316.0000         0.5302        53.7302       80.43643         0.4922       -46.1939      -4.277733              1      0.9344453
      8316.5000         0.5336        54.8731       82.55493         0.4972       -46.5228      -4.606632              1      0.9278674
      8317.0000         0.5405         56.088       84.80712         0.5022        -46.841      -4.924831              1      0.9215034
      8317.5000         0.5485        55.2465       83.24135         0.5052       -47.0989      -5.182732              1      0.9163454
      8318.0000          0.557        54.0423        81.0022         0.5076       -47.0509      -5.134731              1      0.9173054
      8318.5000         0.5654        52.7866       78.66743         0.5099       -46.9597      -5.043533      0.9716476      0.9191293
      8319.0000         0.5739        51.5332       76.33695          0.511       -46.8264      -4.910233      0.9220628      0.9217954
      8319.5000         0.5749        50.2703       73.98882         0.5066        -46.693      -4.776833      0.8721026      0.9244633
      8320.0000         0.5699        49.0073       71.64051         0.5022       -45.6398      -3.723633      0.8221385      0.9455273
      8320.5000         0.5564        49.9797       73.44244         0.4979       -44.5894      -2.673233      0.8604775      0.9665353
      8321.0000         0.5369        53.6389       80.23275         0.4935       -44.0894      -2.173233              1      0.9765353
      8321.5000         0.5173        59.1164       90.39895         0.4859       -43.9321       -2.01593              1      0.9796814
      8322.0000         0.4975        58.6536       89.53631         0.4746       -43.7745      -1.858334              1      0.9828333
      8322.5000         0.4877        58.1902       88.67252         0.4632       -43.6895      -1.773331              1      0.9845334
      8323.0000         0.4801        57.9141        88.1565         0.4519       -43.6093       -1.69313              1      0.9861374
      8323.5000         0.4767        58.9477       90.07209         0.4406       -43.5845      -1.668331              1      0.9866334
      8324.0000         0.4741        60.2611       92.50714         0.4347       -43.6042       -1.68803              1      0.9862394
      8324.5000         0.4715        61.7593       95.28531         0.4394       -43.9855      -2.069332              1      0.9786134
      8325.0000          0.473        58.6572       89.52248         0.4441       -44.5876      -2.671432              1      0.9665713
      8325.5000         0.4882        55.0892       82.89468         0.4488       -45.1476       -3.23143              1      0.9553714
      8326.0000         0.5051        52.8586        78.7499         0.4608       -45.8007      -3.884533      0.9734021      0.9423093
      8326.5000         0.5208        51.4108       76.05849         0.4746       -46.7119      -4.795731      0.9161382      0.9240854
      8327.0000          0.536        50.0241       73.48051         0.4885       -47.1375      -5.221333      0.8612875      0.9155734
      8327.5000         0.5625        48.8956       71.38188         0.5024       -46.9583      -5.042133      0.8166358      0.9191573
      8328.0000         0.5855        47.7672       69.28349         0.5162       -46.6768      -4.760632      0.7719892      0.9247873
      8328.5000         0.5718        46.6555       67.21608         0.5289       -46.3422      -4.426033      0.7280017      0.9314793
      8329.0000         0.5582        47.0768       67.99485         0.5289       -45.8235      -3.907333      0.7445713      0.9418533
      8329.5000         0.5442         48.856       71.29471         0.5289       -45.1489      -3.232731       0.814781      0.9553454
      8330.0000         0.5294        50.8009       74.90221         0.5289       -44.6038      -2.687634      0.8915363      0.9662473
      8330.5000         0.5145        52.4108       77.88776         0.5289       -44.0834      -2.167233      0.9550588      0.9766554
      8331.0000         0.5021        55.7651       84.11201         0.5278       -43.9789      -2.062733              1      0.9787453
      8331.5000         0.4961        55.0832       82.84254         0.5205       -43.9517       -2.03553              1      0.9792894
      8332.0000         0.4935        54.1024       81.01817         0.5132       -43.9245      -2.008331              1      0.9798334
      8332.5000         0.4943        53.1215        79.1936         0.5059       -43.8973      -1.981133      0.9828424      0.9803774
      8333.0000         0.4952        52.2054       77.48933         0.4986       -43.8701       -1.95393      0.9465814      0.9809214
      8333.5000         0.4972         52.189       77.45548         0.4979       -43.8237      -1.907532      0.9458613      0.9818494
      8334.0000         0.5002        52.1725       77.42142         0.5013       -43.7275      -1.811333      0.9451367      0.9837734
      8334.5000         0.5032        54.8203       82.33398         0.5046       -43.6313      -1.715134              1      0.9856973
      8335.0000         0.5062        53.2908       79.49085          0.508       -43.5168      -1.600632      0.9891671      0.9879873
      8335.5000         0.5088        51.7013       76.53637         0.5073          -43.4      -1.483833      0.9263057      0.9903233
      8336.0000         0.5107        50.2246       73.79125         0.5062       -43.2831      -1.366932       0.867899      0.9926614
      8336.5000         0.5126        49.6832       72.78268          0.505       -43.1661      -1.249931        0.84644      0.9950014
      8337.0000         0.5145        49.1423       71.77503         0.5017       -43.0493      -1.133133      0.8250007      0.9973373
      8337.5000         0.5156        48.6009       70.76645         0.4941       -42.9223       -1.00613      0.8035415      0.9998774
      8338.0000         0.5159        48.0601       69.75897         0.4864       -42.7742     -0.8580322      0.7821058              1
      8338.5000         0.5161        47.9154       69.48693         0.4788       -42.6259     -0.7097321      0.7763177              1
      8339.0000         0.5163        48.5109       70.58913         0.4711       -42.5337     -0.6175308      0.7997688              1
      8339.5000         0.5203        49.0266       71.54314         0.4721       -42.4934     -0.5772324      0.8200669              1
      8340.0000         0.5253         49.114         71.702         0.4731       -42.6443     -0.7281303      0.8234469              1
      8340.5000         0.5343        49.2015       71.86104         0.4741       -42.8447     -0.9285316      0.8268306              1
      8341.0000         0.5434        48.8056       71.12259          0.475       -43.1353      -1.219131      0.8111189      0.9956174
      8341.5000         0.5521        48.3938       70.35463         0.4789       -43.3901       -1.47393      0.7947794      0.9905214
      8342.0000         0.5602        47.9821       69.58685         0.4842       -43.5839      -1.667732      0.7784437      0.9866453
      8342.5000          0.568        48.9208       71.32622         0.4895       -43.6813      -1.765133      0.8154514      0.9846973
      8343.0000         0.5689        50.6088       74.45677         0.4948       -43.7094      -1.793232       0.882059      0.9841354
