#------------------------------------------------------------------------------
# Created by    : vladimir.rabinovich
# Created on    : 09/19/2023 17:21:24
#------------------------------------------------------------------------------
~Version Information Section
VERS.           2.0     :   CWLS log ASCII Standard - VERSION 2.0
WRAP.           NO      :   One line per depth step
~Well Information Section
#MNEM       .UNIT                                         VALUE :DESCRIPTION
#------------------------------------------------------------------------------
STRT        .FT                                            4000 :START DEPTH
STOP        .FT                                            8085 :STOP DEPTH
STEP        .FT                                             0.5 :STEP      
NULL        .                                           -999.25 :NULL      
COMP        .                             WALTER OIL & GAS CORP :COMPANY   
WELL        .                               OCS G09047 ST00BP00 :WELL      
FLD         .                              GALVESTON BLOCK 0351 :FIELD     
LOC         .                                                   :LOCATION  
CNTY        .                             GALVESTON LARGE BLOCK :LOCATION  
STAT        .                                             TEXAS :STATE     
CTRY        .                                     UNITED STATES :COUNTRY   
SRVC        .                                                   :SERVICE COMPANY
DATE        .                             9/13/2023 11:19:36 AM :LOG DATE  
API         .                                    42706402000000 :API NUMBER
UWI         .                                    42706402000000 :UNIQUE WELL ID
XCOORD      .                                  1036183.96101641 :SURFACE X 
YCOORD      .                                  10437562.0132666 :SURFACE Y 
LAT         .                                        28.7482272 :LATITUDE  
LON         .                                       -94.8860948 :LONGITUDE 
ELEV        .FT                                              80 :ELEVATION VALUE
ELEV_TYPE   .                                                KB :ELEVATION REFERENCE TYPE
~Curve Information Section
#MNEM       .UNIT                                      API CODE :CURVE DESCRIPTION
#------------------------------------------------------------------------------
DEPT        .FT                                                 :DEPTH     
CALI        .IN                                                 :          
DRHO        .G/C3                                               :          
GR          .GAPI                                               :          
GR_NORM     .GAPI                                               :GammaRay Normalized
ILD         .OHMM                                               :          
ILM         .OHMM                                               :          
NPHI        .%                                                  :          
RHOB        .G/C3                                               :          
SFL         .OHMM                                               :          
SP          .MV                                                 :          
SP_NORM     .MV                                                 :SP Normalized
VSH_GR      .V/V                                                :Volume of Shale from GR
VSH_SP      .V/V                                                :Volume of Shale from SP
~A        DEPTH           CALI           DRHO             GR        GR_NORM            ILD            ILM           NPHI           RHOB            SFL             SP        SP_NORM         VSH_GR         VSH_SP
# ...
      7249.0000         9.7654          0.124        80.2933       71.06664         0.7212         0.7771        34.9129          2.458         0.8349       -48.7856      -4.341152      0.8099284      0.9379835
      7249.5000         9.7593         0.1246        80.7272       71.54875          0.727         0.7806        34.5407         2.4583         0.8481       -48.9433      -4.498852      0.8201862      0.9357307
      7250.0000         9.7565         0.1228        81.1829       72.05508         0.7291         0.7799        34.1043         2.4593         0.8653       -48.9942      -4.549755      0.8309591      0.9350035
      7250.5000         9.7576         0.1117        81.2349       72.11286         0.7282         0.7793        33.3757         2.4637          0.878       -48.9501      -4.505653      0.8321885      0.9356335
      7251.0000         9.7588         0.1033         80.796       71.62519         0.7335         0.7695         32.559         2.4679         0.8901       -48.9059      -4.461452      0.8218126       0.936265
      7251.5000          9.759         0.1041        80.2401       71.00752         0.7247         0.7584        32.8848           2.47         0.8812        -48.635      -4.190552      0.8086707       0.940135
      7252.0000         9.7417         0.1114        79.9496       70.68475         0.7148         0.7476        33.3937         2.4647         0.8672       -48.2588      -3.814354      0.8018031      0.9455093
      7252.5000         9.7244         0.1254        81.2064       72.08119          0.705         0.7411         33.907         2.4566         0.8502       -47.8826      -3.438152      0.8315147      0.9508836
      7253.0000         9.7072         0.1381        81.3196       72.20697         0.6961         0.7346        34.4204         2.4482         0.8329       -47.5468      -3.102352      0.8341908      0.9556807
      7253.5000         9.6899         0.1487        80.8235       71.65575         0.6899          0.734        35.5817         2.4399         0.8224       -47.2209      -2.776455      0.8224627      0.9603364
      7254.0000         9.7283         0.1591        79.9746       70.71252         0.6838         0.7355        36.3103         2.4327         0.8209       -47.0865      -2.642052      0.8023942      0.9622564
      7254.5000         9.7673         0.1694         79.467       70.14853         0.6823          0.738        36.8177         2.4268         0.8193       -47.1318      -2.687355      0.7903942      0.9616092
      7255.0000         9.8063         0.1651         81.407       72.30408         0.6854         0.7445        36.4007         2.4237         0.8178       -47.3141      -2.869652       0.836257       0.959005
      7255.5000         9.8185         0.1589        84.4618        75.6983         0.6885          0.751        35.5608         2.4247         0.8264       -47.6719      -3.227455      0.9084746      0.9538935
      7256.0000         9.7908          0.147        86.3849       77.83508         0.6947         0.7575        34.6102         2.4353         0.8354       -47.6727      -3.228252      0.9539379      0.9538821
      7256.5000         9.7761         0.1318        84.3141       75.53419          0.706         0.7741        34.0333         2.4425         0.8446       -47.5527      -3.108253      0.9049829      0.9555964
      7257.0000         9.7656          0.119        82.4912       73.50875         0.7175         0.7956        33.9438         2.4452         0.8595       -47.5132      -3.068752      0.8618883      0.9561607
      7257.5000          9.784         0.1235        80.6984       71.51675         0.7323         0.8177         33.956         2.4476         0.8762       -47.5392      -3.094753      0.8195053      0.9557893
      7258.0000         9.8372         0.1376          79.36       70.02963         0.7514         0.8301         33.613         2.4486         0.8912       -47.5652      -3.120754      0.7878645      0.9554178
      7258.5000         9.8971         0.1289        78.6995       69.29575          0.769         0.8404        33.3699         2.4497         0.9034       -47.9433      -3.498852      0.7722499      0.9500164
      7259.0000         9.9707         0.1146        78.2012       68.74208         0.7844         0.8442        33.2341         2.4495         0.9092       -48.3408      -3.896355      0.7604698      0.9443378
      7259.5000         10.065         0.0878        78.0244       68.54563            0.8          0.848         33.023         2.4057         0.9028       -48.8604      -4.415955        0.75629      0.9369149
      7260.0000        10.1694          0.077        76.7795       67.16241         0.7967         0.8519        32.5567         2.3447         0.9021       -49.5158      -5.071354      0.7268599      0.9275521
      7260.5000        10.1456         0.1072        71.4961       61.29197         0.7914         0.8444        31.1518          2.316         0.9204       -50.6689      -6.224453      0.6019568      0.9110792
      7261.0000          9.944         0.1046        66.9088       56.19497         0.7862         0.8343        29.4637         2.3211         0.9717       -52.2089      -7.764454      0.4935099      0.8890792
      7261.5000         9.5161         0.0628        64.9757       54.04708         0.7765         0.8242        28.6335         2.3432         0.9863       -55.2437      -10.79925      0.4478102       0.845725
      7262.0000         9.3057         0.0295        64.7404       53.78564         0.7609         0.8076        29.0758         2.3482         0.9725       -58.1383      -13.69386      0.4422476      0.8043735
      7262.5000         9.2601         0.0163        65.9698       55.15164         0.7456         0.7914        30.1923         2.3494         0.9312       -60.5021      -16.05766      0.4713115      0.7706049
      7263.0000         9.3386         0.0172        67.0553       56.35774         0.7306         0.7755        31.2863          2.349         0.9136       -62.0132      -17.56875      0.4969732      0.7490178
      7263.5000         9.4038         0.0204        68.0933       57.51108         0.7108         0.7567        32.4072         2.3569         0.9025       -62.2444      -17.79995      0.5215123       0.745715
      7264.0000         9.5354         0.0243        68.5518       58.02053         0.6911          0.737        34.1409         2.3633         0.9005       -60.8151      -16.37066      0.5323516      0.7661335
      7264.5000         9.6684         0.0289        69.1749       58.71285         0.6812         0.7285        36.0854         2.3675         0.8985       -58.4338      -13.98935      0.5470819      0.8001521
      7265.0000         9.7922         0.0492        70.1803       59.82997         0.6743         0.7294        36.7729         2.3642         0.8688        -54.778      -10.33355      0.5708504      0.8523778
      7265.5000          9.902         0.0751        71.3522       61.13208         0.6717         0.7374        35.8238          2.357          0.835       -51.3224      -6.877953       0.598555      0.9017435
      7266.0000         9.8627         0.1054        71.4899       61.28508         0.6759         0.7486        33.9706         2.3527         0.8026       -49.8576      -5.413155      0.6018102      0.9226692
      7266.5000         9.7388         0.0997        70.7362       60.44763         0.6801         0.7543        32.8781         2.3668          0.809       -49.7537      -5.309254      0.5839922      0.9241535
      7267.0000         9.5712         0.0867        69.8986       59.51697         0.6843         0.7505        32.2339          2.392         0.9252       -50.4874      -6.042953      0.5641908      0.9136721
      7267.5000         9.4922         0.0875        69.9788       59.60608         0.6913         0.7488        32.1274         2.4068         0.9945       -51.6705      -7.226055      0.5660868      0.8967707
