#------------------------------------------------------------------------------
# Created by    : vladimir.rabinovich
# Created on    : 09/19/2023 17:20:23
#------------------------------------------------------------------------------
~Version Information Section
VERS.           2.0     :   CWLS log ASCII Standard - VERSION 2.0
WRAP.           NO      :   One line per depth step
~Well Information Section
#MNEM       .UNIT                                         VALUE :DESCRIPTION
#------------------------------------------------------------------------------
STRT        .FT                                            3094 :START DEPTH
STOP        .FT                                           15705 :STOP DEPTH
STEP        .FT                                             0.5 :STEP      
NULL        .                                           -999.25 :NULL      
COMP        .                                       MONSANTO CO :COMPANY   
WELL        .                                     ST TR 00011-L :WELL      
FLD         .                                           WILDCAT :FIELD     
LOC         .                                                   :LOCATION  
CNTY        .                           HIGH ISLAND LARGE BLOCK :LOCATION  
STAT        .                                             TEXAS :STATE     
CTRY        .                                     UNITED STATES :COUNTRY   
SRVC        .                                                   :SERVICE COMPANY
DATE        .                             9/13/2023 11:19:15 AM :LOG DATE  
API         .                                    42708300660000 :API NUMBER
UWI         .                                    42708300660000 :UNIQUE WELL ID
XCOORD      .                                  1343190.12128624 :SURFACE X 
YCOORD      .                                   10724936.940093 :SURFACE Y 
LAT         .                                        29.5487141 :LATITUDE  
LON         .                                       -93.9350737 :LONGITUDE 
ELEV        .FT                                              49 :ELEVATION VALUE
ELEV_TYPE   .                                                KB :ELEVATION REFERENCE TYPE
~Curve Information Section
#MNEM       .UNIT                                      API CODE :CURVE DESCRIPTION
#------------------------------------------------------------------------------
DEPT        .FT                                                 :DEPTH     
ASN         .OHMM                                               :          
CILD        .MMHO                                               :          
ILD         .OHMM                                               :          
SP_NORM     .MV                                                 :SP Normalized
VSH_SP      .V/V                                                :Volume of Shale from SP
~A        DEPTH            ASN           CILD            ILD        SP_NORM         VSH_SP
# ...
      4766.0000         0.5643       3098.563          0.397      -49.15523      0.3492537
      4766.5000         0.5647       2942.906         0.4018       -42.0359      0.4454608
      4767.0000         0.5821       2849.422         0.4275      -39.61277      0.4782058
      4767.5000         0.5985       2769.754         0.4532      -38.23174      0.4968683
      4768.0000         0.6139       2660.715         0.4789      -46.33841      0.3873187
      4768.5000         0.6292       2551.676         0.4921      -52.06659       0.309911
      4769.0000         0.6446       2442.637         0.4562      -56.04506      0.2561479
      4769.5000         0.6653       2522.355         0.4203      -60.04084      0.2021509
      4770.0000         0.6919       2724.727         0.3908      -68.15491     0.09250125
      4770.5000         0.7184       2927.102         0.3667      -69.54707     0.07368819
      4771.0000         0.7201       3129.277         0.3425      -70.65585     0.05870479
      4771.5000         0.6892       3331.648         0.3184      -71.23651     0.05085796
      4772.0000         0.6491       3533.824         0.2943      -71.62279     0.04563801
      4772.5000         0.6088       3894.238         0.2701      -71.88366     0.04211271
      4773.0000         0.5628       3983.648         0.2552      -72.07713      0.0394982
      4773.5000         0.5265       4166.508         0.2514      -72.26211     0.03699854
      4774.0000         0.5065       4294.828         0.2637      -72.43108     0.03471519
      4774.5000         0.5191       4500.883         0.2759      -72.48546     0.03398029
      4775.0000         0.5316       4392.938         0.2881      -72.37312     0.03549834
      4775.5000         0.5442       4263.617         0.3004      -72.26099      0.0370137
      4776.0000          0.555       4114.227         0.3126      -72.14877     0.03853019
      4776.5000         0.5594       4002.121         0.3249      -72.03653      0.0400469
      4777.0000         0.5638       4001.883         0.3371      -71.92432     0.04156329
      4777.5000         0.5682       3885.293         0.3494      -71.81208     0.04307999
      4778.0000         0.5751       3721.883         0.3616      -71.64795     0.04529798
      4778.5000          0.582       3651.711         0.3652      -71.44682      0.0480159
      4779.0000         0.5901        3591.82         0.3656      -71.04619     0.05342989
      4779.5000         0.6001       3538.195         0.3661      -70.64577     0.05884098
      4780.0000         0.6102       3501.172         0.3665      -70.13574     0.06573322
      4780.5000         0.6202       3464.691          0.367      -69.62502     0.07263493
      4781.0000         0.6303       3429.902         0.3674      -69.11408     0.07953943
      4781.5000         0.6404       3388.504         0.3693      -68.60855     0.08637093
      4782.0000         0.6504       3341.762         0.3715      -68.10913     0.09311985
      4782.5000         0.6609       3294.473         0.3736       -67.6098     0.09986754
      4783.0000         0.6714       3207.305         0.3828      -66.94617      0.1088356
      4783.5000          0.682        3121.77         0.3985      -66.24474      0.1183143
      4784.0000         0.6925       3036.238         0.4142      -66.51662      0.1146403
      4784.5000         0.7031       2950.707         0.4298      -67.17799      0.1057028
      4785.0000         0.7136       2865.176         0.4455      -67.83866     0.09677485
      4785.5000         0.7242       2779.645         0.4463      -68.50003     0.08783743
      4786.0000         0.7348       2694.113         0.4349       -69.1268     0.07936756
      4786.5000         0.7344       2658.926         0.4234      -69.70587     0.07154228
      4787.0000         0.7193       2752.461          0.412      -70.28485     0.06371823
      4787.5000         0.6978       2845.895         0.4006      -70.86402      0.0558916
      4788.0000         0.6759       2939.426         0.3892      -71.12369      0.0523826
      4788.5000          0.654       3032.961         0.3778      -71.34956     0.04933022
      4789.0000         0.6397       3126.492         0.3664      -71.52763     0.04692387
      4789.5000         0.6264       3219.926         0.3552      -71.09641     0.05275128
      4790.0000          0.613       3313.461         0.3441      -70.43988     0.06162324
      4790.5000         0.6035       3406.992         0.3331      -69.97446     0.06791274
      4791.0000         0.5968       3500.426          0.322      -69.50912     0.07420102
      4791.5000         0.5901       3593.961         0.3109      -69.03639     0.08058929
      4792.0000         0.5808           3703         0.2998      -68.56256     0.08699242
      4792.5000         0.5682       3793.449         0.2888      -68.10904     0.09312109
      4793.0000         0.5169       4029.391         0.2777         -67.66     0.09918914
      4793.5000         0.4938       4085.898         0.2672      -67.17148      0.1057908
      4794.0000         0.4854       4154.086         0.2652      -66.64764      0.1128697
      4794.5000         0.4787       4234.398         0.2631      -66.11423       0.120078
      4795.0000         0.4754       4383.297         0.2994       -65.3105      0.1309392
      4795.5000         0.4721       4421.813         0.3392      -61.82187      0.1780829
      4796.0000         0.4665       4343.734         0.3791      -59.15514      0.2141198
      4796.5000         0.4323       4188.977         0.4189      -56.80371      0.2458958
      4797.0000          0.468       4002.328         0.4587      -55.01299      0.2700948
      4797.5000         0.5045       3976.938         0.4985      -51.33765      0.3197614
      4798.0000         0.5386       3719.598         0.5394      -40.20023      0.4702672
      4798.5000         0.5646       3248.156         0.5843       -35.4062      0.5350514
      4799.0000         0.5984       2936.445         0.6291      -31.16277       0.592395
      4799.5000          0.641       2030.797         0.6734      -26.99855      0.6486683
      4800.0000         0.6621       2014.719         0.7138      -17.54542      0.7764133
      4800.5000         0.6864        1862.25         0.7158      -2.894787      0.9743948
      4801.0000         0.6617       1713.561         0.7008       1.549141              1
      4801.5000         0.6296       1746.236         0.6881       4.517866              1
      4802.0000         0.6194       1772.678         0.6754       5.806795              1
      4802.5000         0.6091       1799.092         0.6626       6.842024              1
      4803.0000          0.596       1819.518         0.6499       5.941153              1
      4803.5000         0.5813       1838.006         0.6372       2.805483              1
      4804.0000         0.5817       1861.514         0.6245      -1.791695      0.9893014
      4804.5000         0.6438       1739.404         0.6117      -4.162663      0.9572613
      4805.0000         0.6841       1710.105         0.6004      -5.575836      0.9381644
      4805.5000         0.7182       1800.855         0.5894      -11.39561      0.8595188
      4806.0000         0.7485       1851.449         0.5785      -15.66118      0.8018759
      4806.5000         0.7755       1898.813         0.5675      -20.75825      0.7329966
      4807.0000         0.7845       1940.809         0.5565      -24.34072      0.6845848
      4807.5000          0.781       1972.641         0.5476      -27.89349      0.6365744
      4808.0000         0.7775       2001.531         0.5437      -30.56266      0.6005045
      4808.5000         0.7816       2014.832         0.5398      -33.18734      0.5650359
      4809.0000         0.7873       2065.723         0.5359      -35.35161      0.5357891
      4809.5000         0.7849        2089.75          0.532      -33.49028      0.5609421
