#------------------------------------------------------------------------------
# Created by    : vladimir.rabinovich
# Created on    : 09/19/2023 17:20:48
#------------------------------------------------------------------------------
~Version Information Section
VERS.           2.0     :   CWLS log ASCII Standard - VERSION 2.0
WRAP.           NO      :   One line per depth step
~Well Information Section
#MNEM       .UNIT                                         VALUE :DESCRIPTION
#------------------------------------------------------------------------------
STRT        .FT                                             495 :START DEPTH
STOP        .FT                                            6623 :STOP DEPTH
STEP        .FT                                             0.5 :STEP      
NULL        .                                           -999.25 :NULL      
COMP        .                                      SHELL OIL CO :COMPANY   
WELL        .                                     ST TR 00691-L :WELL      
FLD         .                                           WILDCAT :FIELD     
LOC         .                                                   :LOCATION  
CNTY        .                      MATAGORDA ISLAND LARGE BLOCK :LOCATION  
STAT        .                                             TEXAS :STATE     
CTRY        .                                     UNITED STATES :COUNTRY   
SRVC        .                                                   :SERVICE COMPANY
DATE        .                             9/13/2023 11:12:05 AM :LOG DATE  
API         .                                    42703000200000 :API NUMBER
UWI         .                                    42703000200000 :UNIQUE WELL ID
XCOORD      .                                  411465.852171861 :SURFACE X 
YCOORD      .                                  10158718.0598508 :SURFACE Y 
LAT         .                                        27.9414781 :LATITUDE  
LON         .                                       -96.8060481 :LONGITUDE 
ELEV        .FT                                              11 :ELEVATION VALUE
ELEV_TYPE   .                                                KB :ELEVATION REFERENCE TYPE
~Curve Information Section
#MNEM       .UNIT                                      API CODE :CURVE DESCRIPTION
#------------------------------------------------------------------------------
DEPT        .FT                                                 :DEPTH     
ASN         .OHMM                                               :          
CILD        .OHMM                                               :          
ILD         .OHMM                                               :          
SP          .MV                                                 :          
SP_NORM     .MV                                                 :SP Normalized
VSH_SP      .V/V                                                :Volume of Shale from SP
~A        DEPTH            ASN           CILD            ILD             SP        SP_NORM         VSH_SP
# ...
      5777.0000         0.4413       3844.813          0.214      -104.4438       -60.5691     0.02384834
      5777.5000         0.4476       3827.668         0.2152      -104.1667       -60.2899     0.02850164
      5778.0000         0.4537       3826.781         0.2163      -104.0632       -60.1843     0.03026167
      5778.5000         0.4582       3899.152         0.2179      -103.9595       -60.0785     0.03202502
      5779.0000         0.4582        3908.98           0.22       -103.856       -59.9729     0.03378499
      5779.5000          0.457        3878.41          0.222      -103.7258       -59.8406     0.03599001
      5780.0000         0.4526       3871.121          0.224       -103.536       -59.6487     0.03918832
      5780.5000         0.4483       3904.203          0.226      -103.3463       -59.4568     0.04238669
      5781.0000          0.444       3940.301         0.2272      -103.1541       -59.2625     0.04562499
      5781.5000         0.4424       3954.047         0.2275      -102.8761       -58.9824     0.05029335
      5782.0000         0.4418        3955.66         0.2277      -102.5985       -58.7027     0.05495497
      5782.5000         0.4413       3912.551          0.228      -102.3209        -58.423     0.05961666
      5783.0000         0.4449       3859.395         0.2283      -102.0212       -58.1212     0.06464665
      5783.5000          0.452       3797.371         0.2285      -101.7002       -57.7981     0.07003167
      5784.0000          0.459       3747.465         0.2288      -101.3792        -57.475     0.07541669
      5784.5000         0.4673       3716.723         0.2279      -101.0581       -57.1518     0.08080336
      5785.0000         0.4757        3701.02         0.2269      -100.9008       -56.9924     0.08345998
      5785.5000         0.4841       3688.727         0.2259       -100.749       -56.8385     0.08602498
      5786.0000         0.4796        3679.91          0.225      -101.2014       -57.2888     0.07852001
      5786.5000         0.4751       3688.246          0.224       -101.702       -57.7873     0.07021166
      5787.0000         0.4705        3998.32          0.223      -102.2021       -58.2853     0.06191165
      5787.5000         0.4636       3996.695         0.2225      -102.7021       -58.7832     0.05361335
      5788.0000         0.4556       4280.047         0.2221      -103.2021       -59.2811     0.04531498
      5788.5000         0.4476       4521.031         0.2218      -103.7028       -59.7797     0.03700498
      5789.0000         0.4403       4524.945         0.2214      -104.1414       -60.2162     0.02972997
      5789.5000         0.4334       4497.109         0.2211      -104.5238       -60.5965     0.02339166
      5790.0000         0.4272       4450.656         0.2204      -104.6423       -60.7129     0.02145169
      5790.5000         0.4231       4394.539         0.2192      -104.3988       -60.4673     0.02554499
      5791.0000         0.4318        4359.07         0.2179      -104.0385       -60.1049     0.03158499
      5791.5000          0.447       4342.578         0.2167      -103.6752       -59.7395     0.03767503
      5792.0000          0.459       4326.086         0.2154      -103.3119       -59.3741       0.043765
      5792.5000         0.4643       4313.539         0.2141      -103.2207       -59.2808        0.04532
      5793.0000         0.4697       4301.586         0.2127      -103.2915       -59.3494     0.04417668
      5793.5000         0.4759       4305.047         0.2113      -103.4025       -59.4583     0.04236164
      5794.0000         0.4845        4409.32         0.2107      -103.6355       -59.6892     0.03851331
      5794.5000         0.4931       4486.422         0.2146      -103.8684         -59.92      0.0346667
      5795.0000         0.5016       4529.109         0.2184      -104.1013       -60.1508     0.03082002
      5795.5000          0.518       4560.289         0.2252      -104.3346        -60.382     0.02696667
      5796.0000         0.5347       4585.914         0.2375      -104.5701       -60.6154     0.02307669
      5796.5000         0.5543       4605.742         0.2498      -104.8102       -60.8534     0.01910998
      5797.0000         0.5782       3888.805         0.2657      -105.0502       -61.0913     0.01514498
      5797.5000         0.6094        3661.84         0.2849      -104.9204       -60.9594     0.01734333
      5798.0000         0.6505       3330.777         0.3041       -103.619       -59.6559     0.03906835
      5798.5000          0.734       3000.109         0.3244      -100.4031       -56.4379     0.09270166
      5799.0000         0.9323       2669.047         0.3458       -96.0902       -52.1229      0.1646184
      5799.5000         0.9425       2337.984         0.3673       -90.7103       -46.7409      0.2543184
      5800.0000         0.9292       2149.004         0.3887       -86.2983       -42.3268      0.3278866
      5800.5000         0.8973       2084.344         0.4131       -76.1205       -32.1469      0.4975516
      5801.0000         0.8729       2037.271         0.4381       -77.6851       -33.7094        0.47151
      5801.5000         0.8542       1999.164          0.463       -80.2633       -36.2855       0.428575
      5802.0000         0.8396       1993.947         0.4845       -83.1071       -39.1272      0.3812133
      5802.5000         0.8918       1992.031         0.5013       -86.1842       -42.2022      0.3299633
      5803.0000         0.9384       1990.115          0.518       -90.3953       -46.4112      0.2598133
      5803.5000         0.9577       1988.201         0.5416       -86.7052        -42.719        0.32135
      5804.0000          0.976       1988.012         0.5758       -84.1816       -40.1933       0.363445
      5804.5000         0.9935        1988.08         0.6083       -82.3304         -38.34      0.3943333
      5805.0000         1.0055        1988.15         0.6395       -81.6729       -37.6804      0.4053267
      5805.5000         0.8576       1988.219         0.6082       -82.7882       -38.7936      0.3867734
      5806.0000         0.7749       1988.596         0.5729       -84.3528        -40.356      0.3607334
      5806.5000         0.7218       1988.998         0.5346       -86.1593       -42.1604        0.33066
      5807.0000         0.6688       2151.566         0.4927       -88.1421       -44.1411      0.2976483
      5807.5000         0.6471       2284.363         0.4508       -89.7618       -45.7587      0.2706883
      5808.0000          0.626       2284.902         0.4134       -90.3468       -46.3416      0.2609734
      5808.5000         0.6048       2285.441         0.3791       -90.9343        -46.927      0.2512167
      5809.0000         0.5834        2827.09         0.3449       -91.7141       -47.7047       0.238255
      5809.5000         0.5622       3321.617         0.3227       -92.4598       -48.4483      0.2258617
      5810.0000         0.5431       3349.672          0.302       -93.0454       -49.0318      0.2161367
      5810.5000         0.5283       3356.297         0.2812       -93.3761       -49.3604        0.21066
      5811.0000          0.516       3340.766         0.2785       -93.5359       -49.5181      0.2080317
      5811.5000         0.5114       3278.754         0.2763       -93.3524       -49.3325       0.211125
      5812.0000         0.5073       3148.891         0.2858       -93.1691       -49.1471       0.214215
      5812.5000         0.5035       3094.551         0.2954       -92.9856       -48.9615      0.2173084
      5813.0000         0.5012       3077.277         0.3049       -92.7749       -48.7487       0.220855
      5813.5000         0.4988       3071.688         0.3142       -92.5526       -48.5243       0.224595
      5814.0000         0.4938       3067.656         0.3113       -92.3303       -48.2999       0.228335
      5814.5000         0.4883       3067.281         0.3084       -92.2047       -48.1722      0.2304633
