#------------------------------------------------------------------------------
# Created by    : vladimir.rabinovich
# Created on    : 09/19/2023 17:22:54
#------------------------------------------------------------------------------
~Version Information Section
VERS.           2.0     :   CWLS log ASCII Standard - VERSION 2.0
WRAP.           NO      :   One line per depth step
~Well Information Section
#MNEM       .UNIT                                         VALUE :DESCRIPTION
#------------------------------------------------------------------------------
STRT        .FT                                             494 :START DEPTH
STOP        .FT                                            6854 :STOP DEPTH
STEP        .FT                                             0.5 :STEP      
NULL        .                                           -999.25 :NULL      
COMP        .                          HUMBLE OIL & REFINING CO :COMPANY   
WELL        .                                     ST TR 00247-L :WELL      
FLD         .                                           WILDCAT :FIELD     
LOC         .                                                   :LOCATION  
CNTY        .                             GALVESTON LARGE BLOCK :LOCATION  
STAT        .                                             TEXAS :STATE     
CTRY        .                                     UNITED STATES :COUNTRY   
SRVC        .                                                   :SERVICE COMPANY
DATE        .                             9/13/2023 11:19:42 AM :LOG DATE  
API         .                                    42706000180000 :API NUMBER
UWI         .                                    42706000180000 :UNIQUE WELL ID
XCOORD      .                                  979775.061814126 :SURFACE X 
YCOORD      .                                  10543201.0009156 :SURFACE Y 
LAT         .                                        29.0361078 :LATITUDE  
LON         .                                       -95.0678326 :LONGITUDE 
ELEV        .FT                                              11 :ELEVATION VALUE
ELEV_TYPE   .                                                KB :ELEVATION REFERENCE TYPE
~Curve Information Section
#MNEM       .UNIT                                      API CODE :CURVE DESCRIPTION
#------------------------------------------------------------------------------
DEPT        .FT                                                 :DEPTH     
LAT         .OHMM                                               :          
LN          .OHMM                                               :          
SN          .OHMM                                               :          
SP          .MV                                                 :          
SP_NORM     .MV                                                 :SP Normalized
VSH_SP      .V/V                                                :Volume of Shale from SP
~A        DEPTH            LAT             LN             SN             SP        SP_NORM         VSH_SP
# ...
       912.0000         1.2613         1.3974          1.203      -100.7405      -1.605171      0.9791321
       912.5000         1.2472          1.404         1.2043      -100.5465      -1.412903       0.985762
       913.0000         1.2427         1.4107         1.2341      -100.4822      -1.350342      0.9879193
       913.5000         1.2429         1.4173          1.264      -100.5272      -1.397079      0.9863076
       914.0000         1.2431         1.4263         1.2938      -100.5721      -1.443718      0.9846994
       914.5000         1.2434         1.4417         1.3236      -100.6155      -1.488861      0.9831427
       915.0000         1.2436          1.457         1.3534      -100.6575        -1.5326      0.9816345
       915.5000         1.2438         1.4724         1.3832      -100.6993      -1.576134      0.9801333
       916.0000         1.2441         1.4744         1.4055      -100.7413      -1.619873      0.9786251
       916.5000         1.2443         1.4754         1.4266      -100.7833      -1.663612      0.9771168
       917.0000         1.2428         1.4764         1.4478      -100.8253      -1.707352      0.9756086
       917.5000         1.2407         1.4774         1.4249       -100.661      -1.544792       0.981214
       918.0000         1.2386         1.4784         1.3992      -100.4918      -1.377327      0.9869887
       918.5000         1.2366         1.4646         1.3735      -100.3226      -1.209862      0.9927634
       919.0000         1.2345         1.4505         1.3479      -100.1534      -1.042397      0.9985381
       919.5000         1.2324         1.4364         1.3233      -100.1193       -1.01004      0.9996538
       920.0000         1.2303         1.4223         1.3103      -100.1084      -1.000877      0.9999697
       920.5000         1.2282         1.4082         1.2973      -100.0977     -0.9919205              1
       921.0000         1.2319         1.3942         1.2844      -100.0868     -0.9827576              1
       921.5000         1.2356         1.3801         1.2714      -100.0884     -0.9860992              1
       922.0000         1.2393          1.366         1.2584       -100.218      -1.117432      0.9959506
       922.5000          1.243         1.3519         1.2454      -100.3477      -1.248871      0.9914182
       923.0000         1.2467         1.3527         1.2325      -100.4773      -1.380211      0.9868893
       923.5000         1.2503         1.3542         1.2269      -100.6069      -1.511551      0.9823603
       924.0000          1.254         1.3558         1.2295      -100.5923      -1.498688      0.9828039
       924.5000         1.2577         1.3573         1.2321      -100.4209      -1.329025      0.9886543
       925.0000         1.2576         1.3588         1.2347      -100.2606      -1.170456      0.9941222
       925.5000         1.2558         1.3604         1.2373      -100.1792      -1.090797       0.996869
       926.0000         1.2541         1.3619         1.2399      -100.2828      -1.196136      0.9932367
       926.5000         1.2523         1.3634         1.2425      -100.4518      -1.366875      0.9873492
       927.0000         1.2505         1.3674         1.2451      -100.6206      -1.537415      0.9814684
       927.5000         1.2487         1.3746         1.2474      -100.7896      -1.708153      0.9755809
       928.0000          1.247         1.3818         1.2496      -100.9584      -1.878693      0.9697003
       928.5000         1.2452         1.3889         1.2519      -100.9779      -1.899925      0.9689681
       929.0000         1.2434         1.3961         1.2541      -100.9382      -1.861969       0.970277
       929.5000         1.2397         1.4033         1.2563      -100.8987      -1.824203      0.9715792
       930.0000         1.2355         1.4104         1.2586      -100.8591      -1.786346      0.9728846
       930.5000         1.2312         1.4164         1.2608      -100.8195      -1.748489        0.97419
       931.0000         1.2269         1.4139         1.2654      -100.7799      -1.710625      0.9754957
       931.5000         1.2227         1.4115         1.2733      -100.8182      -1.750656      0.9741153
       932.0000         1.2184          1.409         1.2811      -100.8795      -1.813698      0.9719415
       932.5000         1.2178         1.4066          1.289      -100.9408       -1.87674      0.9697676
       933.0000         1.2228         1.4041         1.2969       -101.002      -1.939674      0.9675974
       933.5000         1.2279         1.4017         1.3048      -101.0632      -2.002617       0.965427
       934.0000         1.2329         1.3993         1.3126      -101.1245      -2.065651      0.9632534
       934.5000          1.238         1.3966         1.3177      -101.1858      -2.128685      0.9610798
       935.0000          1.243         1.3928         1.3166      -101.2471      -2.191727       0.958906
       935.5000          1.248         1.3891         1.3155      -101.2628      -2.209167      0.9583046
       936.0000         1.2531         1.3853         1.3145       -101.209      -2.157104      0.9600998
       936.5000         1.2581         1.3816         1.3134      -101.1552      -2.105042      0.9618951
       937.0000         1.2632         1.3778         1.3123      -101.1014      -2.052986      0.9636902
       937.5000         1.2682         1.3746         1.3032      -101.0476      -2.000923      0.9654854
       938.0000         1.2732         1.3714         1.2937      -100.9938      -1.948853      0.9672809
       938.5000         1.2783         1.3683         1.2842      -100.9399      -1.896698      0.9690794
       939.0000         1.2833         1.3651         1.2747      -100.8826      -1.841133      0.9709954
       939.5000         1.2819         1.3619         1.2651      -100.8157       -1.77597      0.9732424
       940.0000         1.2803         1.3588         1.2546      -100.7487      -1.710716      0.9754925
       940.5000         1.2786         1.3556          1.244      -100.6816      -1.645355      0.9777464
       941.0000          1.277         1.3525         1.2335      -100.6321      -1.597588      0.9793935
       941.5000         1.2754         1.3494          1.223      -100.6206      -1.587822      0.9797302
       942.0000         1.2738         1.3462         1.2124      -100.6091      -1.578064      0.9800668
       942.5000         1.2722         1.3431         1.2019      -100.5977      -1.568405      0.9803998
       943.0000           1.27           1.34         1.1934      -100.5862       -1.55864      0.9807366
       943.5000         1.2659         1.3369         1.1959      -100.5747      -1.548882       0.981073
       944.0000         1.2618         1.3338         1.1984      -100.5631      -1.539024      0.9814129
       944.5000         1.2577         1.3306         1.2009      -100.5516      -1.529251        0.98175
       945.0000         1.2536         1.3275         1.2034      -100.5402      -1.519592       0.982083
       945.5000         1.2495         1.3244         1.2059      -100.5577      -1.538834      0.9814195
       946.0000         1.2454          1.328         1.2084      -100.5963       -1.57917      0.9800286
       946.5000         1.2413         1.3325         1.2108      -100.6348      -1.619415      0.9786409
       947.0000         1.2372         1.3369         1.2133      -100.6733      -1.659653      0.9772534
       947.5000         1.2331         1.3413         1.2153      -100.7118      -1.699883      0.9758661
       948.0000         1.2312         1.3458         1.2174      -100.7502      -1.740021      0.9744821
       948.5000         1.2344         1.3502         1.2194      -100.7888      -1.780365      0.9730909
       949.0000         1.2377         1.3546         1.2214      -100.8273      -1.820602      0.9717034
       949.5000         1.2409         1.3584         1.2235      -100.8198      -1.814842       0.971902
