#------------------------------------------------------------------------------
# Created by    : vladimir.rabinovich
# Created on    : 09/19/2023 17:20:10
#------------------------------------------------------------------------------
~Version Information Section
VERS.           2.0     :   CWLS log ASCII Standard - VERSION 2.0
WRAP.           NO      :   One line per depth step
~Well Information Section
#MNEM       .UNIT                                         VALUE :DESCRIPTION
#------------------------------------------------------------------------------
STRT        .FT                                             409 :START DEPTH
STOP        .FT                                           13135 :STOP DEPTH
STEP        .FT                                             0.5 :STEP      
NULL        .                                           -999.25 :NULL      
COMP        .                         ATLANTIC RICHFIELD CO THE :COMPANY   
WELL        .                               OCS G04547 ST00BP00 :WELL      
FLD         .                                           WILDCAT :FIELD     
LOC         .                                                   :LOCATION  
CNTY        .                      MATAGORDA ISLAND LARGE BLOCK :LOCATION  
STAT        .                                             TEXAS :STATE     
CTRY        .                                     UNITED STATES :COUNTRY   
SRVC        .                                                   :SERVICE COMPANY
DATE        .                             9/13/2023 11:12:03 AM :LOG DATE  
API         .                                    42703401300000 :API NUMBER
UWI         .                                    42703401300000 :UNIQUE WELL ID
XCOORD      .                                  517134.995430583 :SURFACE X 
YCOORD      .                                  10172294.5320476 :SURFACE Y 
LAT         .                                         27.987424 :LATITUDE  
LON         .                                        -96.480505 :LONGITUDE 
ELEV        .FT                                              99 :ELEVATION VALUE
ELEV_TYPE   .                                                KB :ELEVATION REFERENCE TYPE
~Curve Information Section
#MNEM       .UNIT                                      API CODE :CURVE DESCRIPTION
#------------------------------------------------------------------------------
DEPT        .FT                                                 :DEPTH     
ASFL        .OHMM                                               :          
CILD        .MMHO                                               :          
GR          .GAPI                                               :          
GR_NORM     .GAPI                                               :GammaRay Normalized
ILD         .OHMM                                               :          
SP          .MV                                                 :          
SP_NORM     .MV                                                 :SP Normalized
VSH_GR      .V/V                                                :Volume of Shale from GR
VSH_SP      .V/V                                                :Volume of Shale from SP
~A        DEPTH           ASFL           CILD             GR        GR_NORM            ILD             SP        SP_NORM         VSH_GR         VSH_SP
# ...
      9710.5000         0.9616       1015.678        -999.25        -999.25         0.9965       -40.4419     -0.4622307        -999.25              1
      9711.0000          0.964       993.6504        -999.25        -999.25         1.0004       -40.4091     -0.4303169        -999.25              1
      9711.5000         0.9819       982.1865        -999.25        -999.25         1.0054       -40.3914     -0.4135017        -999.25              1
      9712.0000         1.0003       971.7578        -999.25        -999.25         1.0135       -40.4364     -0.4593887        -999.25              1
      9712.5000         1.0142       971.3857        -999.25        -999.25         1.0216       -40.5925      -0.616375        -999.25              1
      9713.0000         1.0254       971.0137        -999.25        -999.25         1.0296       -40.8814     -0.9061623        -999.25              1
      9713.5000         1.0314       970.6416        -999.25        -999.25         1.0298       -41.1714      -1.197044        -999.25      0.9949476
      9714.0000         1.0202        969.168        -999.25        -999.25         1.0241       -41.4968      -1.523331        -999.25      0.9865813
      9714.5000         1.0077       967.4219        -999.25        -999.25         1.0184       -41.6115       -1.63892        -999.25      0.9836174
      9715.0000         0.9953        966.835        -999.25        -999.25         1.0112       -41.3496      -1.377907        -999.25      0.9903101
      9715.5000         0.9845        969.375        -999.25        -999.25         1.0034        -41.088      -1.117191        -999.25      0.9969951
      9716.0000         0.9737       971.9189        -999.25        -999.25         0.9956       -41.2401      -1.270176        -999.25      0.9930724
      9716.5000         0.9683        974.459        -999.25        -999.25         0.9879       -44.0991      -4.130062        -999.25       0.919742
      9717.0000         0.9646       975.3916        -999.25        -999.25         0.9814        -43.684      -3.715847        -999.25      0.9303629
      9717.5000         0.9625       974.2598        -999.25        -999.25         0.9748       -42.9181      -2.950832        -999.25      0.9499786
      9718.0000         0.9625        973.127        -999.25        -999.25         0.9718       -42.0515      -2.085117        -999.25      0.9721765
      9718.5000         0.9651       970.3945        -999.25        -999.25         0.9715       -41.2747      -1.309208        -999.25      0.9920716
      9719.0000          0.982       967.5098        -999.25        -999.25          0.989       -40.8359     -0.8712921        -999.25              1
      9719.5000         1.0052       964.6201        -999.25        -999.25         1.0171       -40.5837      -0.619976        -999.25              1
      9720.0000         1.0403       950.9111        -999.25        -999.25         1.0452       -40.5098     -0.5469627        -999.25              1
      9720.5000         1.0973       934.2139        -999.25        -999.25         1.0962       -40.4358     -0.4738503        -999.25              1
      9721.0000         1.1594        861.124        -999.25        -999.25         1.1614       -40.3619     -0.4008369        -999.25              1
      9721.5000         1.1829        840.752        -999.25        -999.25         1.2074       -40.2878     -0.3276215        -999.25              1
      9722.0000         1.2017       822.0107        -999.25        -999.25         1.2096        -40.214     -0.2547112        -999.25              1
      9722.5000         1.2199        805.582        -999.25        -999.25         1.2118       -40.1768     -0.2183952        -999.25              1
      9723.0000         1.2163       790.2842        -999.25        -999.25         1.2141       -40.2542     -0.2966805        -999.25              1
      9723.5000         1.2111       783.6279        -999.25        -999.25         1.2169       -40.3317     -0.3750648        -999.25              1
      9724.0000         1.2059       791.3193        -999.25        -999.25         1.2198       -40.4092     -0.4534531        -999.25              1
      9724.5000         1.2007       799.0098        -999.25        -999.25         1.2226       -40.4899      -0.535038        -999.25              1
      9725.0000         1.1955       802.1621        -999.25        -999.25          1.228        -40.584      -0.630024        -999.25              1
      9725.5000         1.1903       804.7666        -999.25        -999.25         1.2356       -40.6779     -0.7248077        -999.25              1
      9726.0000         1.1981       801.9795        -999.25        -999.25         1.2432       -40.7433     -0.7910995        -999.25              1
      9726.5000         1.2162       791.2461        -999.25        -999.25         1.2527       -40.7975     -0.8461838        -999.25              1
      9727.0000         1.2342       780.4883        -999.25        -999.25         1.2634       -40.8516     -0.9011688        -999.25              1
      9727.5000         1.2567       777.1416        -999.25        -999.25         1.2466       -40.8921     -0.9425545        -999.25              1
      9728.0000         1.2809       785.5381        -999.25        -999.25         1.2238       -40.9297      -0.981041        -999.25              1
      9728.5000         1.2012       793.9473        -999.25        -999.25         1.1844       -40.9674      -1.019627        -999.25      0.9994968
      9729.0000         1.0484        802.418        -999.25        -999.25         1.1395       -41.0051      -1.058212        -999.25      0.9985074
      9729.5000         1.0343       828.2656        -999.25        -999.25         1.1102       -41.0427      -1.096699        -999.25      0.9975206
      9730.0000         1.0201       854.0654        -999.25        -999.25         1.0961        -41.071      -1.125885        -999.25      0.9967722
      9730.5000         1.0067       896.5615        -999.25        -999.25         1.0865       -41.0938       -1.14957        -999.25      0.9961649
      9731.0000         1.0113       939.2529        -999.25        -999.25         1.0795       -41.1165      -1.173157        -999.25      0.9955601
      9731.5000         1.0337       974.9824        -999.25        -999.25         1.0727       -41.1411      -1.198643        -999.25      0.9949066
      9732.0000         1.0562       998.4209        -999.25        -999.25         1.0662       -41.1764      -1.234829        -999.25      0.9939787
      9732.5000         1.0798       1010.965        -999.25        -999.25         1.0597       -41.2117      -1.271015        -999.25      0.9930509
      9733.0000         1.1037       1012.803        -999.25        -999.25         1.0554       -41.2472        -1.3074        -999.25      0.9921179
      9733.5000         1.1251       1014.643        -999.25        -999.25          1.051       -41.2825      -1.343586        -999.25      0.9911901
      9734.0000         1.1146       1004.092        -999.25        -999.25         1.0467       -41.3273      -1.389275        -999.25      0.9900186
      9734.5000          1.092       988.9775        -999.25        -999.25         1.0421        -41.376      -1.438858        -999.25      0.9887472
      9735.0000         1.0712       987.3711        -999.25        -999.25         1.0368       -41.4247      -1.488445        -999.25      0.9874758
      9735.5000         1.0503       1000.514        -999.25        -999.25         1.0314       -41.4736      -1.538227        -999.25      0.9861993
      9736.0000         1.0353       1013.682        -999.25        -999.25          1.026       -41.5223      -1.587818        -999.25      0.9849277
      9736.5000          1.021       1026.824        -999.25        -999.25         1.0232       -41.3735      -1.439903        -999.25      0.9887204
