#------------------------------------------------------------------------------
# Created by    : vladimir.rabinovich
# Created on    : 09/19/2023 17:22:48
#------------------------------------------------------------------------------
~Version Information Section
VERS.           2.0     :   CWLS log ASCII Standard - VERSION 2.0
WRAP.           NO      :   One line per depth step
~Well Information Section
#MNEM       .UNIT                                         VALUE :DESCRIPTION
#------------------------------------------------------------------------------
STRT        .FT                                            3512 :START DEPTH
STOP        .FT                                           11028 :STOP DEPTH
STEP        .FT                                             0.5 :STEP      
NULL        .                                           -999.25 :NULL      
COMP        .                          SEAGULL ENERGY E & P INC :COMPANY   
WELL        .                   ST TR 147-L NE/4 /ST LSE 88034/ :WELL      
FLD         .                                           WILDCAT :FIELD     
LOC         .                                                   :LOCATION  
CNTY        .                             GALVESTON LARGE BLOCK :LOCATION  
STAT        .                                             TEXAS :STATE     
CTRY        .                                     UNITED STATES :COUNTRY   
SRVC        .                                                   :SERVICE COMPANY
DATE        .                             9/13/2023 11:18:53 AM :LOG DATE  
API         .                                    42706302000000 :API NUMBER
UWI         .                                    42706302000000 :UNIQUE WELL ID
XCOORD      .                                  1107149.67333588 :SURFACE X 
YCOORD      .                                  10638300.0198507 :SURFACE Y 
LAT         .                                        29.3031745 :LATITUDE  
LON         .                                         -94.67354 :LONGITUDE 
ELEV        .FT                                              25 :ELEVATION VALUE
ELEV_TYPE   .                                                KB :ELEVATION REFERENCE TYPE
~Curve Information Section
#MNEM       .UNIT                                      API CODE :CURVE DESCRIPTION
#------------------------------------------------------------------------------
DEPT        .FT                                                 :DEPTH     
DT          .US/F                                               :          
GR          .GAPI                                               :          
GR_NORM     .GAPI                                               :GammaRay Normalized
ILD         .OHMM                                               :          
ILM         .OHMM                                               :          
SFL         .OHMM                                               :          
SP          .MV                                                 :          
SP_NORM     .MV                                                 :SP Normalized
VSH_GR      .V/V                                                :Volume of Shale from GR
VSH_SP      .V/V                                                :Volume of Shale from SP
~A        DEPTH             DT             GR        GR_NORM            ILD            ILM            SFL             SP        SP_NORM         VSH_GR         VSH_SP
# ...
      5521.0000        78.7975        34.2143       34.66438         1.7154         1.6243         2.2309       -34.8066      -9.683035      0.0354124      0.9056192
      5521.5000        69.0018        33.9372       34.31415         1.9855          1.881         2.5376       -35.5104      -10.38353     0.02796068      0.8980051
      5522.0000        66.9436        33.7769       34.11047         2.2772         2.1851         3.0339       -36.4393      -11.30913     0.02362702      0.8879442
      5522.5000        67.3823        33.5712       33.84982         2.4872          2.478         3.5737       -36.8767      -11.74323     0.01808126      0.8832257
      5523.0000        68.0105        33.4029        33.6361         2.4786         2.3763         4.0319       -36.7266      -11.58983     0.01353414      0.8848932
      5523.5000        69.8754        33.6287       33.91686         2.1249         2.0085         3.8757       -35.8973      -10.75723     0.01950763      0.8939432
      5524.0000        73.7721        35.3795       36.11104         1.7957         1.6615         3.0114       -34.8896      -9.746222      0.0661923      0.9049324
      5524.5000        77.1903         38.293       39.76406         1.5135         1.4421         2.0446       -33.7294      -8.582722      0.1439162      0.9175791
      5525.0000        79.1975        41.2557       43.47881         1.2774         1.2009         1.4806       -32.8829       -7.73292      0.2229535      0.9268161
      5525.5000        81.6268        45.3257        48.5829         1.0852         0.9886          1.192       -32.0931      -6.939819      0.3315512      0.9354367
      5526.0000        88.2007        53.9579        59.4112         0.9189         0.8335         0.9614       -31.6778      -6.521214      0.5619404      0.9399868
      5526.5000        93.6261        60.2475       67.30023         0.7932         0.7429         0.7899       -31.4485      -6.288612      0.7297922      0.9425151
      5527.0000        94.5524        65.9907       74.50367         0.6923         0.6618         0.6776       -31.7997      -6.636511      0.8830568      0.9387336
      5527.5000        98.4969        69.8615       79.35783         0.5963         0.5767         0.6158        -32.803      -7.636511      0.9863367       0.927864
      5528.0000       107.6644         71.632       81.57674         0.5444         0.5479         0.6063       -33.8721      -8.702307              1      0.9162793
      5528.5000        118.589        72.8746       83.13328         0.5274         0.5317          0.638       -35.4987       -10.3256              1      0.8986347
      5529.0000       123.5458        74.3129       84.93534         0.5252         0.5223         0.7034       -36.5082       -11.3318              1      0.8876978
      5529.5000       123.8982        75.3218       86.19868         0.5138         0.5044         0.7583       -37.1406       -11.9609              1      0.8808598
      5530.0000       122.9777         72.278       82.37704         0.5008         0.4946         0.7935       -37.6414       -12.4584              1      0.8754522
      5530.5000       120.5078        69.9501       79.45367         0.4914         0.4883         0.7701       -37.8031       -12.6168       0.988376      0.8737305
      5531.0000       121.4906        68.6348       77.80082         0.4867         0.4817         0.6668       -37.8531      -12.66349      0.9532089      0.8732229
      5531.5000       123.1273        67.4783       76.34718         0.4911         0.4847         0.5541       -37.8859      -12.69299      0.9222805      0.8729023
      5532.0000       122.2599        66.7849       75.47462            0.5         0.4898         0.4548       -37.8422      -12.64599      0.9037153      0.8734131
      5532.5000       117.8773        66.5001       75.11472          0.511         0.5076          0.459       -37.6506      -12.45109       0.896058      0.8755317
      5533.0000       111.9833         68.417       77.51731         0.5191         0.5404         0.6533       -37.2313      -12.02849      0.9471768      0.8801252
      5533.5000          109.1        72.9841       83.24512         0.5329         0.5452         0.7875       -36.8518      -11.64568              1       0.884286
      5534.0000       107.7599        74.8273       85.55523         0.5434         0.5402         0.8146       -36.7046      -11.49518              1      0.8859219
      5534.5000       107.8062        75.9518       86.96358         0.5493         0.5494         0.7496       -37.6826      -12.46988              1      0.8753274
      5535.0000       110.1158        76.0944       87.13995         0.5396         0.5385         0.6976       -41.7772      -16.56118              1      0.8308568
      5535.5000       113.2102        72.8414       83.05585         0.5238         0.5596          0.692       -45.0696      -19.85028              1      0.7951057
      5536.0000       114.5696        65.9219       74.37138          0.499         0.5636         0.6971       -50.8032      -25.58057      0.8802422      0.7328199
      5536.5000       108.3319        59.7603       66.63786         0.4748         0.5557         0.6909       -58.2443      -33.01837      0.7156991      0.6519742
      5537.0000        97.2603        56.8049       62.92714         0.4555         0.5486         0.6554       -66.2859      -41.05666      0.6367477      0.5646015
      5537.5000        95.1584        54.5854       60.13977         0.4399         0.5433         0.6417       -73.5942      -48.36167      0.5774419      0.4851993
      5538.0000        96.9265        51.6153       56.41063         0.4286         0.5392         0.6674       -79.8002      -54.56437      0.4980984      0.4177786
      5538.5000       102.1421        47.1466       50.80119         0.4234         0.5439         0.7326       -85.1646      -59.92546      0.3787488      0.3595059
      5539.0000       103.3556        43.8616       46.67693         0.4247          0.558         0.8524       -88.8827      -63.64026      0.2909986      0.3191276
      5539.5000       105.0609        41.9028       44.21667         0.4412         0.5897         0.9363        -90.994      -65.74826      0.2386525      0.2962146
      5540.0000       106.8682        41.0699       43.16908         0.4753         0.6549         0.9914       -91.2859      -66.03685      0.2163633      0.2930777
      5540.5000       107.2341        41.9102       44.22084         0.5316         0.7364         1.0421       -91.3322      -66.07985      0.2387412      0.2926103
      5541.0000       106.4744        43.2015       45.83849         0.5975         0.8304         1.1917       -90.6619      -65.40626      0.2731594       0.299932
      5541.5000       104.2095        43.1757       45.80357         0.6551         0.9019         1.5298       -89.5176      -64.25865      0.2724163       0.312406
      5542.0000        99.0809        40.9075       42.95509         0.7178         0.9705         2.0846       -88.4275      -63.16525      0.2118105      0.3242908
      5542.5000        88.2693        40.2612       42.14162         0.7832         1.0161         2.5385       -87.8519      -62.58634      0.1945026      0.3305832
      5543.0000        84.9763        43.3226       45.98022         0.8408         1.0243         2.1636         -88.15      -62.88115      0.2761748      0.3273788
      5543.5000        85.3358        47.5699       51.30677         0.8712         1.0006         1.8176       -89.1644      -63.89224      0.3895057      0.3163887
      5544.0000        88.0681        50.9041       55.48764         0.8259         0.9679         1.6072       -91.2721      -65.99664      0.4784605      0.2935148
      5544.5000         90.701        55.0849       60.73075         0.7026         0.8984         1.5098       -95.5537      -70.27494      0.5900159      0.2470115
      5545.0000        91.9662        57.1199        63.2815         0.5939         0.7792         1.3481      -101.2676      -75.98553      0.6442873      0.1849398
