#------------------------------------------------------------------------------
# Created by    : vladimir.rabinovich
# Created on    : 09/19/2023 17:21:24
#------------------------------------------------------------------------------
~Version Information Section
VERS.           2.0     :   CWLS log ASCII Standard - VERSION 2.0
WRAP.           NO      :   One line per depth step
~Well Information Section
#MNEM       .UNIT                                         VALUE :DESCRIPTION
#------------------------------------------------------------------------------
STRT        .FT                                            4234 :START DEPTH
STOP        .FT                                            7516 :STOP DEPTH
STEP        .FT                                             0.5 :STEP      
NULL        .                                           -999.25 :NULL      
COMP        .                          SEAGULL ENERGY E & P INC :COMPANY   
WELL        .                               OCS G11311 ST00BP00 :WELL      
FLD         .                                           WILDCAT :FIELD     
LOC         .                                                   :LOCATION  
CNTY        .                             GALVESTON LARGE BLOCK :LOCATION  
STAT        .                                             TEXAS :STATE     
CTRY        .                                     UNITED STATES :COUNTRY   
SRVC        .                                                   :SERVICE COMPANY
DATE        .                             9/13/2023 11:19:54 AM :LOG DATE  
API         .                                    42706403550000 :API NUMBER
UWI         .                                    42706403550000 :UNIQUE WELL ID
XCOORD      .                                  972569.007613557 :SURFACE X 
YCOORD      .                                  10477919.1442114 :SURFACE Y 
LAT         .                                         28.856272 :LATITUDE  
LON         .                                        -95.086774 :LONGITUDE 
ELEV        .FT                                              94 :ELEVATION VALUE
ELEV_TYPE   .                                                KB :ELEVATION REFERENCE TYPE
~Curve Information Section
#MNEM       .UNIT                                      API CODE :CURVE DESCRIPTION
#------------------------------------------------------------------------------
DEPT        .FT                                                 :DEPTH     
CALI        .IN                                                 :          
DPHI        .%                                                  :          
DRHO        .G/C3                                               :          
DTLN        .US/F                                               :          
GR          .GAPI                                               :          
GR_NORM     .GAPI                                               :GammaRay Normalized
IDPH        .OHMM                                               :          
IMPH        .OHMM                                               :          
NPHI        .%                                                  :          
SFLU        .OHMM                                               :          
SP          .MV                                                 :          
SP_NORM     .MV                                                 :SP Normalized
VSH_GR      .V/V                                                :Volume of Shale from GR
VSH_SP      .V/V                                                :Volume of Shale from SP
~A        DEPTH           CALI           DPHI           DRHO           DTLN             GR        GR_NORM           IDPH           IMPH           NPHI           SFLU             SP        SP_NORM         VSH_GR         VSH_SP
# ...
      7060.0000        10.0104        17.0287        -0.0064       107.1388         81.483       79.14504         1.0074         1.0599        40.4769         1.0449        -42.486         -2.486      0.9818094      0.9644857
      7060.5000        10.1202        15.5666        -0.0052       104.7859        78.2155       75.86551         1.0083         1.1041        36.9166         1.1872       -42.4053        -2.4053      0.9120321      0.9656386
      7061.0000        10.2596        15.3992        -0.0087       104.6552        76.7113        74.3458         1.0205         1.1197        37.7743         1.2615       -42.2203      -2.220299      0.8796979      0.9682814
      7061.5000        10.3226        16.1418         -0.012       106.5656        77.6416       75.25578         1.0417           1.11        40.7929         1.2099       -42.1431      -2.143101      0.8990592      0.9693843
      7062.0000        10.3288        17.3763        -0.0154       108.1337        80.2603       77.85083         1.0505         1.0938        43.3098         1.0913       -42.0778      -2.077801       0.954273      0.9703171
      7062.5000        10.3206        17.4643        -0.0115       108.3733        82.9189        80.4857         1.0583         1.0699        43.0161         1.0483        -42.037      -2.036999              1         0.9709
      7063.0000        10.3188        16.8699        -0.0095       107.7257        84.5709       82.11596         1.0649         1.0596        42.1404         1.0471       -42.0947        -2.0947              1      0.9700757
      7063.5000        10.3304        16.6077        -0.0125       106.8938        84.2583       81.78549         1.0645         1.0772        40.6424         1.1083       -42.1236        -2.1236              1      0.9696628
      7064.0000        10.3261        16.7838        -0.0178       106.6656        84.6028       82.11082         1.0546         1.0913        41.1135         1.1453       -41.6868      -1.686798              1      0.9759029
      7064.5000        10.3272         17.192        -0.0236       106.8578        84.3986       81.88855         1.0465         1.0881        42.1075         1.1291       -40.7861     -0.7860985              1        0.98877
      7065.0000        10.3308        17.4104        -0.0252        107.307        82.8237       80.29828         1.0474         1.0699        41.8536          1.084       -41.0995      -1.099499              1      0.9842929
      7065.5000        10.3276        16.9628        -0.0256       107.7739        80.1851       77.64641         1.0542         1.0613        39.7278         1.0643       -41.7579        -1.7579      0.9499236      0.9748871
      7066.0000        10.3244        15.8273        -0.0245       107.7859        77.8496       75.29705         1.0609         1.0644        37.7473         1.0863       -42.0655      -2.065498      0.8999373      0.9704929
      7066.5000        10.3518        14.8471        -0.0183       107.8158        76.8118       74.24282         1.0646         1.0735        36.1017         1.1039       -42.2483      -2.248299      0.8775069      0.9678814
      7067.0000        10.3692        14.8685        -0.0104       108.2275        77.3597       74.77116         1.0633         1.0834        37.3758         1.0961       -42.3189      -2.318901       0.888748      0.9668729
      7067.5000        10.3902        15.3314        -0.0057        108.767        78.6115       76.00201         1.0622         1.0873        39.0986         1.0893       -42.7283      -2.728298      0.9149363      0.9610243
      7068.0000        10.3994        15.8183        -0.0086       109.2273        80.4581       77.82648         1.0632         1.0874        40.6708         1.1092       -42.5231      -2.523102      0.9537548      0.9639557
      7068.5000        10.4233        16.1153        -0.0128       109.1613        83.2672       80.61154         1.0604          1.083        41.1207         1.1226       -41.8139        -1.8139              1      0.9740871
      7069.0000        10.4805        16.3119        -0.0152       108.7914        82.8638       80.19047         1.0607         1.0729        41.4547         1.1028       -41.4323      -1.432301              1      0.9795386
      7069.5000        10.5613        16.5332        -0.0169       108.2758         81.418       78.72903         1.0621         1.0616        41.8341         1.0736       -41.4764      -1.476398      0.9729582      0.9789086
      7070.0000        10.6343        16.6718         -0.016       107.6919        79.9971       77.29247         1.0657         1.0568        42.8918         1.0595       -41.6263      -1.626301      0.9423929      0.9767671
      7070.5000        10.6917        16.4591        -0.0117       107.0242        78.4485       75.72845         1.0709         1.0625        43.8698         1.0599       -41.9866      -1.986599       0.909116        0.97162
      7071.0000        10.6768        16.0898        -0.0074        106.675        77.1411       74.40514         1.0784         1.0739        43.2079         1.0694       -42.1646        -2.1646      0.8809605      0.9690771
      7071.5000        10.6059        15.9312        -0.0055        106.516        76.8239       74.07009          1.094         1.0882         41.548         1.0818       -42.1428      -2.142799      0.8738317      0.9693886
      7072.0000        10.5237        16.0171        -0.0073       106.0299        77.9272       75.15273         1.1122          1.113        40.7128         1.1005       -42.2688      -2.268799      0.8968667      0.9675886
      7072.5000        10.4308        16.1413        -0.0096       104.5957        79.2194        76.4239         1.1335          1.156        39.8896         1.1438       -42.5768      -2.576801      0.9239127      0.9631885
      7073.0000         10.439        16.0197        -0.0127       102.5007        78.8633       76.05002         1.1559         1.2194        36.6357         1.2342         -43.03      -3.029999      0.9159578      0.9567143
      7073.5000        10.5354        15.8231         -0.014       100.3456        76.9349       74.10696         1.1742         1.2591        32.6179         1.3508       -43.5007      -3.500702      0.8746161        0.94999
      7074.0000        10.4622        15.9939        -0.0137       100.7661        75.0167       72.17406         1.1757         1.2387        33.2276         1.3287       -43.8538      -3.853802      0.8334906      0.9449457
      7074.5000        10.2329        16.5336        -0.0126       103.1339        74.1212       71.26184          1.173         1.1879        36.9054         1.2512       -43.7219      -3.721901      0.8140817        0.94683
      7075.0000        10.1496        17.4781         -0.011       105.3141        74.4886       71.61003         1.1632         1.1509        38.9278          1.163       -43.5533      -3.553299        0.82149      0.9492386
      7075.5000        10.2259        18.1043        -0.0097       106.4465        75.3745       72.47571          1.153         1.1306         41.873         1.0898       -43.7604      -3.760399      0.8399087        0.94628
      7076.0000        10.2504        17.9695        -0.0098       105.9723        75.2073       72.29036         1.1507         1.1305        42.3464         1.0736       -43.8647        -3.8647      0.8359651        0.94479
      7076.5000        10.2003        16.9448        -0.0091       104.1552        73.5897       70.65748         1.1546         1.1612        36.1264         1.1126        -43.495      -3.494999      0.8012229      0.9500715
      7077.0000        10.1494        16.3051         -0.009       101.8248        73.4795       70.52901         1.1588         1.2032        33.4598         1.2581       -43.0446      -3.044601      0.7984895      0.9565057
      7077.5000         10.177        16.8924        -0.0089       100.8507        74.9755       72.00359         1.1784          1.234        34.1549         1.2978       -42.5764      -2.576401      0.8298635      0.9631943
