#------------------------------------------------------------------------------
# Created by    : vladimir.rabinovich
# Created on    : 09/19/2023 17:21:52
#------------------------------------------------------------------------------
~Version Information Section
VERS.           2.0     :   CWLS log ASCII Standard - VERSION 2.0
WRAP.           NO      :   One line per depth step
~Well Information Section
#MNEM       .UNIT                                         VALUE :DESCRIPTION
#------------------------------------------------------------------------------
STRT        .FT                                            2690 :START DEPTH
STOP        .FT                                            8272 :STOP DEPTH
STEP        .FT                                             0.5 :STEP      
NULL        .                                           -999.25 :NULL      
COMP        .                        PG&E RESOURCES OFFSHORE CO :COMPANY   
WELL        .                               OCS G09053 ST00BP00 :WELL      
FLD         .                              GALVESTON BLOCK 0427 :FIELD     
LOC         .                                                   :LOCATION  
CNTY        .                             GALVESTON LARGE BLOCK :LOCATION  
STAT        .                                             TEXAS :STATE     
CTRY        .                                     UNITED STATES :COUNTRY   
SRVC        .                                                   :SERVICE COMPANY
DATE        .                             9/13/2023 11:11:09 AM :LOG DATE  
API         .                                    42706402380000 :API NUMBER
UWI         .                                    42706402380000 :UNIQUE WELL ID
XCOORD      .                                  948581.259723803 :SURFACE X 
YCOORD      .                                  10360666.4777899 :SURFACE Y 
LAT         .                                         28.532718 :LATITUDE  
LON         .                                        -95.155068 :LONGITUDE 
ELEV        .FT                                             119 :ELEVATION VALUE
ELEV_TYPE   .                                                KB :ELEVATION REFERENCE TYPE
~Curve Information Section
#MNEM       .UNIT                                      API CODE :CURVE DESCRIPTION
#------------------------------------------------------------------------------
DEPT        .FT                                                 :DEPTH     
CALI        .IN                                                 :          
DRHO        .G/C3                                               :          
DT          .US/F                                               :          
GR          .GAPI                                               :          
GR_1        .GAPI                                               :          
GR_NORM     .GAPI                                               :GammaRay Normalized
ILD         .OHMM                                               :          
ILM         .OHMM                                               :          
NPHI        .%                                                  :          
RFOC        .OHMM                                               :          
RHOB        .G/C3                                               :          
SP          .MV                                                 :          
SP_NORM     .MV                                                 :SP Normalized
VSH_GR      .V/V                                                :Volume of Shale from GR
VSH_SP      .V/V                                                :Volume of Shale from SP
~A        DEPTH           CALI           DRHO             DT             GR           GR_1        GR_NORM            ILD            ILM           NPHI           RFOC           RHOB             SP        SP_NORM         VSH_GR         VSH_SP
# ...
      7518.0000        14.3647         0.0682       101.5774        83.2572        83.8246       73.27662         1.0091         1.0342        31.9648         1.1926         2.4175       -47.6711      -3.226658      0.8569493      0.9429062
      7518.5000        14.3345         0.0694       102.6888        83.1709        83.6991       73.13914         1.0019         1.0241        32.7704         1.1707         2.4136       -47.8152      -3.370758      0.8540244      0.9392113
      7519.0000        14.3117         0.0714       103.3159          83.77        84.7535       74.33703         0.9921         1.0124        33.3965         1.1696         2.4098       -47.3796      -2.935158      0.8795112      0.9503806
      7519.5000        14.2926         0.0748       103.9185         85.021        86.2847        76.0745         0.9775         1.0019        33.8629         1.1684         2.4073       -46.5696      -2.125156      0.9164788      0.9711499
      7520.0000        14.2819         0.0791        104.368         86.446        86.5405       76.36857         0.9632          0.991        34.0643         1.1574         2.4081       -46.1833      -1.738857      0.9227355       0.981055
      7520.5000        14.2796          0.085       104.2679        88.1001        85.6544       75.37032         0.9494         0.9765        33.7847         1.1469         2.4131       -46.1206      -1.676159      0.9014961      0.9826626
      7521.0000        14.2827         0.0863       103.8766        90.2982        85.6146       75.32983         0.9387         0.9623        33.5074         1.1595         2.4157        -46.286      -1.841557      0.9006348      0.9784216
      7521.5000        14.2754         0.0734       103.6919        92.5675        86.3801       76.20074         0.9309         0.9486         33.443         1.1785         2.4152       -46.5408      -2.096355      0.9191646      0.9718883
      7522.0000        14.2653         0.0632       104.0378        96.3561        88.4071       78.49934         0.9253         0.9372         33.728         1.1623         2.4077        -46.671      -2.226559       0.968071      0.9685498
      7522.5000        14.2607         0.0608       105.0194        97.2186        90.6763       81.07204         0.9187           0.93        34.4179         1.1343         2.4009       -46.6257      -2.181259              1      0.9697113
      7523.0000        14.2699         0.0614       106.3147        96.3303        92.2772        82.8884         0.9124         0.9243        34.9583         1.1161         2.3935       -46.3828      -1.938358              1      0.9759395
      7523.5000        14.2876         0.0649        106.957         96.118        93.0752        83.7961         0.9062         0.9171        35.0777         1.1092          2.389       -45.6348      -1.190357              1       0.995119
      7524.0000        14.2805         0.0665        106.649        95.9663        93.5612       84.35069         0.9008         0.9088        34.7941         1.1274         2.3856       -45.1771     -0.7326584              1              1
      7524.5000        14.2606         0.0613       106.1014        96.0133        90.8207       81.25375         0.8951         0.9006        34.2473         1.1384         2.3818       -45.5974      -1.152958              1       0.996078
      7525.0000         14.224         0.0599       106.3534        95.8831        87.9175       77.97266          0.889         0.8932        34.2272         1.1184         2.3774       -46.3773      -1.932858      0.9568652      0.9760806
      7525.5000        14.1441         0.0609       107.2086        94.2657        85.8514       75.63895         0.8772         0.8855        34.9034         1.0894          2.373        -46.656      -2.211555      0.9072118      0.9689345
      7526.0000        14.0639         0.0638       108.4276        93.0735        85.1415       74.84011         0.8648         0.8769        36.5607           1.06          2.369       -46.3123      -1.867859      0.8902151      0.9777472
      7526.5000        13.9666         0.0707       110.3568        94.6309           92.5       83.17255         0.8536         0.8704        37.6177         1.0422         2.3668       -45.6415      -1.197056              1      0.9949473
      7527.0000        13.8591         0.0767       111.7983        98.6743        99.7996       91.43832         0.8437         0.8645        37.3912         1.0461          2.364       -45.5034      -1.058956              1      0.9984883
      7527.5000        13.8003         0.0772       112.3507       102.3917       101.1771       93.00185         0.8344           0.86        36.8952         1.0698         2.3607        -45.579      -1.134556              1      0.9965498
      7528.0000        13.8134         0.0741       111.5271        103.806       100.2256       91.92957         0.8259         0.8577         36.702         1.0725         2.3582       -45.9545      -1.510056              1      0.9869217
      7528.5000         13.846         0.0725       110.6481       103.6146        98.2599        89.7095         0.8182         0.8538        37.0038          1.058         2.3572       -46.5919      -2.147457              1       0.970578
      7529.0000        13.8498         0.0727       110.4271       102.0168        94.1694       85.08472         0.8113         0.8481        37.1323         1.0451         2.3572       -46.5978      -2.153358              1      0.9704267
      7529.5000        13.8537         0.0746       110.8563       100.3137        91.8977       82.51832         0.8059         0.8416        36.5164         1.0456         2.3562       -46.0599      -1.615456              1      0.9842191
      7530.0000        13.8618         0.0764       111.4971        99.6783        93.7336       84.60063         0.8026         0.8342        35.9181         1.0527         2.3555       -45.2794     -0.8349571              1              1
      7530.5000        13.8662         0.0751        111.698       100.0485       100.2697       92.00233         0.8022         0.8273        35.5729         1.0549         2.3597       -44.4732      -0.028759              1              1
      7531.0000        13.8671         0.0702       111.3789       100.5508        103.496       95.65822         0.8017          0.822        35.6312         1.0548         2.3624       -44.1068      0.3376427              1              1
      7531.5000        13.8792         0.0629       110.5419       101.0262       104.6465       96.96484         0.8009         0.8191        36.7516         1.0591         2.3636       -44.3702     0.07424164              1              1
      7532.0000        13.8931         0.0585       110.0299       100.9999       104.4408       96.73662         0.7997         0.8171        37.5491         1.0599         2.3641       -44.4218     0.02264404              1              1
      7532.5000        13.9007          0.059       109.9219       101.3282       101.4691       93.37801          0.796         0.8153        37.9217         1.0599         2.3664        -44.158      0.2864418              1              1
      7533.0000        13.9002         0.0624       110.0399       102.7042        98.2452       89.73399         0.7919         0.8129        37.6378         1.0573         2.3686       -43.9348      0.5096436              1              1
      7533.5000        13.8997         0.0661       110.4181       102.7838        97.8132       89.24965         0.7873         0.8091         37.442         1.0553         2.3686       -43.7607      0.6837425              1              1
      7534.0000        13.8823         0.0699       110.9182       100.8503       100.4116       92.19491         0.7842         0.8065        37.6678         1.0499         2.3636       -43.6098      0.8346443              1              1
      7534.5000        13.8562         0.0737       111.4677        100.038        101.906       93.89075         0.7825         0.8044        38.3638          1.036         2.3589       -43.6066       0.837841              1              1
