#------------------------------------------------------------------------------
# Created by    : vladimir.rabinovich
# Created on    : 09/19/2023 17:20:24
#------------------------------------------------------------------------------
~Version Information Section
VERS.           2.0     :   CWLS log ASCII Standard - VERSION 2.0
WRAP.           NO      :   One line per depth step
~Well Information Section
#MNEM       .UNIT                                         VALUE :DESCRIPTION
#------------------------------------------------------------------------------
STRT        .FT                                            1590 :START DEPTH
STOP        .FT                                            8991 :STOP DEPTH
STEP        .FT                                             0.5 :STEP      
NULL        .                                           -999.25 :NULL      
COMP        .                                 C & K OFFSHORE CO :COMPANY   
WELL        .                                OCS 00507 ST00BP00 :WELL      
FLD         .                                           WILDCAT :FIELD     
LOC         .                                                   :LOCATION  
CNTY        .                           HIGH ISLAND LARGE BLOCK :LOCATION  
STAT        .                                             TEXAS :STATE     
CTRY        .                                     UNITED STATES :COUNTRY   
SRVC        .                                                   :SERVICE COMPANY
DATE        .                             9/13/2023 11:19:15 AM :LOG DATE  
API         .                                    42708300260000 :API NUMBER
UWI         .                                    42708300260000 :UNIQUE WELL ID
XCOORD      .                                  1287575.74118613 :SURFACE X 
YCOORD      .                                  10681645.7296129 :SURFACE Y 
LAT         .                                         29.428295 :LATITUDE  
LON         .                                        -94.108714 :LONGITUDE 
ELEV        .FT                                              73 :ELEVATION VALUE
ELEV_TYPE   .                                                KB :ELEVATION REFERENCE TYPE
~Curve Information Section
#MNEM       .UNIT                                      API CODE :CURVE DESCRIPTION
#------------------------------------------------------------------------------
DEPT        .FT                                                 :DEPTH     
ASN         .OHMM                                               :          
CALI        .IN                                                 :          
CILD        .MMHO                                               :          
DT          .US/F                                               :          
GR          .GAPI                                               :          
GR_NORM     .GAPI                                               :GammaRay Normalized
ILD         .OHMM                                               :          
SP          .MV                                                 :          
SP_NORM     .MV                                                 :SP Normalized
VSH_GR      .V/V                                                :Volume of Shale from GR
VSH_SP      .V/V                                                :Volume of Shale from SP
~A        DEPTH            ASN           CALI           CILD             DT             GR        GR_NORM            ILD             SP        SP_NORM         VSH_GR         VSH_SP
# ...
      4042.5000         0.5167         9.9356       4682.609       124.7386        39.3843       38.43372         0.1808      -108.0183      -67.76315      0.1156111     0.03195496
      4043.0000         0.5095         9.9417       4719.992        124.632        38.2618       37.02984         0.1812       -107.959       -67.7032     0.08574133     0.03281141
      4043.5000         0.5032         9.9635       4749.688       124.5701        38.6367       37.49771         0.1823      -107.8998      -67.64336     0.09569606     0.03366623
      4044.0000         0.4971         9.9729        4781.75       124.5602        38.9136       37.84309         0.1839      -107.8247      -67.56761      0.1030445     0.03474841
      4044.5000         0.4902         9.9673       4834.117       124.5012        40.1304       39.36333         0.1854      -107.7277      -67.46997      0.1353901     0.03614328
      4045.0000         0.4821         9.9552       4876.594       124.3799        43.9373       44.12121         0.1869      -107.6306      -67.37222      0.2366215     0.03753967
      4045.5000         0.4739         9.9554       4921.273       124.1105         47.835       48.99257         0.1889      -107.5336      -67.27457      0.3402674     0.03893465
      4046.0000          0.468          9.965       4466.867       123.8832        48.0602       49.27332         0.1919      -107.2548      -66.99512      0.3462408     0.04292679
      4046.5000         0.4621         9.9976       4299.148        124.016        47.9063       49.08018         0.1948      -106.7017      -66.44138      0.3421316     0.05083749
      4047.0000         0.4591        10.0886       3608.027       124.8281        50.1026       51.82481         0.1978      -105.4966      -65.23563      0.4005278     0.06806248
      4047.5000         0.4567        10.2247       3280.281       127.0415        53.0511       55.50968         0.2007      -100.3667      -60.10509      0.4789294      0.1413559
      4048.0000         0.4559        10.2979       2573.953       130.0281        56.2206        59.4708         0.2064       -97.8291      -57.56684      0.5632086      0.1776166
      4048.5000         0.4572        10.3115       2180.781       131.6313        59.5519       63.63417         0.2148       -95.9448       -55.6819      0.6517909      0.2045443
      4049.0000         0.4587        10.2921       2028.102       131.4155        68.0282       74.22879         0.2384       -94.2444      -53.98085      0.8772083       0.228845
      4049.5000         0.4729        10.3589        2023.02       130.9504        71.6575       78.76466         0.2701       -92.3005       -52.0363      0.9737163      0.2566243
      4050.0000         0.4872         10.513       2017.938       130.8691        72.3068       79.57554         0.3177       -89.1481      -48.88326      0.9909689      0.3016678
      4050.5000         0.5028        10.7103       2012.859       132.3748         74.077       81.78754         0.3653       -61.4022      -21.13671              1       0.698047
      4051.0000         0.5184        10.9248       2007.777       134.5994        75.4976       83.56253         0.4111       -58.1691      -17.90296              1      0.7442434
      4051.5000         0.5345        11.1211       2002.695        136.583        76.0171       84.21115         0.4357       -54.3546      -14.08781              1      0.7987455
      4052.0000          0.551        11.2052       1836.271       139.3745        76.8395        85.2384         0.4435       -52.8107      -12.54327              1      0.8208105
      4052.5000         0.5674        11.1868       1847.021       140.5837        76.4265       84.72139         0.4493       -51.7505      -11.48242              1      0.8359654
      4053.0000         0.5838        11.1737       1860.426       140.6423        75.6165       83.70815         0.4552       -50.6842      -10.41547              1      0.8512075
      4053.5000         0.6024        11.0383       1969.264       140.0896        77.4242       85.96702         0.4604       -49.5682      -9.298828              1      0.8671596
      4054.0000         0.6171        10.8931       2007.646       137.7087         80.124       89.34101         0.4555       -48.2882      -8.018181              1      0.8854545
      4054.5000         0.6174        10.8349       2043.658        136.717          81.91       91.57276         0.4506       -47.0076      -6.736931              1      0.9037581
      4055.0000         0.6125        10.7061       2058.441       136.4482        85.1456        95.6165          0.445       -45.8549      -5.583588              1      0.9202344
      4055.5000         0.6088        10.7179       2070.973       134.7637        86.4451       97.24011         0.4387       -45.2366      -4.964638              1      0.9290766
      4056.0000         0.6077        10.7071       2079.598       134.0349        87.0387       97.98135         0.4347       -45.2811      -5.008495              1        0.92845
      4056.5000         0.6093        10.7413       2086.973       135.3071        87.5043       98.56261         0.4335       -45.3257      -5.052444              1      0.9278222
      4057.0000         0.6109        11.0642       2093.508       136.5823        87.1201        98.0816         0.4323       -45.4444      -5.170502              1      0.9261357
      4057.5000         0.6125        11.2027        2101.27       137.1301        85.8295        96.4676          0.431       -45.6223      -5.347752              1      0.9236035
      4058.0000          0.614        11.1895       2109.734       138.3208        84.3434       94.60922         0.4298        -45.363      -5.087807              1       0.927317
      4058.5000         0.6155        11.1613       2118.199       139.5898        83.1543       93.12209         0.4277       -45.0932       -4.81736              1      0.9311806
      4059.0000         0.6149         11.193       2129.215       140.0229        83.1296       93.09047         0.4257       -44.8232      -4.546715              1      0.9350469
      4059.5000          0.613        11.2194       2140.563        141.563        84.1835       94.40709         0.4237       -44.4911      -4.213966              1      0.9398005
      4060.0000         0.6111        11.2226       2153.063       143.0496        83.7972       93.92346         0.4216       -44.0259      -3.748123              1      0.9464554
      4060.5000         0.6092        11.2075       2167.859       142.8694        82.3402       92.10146         0.4196       -43.5608      -3.282372              1       0.953109
      4061.0000         0.6074        11.1054       2182.656       141.5261        81.7279       91.33533         0.4176       -43.0661      -2.787029              1      0.9601853
      4061.5000         0.6045         10.829       2198.711       139.6697        81.2982       90.79745         0.4155       -43.5428      -3.263081              1      0.9533846
      4062.0000         0.6013        10.5904       2216.582       138.5059        78.7267       87.58232         0.4124       -44.0194      -3.739037              1      0.9465852
      4062.5000         0.5982        10.5498       2231.953       138.5901        77.5184        86.0712         0.4092       -44.4961      -4.215088              1      0.9397845
      4063.0000         0.5985        10.6676       2246.723       139.4375        76.6604       84.99794         0.4061       -44.9727       -4.69104              1      0.9329851
      4063.5000         0.6031        10.8623       2253.316       140.2749        76.2795       84.52106         0.4029       -45.9885      -5.706192              1       0.918483
      4064.0000         0.6078        10.8573       2250.902       140.4553        76.3506       84.60918         0.3997       -47.0026       -6.71965              1       0.904005
      4064.5000         0.6124        10.7688       2248.938       139.4177        75.7731       83.88656         0.3956       -47.8019      -7.518299              1      0.8925957
