#------------------------------------------------------------------------------
# Created by    : vladimir.rabinovich
# Created on    : 09/19/2023 17:22:26
#------------------------------------------------------------------------------
~Version Information Section
VERS.           2.0     :   CWLS log ASCII Standard - VERSION 2.0
WRAP.           NO      :   One line per depth step
~Well Information Section
#MNEM       .UNIT                                         VALUE :DESCRIPTION
#------------------------------------------------------------------------------
STRT        .FT                                            3450 :START DEPTH
STOP        .FT                                            9344 :STOP DEPTH
STEP        .FT                                             0.5 :STEP      
NULL        .                                           -999.25 :NULL      
COMP        .                                  W&T OFFSHORE INC :COMPANY   
WELL        .                               OCS G04565 ST00BP00 :WELL      
FLD         .                              GALVESTON BLOCK 0303 :FIELD     
LOC         .                                                   :LOCATION  
CNTY        .                             GALVESTON LARGE BLOCK :LOCATION  
STAT        .                                             TEXAS :STATE     
CTRY        .                                     UNITED STATES :COUNTRY   
SRVC        .                                                   :SERVICE COMPANY
DATE        .                             9/13/2023 11:19:39 AM :LOG DATE  
API         .                                    42706403900000 :API NUMBER
UWI         .                                    42706403900000 :UNIQUE WELL ID
XCOORD      .                                  983096.827540607 :SURFACE X 
YCOORD      .                                  10485968.3003259 :SURFACE Y 
LAT         .                                        28.8789082 :LATITUDE  
LON         .                                       -95.0543314 :LONGITUDE 
ELEV        .FT                                              90 :ELEVATION VALUE
ELEV_TYPE   .                                                KB :ELEVATION REFERENCE TYPE
~Curve Information Section
#MNEM       .UNIT                                      API CODE :CURVE DESCRIPTION
#------------------------------------------------------------------------------
DEPT        .FT                                                 :DEPTH     
CDER        .MMHO                                               :          
DCAL        .IN                                                 :          
DPHI        .DEC                                                :          
DRHO        .G/CC                                               :          
DTLN        .US/F                                               :          
GR          .GAPI                                               :          
GR_NORM     .GAPI                                               :GammaRay Normalized
IDER        .OHMM                                               :          
IMER        .OHMM                                               :          
NPOR        .DEC                                                :          
RWA         .OHMM                                               :          
SFLA        .OHMM                                               :          
SP          .MV                                                 :          
SP_NORM     .MV                                                 :SP Normalized
TENS        .LB                                                 :          
VSH_GR      .V/V                                                :Volume of Shale from GR
VSH_SP      .V/V                                                :Volume of Shale from SP
~A        DEPTH           CDER           DCAL           DPHI           DRHO           DTLN             GR        GR_NORM           IDER           IMER           NPOR            RWA           SFLA             SP        SP_NORM           TENS         VSH_GR         VSH_SP
# ...
      6615.0000       1181.474          1.709          0.193         -0.013        113.109           87.6       92.05387          0.846          0.868          0.356          0.082          0.963         -4.028       -1.26089        -999.25              1      0.9819873
      6615.5000       1184.834          1.748          0.193         -0.014        111.977         85.456       89.40543          0.844          0.876          0.349          0.085          0.978           -3.9      -1.131052        -999.25              1      0.9838421
      6616.0000       1154.601            1.7           0.19         -0.014        110.464          81.36       84.35603          0.866          0.893          0.341          0.091          1.013           -3.7     -0.9292145        -999.25              1      0.9867255
      6616.5000       1110.124          1.611          0.187         -0.013        107.326          77.75        79.9044          0.901          0.924          0.346          0.101          1.062         -3.928      -1.155376        -999.25      0.9979659      0.9834946
      6617.0000       1060.558          1.575          0.185         -0.011        105.361           76.2       77.98657          0.943          0.965           0.38          0.111          1.099         -4.329      -1.554539        -999.25      0.9571611      0.9777923
      6617.5000       1011.225          1.548          0.186         -0.009        106.811          77.15       79.14375          0.989          1.011          0.395          0.116          1.117         -4.629      -1.852701        -999.25      0.9817818      0.9735329
      6618.0000         979.72          1.529          0.183         -0.008        110.513             80       82.63792          1.021          1.036          0.385           0.11          1.106         -4.571      -1.792863        -999.25              1      0.9743876
      6618.5000        963.206          1.447          0.182         -0.008        113.696         83.268       86.64623          1.038          1.028          0.373          0.102          1.067         -4.243      -1.463025        -999.25              1      0.9790996
      6619.0000       1041.992          1.301          0.187         -0.009        115.468         86.995       91.21912           0.96          0.928          0.377          0.102          1.018           -3.9      -1.118187        -999.25              1      0.9840259
      6619.5000       1152.738          1.195          0.198         -0.009        114.216         86.463       90.55342          0.868          0.876          0.408          0.111          0.996           -3.7     -0.9163492        -999.25              1      0.9869093
      6620.0000       1184.974          1.107          0.202         -0.009        111.568           79.8       82.34662          0.844          0.881          0.432          0.119          0.983           -3.5     -0.7145112        -999.25              1      0.9897927
      6620.5000       1137.268          1.046          0.196         -0.007        108.981          73.83        74.9922          0.879          0.941          0.421           0.12          1.001           -3.7     -0.9126732        -999.25       0.893451      0.9869618
      6621.0000       1052.853          1.061          0.183         -0.005        106.401         73.999       75.18874           0.95          1.008            0.4          0.119          1.019         -3.824      -1.034835        -999.25      0.8976327      0.9852166
      6621.5000        983.478          1.042          0.177         -0.005        105.948         76.543       78.30653          1.017          1.082          0.394          0.112          1.057           -3.9      -1.108998        -999.25      0.9639688      0.9841572
      6622.0000        932.923          0.982          0.179         -0.006        107.023           78.8       81.07131          1.072          1.119          0.379          0.108          1.098           -3.9       -1.10716        -999.25              1      0.9841834
      6622.5000        906.372          0.945          0.182         -0.007        108.105           79.5       81.92099          1.103          1.122           0.36          0.106          1.136           -3.9      -1.105322        -999.25              1      0.9842097
      6623.0000        900.576          0.927          0.187         -0.006        108.922         79.925       82.43242           1.11          1.111          0.364          0.113          1.154           -3.9      -1.103484        -999.25              1      0.9842359
      6623.5000        910.498          0.921          0.189         -0.004        108.685         81.902       84.85279          1.098          1.089          0.382          0.119          1.144           -4.1      -1.301646        -999.25              1      0.9814051
      6624.0000        927.042          0.904          0.189         -0.003        107.854         82.796       85.94108          1.079          1.065           0.39          0.121          1.118           -4.3      -1.499808        -999.25              1      0.9785742
      6624.5000        960.154          0.881          0.188         -0.001         108.78         80.951        83.6604          1.041          1.038          0.388          0.116          1.094           -4.1       -1.29797        -999.25              1      0.9814576
      6625.0000        989.609          0.835          0.188          0.001        109.977         77.999       80.01812           1.01           1.01          0.385           0.11          1.071           -3.9      -1.096132        -999.25              1       0.984341
      6625.5000       1010.714          0.774          0.194          0.003        110.959         74.901       76.19627          0.989          0.979          0.385           0.11          1.067           -3.9      -1.094294        -999.25      0.9190695      0.9843673
      6626.0000       1029.972          0.765          0.202          0.003        110.461         71.549       72.06199          0.971           0.97          0.385          0.113          1.064          -4.22      -1.412456        -999.25      0.8311061       0.979822
      6626.5000       1021.972          0.725          0.208          0.001        109.294          69.07       69.00148          0.979          0.981          0.378          0.113          1.062          -4.62      -1.810618        -999.25      0.7659889       0.974134
      6627.0000       1013.993          0.665          0.208         -0.001        108.341         70.569       70.83393          0.986          1.013          0.358          0.115          1.066          -4.68       -1.86878        -999.25      0.8049772      0.9733031
      6627.5000        992.556          0.607          0.207         -0.004        108.629         76.298       77.86927          1.008          1.049          0.363          0.127          1.069           -4.3      -1.486943        -999.25      0.9546653       0.978758
      6628.0000        966.557          0.562           0.21         -0.005        109.647         82.982       86.07926          1.035          1.063          0.385           0.14           1.07           -4.1      -1.285105        -999.25              1      0.9816414
      6628.5000        960.338          0.528          0.215         -0.006        110.756         85.025       88.58083          1.041          1.042          0.403          0.141          1.056           -3.9      -1.083267        -999.25              1      0.9845248
      6629.0000        965.158          0.496          0.218         -0.006        111.561         85.362       88.98401          1.036          0.983            0.4          0.135          1.042           -3.9      -1.081429        -999.25              1       0.984551
      6629.5000       1010.611            0.5          0.222         -0.008        111.913           85.5       89.14243          0.989          0.938          0.404          0.127          1.033           -3.9      -1.079591        -999.25              1      0.9845773
