#------------------------------------------------------------------------------
# Created by    : vladimir.rabinovich
# Created on    : 09/19/2023 17:22:52
#------------------------------------------------------------------------------
~Version Information Section
VERS.           2.0     :   CWLS log ASCII Standard - VERSION 2.0
WRAP.           NO      :   One line per depth step
~Well Information Section
#MNEM       .UNIT                                         VALUE :DESCRIPTION
#------------------------------------------------------------------------------
STRT        .FT                                            1126 :START DEPTH
STOP        .FT                                            9906 :STOP DEPTH
STEP        .FT                                             0.5 :STEP      
NULL        .                                           -999.25 :NULL      
COMP        .                                        EXXON CORP :COMPANY   
WELL        .                               OCS G06053 ST00BP00 :WELL      
FLD         .                                           WILDCAT :FIELD     
LOC         .                                                   :LOCATION  
CNTY        .                      MATAGORDA ISLAND LARGE BLOCK :LOCATION  
STAT        .                                             TEXAS :STATE     
CTRY        .                                     UNITED STATES :COUNTRY   
SRVC        .                                                   :SERVICE COMPANY
DATE        .                             9/13/2023 11:12:11 AM :LOG DATE  
API         .                                    42703402640000 :API NUMBER
UWI         .                                    42703402640000 :UNIQUE WELL ID
XCOORD      .                                  440255.018680432 :SURFACE X 
YCOORD      .                                  10152284.9344853 :SURFACE Y 
LAT         .                                         27.926249 :LATITUDE  
LON         .                                        -96.716438 :LONGITUDE 
ELEV        .FT                                              94 :ELEVATION VALUE
ELEV_TYPE   .                                                KB :ELEVATION REFERENCE TYPE
~Curve Information Section
#MNEM       .UNIT                                      API CODE :CURVE DESCRIPTION
#------------------------------------------------------------------------------
DEPT        .FT                                                 :DEPTH     
GR          .GAPI                                               :          
GR_NORM     .GAPI                                               :GammaRay Normalized
ILD         .OHMM                                               :          
SP          .MV                                                 :          
SP_NORM     .MV                                                 :SP Normalized
VSH_GR      .V/V                                                :Volume of Shale from GR
VSH_SP      .V/V                                                :Volume of Shale from SP
~A        DEPTH             GR        GR_NORM            ILD             SP        SP_NORM         VSH_GR         VSH_SP
# ...
      2298.5000        55.2982        80.9262         0.8846       -52.6487       7.121414              1              1
      2299.0000        53.8421       78.81496         0.9275       -52.6893       7.080814      0.9747863              1
      2299.5000        51.4596       75.36089         0.9467       -52.7324       7.037716      0.9012956              1
      2300.0000        48.8135       71.52472          0.951       -52.7748       6.995316      0.8196748              1
      2300.5000        47.4357       69.52698         0.9407       -53.0091       6.761013      0.7771698              1
      2301.0000        47.3996       69.47411         0.9068       -53.5032       6.266914      0.7760448              1
      2301.5000        48.2964       70.77353         0.8667       -55.0142       4.755917      0.8036921              1
      2302.0000        49.2324       72.12978         0.8091       -58.3311       1.439014      0.8325486              1
      2302.5000        47.4736       69.57977         0.7394       -63.2344      -3.464287       0.778293      0.9315476
      2303.0000        45.6072       66.87379         0.6727       -65.0383      -5.268185       0.720719      0.8814393
      2303.5000        44.1555       64.76895         0.6219       -66.3226      -6.552486      0.6759351      0.8457643
      2304.0000        41.9319        61.5452         0.5919       -67.0261      -7.255985      0.6073446      0.8262227
      2304.5000        39.0626       57.38548         0.5732       -66.8802      -7.110088        0.51884      0.8302753
      2305.0000        37.6326       55.31209         0.5625       -65.8881      -6.117985      0.4747254      0.8578337
      2305.5000        37.8494       55.62582         0.5568       -64.9802      -5.210087      0.4814003      0.8830531
      2306.0000        40.4373       59.37658         0.5559       -64.5968      -4.826687      0.5612038      0.8937032
      2306.5000        42.8137       62.82073         0.5539       -64.9678      -5.197681      0.6344836      0.8833978
      2307.0000        43.3461       63.59195         0.5511       -65.0533      -5.283184      0.6508926      0.8810227
      2307.5000        42.7233       62.68864         0.5474       -64.7299      -4.959782      0.6316732      0.8900061
      2308.0000         43.799       64.24736         0.5402       -66.5134      -6.743282      0.6648375      0.8404644
      2308.5000        44.9883       65.97079         0.5351        -68.403      -8.632885      0.7015061      0.7879754
      2309.0000        44.7847       65.67513         0.5335       -69.4738      -9.703686      0.6952154      0.7582309
      2309.5000        41.8683       61.44712         0.5329        -68.839      -9.068882      0.6052579      0.7758644
      2310.0000        38.3856       56.39825         0.5363       -67.2705      -7.500385      0.4978352      0.8194337
      2310.5000        40.7921       59.88605         0.5379       -64.9528      -5.182682      0.5720435      0.8838144
      2311.0000        44.5958       65.39916         0.5368        -63.238      -3.467884      0.6893439      0.9314477
      2311.5000        48.6184       71.22958         0.4976       -67.0834      -7.313282      0.8133954       0.824631
      2312.0000        52.0552       76.21085          0.457       -79.5635      -19.79338      0.9193799      0.4779615
      2312.5000        50.7172       74.27084         0.4186       -84.3383      -24.56819      0.8781029      0.3453281
      2313.0000        42.9691       63.03904         0.3782       -87.6332      -27.86309      0.6391286      0.2538031
      2313.5000        35.7041       52.50754         0.3462       -90.1252      -30.35508       0.415054       0.184581
      2314.0000        29.6524       43.73475         0.3221       -92.0375      -32.26738       0.228399      0.1314616
      2314.5000        25.6725       37.96517         0.3057       -93.5125      -33.74238      0.1056419     0.09048939
      2315.0000        24.4233       36.15385         0.2941        -94.519      -34.74888     0.06710328     0.06253105
      2315.5000        24.2938       35.96561         0.2887       -94.6469      -34.87678     0.06309801     0.05897829
      2316.0000        24.3434       36.03696          0.286       -94.6355      -34.86538     0.06461626     0.05929491
      2316.5000        24.5813       36.38128         0.2842       -90.9917      -31.22158     0.07194211      0.1605116
      2317.0000        25.2041       37.28353         0.2852       -86.6938      -26.92369     0.09113888      0.2798976
      2317.5000        26.9898       39.87145         0.2891       -84.1854      -24.41529       0.146201      0.3495754
      2318.0000        29.4482       43.43449         0.2989        -82.311      -22.54088      0.2220103      0.4016422
      2318.5000        31.8466       46.91055         0.3133       -81.2469      -21.47679      0.2959691      0.4312004
      2319.0000        33.2357       48.92357         0.3327       -80.7827      -21.01258      0.3387994      0.4440949
      2319.5000        32.3584       47.65136         0.3558       -80.2863      -20.51619       0.311731      0.4578837
      2320.0000         31.542       46.46741         0.3834       -77.3754      -17.60528      0.2865407      0.5387422
      2320.5000        33.7215       49.62617         0.4105       -74.3324      -14.56228      0.3537482      0.6232699
      2321.0000        37.0666       54.47451         0.4372       -72.3223      -12.55219      0.4569046      0.6791059
      2321.5000         40.622        59.6277         0.4647       -71.1567      -11.38659      0.5665468      0.7114837
      2322.0000        43.1685       63.31844         0.4903       -71.4735      -11.70339      0.6450731      0.7026837
      2322.5000         44.811        65.6988          0.504       -73.5294      -13.75929      0.6957191      0.6455753
      2323.0000        44.1512       64.74184         0.5153       -76.8837      -17.11358      0.6753584      0.5524005
      2323.5000         41.609       61.05626           0.52       -80.8147      -21.04458      0.5969417       0.443206
      2324.0000        40.2214       59.04433         0.5168       -84.8862      -25.11609      0.5541348      0.3301088
      2324.5000        39.2443       57.62745         0.4959       -88.5725      -28.80239      0.5239884      0.2277115
      2325.0000        38.1735       56.07474         0.4571       -90.9915      -31.22139      0.4909519      0.1605171
      2325.5000        36.5082       53.66027         0.4169       -91.3853      -31.61518      0.4395802      0.1495782
      2326.0000        33.9294       49.92164         0.3801       -90.6688      -30.89869      0.3600349       0.169481
      2326.5000        30.0792       44.34005         0.3465        -89.754      -29.98388      0.2412776      0.1948921
      2327.0000        27.4331       40.50387         0.3245       -88.6652      -28.89508      0.1596568      0.2251365
      2327.5000        28.1496       41.54193          0.308        -88.752      -28.98188      0.1817431      0.2227255
      2328.0000        28.3783       41.87291         0.2969       -89.5825      -29.81238      0.1887852      0.1996561
      2328.5000         27.749       40.96016         0.2912       -90.0709      -30.30079      0.1693652      0.1860893
      2329.0000         26.691       39.42601         0.2894       -89.8378      -30.06768      0.1367237      0.1925643
      2329.5000        25.6062       37.85301         0.2906       -88.7291      -28.95899      0.1032555      0.2233614
      2330.0000        26.0884       38.55144         0.2936       -87.4052      -27.63508      0.1181158      0.2601366
      2330.5000        28.6299       42.23493         0.3013       -85.8701      -26.09999      0.1964879      0.3027781
      2331.0000        31.8233       46.86339         0.3198       -84.1328      -24.36268      0.2949657      0.3510366
      2331.5000        34.1239       50.19769         0.3453       -81.0691      -21.29898      0.3659084      0.4361393
