#------------------------------------------------------------------------------
# Created by    : vladimir.rabinovich
# Created on    : 09/19/2023 17:19:49
#------------------------------------------------------------------------------
~Version Information Section
VERS.           2.0     :   CWLS log ASCII Standard - VERSION 2.0
WRAP.           NO      :   One line per depth step
~Well Information Section
#MNEM       .UNIT                                         VALUE :DESCRIPTION
#------------------------------------------------------------------------------
STRT        .FT                                             790 :START DEPTH
STOP        .FT                                           12500 :STOP DEPTH
STEP        .FT                                             0.5 :STEP      
NULL        .                                           -999.25 :NULL      
COMP        .                                 CHEVRON U S A INC :COMPANY   
WELL        .                               OCS G04596 ST00BP00 :WELL      
FLD         .                                           WILDCAT :FIELD     
LOC         .                                                   :LOCATION  
CNTY        .                        MUSTANG ISLAND LARGE BLOCK :LOCATION  
STAT        .                                             TEXAS :STATE     
CTRY        .                                     UNITED STATES :COUNTRY   
SRVC        .                                                   :SERVICE COMPANY
DATE        .                             9/13/2023 11:19:13 AM :LOG DATE  
API         .                                    42702401310000 :API NUMBER
UWI         .                                    42702401310000 :UNIQUE WELL ID
XCOORD      .                                  486632.184756912 :SURFACE X 
YCOORD      .                                  10088502.2555927 :SURFACE Y 
LAT         .                                          27.75488 :LATITUDE  
LON         .                                        -96.567316 :LONGITUDE 
ELEV        .FT                                              90 :ELEVATION VALUE
ELEV_TYPE   .                                                KB :ELEVATION REFERENCE TYPE
~Curve Information Section
#MNEM       .UNIT                                      API CODE :CURVE DESCRIPTION
#------------------------------------------------------------------------------
DEPT        .FT                                                 :DEPTH     
ASFL        .OHMM                                               :          
CILD        .MMHO                                               :          
GR          .GAPI                                               :          
GR_NORM     .GAPI                                               :GammaRay Normalized
ILD         .OHMM                                               :          
SP          .MV                                                 :          
SP_NORM     .MV                                                 :SP Normalized
VSH_GR      .V/V                                                :Volume of Shale from GR
VSH_SP      .V/V                                                :Volume of Shale from SP
~A        DEPTH           ASFL           CILD             GR        GR_NORM            ILD             SP        SP_NORM         VSH_GR         VSH_SP
# ...
      1002.0000         0.7027       2118.262        48.6504       62.99241         0.4728       -99.4034     0.01180267      0.6381363              1
      1002.5000         0.6411       2136.539        47.8172        61.1657         0.4684       -98.7363      0.6789017      0.5992703              1
      1003.0000         0.5952       2154.816        46.8588       59.07596         0.4622       -98.1548       1.260399      0.5548077              1
      1003.5000         0.5793       2170.367        49.3707       64.27796         0.4559       -97.5636       1.851601      0.6654885              1
      1004.0000         0.5652       2177.746        52.0266       69.78255         0.4497       -96.9447       2.470497      0.7826074              1
      1004.5000         0.5522       2172.781        53.4711       72.74174         0.4435       -96.6859       2.729301       0.845569              1
      1005.0000          0.541       2154.453        54.5731       74.98128         0.4373       -97.6133       1.801903      0.8932187              1
      1005.5000         0.5334        2126.77         55.178       76.17633         0.4352       -98.5406      0.8745956      0.9186453              1
      1006.0000         0.5308       2099.086        54.9403       75.60088         0.4452       -99.4138    0.001396179      0.9064018              1
      1006.5000         0.5288       2071.398        54.7026       75.86823         0.4552       -99.9336     -0.5184021      0.9120899              1
      1007.0000          0.534       2043.723        54.7145       75.82588         0.4652      -100.4534        -1.0382       0.911189      0.9961799
      1007.5000         0.5391       1975.861        55.0977       76.43153         0.4751      -100.8718      -1.456604       0.924075      0.9543396
      1008.0000         0.5443       1911.947        56.2476       78.37527         0.4851      -101.0797      -1.664497      0.9654312      0.9335502
      1008.5000         0.5495       1853.045        57.3974       80.31882         0.4951      -101.2876      -1.872398              1      0.9127601
      1009.0000         0.5552        1792.48        58.3427       81.90546         0.5051      -101.4955      -2.080299              1        0.89197
      1009.5000         0.5643       1742.865        56.4657       78.56659         0.5157      -101.7228      -2.307602      0.9695019      0.8692398
      1010.0000         0.5734       1706.861        53.0961        72.6228         0.5269      -101.9585      -2.543304      0.8430384      0.8456696
      1010.5000         0.5818       1671.346        50.0264        67.2024          0.538      -102.1941        -2.7789      0.7277107        0.82211
      1011.0000         0.5846       1666.855        48.9581       65.27488         0.5492       -101.698      -2.282799      0.6866996      0.8717201
      1011.5000         0.5874       1724.078        48.6241       64.62888         0.5523      -101.0542         -1.639      0.6729548         0.9361
      1012.0000         0.5819       1792.146        48.0839       63.62302         0.5473       -99.7158     -0.3005981      0.6515535              1
      1012.5000         0.5626       1956.105        46.1441       60.17452         0.5422       -98.1752       1.239998      0.5781813              1
      1013.0000          0.544        2060.07        40.7795       50.74904          0.535       -97.2208       2.194397      0.3776391              1
      1013.5000         0.5253       2164.934        39.3384       48.18554         0.5182       -97.0671       2.348099      0.3230967              1
      1014.0000         0.5088       2270.574        38.3214       46.36572         0.5014        -96.978       2.437202      0.2843769              1
      1014.5000         0.4948       2366.156        38.1298       45.98639         0.4846       -96.9619         2.4533      0.2763061              1
      1015.0000         0.4807        2423.82        39.8701       48.97865         0.4678       -96.9128       2.502396      0.3399712              1
      1015.5000         0.4742       2449.699        42.1007       52.82659          0.451        -96.798       2.617203      0.4218424              1
      1016.0000         0.4695       2468.379        44.7762       57.45099         0.4447        -96.683       2.732201      0.5202338              1
      1016.5000         0.4656       2462.801        47.0526       61.37885          0.439       -96.1888       3.226402      0.6038053              1
      1017.0000         0.4687       2425.406        49.2363       65.14495         0.4333       -95.6908       3.724396      0.6839351              1
      1017.5000         0.4719       2365.152        50.7127       67.67664         0.4276       -95.1927       4.222496      0.7378008              1
      1018.0000          0.475       2304.898        52.0934       70.04132         0.4218       -94.7494       4.665802      0.7881132              1
      1018.5000         0.4783       2255.016        52.6438       70.95695         0.4343       -94.6396       4.775597      0.8075948              1
      1019.0000         0.4824       2208.309        52.6261        70.8811         0.4488       -94.9174       4.497803      0.8059809              1
      1019.5000         0.4865       2158.645        52.5422       70.68972         0.4633       -95.1949       4.220299      0.8019089              1
      1020.0000         0.4906       2087.254        54.5597        74.1658         0.4778       -95.4727       3.942497      0.8758681              1
      1020.5000         0.4947       2027.578        56.5565       77.60567         0.4923       -95.7502       3.665001      0.9490569              1
      1021.0000         0.4945       1981.938        58.3559       80.70109         0.5068        -96.028       3.387199              1              1
      1021.5000         0.4919       1936.297        58.7634       81.36734         0.5213       -96.3397         3.0755              1              1
      1022.0000         0.5005       1896.906        57.7062       79.47732         0.5358       -96.6676       2.747597      0.9888791              1
      1022.5000           0.52       1861.533        56.7224       77.71546         0.5503       -97.0117       2.403496      0.9513928              1
      1023.0000         0.5722        1826.16         55.741       75.95776         0.5648       -97.9865       1.428696       0.913995              1
      1023.5000         0.6015       1801.148        54.7595       74.19989         0.5777       -99.3204     0.09480286      0.8765934              1
      1024.0000         0.6295        1778.91        54.1777        73.1396         0.5866       -99.6969     -0.2817001      0.8540339              1
      1024.5000         0.6576       1756.674         53.663       72.19638         0.5955       -99.9823     -0.5671005      0.8339655              1
      1025.0000         0.6824       1764.297        54.5869       73.76386         0.6044      -100.0981     -0.6828995      0.8673162              1
      1025.5000         0.6923       1779.225        55.5182       75.34422         0.6133       -99.8044     -0.3891983      0.9009408              1
      1026.0000         0.6522       1825.361         56.464       76.94991         0.6086       -99.2585      0.1567001      0.9351044              1
      1026.5000         0.6245       1875.861          55.71       75.58908         0.5942       -98.7126      0.7025986      0.9061506              1
      1027.0000         0.5943        1927.15        53.4125       71.53451         0.5798       -98.1667       1.248497      0.8198832              1
      1027.5000         0.5592       1988.088        51.3101       67.82042         0.5654       -97.3284         2.0868        0.74086              1
      1028.0000         0.5318       2050.262        49.4158       64.46951         0.5509       -96.0225         3.3927      0.6695639              1
