#------------------------------------------------------------------------------
# Created by    : vladimir.rabinovich
# Created on    : 09/19/2023 17:19:40
#------------------------------------------------------------------------------
~Version Information Section
VERS.           2.0     :   CWLS log ASCII Standard - VERSION 2.0
WRAP.           NO      :   One line per depth step
~Well Information Section
#MNEM       .UNIT                                         VALUE :DESCRIPTION
#------------------------------------------------------------------------------
STRT        .FT                                             305 :START DEPTH
STOP        .FT                                          9892.5 :STOP DEPTH
STEP        .FT                                             0.5 :STEP      
NULL        .                                           -999.25 :NULL      
COMP        .                         ATLANTIC RICHFIELD CO THE :COMPANY   
WELL        .                               OCS G07247 ST00BP00 :WELL      
FLD         .                                           WILDCAT :FIELD     
LOC         .                                                   :LOCATION  
CNTY        .                             GALVESTON LARGE BLOCK :LOCATION  
STAT        .                                             TEXAS :STATE     
CTRY        .                                     UNITED STATES :COUNTRY   
SRVC        .                                                   :SERVICE COMPANY
DATE        .                             9/13/2023 11:19:27 AM :LOG DATE  
API         .                                    42706401220000 :API NUMBER
UWI         .                                    42706401220000 :UNIQUE WELL ID
XCOORD      .                                  995038.545578968 :SURFACE X 
YCOORD      .                                  10445559.0196594 :SURFACE Y 
LAT         .                                         28.768363 :LATITUDE  
LON         .                                        -95.014888 :LONGITUDE 
ELEV        .FT                                              98 :ELEVATION VALUE
ELEV_TYPE   .                                                KB :ELEVATION REFERENCE TYPE
~Curve Information Section
#MNEM       .UNIT                                      API CODE :CURVE DESCRIPTION
#------------------------------------------------------------------------------
DEPT        .FT                                                 :DEPTH     
ALL         .OHMM                                               :          
CILD        .MMHO                                               :          
GR          .GAPI                                               :          
GR_NORM     .GAPI                                               :GammaRay Normalized
ILD         .OHMM                                               :          
SP          .MV                                                 :          
VSH_GR      .V/V                                                :Volume of Shale from GR
~A        DEPTH            ALL           CILD             GR        GR_NORM            ILD             SP         VSH_GR
# ...
      6703.5000         0.7965       4285.586        29.2545        34.2448         0.2657       126.8429     0.02648504
      6704.0000         0.8088       4193.094        29.3631       34.41719         0.2683       126.8745     0.03015291
      6704.5000          0.816       4142.195        29.4715       34.58924         0.2709        126.906     0.03381372
      6705.0000         0.8199        4110.18        29.5801       34.76162         0.2735       126.9375     0.03748135
      6705.5000         0.8238       4088.328        29.6887       34.93401         0.2761       126.9752     0.04114914
      6706.0000         0.8273       4096.953        29.7972       35.10623         0.2744       127.2045     0.04481344
      6706.5000         0.8264       4167.688        29.8888       35.25162         0.2719       127.4341     0.04790683
      6707.0000         0.8256       4250.508        29.9354       35.32559         0.2693       127.6633     0.04948068
      6707.5000         0.8247       4343.195        29.9819        35.3994         0.2668       127.9756     0.05105112
      6708.0000         0.8238       4532.305        30.0285       35.47337         0.2643       128.3188     0.05262497
      6708.5000         0.8189       4862.898        30.0751       35.54734         0.2618       128.6621     0.05419873
      6709.0000          0.813       4927.305        30.1216       35.62115         0.2546       129.0051     0.05576917
      6709.5000         0.8062       5078.461        30.1682       35.69512         0.2463       129.2527     0.05734302
      6710.0000         0.7884       5201.055        30.1958       35.73893          0.238       128.1821      0.0582751
      6710.5000         0.7694       5271.703        30.1772       35.70941         0.2297       127.2604     0.05764697
      6711.0000         0.7441       5304.148        30.1585       35.67973         0.2214       126.6418     0.05701544
      6711.5000         0.7218       5336.594        30.1399        35.6502         0.2225       126.0234     0.05638723
      6712.0000         0.7015       5362.461        30.1339       35.64067          0.227       125.9218     0.05618457
      6712.5000         0.6851       5377.188        30.1362       35.64433         0.2314       125.9392     0.05626224
      6713.0000         0.6729       5303.523        30.1385       35.64798         0.2359       125.9568     0.05633991
      6713.5000         0.6613       4967.664        30.1409       35.65178         0.2487            126     0.05642091
      6714.0000         0.6848       4707.328        30.1432       35.65544          0.272        126.098     0.05649867
      6714.5000         0.7527           4447        30.0278       35.47226         0.2952       126.1962     0.05260127
      6715.0000         0.8021       4186.672        29.8738       35.22781         0.3185       126.2942     0.04740029
      6715.5000         0.8515       3888.043        29.7199       34.98353         0.3418       126.3922     0.04220273
      6716.0000         0.9009       3648.992        29.5661        34.7394         0.3642       126.4902     0.03700857
      6716.5000         0.9503        3409.75        29.4121       34.49496         0.3819       126.5516     0.03180759
      6717.0000         0.9997       3170.695        29.1891       34.14099         0.3927       126.5289     0.02427641
      6717.5000         1.1468       2723.266        28.8174       33.55099         0.3769       126.5062     0.01172329
      6718.0000         1.0524       3033.055        28.4458       32.96115         0.3602       126.4835              0
      6718.5000         0.9216       3342.461        28.0741       32.37115         0.3405       126.4301              0
      6719.0000         0.7907        3652.25        27.7024       31.78115         0.3208       125.5829              0
      6719.5000         0.6639       3798.617        27.6424       31.68591         0.3011       123.4868              0
      6720.0000         0.6266         3953.5        28.7224        33.4002         0.2815       114.6486    0.008514891
      6720.5000         0.6342         4346.5        31.9565        38.5337         0.2618       108.5424      0.1177382
      6721.0000         0.6471         4739.5        37.4352       47.23004         0.2669       103.2278      0.3027668
      6721.5000           0.66       4964.977        38.8869       49.53433         0.2721        96.0162      0.3517942
      6722.0000         0.6729       4601.898        38.7385       49.29877         0.2773        92.6132      0.3467824
      6722.5000         0.6831       4239.195        38.1068       48.29607         0.2822        90.1296      0.3254484
      6723.0000         0.6887        4051.75        36.2284       45.31449         0.2863        88.8167      0.2620104
      6723.5000         0.6943        3883.75        33.9211        41.6521         0.2904        90.1489      0.1840873
      6724.0000         0.6999        3715.75        32.6293       39.60163         0.2945        93.0573      0.1404602
      6724.5000         0.7118        3547.75        32.1031       38.76639         0.2986        97.5175      0.1226892
      6725.0000         0.7429       3651.676         31.577       37.93131         0.3027       105.9502      0.1049215
      6725.5000         0.8119           3946        31.0503       37.09528         0.3068       110.0532     0.08713353
      6726.0000         0.8557        4148.18        30.5241       36.26004         0.3109       118.5778     0.06936248
      6726.5000         0.8822       4151.742         29.998       35.42496          0.315       120.1948     0.05159483
      6727.0000         0.9145       4152.039        29.6462       34.86655         0.3191        121.171     0.03971376
      6727.5000          0.968       4146.742        29.3599        34.4121         0.3232       122.1473     0.03004472
      6728.0000         1.0175        4008.75        29.5804       34.76211          0.332       122.9993     0.03749166
      6728.5000         1.0389         3790.5        30.1573       35.67782          0.341       123.4343     0.05697486
      6729.0000         1.0315         3572.5        30.7347       36.59432         0.3501       123.8688     0.07647494
      6729.5000         1.0242       3224.758        31.5547       37.89591         0.3591       124.3038      0.1041683
      6730.0000         1.0169       2855.922        32.6226       39.59099         0.3681        114.079      0.1402339
      6730.5000         0.9759       2486.707        33.6906       41.28623         0.3772       102.2576      0.1763028
      6731.0000         0.9058       2082.598        39.4529       50.43274         0.3862       100.1819      0.3709093
      6731.5000         0.8816       2244.109        40.9312       52.77925         0.3961        96.6219       0.420835
      6732.0000         0.8574       2311.777        42.0884       54.61607         0.4063        96.3589      0.4599163
      6732.5000         0.8112       2379.352        42.8209       55.77876         0.4165       100.3123      0.4846545
      6733.0000         0.7486       2456.129        43.2336       56.43385         0.4267       108.2865      0.4985926
      6733.5000         0.7144       2546.902        43.6464       57.08908         0.4368       102.1755      0.5125336
      6734.0000         0.6934       2726.668        44.0615       57.74797         0.4467        93.2166      0.5265526
      6734.5000         0.6845       2782.309        44.5013       58.44607         0.4514        80.2029      0.5414058
      6735.0000         0.6958       2599.809        44.9412       59.14432         0.4561        74.3573      0.5562621
      6735.5000          0.707        2379.93         45.381       59.84242         0.4608        67.5658      0.5711154
      6736.0000         0.7182       2267.688        45.8523       60.59052         0.4655         61.684      0.5870323
      6736.5000         0.7294       1994.418        47.2618       62.82782         0.4845        59.0111      0.6346344
