#------------------------------------------------------------------------------
# Created by    : vladimir.rabinovich
# Created on    : 09/19/2023 17:21:03
#------------------------------------------------------------------------------
~Version Information Section
VERS.           2.0     :   CWLS log ASCII Standard - VERSION 2.0
WRAP.           NO      :   One line per depth step
~Well Information Section
#MNEM       .UNIT                                         VALUE :DESCRIPTION
#------------------------------------------------------------------------------
STRT        .FT                                          2542.5 :START DEPTH
STOP        .FT                                            8214 :STOP DEPTH
STEP        .FT                                             0.5 :STEP      
NULL        .                                           -999.25 :NULL      
COMP        .                          SEAGULL ENERGY E & P INC :COMPANY   
WELL        .                               OCS G12505 ST00BP00 :WELL      
FLD         .                              GALVESTON BLOCK 0357 :FIELD     
LOC         .                                                   :LOCATION  
CNTY        .                             GALVESTON LARGE BLOCK :LOCATION  
STAT        .                                             TEXAS :STATE     
CTRY        .                                     UNITED STATES :COUNTRY   
SRVC        .                                                   :SERVICE COMPANY
DATE        .                             9/13/2023 11:19:54 AM :LOG DATE  
API         .                                    42706403610000 :API NUMBER
UWI         .                                    42706403610000 :UNIQUE WELL ID
XCOORD      .                                  1003713.76055251 :SURFACE X 
YCOORD      .                                  10412171.7759297 :SURFACE Y 
LAT         .                                          28.67696 :LATITUDE  
LON         .                                        -94.986081 :LONGITUDE 
ELEV        .FT                                              96 :ELEVATION VALUE
ELEV_TYPE   .                                                KB :ELEVATION REFERENCE TYPE
~Curve Information Section
#MNEM       .UNIT                                      API CODE :CURVE DESCRIPTION
#------------------------------------------------------------------------------
DEPT        .FT                                                 :DEPTH     
AT10        .OHMM                                               :          
AT20        .OHMM                                               :          
AT30        .OHMM                                               :          
AT60        .OHMM                                               :          
AT90        .OHMM                                               :          
DCAL        .IN                                                 :          
DPSS        .V/V                                                :          
DTLF        .US/FT                                              :          
DTLN        .US/FT                                              :          
GR          .GAPI                                               :          
GR_NORM     .GAPI                                               :GammaRay Normalized
NPSS        .V/V                                                :Neutron Porosity Sandstone
SP          .MV                                                 :          
SP_NORM     .MV                                                 :SP Normalized
TENS        .LB                                                 :          
VSH_GR      .V/V                                                :Volume of Shale from GR
VSH_SP      .V/V                                                :Volume of Shale from SP
~A        DEPTH           AT10           AT20           AT30           AT60           AT90           DCAL           DPSS           DTLF           DTLN             GR        GR_NORM           NPSS             SP        SP_NORM           TENS         VSH_GR         VSH_SP
# ...
      6367.5000         0.9222         0.8569         0.7929         0.7384         0.7254           1.64         0.0009            100          100.6           75.2       63.95428          0.321           -7.4      -11.28607       3298.039      0.6586018      0.8387704
      6368.0000         0.9297         0.8653         0.8079         0.7384         0.7254           1.68         0.0009           99.8          100.4           73.8       62.27429         0.3163           -6.2      -10.08193       3302.745      0.6228573      0.8559725
      6368.5000         0.9073         0.8402         0.8079         0.7254         0.7126           1.72          0.001           99.8          100.4           76.4       65.39429         0.3187             -5      -8.877779       3306.667      0.6892403      0.8731746
      6369.0000         0.9073         0.8079            0.8         0.7126            0.7           1.72         0.0023          100.6          101.2           79.8       69.47429         0.3364             -4      -7.873632       3310.588      0.7760487      0.8875195
      6369.5000         0.9073         0.8079         0.7789         0.7126            0.7           1.76         0.0263          101.4            102           80.4       70.19429         0.3576           -4.2      -8.069485        3314.51      0.7913679      0.8847216
      6370.0000         0.9147            0.8         0.7584         0.7063         0.6933           1.72         0.0804            102          102.6           77.4       66.59429         0.3553           -8.4      -12.26534       3318.431      0.7147722      0.8247809
      6370.5000         0.8912         0.7789         0.7254         0.6735         0.6607         1.6788         0.1404          102.4            103             74       62.51429         0.3447          -14.6      -18.46119           3320      0.6279636      0.7362687
      6371.0000         0.8739         0.7584         0.6933         0.6419         0.6296         1.5569         0.1704          102.4            103           73.2       61.55428         0.3353            -20      -23.85704           3320      0.6075379      0.6591851
      6371.5000         0.8569         0.7384         0.6735         0.6058         0.5948          1.515         0.1968          102.2          102.8             72       60.11429         0.3377          -23.4       -27.2529           3320      0.5768998      0.6106729
      6372.0000         0.8569         0.7319         0.6607            0.6         0.5897         1.4726         0.2028          101.6          102.2           70.2       57.95428         0.3413            -24      -27.84875           3320      0.5309422      0.6021607
      6372.5000         0.8653         0.7319         0.6543            0.6         0.5897         1.4707         0.1776          101.2          101.8             69       56.51429          0.339          -22.6       -26.4446           3320       0.500304        0.62222
      6373.0000         0.8739         0.7384         0.6607            0.6         0.5897         1.4687          0.114          100.6          101.2           71.2       59.15429         0.3355          -21.2      -25.04046           3240      0.5564741      0.6422792
      6373.5000         0.8912         0.7517         0.6735         0.5948         0.5846         1.4668         0.0552           99.4            100           73.2       61.55428         0.3343          -19.8      -23.63631           3240      0.6075379      0.6623384
      6374.0000         0.9073         0.7859         0.6933         0.5948         0.5846         1.4649         0.0012           97.8           98.4             73       61.31429         0.3261          -16.6      -20.43216           3240      0.6024317      0.7081119
      6374.5000         0.9448         0.8239         0.7254         0.6117            0.6         1.4629              0           96.2           96.8             71       58.91429         0.3047            -13      -16.82802           3240      0.5513678      0.7595997
      6375.0000         0.9681         0.8653         0.7384         0.6607         0.6419          1.461              0           95.2           96.6           70.4       58.19429          0.294           -8.6      -12.42387           3240      0.5360487      0.8225161
      6375.5000         0.9448         0.8825          0.772         0.6933         0.6801         1.5386              0             97           98.4             72       60.11429         0.3095           -4.4      -8.219722           3240      0.5768998      0.8825754
      6376.0000         0.8912         0.8653         0.7929            0.7         0.6866         1.5767              0          100.2          101.6           74.6       63.23428         0.3381             -3      -6.815575           3240      0.6432827      0.9026346
      6376.5000         0.8239         0.8239          0.772         0.7126            0.7         1.6548              0            103          104.6             79       68.51429          0.368           -2.4      -6.211428           3240      0.7556232      0.9112653
      6377.0000         0.8079         0.7929          0.772         0.7319         0.7189         1.6928              0          106.4            107           83.2       73.55428         0.3836           -2.6      -6.407281           3240      0.8628571      0.9084674
      6377.5000         0.7929         0.7789         0.7789         0.7517         0.7384         1.6909              0          108.2          108.8           87.6       78.83428         0.3897           -2.6      -6.403134           3240      0.9751975      0.9085267
      6378.0000            0.8         0.7789         0.7929          0.772         0.7584         1.6889              0          108.4            109             92       84.11429         0.3957           -2.6      -6.398987           3240              1      0.9085859
      6378.5000         0.8159            0.8         0.7929         0.7789         0.7652          1.727              0          107.2          107.8           92.2       84.35429         0.3958           -2.6       -6.39484           3240              1      0.9086452
      6379.0000          0.832         0.8239         0.7929         0.7859          0.772         1.7647              0          106.4            107           92.2       84.35429         0.3935             -3      -6.790693           3240              1      0.9029901
      6379.5000         0.8402         0.8239            0.8         0.7929         0.7789         1.7627              0          105.4            106           92.4       84.59429         0.3851           -2.8      -6.586546           3240              1      0.9059065
      6380.0000         0.8402         0.8239            0.8         0.7929         0.7789         1.7608              0            105          105.6           93.6       86.03429         0.3708             -2      -5.782399           3240              1      0.9173943
      6380.5000         0.8402         0.8159            0.8         0.7859          0.772           1.76         0.0048          105.4          105.8           94.4       86.99429         0.3564           -1.2      -4.978252         3242.4              1      0.9288821
      6381.0000         0.8239         0.8159            0.8         0.7859          0.772           1.76         0.0445          106.8          106.4           92.4       84.59429         0.3564           -0.8      -4.574106         3246.4              1      0.9346556
      6381.5000         0.8079         0.8079         0.7859         0.7789         0.7652           1.76         0.1178            108          106.8             90       81.71429         0.3612             -1      -4.769958         3250.4              1      0.9318578
      6382.0000         0.8079         0.7929         0.7859         0.7789         0.7652           1.76         0.1766          108.8            107           87.2       78.35429         0.3612           -1.4      -5.165812         3254.4      0.9649848      0.9262027
