#------------------------------------------------------------------------------
# Created by    : vladimir.rabinovich
# Created on    : 09/19/2023 17:20:11
#------------------------------------------------------------------------------
~Version Information Section
VERS.           2.0     :   CWLS log ASCII Standard - VERSION 2.0
WRAP.           NO      :   One line per depth step
~Well Information Section
#MNEM       .UNIT                                         VALUE :DESCRIPTION
#------------------------------------------------------------------------------
STRT        .FT                                             984 :START DEPTH
STOP        .FT                                            6595 :STOP DEPTH
STEP        .FT                                             0.5 :STEP      
NULL        .                                           -999.25 :NULL      
COMP        .                   MCMORAN OFFSHORE EXPLORATION CO :COMPANY   
WELL        .                               OCS G03106 ST00BP00 :WELL      
FLD         .                                           WILDCAT :FIELD     
LOC         .                                                   :LOCATION  
CNTY        .                      MATAGORDA ISLAND LARGE BLOCK :LOCATION  
STAT        .                                             TEXAS :STATE     
CTRY        .                                     UNITED STATES :COUNTRY   
SRVC        .                                                   :SERVICE COMPANY
DATE        .                             9/13/2023 11:12:09 AM :LOG DATE  
API         .                                    42703400570000 :API NUMBER
UWI         .                                    42703400570000 :UNIQUE WELL ID
XCOORD      .                                  467986.403229072 :SURFACE X 
YCOORD      .                                  10153243.7887249 :SURFACE Y 
LAT         .                                         27.931172 :LATITUDE  
LON         .                                        -96.630795 :LONGITUDE 
ELEV        .FT                                              95 :ELEVATION VALUE
ELEV_TYPE   .                                                KB :ELEVATION REFERENCE TYPE
~Curve Information Section
#MNEM       .UNIT                                      API CODE :CURVE DESCRIPTION
#------------------------------------------------------------------------------
DEPT        .FT                                                 :DEPTH     
ASFL        .OHMM                                               :          
CILD        .MMHO                                               :          
DT          .US/F                                               :          
GR          .GAPI                                               :          
GR_NORM     .GAPI                                               :GammaRay Normalized
ILD         .OHMM                                               :          
SFL         .OHMM                                               :          
SP          .MV                                                 :          
SP_NORM     .MV                                                 :SP Normalized
VSH_GR      .V/V                                                :Volume of Shale from GR
VSH_SP      .V/V                                                :Volume of Shale from SP
~A        DEPTH           ASFL           CILD             DT             GR        GR_NORM            ILD            SFL             SP        SP_NORM         VSH_GR         VSH_SP
# ...
      6564.0000         1.7991       1360.393       107.1251        -999.25        -999.25         0.6934         0.7595       -81.3635      -11.38729        -999.25      0.8044315
      6564.5000         1.8668       1298.738       107.0945        -999.25        -999.25         0.7974         0.7078       -81.0116       -8.75723        -999.25      0.8592244
      6565.0000         1.6287        1241.07       106.9941        -999.25        -999.25         0.9136         0.7412       -81.1901      -6.127172        -999.25      0.9140173
      6565.5000         1.3906       1192.801       106.8938        -999.25        -999.25         1.0544         0.8231       -81.8582      -3.497114        -999.25      0.9688101
      6566.0000         1.1525       1144.531       106.7937        -999.25        -999.25         0.9002         0.9116       -82.5262     -0.8670564        -999.25              1
      6566.5000         0.9145       1110.529       106.7727        -999.25        -999.25         0.7427         1.0087       -83.1943      -4.913299        -999.25      0.9393063
      6567.0000          0.739       1192.703       106.7659        -999.25        -999.25         0.6834         1.0851       -83.7928      -8.959542        -999.25      0.8550096
      6567.5000         0.7642       1274.973       106.7592        -999.25        -999.25         0.6453         1.1073       -84.2323      -13.00578        -999.25      0.7707128
      6568.0000         0.7827       1350.748       106.7723        -999.25        -999.25         0.6036         1.0562       -84.6724      -13.63801        -999.25      0.7575415
      6568.5000         0.8157       1425.441        106.791        -999.25        -999.25         0.5618         1.0157       -85.1124      -14.27024        -999.25      0.7443701
      6569.0000         0.8488       1506.729       106.8098        -999.25        -999.25         0.5449         0.9842       -85.5519      -14.90246        -999.25      0.7311987
      6569.5000         0.9152       1600.807       106.8516        -999.25        -999.25         0.5315         0.9659       -85.9277      -15.53469        -999.25      0.7180274
      6570.0000          1.084       1682.684       106.9009        -999.25        -999.25         0.5211         0.9571       -86.0951      -16.16691        -999.25       0.704856
      6570.5000         1.1453       1692.684       106.9502        -999.25        -999.25         0.5107          0.963        -86.027      -16.79914        -999.25      0.6916847
      6571.0000         1.1202       1694.252       106.9902        -999.25        -999.25         0.5004         0.9797        -85.428      -17.43136        -999.25      0.6785132
      6571.5000         1.0937        1695.82       107.0303        -999.25        -999.25         0.4901         0.9902       -84.8289      -18.06359        -999.25      0.6653419
      6572.0000         1.0635       1699.555       107.0603        -999.25        -999.25         0.4806         0.9552       -84.2299      -18.56937        -999.25      0.6548048
      6572.5000         1.0032       1705.398       107.0812        -999.25        -999.25         0.4711         0.8825       -83.6265      -19.07515        -999.25      0.6442677
      6573.0000         0.9867       1711.242       107.1021        -999.25        -999.25         0.4616         0.8186       -83.0138      -19.58093        -999.25      0.6337306
      6573.5000         0.9754       1717.084       107.1389        -999.25        -999.25         0.4521         0.7595        -83.035      -20.08671        -999.25      0.6231936
      6574.0000         1.0001       1728.396       107.1819        -999.25        -999.25         0.4426         0.7101       -83.1747      -20.59249        -999.25      0.6126564
      6574.5000         1.0177        1742.85       107.2249        -999.25        -999.25         0.4331         0.6972       -83.3142      -21.09827        -999.25      0.6021194
      6575.0000         0.9485       1757.303       107.2599        -999.25        -999.25         0.4251         0.8338       -83.4539      -21.09827        -999.25      0.6021194
      6575.5000         0.8924       1771.744       107.2899        -999.25        -999.25         0.4203           1.28       -83.4022      -21.09827        -999.25      0.6021194
      6576.0000         0.8442       1786.199       107.3199        -999.25        -999.25         0.4155         1.9974       -83.2958      -21.09827        -999.25      0.6021194
      6576.5000         0.7786       1817.457       107.3396        -999.25        -999.25         0.4106         2.9276       -83.4187      -21.09827        -999.25      0.6021194
      6577.0000         0.7466       1850.572       107.3478        -999.25        -999.25         0.4068         3.1326       -83.5446      -21.09827        -999.25      0.6021194
      6577.5000         0.9747       1879.725       107.3558        -999.25        -999.25         0.4263         2.2557       -83.6703      -19.96026        -999.25      0.6258278
      6578.0000         1.3798       1902.139       107.3257        -999.25        -999.25         0.4457          1.424       -83.7158      -18.82226        -999.25      0.6495363
      6578.5000          1.785       1874.141         107.29        -999.25        -999.25         0.4652         1.0586       -83.1167      -17.68425        -999.25      0.6732447
      6579.0000         2.2134       1839.354       107.2603        -999.25        -999.25         0.4846         0.8151       -82.5171      -16.54625        -999.25      0.6969532
      6579.5000         2.6641        1778.24       107.2535        -999.25        -999.25         0.5044         0.7271        -81.918      -15.40824        -999.25      0.7206616
      6580.0000         3.0813       1706.795       107.2467        -999.25        -999.25         0.5248         0.7824       -81.2264      -14.27024        -999.25      0.7443701
      6580.5000         2.9308        1635.35        107.249        -999.25        -999.25         0.5452         0.9655       -80.8246      -13.13223        -999.25      0.7680785
      6581.0000         2.4131        1562.82       107.2571        -999.25        -999.25         0.5657          1.166        -81.582      -11.99422        -999.25       0.791787
      6581.5000         1.2539       1490.293       107.2653        -999.25        -999.25         0.5698          1.302       -82.2877      -10.98266        -999.25      0.8128611
      6582.0000         1.0356       1419.143       107.2736        -999.25        -999.25         0.5319         0.9935       -82.9934      -9.971103        -999.25      0.8339354
      6582.5000          0.803       1488.424       107.2819        -999.25        -999.25          0.493         0.7932       -83.6991      -13.51157        -999.25      0.7601757
      6583.0000         0.7317       1635.447       107.2765        -999.25        -999.25         0.4503         0.7426       -84.3328      -17.05203        -999.25      0.6864161
      6583.5000         0.9115       1756.984       107.2546        -999.25        -999.25         0.4075          0.766       -84.8196      -20.59249        -999.25      0.6126564
      6584.0000         1.1671       1844.568       107.2328        -999.25        -999.25         0.3647         0.7804       -85.3059       -28.1792        -999.25      0.4546001
      6584.5000         1.4185       1932.152       107.2622        -999.25        -999.25         0.3231         0.7749       -85.7928      -29.19076        -999.25      0.4335259
      6585.0000         1.4301       2060.773       107.2975        -999.25        -999.25         0.3128         0.7629       -86.1672      -29.69654        -999.25      0.4229888
      6585.5000         0.8574       2181.621       107.3304        -999.25        -999.25         0.3024         0.7868       -86.2782      -30.20232        -999.25      0.4124517
      6586.0000         0.8285        2218.23       107.3485        -999.25        -999.25         0.2999         0.7922       -86.0991      -30.20232        -999.25      0.4124517
