#------------------------------------------------------------------------------
# Created by    : vladimir.rabinovich
# Created on    : 09/19/2023 17:20:39
#------------------------------------------------------------------------------
~Version Information Section
VERS.           2.0     :   CWLS log ASCII Standard - VERSION 2.0
WRAP.           NO      :   One line per depth step
~Well Information Section
#MNEM       .UNIT                                         VALUE :DESCRIPTION
#------------------------------------------------------------------------------
STRT        .FT                                             520 :START DEPTH
STOP        .FT                                           11478 :STOP DEPTH
STEP        .FT                                             0.5 :STEP      
NULL        .                                           -999.25 :NULL      
COMP        .                                      SHELL OIL CO :COMPANY   
WELL        .                                OCS 00730 ST00BP00 :WELL      
FLD         .                                           WILDCAT :FIELD     
LOC         .                                                   :LOCATION  
CNTY        .                             GALVESTON LARGE BLOCK :LOCATION  
STAT        .                                             TEXAS :STATE     
CTRY        .                                     UNITED STATES :COUNTRY   
SRVC        .                                                   :SERVICE COMPANY
DATE        .                             9/13/2023 11:19:42 AM :LOG DATE  
API         .                                    42706000260000 :API NUMBER
UWI         .                                    42706000260000 :UNIQUE WELL ID
XCOORD      .                                  961416.888637646 :SURFACE X 
YCOORD      .                                  10353223.2377546 :SURFACE Y 
LAT         .                                         28.512881 :LATITUDE  
LON         .                                        -95.114699 :LONGITUDE 
ELEV        .FT                                              72 :ELEVATION VALUE
ELEV_TYPE   .                                                KB :ELEVATION REFERENCE TYPE
~Curve Information Section
#MNEM       .UNIT                                      API CODE :CURVE DESCRIPTION
#------------------------------------------------------------------------------
DEPT        .FT                                                 :DEPTH     
ASN         .OHMM                                               :          
CILD        .MMHO                                               :          
ILD         .OHMM                                               :          
LAT         .OHMM                                               :          
LN          .OHMM                                               :          
SP          .MV                                                 :          
SP_NORM     .MV                                                 :SP Normalized
VSH_SP      .V/V                                                :Volume of Shale from SP
~A        DEPTH            ASN           CILD            ILD            LAT             LN             SP        SP_NORM         VSH_SP
# ...
     10697.5000         0.9993        -999.25        -999.25         0.2661         0.8756       -47.1264      0.3582649              1
     10698.0000         0.9964        -999.25        -999.25          0.252         0.8884       -46.9675      0.5120316              1
     10698.5000         0.9936        -999.25        -999.25         0.2379         0.8854       -46.8089      0.6654968              1
     10699.0000         0.9908        -999.25        -999.25         0.2238         0.8603       -46.6503      0.8189659              1
     10699.5000         0.9831        -999.25        -999.25         0.2096         0.8351       -46.5721      0.8920288              1
     10700.0000         0.9668        -999.25        -999.25         0.1955         0.8042       -46.7127      0.7462959              1
     10700.5000         0.9505        -999.25        -999.25         0.2255         0.7651        -46.945      0.5088615              1
     10701.0000         0.9426        -999.25        -999.25         0.2592          0.726        -47.431      0.0177269              1
     10701.5000         0.9741        -999.25        -999.25         0.2929         0.6869        -47.917     -0.4734077              1
     10702.0000         1.0057        -999.25        -999.25         0.4329         0.6477        -48.403     -0.9645424              1
     10702.5000         1.0373        -999.25        -999.25         0.6435         0.6086       -48.8889      -1.455578              1
     10703.0000         1.0824        -999.25        -999.25         0.8744         0.5695       -49.3749      -1.946709              1
     10703.5000         1.1386        -999.25        -999.25         1.1494         0.6888       -49.8609      -2.437843      0.9809633
     10704.0000         1.1946        -999.25        -999.25         1.4145         0.8136       -50.4357      -3.017776      0.9557489
     10704.5000         1.4521        -999.25        -999.25         1.6723          0.894       -51.0635      -3.650711      0.9282299
     10705.0000          1.663        -999.25        -999.25         1.9302         0.9666       -51.6901      -4.282448      0.9007632
     10705.5000         1.6384        -999.25        -999.25         2.1881         1.0392       -52.3178      -4.915279      0.8732487
     10706.0000         1.5676        -999.25        -999.25         2.4459         1.0225       -52.2284      -4.831017      0.8769123
     10706.5000         1.4967        -999.25        -999.25         2.8586         0.9967       -51.9539      -4.561646      0.8886241
     10707.0000         1.4257        -999.25        -999.25         2.9995          0.971       -51.5427      -4.155582       0.906279
     10707.5000         1.3076        -999.25        -999.25         2.8091         0.9452       -51.0995      -3.717514      0.9253255
     10708.0000         1.2052        -999.25        -999.25         2.6201         0.9194       -50.6563      -3.279449      0.9443718
     10708.5000         1.1514        -999.25        -999.25         2.4315         0.8936        -50.213      -2.841286      0.9634224
     10709.0000         1.1043        -999.25        -999.25         2.2425         0.8679       -49.7698      -2.403217      0.9824688
     10709.5000         1.1253        -999.25        -999.25         2.0535         0.8421       -49.3265      -1.965054              1
     10710.0000         1.3434        -999.25        -999.25         1.8595         0.8632       -48.8833      -1.526989              1
     10710.5000         1.3867        -999.25        -999.25         1.2772         0.8956       -48.4401      -1.088921              1
     10711.0000         1.4299        -999.25        -999.25          0.977         0.9279       -47.9968      -0.650753              1
     10711.5000         1.4608        -999.25        -999.25         0.7759         0.9602       -47.5536     -0.2126884              1
     10712.0000         1.4363        -999.25        -999.25         0.6805         0.9925        -47.098      0.2377777              1
     10712.5000         1.4118        -999.25        -999.25          0.716         1.0249       -47.8202     -0.4895592              1
     10713.0000         1.3873        -999.25        -999.25         0.7516         1.0573       -48.9272      -1.601692              1
     10713.5000         1.3628        -999.25        -999.25         0.8465         1.0698       -51.5416      -4.221226       0.903425
     10714.0000         1.3212        -999.25        -999.25         0.9473         1.0789       -55.4745      -8.159256      0.7322063
     10714.5000         1.2795        -999.25        -999.25         1.0479         1.0866       -54.7252      -7.415092      0.7645612
     10715.0000         1.2377        -999.25        -999.25         1.1206         1.0672       -53.9771      -6.672127       0.796864
     10715.5000          1.196        -999.25        -999.25          1.038         1.0478       -53.2324       -5.93256      0.8290191
     10716.0000         1.1547        -999.25        -999.25         0.9554         1.0284       -52.5237      -5.228996      0.8596088
     10716.5000         1.1306        -999.25        -999.25          0.873          1.009       -51.8161      -4.526531      0.8901508
     10717.0000         1.1064        -999.25        -999.25         0.7904         0.9896       -51.1085      -3.824066      0.9206928
     10717.5000         1.0823        -999.25        -999.25         0.7078         0.9702       -50.3998      -3.120499      0.9512827
     10718.0000         1.0581        -999.25        -999.25         0.6614         0.9508       -49.6921      -2.417931      0.9818291
     10718.5000         1.0394        -999.25        -999.25         0.6199         0.9314       -48.9846      -1.715565              1
     10719.0000         1.0239        -999.25        -999.25         0.5783          0.912       -48.4373      -1.173401              1
     10719.5000         1.0084        -999.25        -999.25         0.5367         0.8926       -48.1572     -0.8984337              1
     10720.0000         0.9929        -999.25        -999.25         0.4952         0.8732       -47.8776       -0.62397              1
     10720.5000         0.9783        -999.25        -999.25         0.4536         0.8538       -47.5952     -0.3467026              1
     10721.0000         0.9657        -999.25        -999.25          0.412         0.8344       -46.9169      0.3264618              1
     10721.5000         0.9791        -999.25        -999.25         0.3704         0.8313       -46.2396      0.9986305              1
     10722.0000         0.9967        -999.25        -999.25         0.3289         0.8349       -45.5624       1.670696              1
     10722.5000         1.0143        -999.25        -999.25         0.2873         0.8385       -45.7784       1.449562              1
     10723.0000          1.032        -999.25        -999.25         0.2457         0.8421       -46.1356       1.087227              1
     10723.5000         1.0496        -999.25        -999.25         0.2445         0.8457        -46.486      0.7316933              1
     10724.0000         1.0672        -999.25        -999.25         0.3073         0.8493       -46.7301        0.48246              1
     10724.5000         1.0849        -999.25        -999.25           0.37         0.8528       -46.9748      0.2326241              1
     10725.0000         1.1038        -999.25        -999.25         0.4329         0.8564       -47.2189    -0.01660919              1
     10725.5000         1.1229        -999.25        -999.25         0.4957           0.86       -47.4636     -0.2664413              1
     10726.0000         1.1421        -999.25        -999.25         0.5567         0.8636       -47.7077     -0.5156746              1
     10726.5000         1.1613        -999.25        -999.25         0.6149         0.8672       -47.7336      -0.546711              1
