#------------------------------------------------------------------------------
# Created by    : vladimir.rabinovich
# Created on    : 09/19/2023 17:20:58
#------------------------------------------------------------------------------
~Version Information Section
VERS.           2.0     :   CWLS log ASCII Standard - VERSION 2.0
WRAP.           NO      :   One line per depth step
~Well Information Section
#MNEM       .UNIT                                         VALUE :DESCRIPTION
#------------------------------------------------------------------------------
STRT        .FT                                             521 :START DEPTH
STOP        .FT                                           11050 :STOP DEPTH
STEP        .FT                                             0.5 :STEP      
NULL        .                                           -999.25 :NULL      
COMP        .                                      SHELL OIL CO :COMPANY   
WELL        .                                     ST TR 00335-L :WELL      
FLD         .                                           WILDCAT :FIELD     
LOC         .                                                   :LOCATION  
CNTY        .                                BRAZOS LARGE BLOCK :LOCATION  
STAT        .                                             TEXAS :STATE     
CTRY        .                                     UNITED STATES :COUNTRY   
SRVC        .                                                   :SERVICE COMPANY
DATE        .                             9/13/2023 11:18:52 AM :LOG DATE  
API         .                                    42704000130000 :API NUMBER
UWI         .                                    42704000130000 :UNIQUE WELL ID
XCOORD      .                                  903482.990868916 :SURFACE X 
YCOORD      .                                   10450808.276789 :SURFACE Y 
LAT         .                                        28.7782296 :LATITUDE  
LON         .                                       -95.3008656 :LONGITUDE 
ELEV        .FT                                              81 :ELEVATION VALUE
ELEV_TYPE   .                                                DF :ELEVATION REFERENCE TYPE
~Curve Information Section
#MNEM       .UNIT                                      API CODE :CURVE DESCRIPTION
#------------------------------------------------------------------------------
DEPT        .FT                                                 :DEPTH     
ASN         .OHMM                                               :          
CILD        .MMHO                                               :          
ILD         .OHMM                                               :          
SP          .MV                                                 :          
SP_NORM     .MV                                                 :SP Normalized
VSH_SP      .V/V                                                :Volume of Shale from SP
~A        DEPTH            ASN           CILD            ILD             SP        SP_NORM         VSH_SP
# ...
      7513.0000         1.2552       861.7412         1.2368       -38.4426      0.5817909              1
      7513.5000         1.2569       865.4473         1.2312       -38.4085      0.6158905              1
      7514.0000         1.2652       869.1543         1.2241       -38.3744      0.6499901              1
      7514.5000         1.2739       880.2939         1.2143       -38.3403      0.6840897              1
      7515.0000         1.2827       895.2676         1.2044       -38.3062      0.7181931              1
      7515.5000         1.2687       909.3418         1.1962       -38.2721      0.7522926              1
      7516.0000         1.2519       920.9619         1.1945       -38.2383      0.7860909              1
      7516.5000         1.2361       919.5518         1.1927       -38.2363      0.7880898              1
      7517.0000         1.2203       908.8799         1.1897       -38.2344      0.7899895              1
      7517.5000         1.2076       897.4678         1.1864       -38.3425      0.6818924              1
      7518.0000         1.2128       885.6172          1.183       -38.5731      0.4512901              1
      7518.5000         1.2181       874.3623         1.1748       -38.7948      0.2295914              1
      7519.0000         1.2233       864.7607          1.154       -39.0162    0.008190155              1
      7519.5000         1.2286       855.1719         1.1331        -39.238     -0.2136078      0.9969485
      7520.0000         1.2338       846.9307         1.1122       -39.4597     -0.4353104      0.9937813
      7520.5000         1.2392       840.0156         1.0861       -39.6514     -0.6270103      0.9910427
      7521.0000         1.2455       839.4316         1.0584       -39.8032     -0.7788086      0.9888741
      7521.5000         1.2518       875.2139         1.0307        -39.955     -0.9306107      0.9867055
      7522.0000         1.2323       985.2793         1.0125       -40.1069      -1.082508      0.9845356
      7522.5000         1.2111       1021.888         0.9964       -40.2587       -1.23431       0.982367
      7523.0000         1.1868       1112.947         0.9897       -40.3881      -1.363708      0.9805185
      7523.5000          1.162       1159.861         0.9877       -40.4781      -1.453709      0.9792327
      7524.0000          1.103       1236.238         0.9849       -40.5683      -1.543907      0.9779442
      7524.5000          1.049        1231.51         0.9818       -40.6646      -1.640209      0.9765685
      7525.0000         1.0059       1224.715         0.9778       -40.7623      -1.737907      0.9751728
      7525.5000         0.9842       1218.031         0.9671         -40.86      -1.835609       0.973777
      7526.0000         1.0126       1211.352         0.9565       -40.7358      -1.711411      0.9755513
      7526.5000          1.041       1204.668         0.9432       -40.5117      -1.487309      0.9787527
      7527.0000         1.0694       1197.988          0.928       -40.2823      -1.257908      0.9820299
      7527.5000         1.0471       1192.529          0.913       -40.0527      -1.028309      0.9853099
      7528.0000         1.0187        1190.43         0.9022        -39.823     -0.7986107      0.9885913
      7528.5000          0.992        1188.33         0.8914       -39.7001     -0.6757088       0.990347
      7529.0000         0.9777       1192.727         0.8838       -39.7845     -0.7601089      0.9891413
      7529.5000         0.9635       1225.445         0.8768        -39.869     -0.8446083      0.9879342
      7530.0000         0.9742       1311.617         0.8712       -39.9534     -0.9290085      0.9867284
      7530.5000         0.9995       1332.984         0.8782       -40.0378      -1.013409      0.9855227
      7531.0000         1.0249       1327.732         0.8852       -40.1223      -1.097908      0.9843156
      7531.5000         1.0503       1216.402         0.8972       -40.2555       -1.23111      0.9824127
      7532.0000         1.0757       1183.148         0.9098       -40.4428      -1.418407       0.979737
      7532.5000         1.0971       1156.531         0.9223       -40.6301      -1.605709      0.9770613
      7533.0000         1.0987       1136.865         0.9348       -40.8174      -1.793011      0.9743856
      7533.5000         1.1002       1123.594         0.9477        -41.005       -1.98061      0.9717056
      7534.0000         1.1013       1112.959         0.9605       -41.1923      -2.167908      0.9690299
      7534.5000         1.1003       1102.336         0.9734       -41.3796      -2.355209      0.9663541
      7535.0000         1.0994       1091.896         0.9862       -41.4923      -2.467907      0.9647442
      7535.5000         1.0985       1081.455         0.9976       -41.4005       -2.37611      0.9660556
      7536.0000         1.1059       1071.355         1.0086       -41.3145      -2.290108      0.9672842
      7536.5000         1.1149       1061.754         1.0196       -41.2821       -2.25771       0.967747
      7537.0000         1.1239       1052.164         1.0307       -41.2496      -2.225208      0.9682113
      7537.5000          1.133       1042.672         1.0391       -41.2172       -2.19281      0.9686741
      7538.0000         1.1316        1033.24         1.0457       -41.1847      -2.160309      0.9691384
      7538.5000         1.1303         1023.7         1.0524       -41.1522      -2.127808      0.9696028
      7539.0000         1.1296       1013.162          1.059       -41.1852      -2.160809      0.9691313
      7539.5000         1.1425       1002.625         1.0657       -41.2187      -2.194309      0.9686527
      7540.0000         1.1554       992.2207         1.0709       -41.2523      -2.227909      0.9681727
      7540.5000         1.1683       982.2783         1.0743       -41.2859      -2.261509      0.9676927
      7541.0000         1.1812       974.3789         1.0777       -41.3195      -2.295109      0.9672127
      7541.5000         1.1976        971.832         1.0811       -41.1932      -2.168808       0.969017
      7542.0000         1.2142       972.7754         1.0845       -40.9094       -1.88501      0.9730713
      7542.5000         1.2114        973.959         1.0879       -40.6252      -1.600807      0.9771313
      7543.0000         1.1953       978.4434         1.0864       -40.4476       -1.42321      0.9796684
      7543.5000         1.1744       982.9287         1.0844       -40.4916      -1.467209      0.9790398
      7544.0000         1.1596       987.4141         1.0823       -40.5355      -1.511108      0.9784127
      7544.5000         1.1477       994.5781         1.0803        -40.576      -1.551609      0.9778342
      7545.0000         1.1359       1007.716         1.0783       -40.6155       -1.59111      0.9772698
      7545.5000         1.1242       1024.441         1.0763        -40.655      -1.630608      0.9767056
      7546.0000           1.12       1041.432         1.0709       -40.6946      -1.670208      0.9761399
      7546.5000         1.1159       1061.826         1.0655       -40.7408      -1.716408      0.9754799
      7547.0000         1.1118       1082.197         1.0601       -40.8719      -1.847507      0.9736071
      7547.5000         1.1077       1102.592         1.0547       -41.4402       -2.41581      0.9654884
      7548.0000         1.1033       1117.018         1.0375        -42.946      -3.921608      0.9439771
      7548.5000         1.0986       1129.828         1.0137       -44.4517      -5.427307      0.9224671
      7549.0000         1.0924       1142.639         0.9928       -46.5349      -7.510509       0.892707
      7549.5000         1.0801       1155.461          0.973       -49.6244      -10.60001      0.8485713
      7550.0000         1.0623       1188.691         0.9532       -52.0975      -13.07311      0.8132413
      7550.5000         1.0444       1253.643         0.9335       -46.6714      -7.647007       0.890757
