#------------------------------------------------------------------------------
# Created by    : vladimir.rabinovich
# Created on    : 09/19/2023 17:20:12
#------------------------------------------------------------------------------
~Version Information Section
VERS.           2.0     :   CWLS log ASCII Standard - VERSION 2.0
WRAP.           NO      :   One line per depth step
~Well Information Section
#MNEM       .UNIT                                         VALUE :DESCRIPTION
#------------------------------------------------------------------------------
STRT        .FT                                             970 :START DEPTH
STOP        .FT                                            6500 :STOP DEPTH
STEP        .FT                                             0.5 :STEP      
NULL        .                                           -999.25 :NULL      
COMP        .                                CONTINENTAL OIL CO :COMPANY   
WELL        .                               OCS G03106 ST00BP00 :WELL      
FLD         .                       MATAGORDA ISLAND BLOCK 0687 :FIELD     
LOC         .                                                   :LOCATION  
CNTY        .                      MATAGORDA ISLAND LARGE BLOCK :LOCATION  
STAT        .                                             TEXAS :STATE     
CTRY        .                                     UNITED STATES :COUNTRY   
SRVC        .                                                   :SERVICE COMPANY
DATE        .                             9/13/2023 11:12:09 AM :LOG DATE  
API         .                                    42703400330000 :API NUMBER
UWI         .                                    42703400330000 :UNIQUE WELL ID
XCOORD      .                                  468864.661343862 :SURFACE X 
YCOORD      .                                  10154488.9405743 :SURFACE Y 
LAT         .                                         27.934663 :LATITUDE  
LON         .                                        -96.628194 :LONGITUDE 
ELEV        .FT                                              96 :ELEVATION VALUE
ELEV_TYPE   .                                                KB :ELEVATION REFERENCE TYPE
~Curve Information Section
#MNEM       .UNIT                                      API CODE :CURVE DESCRIPTION
#------------------------------------------------------------------------------
DEPT        .FT                                                 :DEPTH     
ASFL        .OHMM                                               :          
CALI        .IN                                                 :          
CILD        .MMHO                                               :          
DRHO        .G/C3                                               :          
DT          .US/F                                               :          
DTL         .US/F                                               :          
GR          .GAPI                                               :          
GR_1        .GAPI                                               :          
GR_NORM     .GAPI                                               :GammaRay Normalized
ILD         .OHMM                                               :          
ILM         .OHMM                                               :          
NPHI        .%                                                  :          
RHOB        .G/C3                                               :          
SFL         .OHMM                                               :          
SP          .MV                                                 :          
SP_NORM     .MV                                                 :SP Normalized
VSH_GR      .V/V                                                :Volume of Shale from GR
VSH_SP      .V/V                                                :Volume of Shale from SP
~A        DEPTH           ASFL           CALI           CILD           DRHO             DT            DTL             GR           GR_1        GR_NORM            ILD            ILM           NPHI           RHOB            SFL             SP        SP_NORM         VSH_GR         VSH_SP
# ...
      5016.0000         0.7461        16.9381       2114.926         0.0955       125.8568        -999.25        -999.25        36.7925       41.65019          0.575         0.5991        40.2367         1.8195         0.8056       -77.2435       -39.5076      0.1840466      0.3123643
      5016.5000         0.7129        19.0565       2152.238         0.0748        118.344        -999.25        -999.25         36.399       40.99133         0.5482           0.51        52.8767         1.5866         0.6245       -73.9442       -36.2083      0.1700283      0.3712803
      5017.0000         0.6974        19.7881       2167.199         0.0443       107.7655        -999.25        -999.25        37.0955       42.15941         0.5215         0.4756        56.2969         1.4789         0.5882       -64.8381       -27.1022       0.194881      0.5338893
      5017.5000         0.6822        19.0343       2147.355         0.0165       103.2174        -999.25        -999.25        40.3472       47.61027         0.4947         0.4738        57.5536          1.473         0.5924        -57.574       -19.8382      0.3108568      0.6636036
      5018.0000         0.6776        17.1555       2127.516        -0.0075       102.6855        -999.25        -999.25        45.9125       56.93914         0.4707         0.5079        54.4221         1.5599         0.6521       -51.3608        -13.625      0.5093435      0.7745536
      5018.5000          0.673        14.7139       2107.672        -0.0196       103.5535        -999.25        -999.25        51.4393       66.20333          0.458         0.5732        42.7093         1.7737         0.7056       -49.5669        -11.831      0.7064539      0.8065893
      5019.0000         0.6663        14.1124       2087.832        -0.0082       106.0743        -999.25        -999.25        56.4803       74.65324         0.4452         0.6185        38.1907         2.1099         0.7102        -53.959       -16.2231      0.8862391      0.7281589
      5019.5000         0.6548        14.1036           2068         0.0102       109.7515        -999.25        -999.25        57.2883       76.00819         0.4324         0.6352        38.6812         2.2752         0.6742       -62.1024       -24.3666       0.915068      0.5827393
      5020.0000         0.6434        14.2425        2048.16         0.0401       114.2334        -999.25        -999.25        53.8058       70.17183         0.4196         0.5949        39.0057         2.3207         0.6317       -73.1927       -35.4569        0.79089      0.3846982
      5020.5000         0.6319        15.1131       2307.359         0.0897       118.2474        -999.25        -999.25        48.1492       60.69144         0.4163          0.513        39.8183         2.2953         0.6001       -81.4294       -43.6935      0.5891795      0.2376161
      5021.0000         0.6205        16.6129       2593.961         0.1555       121.6968        -999.25        -999.25        41.9321       50.27158         0.4135          0.408        42.3885         2.1121         0.5726       -86.4392       -48.7034      0.3674805      0.1481536
      5021.5000         0.6134        17.9299       2952.063         0.1677       121.7463        -999.25        -999.25        36.6626       41.44001         0.4049         0.3687        46.5465         1.9807         0.5627       -91.0364       -53.3005      0.1795748     0.06606252
      5022.0000         0.6091         19.144       3828.078         0.1443       120.4661        -999.25        -999.25        34.7813       38.28743         0.3795         0.3393        50.0061         1.8897         0.5683       -93.3633       -55.6274      0.1124986     0.02451072
      5022.5000         0.6049        19.7623       3980.938         0.1233        119.636        -999.25        -999.25        34.1121       37.16645         0.3541         0.3183        49.6423         1.8606         0.5903       -94.0542       -56.3183     0.08864781     0.01217324
      5023.0000         0.6007        19.9907       4187.844         0.1086       119.1602        -999.25        -999.25        32.8145       34.99237         0.3286         0.3008         49.226         1.8728         0.6073        -93.785       -56.0492     0.04239095      0.0169786
      5023.5000         0.6056        20.4064       4272.828         0.1273       120.8647        -999.25        -999.25        32.1147        33.8201         0.3032         0.2918        51.2759         1.8888         0.6022       -93.2319       -55.4961     0.01744899     0.02685533
      5024.0000         0.6113        20.5022       4130.016         0.1216       122.1078        -999.25        -999.25        32.6528       34.72268         0.2778         0.3006        55.5738         1.8696         0.5933       -91.5264       -53.7905     0.03665283     0.05731249
      5024.5000          0.617        19.2017        3851.25         0.1068       116.1698        -999.25        -999.25        33.2372       35.70287         0.2627         0.3229        58.3846         1.8475         0.5856       -86.5817       -48.8459     0.05750778      0.1456089
      5025.0000         0.6227        17.8578           3523         0.0924       109.9941        -999.25        -999.25        33.1329       35.52872          0.261         0.3583        58.7812         1.8316         0.6026       -78.8802       -41.1444     0.05380257      0.2831357
      5025.5000         0.6222        15.6624        3375.32         0.0812       102.1024        -999.25        -999.25        34.7675       38.26916         0.2593         0.3886        57.1673          1.819         0.6358       -72.1367       -34.4009      0.1121097      0.4035553
      5026.0000         0.6211        14.8486       3295.316         0.0668       100.9153        -999.25        -999.25        38.5818       44.66299         0.2576         0.4162        51.3517          1.841         0.6724       -66.2207       -28.4849      0.2481487      0.5091982
      5026.5000         0.6201        14.1316        3203.84         0.0445       103.7987        -999.25        -999.25        43.3679       52.68568         0.2559         0.4298        43.5724         1.9713         0.6473       -64.3461       -26.6102      0.4188442       0.542675
      5027.0000         0.6177        14.0754       3144.105         0.0235        113.748        -999.25        -999.25        45.9966       57.09233         0.2543         0.4422        38.9888         2.0696         0.5867       -67.1221       -29.3862      0.5126027      0.4931036
      5027.5000         0.6115        14.3551       3086.203         0.0752       120.9117        -999.25        -999.25        47.1403       59.01012         0.2526          0.436        38.5135         2.1787         0.5429       -73.7821       -36.0462      0.5534069       0.374175
      5028.0000         0.6053        15.6413        3048.77         0.1473       122.6511        -999.25        -999.25        44.8687       55.20334         0.2868         0.4247        42.6976         2.1385         0.5455       -77.6991       -39.9632      0.4724115      0.3042286
      5028.5000         0.5991        16.1945       3011.332         0.1909       118.4628        -999.25        -999.25        43.1298       52.28946         0.3253         0.4034         49.509         1.9272         0.5754       -79.6631       -41.9272       0.410414      0.2691571
      5029.0000         0.5929        15.9234        2956.02          0.126         108.35        -999.25        -999.25        41.4751       49.51667         0.3638         0.3831        55.2166         1.7893           0.58       -77.1465       -39.4106      0.3514184      0.3140965
      5029.5000         0.6088        15.3989       2735.402         0.0771        95.6816        -999.25        -999.25        41.2082       49.06998         0.4022         0.3907        55.0344         1.7413         0.5853       -73.2321       -35.4963      0.3419145      0.3839946
