#------------------------------------------------------------------------------
# Created by    : vladimir.rabinovich
# Created on    : 09/19/2023 17:21:31
#------------------------------------------------------------------------------
~Version Information Section
VERS.           2.0     :   CWLS log ASCII Standard - VERSION 2.0
WRAP.           NO      :   One line per depth step
~Well Information Section
#MNEM       .UNIT                                         VALUE :DESCRIPTION
#------------------------------------------------------------------------------
STRT        .FT                                              40 :START DEPTH
STOP        .FT                                           13401 :STOP DEPTH
STEP        .FT                                             0.5 :STEP      
NULL        .                                           -999.25 :NULL      
COMP        .                                        TEXACO USA :COMPANY   
WELL        .                               OCS G01759 ST00BP00 :WELL      
FLD         .                                           WILDCAT :FIELD     
LOC         .                                                   :LOCATION  
CNTY        .                             GALVESTON LARGE BLOCK :LOCATION  
STAT        .                                             TEXAS :STATE     
CTRY        .                                     UNITED STATES :COUNTRY   
SRVC        .                                                   :SERVICE COMPANY
DATE        .                             9/13/2023 11:19:24 AM :LOG DATE  
API         .                                    42706001440000 :API NUMBER
UWI         .                                    42706001440000 :UNIQUE WELL ID
XCOORD      .                                   1131482.4965331 :SURFACE X 
YCOORD      .                                  10562344.6824913 :SURFACE Y 
LAT         .                                         29.095227 :LATITUDE  
LON         .                                        -94.593967 :LONGITUDE 
ELEV        .FT                                              83 :ELEVATION VALUE
ELEV_TYPE   .                                                KB :ELEVATION REFERENCE TYPE
~Curve Information Section
#MNEM       .UNIT                                      API CODE :CURVE DESCRIPTION
#------------------------------------------------------------------------------
DEPT        .FT                                                 :DEPTH     
CALI        .IN                                                 :          
DT          .US/F                                               :          
GR          .GAPI                                               :          
GR_NORM     .GAPI                                               :GammaRay Normalized
RHOB        .G/C3                                               :          
SP          .MV                                                 :          
SP_NORM     .MV                                                 :SP Normalized
VSH_GR      .V/V                                                :Volume of Shale from GR
VSH_SP      .V/V                                                :Volume of Shale from SP
~A        DEPTH           CALI             DT             GR        GR_NORM           RHOB             SP        SP_NORM         VSH_GR         VSH_SP
# ...
     13369.5000         6.9091       110.5756        62.5726       58.09976         2.4195       -39.0821      0.9179001      0.5340375              1
     13370.0000         6.8938       110.0687        63.1115       58.76507         2.4284       -38.9113       1.088699       0.548193              1
     13370.5000         6.8796       109.6786        62.7535        58.3231         2.4053       -38.5782       1.421799      0.5387893              1
     13371.0000         6.8737       109.7234        62.6694       58.21927         2.4094       -38.6968         1.3032      0.5365802              1
     13371.5000         6.8674       110.1788        64.2361       60.15347         2.3962        -40.801     -0.8009987      0.5777333        0.98398
     13372.0000         6.8575       110.0227        66.1007       62.45544         2.3725       -41.5846      -1.584599      0.6267115       0.968308
     13372.5000         6.8373       109.4929        66.5056       62.95531         2.3366       -42.2328        -2.2328      0.6373471       0.955344
     13373.0000         6.8371       109.0684        67.6434       64.36001         2.3326       -42.4305        -2.4305      0.6672342        0.95139
     13373.5000          6.841       108.8899        70.2915       67.62926         2.3329       -42.2322      -2.232201      0.7367929       0.955356
     13374.0000         6.8456        108.746        73.1943       71.21297         2.3422        -41.865      -1.865002      0.8130419      0.9626999
     13374.5000         6.8509       108.2893        74.6842       73.05235         2.3387       -41.2934        -1.2934      0.8521776       0.974132
     13375.0000         6.8521        107.595        70.3828       67.74198          2.349       -40.7722     -0.7722015      0.7391911       0.984556
     13375.5000         6.8511       106.7096        69.5676       66.73557         2.3645       -40.3843     -0.3843002       0.717778       0.992314
     13376.0000         6.8462       106.9164         69.066       66.11631         2.3743       -40.2309     -0.2308998      0.7046024       0.995382
     13376.5000          6.835       107.4111        68.5902        65.5289           2.38       -40.3801     -0.3801003      0.6921043       0.992398
     13377.0000         6.8159       107.4819        67.7828       64.53211         2.3847       -40.6057     -0.6057014       0.670896       0.987886
     13377.5000         6.7736       107.3362        64.5148       60.49754         2.3814       -40.8962     -0.8961983      0.5850541       0.982076
     13378.0000         6.7435       107.3628        61.1411       56.33248         2.3829       -41.1748      -1.174801      0.4964358       0.976504
     13378.5000         6.7232       107.4705        58.6924       53.30939         2.3906       -41.6157        -1.6157      0.4321148       0.967686
     13379.0000         6.7248       108.2083        60.4922       55.53136         2.3945       -42.2184      -2.218399      0.4793907       0.955632
     13379.5000         6.7299       109.0454        62.4627       57.96408         2.3844       -42.3707      -2.370701      0.5311508       0.952586
     13380.0000         6.7356       109.5123        65.1395       61.26878         2.3732        -41.599      -1.598999      0.6014634        0.96802
     13380.5000         6.7405       109.5609        69.1381       66.20532         2.3732       -40.9387     -0.9387016      0.7064962       0.981226
     13381.0000         6.7459       109.2667        72.9877       70.95791         2.3832        -40.511     -0.5110016      0.8076151      0.9897799
     13381.5000         6.7536       108.4611        72.9083       70.85989         2.3691       -40.3312     -0.3311996      0.8055295       0.993376
     13382.0000         6.7576       107.6543        71.5219       69.14828         2.3514       -40.5302      -0.530201      0.7691123       0.989396
     13382.5000         6.7542       107.1469        69.3994       66.52791         2.3426       -41.0789      -1.078899      0.7133598       0.978422
     13383.0000         6.7512       106.7942        69.1008       66.15926         2.3372       -41.6769      -1.676899      0.7055162       0.966462
     13383.5000         6.7766       106.5033        67.2926       63.92693         2.3437       -42.2292      -2.229198      0.6580198       0.955416
     13384.0000         6.8173        106.256        65.7042       61.96594         2.3554       -42.6259        -2.6259      0.6162966       0.947482
     13384.5000         6.8534       106.0564        66.8241       63.34852         2.3682       -42.9326      -2.932598      0.6457132       0.941348
     13385.0000         6.8527       105.9348        66.8986        63.4405         2.3884       -43.3005      -3.300499      0.6476701        0.93399
     13385.5000         6.8343       105.9351        67.6194       64.33038         2.4058       -43.3365      -3.336498      0.6666039        0.93327
     13386.0000         6.7605       106.3721        70.8298       68.29385         2.4267       -43.3466        -3.3466      0.7509329       0.933068
     13386.5000         6.7413       106.9261        72.0625       69.81569         2.4253       -43.5952        -3.5952      0.7833126       0.928096
     13387.0000         6.7385       107.3307        71.8367       69.53693         2.4132       -44.0698      -4.069801      0.7773814       0.918604
     13387.5000         6.7464       107.5294        73.1511       71.15964         2.3979       -44.3052      -4.305199      0.8119072       0.913896
     13388.0000          6.757       107.5917        72.9155       70.86877         2.3967       -44.5225      -4.522499      0.8057186        0.90955
     13388.5000         6.7654       107.5969        70.8899       68.36803            2.4       -44.1584      -4.158401      0.7525114       0.916832
     13389.0000         6.7683       107.5403        70.1906        67.5047         2.3817       -43.0369        -3.0369      0.7341425       0.939262
     13389.5000         6.7607       107.4932        69.3231       66.43371         2.3631       -42.0244      -2.024399      0.7113555       0.959512
     13390.0000         6.7496       107.4763        69.4722       66.61778         2.3785       -41.5641      -1.564098      0.7152719      0.9687181
     13390.5000         6.7506       107.4828        69.2439       66.33593         2.3935       -41.5438        -1.5438      0.7092751       0.969124
     13391.0000         6.7528       107.5334        68.1456          64.98         2.3953       -41.0742        -1.0742      0.6804256       0.978516
     13391.5000         6.7574       107.5513        67.5233       64.21174         2.3795       -43.0728        -3.0728      0.6640795       0.938544
     13392.0000         6.7648       107.5551        68.2971       65.16705         2.3595       -44.1464        -4.1464      0.6844052       0.917072
     13392.5000         6.7725       107.5397        69.5201       66.67693         2.3492       -42.2005        -2.2005      0.7165303        0.95599
     13393.0000         6.7801       107.5038        70.3336       67.68124         2.3749       -40.5325     -0.5325012      0.7378988        0.98935
     13393.5000         6.7797       107.5471         69.722       66.92618         2.3998       -39.0323       0.967701      0.7218336              1
     13394.0000         6.7658       107.5718        69.5244       66.68223         2.4126       -37.9899       2.010101      0.7166432              1
     13394.5000         6.7563       107.5944        69.9563       67.21544          2.421       -37.6465         2.3535      0.7279881              1
     13395.0000         6.7424       107.6079        71.2911       68.86334         2.4112       -37.6799       2.320099      0.7630498              1
     13395.5000         6.7221       107.6115        73.4827       71.56902         2.3853       -37.7236       2.276402      0.8206174              1
