#------------------------------------------------------------------------------
# Created by    : vladimir.rabinovich
# Created on    : 09/19/2023 17:20:02
#------------------------------------------------------------------------------
~Version Information Section
VERS.           2.0     :   CWLS log ASCII Standard - VERSION 2.0
WRAP.           NO      :   One line per depth step
~Well Information Section
#MNEM       .UNIT                                         VALUE :DESCRIPTION
#------------------------------------------------------------------------------
STRT        .FT                                             994 :START DEPTH
STOP        .FT                                           14137 :STOP DEPTH
STEP        .FT                                             0.5 :STEP      
NULL        .                                           -999.25 :NULL      
COMP        .                                   MARATHON OIL CO :COMPANY   
WELL        .                                     ST TR 00841-L :WELL      
FLD         .                                           WILDCAT :FIELD     
LOC         .                                                   :LOCATION  
CNTY        .                        MUSTANG ISLAND LARGE BLOCK :LOCATION  
STAT        .                                             TEXAS :STATE     
CTRY        .                                     UNITED STATES :COUNTRY   
SRVC        .                                                   :SERVICE COMPANY
DATE        .                             9/13/2023 11:18:55 AM :LOG DATE  
API         .                                    42702301400000 :API NUMBER
UWI         .                                    42702301400000 :UNIQUE WELL ID
XCOORD      .                                  272565.632686387 :SURFACE X 
YCOORD      .                                  9953986.84876921 :SURFACE Y 
LAT         .                                         27.367086 :LATITUDE  
LON         .                                       -97.2136853 :LONGITUDE 
ELEV        .FT                                              88 :ELEVATION VALUE
ELEV_TYPE   .                                                KB :ELEVATION REFERENCE TYPE
~Curve Information Section
#MNEM       .UNIT                                      API CODE :CURVE DESCRIPTION
#------------------------------------------------------------------------------
DEPT        .FT                                                 :DEPTH     
ASFL        .OHMM                                               :          
CILD        .MMHO                                               :          
GR          .GAPI                                               :          
GR_NORM     .GAPI                                               :GammaRay Normalized
ILD         .OHMM                                               :          
SP          .MV                                                 :          
SP_NORM     .MV                                                 :SP Normalized
VSH_GR      .V/V                                                :Volume of Shale from GR
VSH_SP      .V/V                                                :Volume of Shale from SP
~A        DEPTH           ASFL           CILD             GR        GR_NORM            ILD             SP        SP_NORM         VSH_GR         VSH_SP
# ...
     11488.0000          3.411       459.3647        48.9506       60.71632         1.7364       -66.5321      -21.69209       0.589709      0.3914092
     11488.5000         3.2504       482.4736        50.1238       62.89322         1.6882       -69.9644      -25.13676       0.636026      0.2900954
     11489.0000         3.1003       505.4829        51.2969       65.06992         1.6399       -75.0056      -30.19033      0.6823388       0.141461
     11489.5000         2.9499       528.0439         55.723       73.28619         1.5927       -78.7169        -33.914      0.8571529     0.03194113
     11490.0000         2.5917       550.5557        57.8849        77.2987         1.5588       -80.3906      -35.60007      0.9425255              0
     11490.5000         2.4014       573.1172        56.1215       74.02345         1.5247       -82.5974      -37.81923      0.8728393              0
     11491.0000         2.2723       595.6777        54.1787       70.41515         1.4908       -83.8379      -39.07211      0.7960671              0
     11491.5000         2.1799       618.1895         52.231       66.79773         1.4602       -82.1591      -37.40568      0.7191007              0
     11492.0000         2.1037       644.3369        50.1138       62.86562         1.4353       -80.1416      -35.40055      0.6354388              0
     11492.5000         2.0737       679.7471        47.9219       58.79482         1.4179       -77.4167      -32.68802      0.5488259     0.06799944
     11493.0000         2.1105       701.0508        45.7301       54.72419         1.4108       -73.9695      -29.25319      0.4622167       0.169024
     11493.5000         2.1473       703.5977        43.7674       51.07893         1.4007       -70.6083      -25.90436       0.384658      0.2675189
     11494.0000         2.1926         707.04        42.2156       48.19654          1.389       -71.5336      -26.84203      0.3233307      0.2399403
     11494.5000         2.2443       711.6094        40.6639       45.31435         1.3772       -72.4675       -27.7883      0.2620074      0.2121088
     11495.0000         2.2768       716.1914        39.6028       43.34299         1.3654       -73.4016      -28.73477      0.2200636      0.1842714
     11495.5000          2.248       720.7734        40.5718       45.14076         1.3537       -73.8362      -29.18174       0.258314      0.1711254
     11496.0000         2.1381       725.3555        41.5406       46.93815         1.3432       -74.2311      -29.58901      0.2965564      0.1591467
     11496.5000         2.0282       729.9375        42.1484       48.06532         1.3328       -74.6265      -29.99678      0.3205386      0.1471534
     11497.0000         1.9343       734.4199        41.8644       47.53673         1.3386       -74.8662      -30.24885      0.3092921      0.1397396
     11497.5000         1.8986       738.8584        41.3713       46.61996         1.3514       -73.1924      -28.58742      0.2897864      0.1886054
     11498.0000         1.9223        743.291        40.8794       45.70539         1.3675       -72.1886      -27.59599      0.2703274       0.217765
     11498.5000         1.8795       739.9229        41.0052       45.93766         1.3927       -71.1848      -26.60456      0.2752694      0.2469247
     11499.0000         1.8937       733.6357        41.3987       46.66694         1.4179       -70.2184      -25.65053       0.290786      0.2749845
     11499.5000         1.9282       722.7285        40.3003       44.62635         1.4431       -69.2919       -24.7364      0.2473692      0.3018706
     11500.0000         1.9628       707.1641        39.2043       42.59021         1.4683       -68.3654      -23.82227      0.2040469      0.3287567
     11500.5000         2.0029       691.6006        38.8771       41.98143         1.4934       -67.1947      -22.66394      0.1910943      0.3628252
     11501.0000         2.2158       676.0371        39.5331       43.19808         1.5227        -65.892      -21.37361      0.2169804      0.4007762
     11501.5000         2.2595       660.4736         40.634       45.24073         1.5522        -64.801      -20.29498      0.2604412      0.4325005
     11502.0000         2.2836       645.5322        40.0524       44.15963         1.5817       -64.0402      -19.54655      0.2374389      0.4545132
     11502.5000         2.3175       635.3965        39.2442       42.65784          1.593       -63.8453      -19.36402      0.2054859      0.4598817
     11503.0000         2.3632       625.2617         38.436       41.15602         1.6017        -64.298      -19.82909      0.1735323      0.4462034
     11503.5000         2.4364        615.127        37.6277       39.65403         1.6104       -64.7145      -20.25796      0.1415751      0.4335894
     11504.0000         2.5535       605.0166        36.8182        38.1498         1.6191       -64.9474      -20.50323      0.1095702      0.4263754
     11504.5000         2.6192       599.4941        35.9576       36.55071         1.6285       -64.7363       -20.3045     0.07554708      0.4322206
     11505.0000         2.6848       596.8359        35.4557       35.61758         1.6516       -64.2207      -19.80127     0.05569328      0.4470214
     11505.5000         2.7364       594.1777        36.7049       37.93557         1.6748       -63.5507      -19.14364      0.1050122      0.4663635
     11506.0000         2.7735       590.4609        37.4285       39.27772          1.713       -62.4971      -18.10241      0.1335685      0.4969878
     11506.5000         2.8107       582.4795        38.1533       40.62212         1.7513       -61.4435      -17.06118      0.1621727      0.5276122
     11507.0000         2.8478        574.499        37.9901       40.31781         1.7824       -60.3775      -16.00755      0.1556982      0.5586015
     11507.5000         2.8827       566.5049        37.8182       39.99736         1.7537       -59.2965      -14.93892      0.1488801      0.5900317
     11508.0000         2.9176       558.5244         38.106       40.53041         1.7251        -58.218      -13.87279      0.1602214      0.6213885
     11508.5000          2.822        550.543        38.5667       41.38446         1.6965       -57.1072      -12.77436      0.1783928      0.6536952
     11509.0000         2.6582       554.0049        40.6091       45.17511         1.6678        -55.934      -11.61353       0.259045      0.6878372
     11509.5000         2.4993       562.2598        42.6465       48.95649         1.6391       -54.7609       -10.4528      0.3394998      0.7219765
     11510.0000         2.4024       570.5146        45.6105       54.45819         1.6378        -53.919      -9.623272      0.4565573      0.7463744
     11510.5000         2.3055       578.7695         48.597       60.00169         1.6699       -54.4968      -10.21344       0.574504      0.7290164
     11511.0000         2.2088        588.332        50.0167       62.63622         1.7018       -55.0759      -10.80492      0.6305578      0.7116201
     11511.5000         2.1223       603.5723         47.379       57.73775         1.7339       -55.6538      -11.39518      0.5263351      0.6942593
     11512.0000         2.0682       618.8369        44.0414       51.53982         1.7659       -56.2317      -11.98545      0.3944642      0.6768984
     11512.5000          2.302       602.5508        40.2604       44.51867         1.7979       -56.8095      -12.57563       0.245078      0.6595404
     11513.0000         2.6767       581.4346        36.9951       38.45496         1.8299       -57.3936       -13.1721      0.1160631      0.6419972
     11513.5000         2.9729       559.5703        35.8817       36.38653         1.9348       -57.9914      -13.78226     0.07205387       0.624051
     11514.0000         3.2137       537.5566        34.7708       34.32273         2.0764       -58.5892      -14.39243     0.02814313      0.6061049
