#------------------------------------------------------------------------------
# Created by    : vladimir.rabinovich
# Created on    : 09/19/2023 17:19:43
#------------------------------------------------------------------------------
~Version Information Section
VERS.           2.0     :   CWLS log ASCII Standard - VERSION 2.0
WRAP.           NO      :   One line per depth step
~Well Information Section
#MNEM       .UNIT                                         VALUE :DESCRIPTION
#------------------------------------------------------------------------------
STRT        .FT                                            1054 :START DEPTH
STOP        .FT                                           13910 :STOP DEPTH
STEP        .FT                                             0.5 :STEP      
NULL        .                                           -999.25 :NULL      
COMP        .                                            MTS LP :COMPANY   
WELL        .                                ST TR 00061-L SW/4 :WELL      
FLD         .                                           WILDCAT :FIELD     
LOC         .                                                   :LOCATION  
CNTY        .                           HIGH ISLAND LARGE BLOCK :LOCATION  
STAT        .                                             TEXAS :STATE     
CTRY        .                                     UNITED STATES :COUNTRY   
SRVC        .                                                   :SERVICE COMPANY
DATE        .                             9/13/2023 11:19:15 AM :LOG DATE  
API         .                                    42708302730000 :API NUMBER
UWI         .                                    42708302730000 :UNIQUE WELL ID
XCOORD      .                                  1164861.29381137 :SURFACE X 
YCOORD      .                                   10674042.082625 :SURFACE Y 
LAT         .                                        29.4036169 :LATITUDE  
LON         .                                       -94.4939126 :LONGITUDE 
ELEV        .FT                                              78 :ELEVATION VALUE
ELEV_TYPE   .                                                KB :ELEVATION REFERENCE TYPE
~Curve Information Section
#MNEM       .UNIT                                      API CODE :CURVE DESCRIPTION
#------------------------------------------------------------------------------
DEPT        .FT                                                 :DEPTH     
ASFL        .OHMM                                               :          
CILD        .MMHO                                               :          
ILD         .OHMM                                               :          
SP          .MV                                                 :          
SP_NORM     .MV                                                 :SP Normalized
VSH_SP      .V/V                                                :Volume of Shale from SP
~A        DEPTH           ASFL           CILD            ILD             SP        SP_NORM         VSH_SP
      1054.0000         2.4399       389.4067          2.427      -111.5206      -1.217567      0.9896396
      1054.5000         2.4176       392.8037         2.4178       -110.793     -0.4899673              1
      1055.0000         2.3942       395.7563         2.4151      -110.0776      0.2254333              1
      1055.5000         2.3685       397.6201         2.4123      -109.4534      0.8496323              1
      1056.0000         2.3395       399.4834         2.4096      -108.8859        1.41713              1
      1056.5000         2.3099       397.7134         2.4134      -108.2782       2.024834              1
      1057.0000         2.2811       393.7026         2.4342       -107.817       2.486031              1
      1057.5000         2.2523       388.3667         2.4636      -107.4857       2.793839              1
      1058.0000         2.2235       380.2593         2.4961      -107.1543       2.802208              1
      1058.5000         2.2075       372.1514         2.5401      -106.8467       2.786766              1
      1059.0000         2.2316        358.229         2.5927      -106.5665       2.743935              1
      1059.5000         2.3148       336.9434         2.6674      -106.2864       2.700996              1
      1060.0000         2.6269       308.2603          2.849      -106.0062       2.658157              1
      1060.5000         2.9586       273.8828         3.1594      -105.7261       2.615234              1
      1061.0000         3.2903       246.9346         3.4698       -105.446       2.572296              1
      1061.5000          3.622       225.2776         3.7803      -105.1816       2.513657              1
      1062.0000         3.9538       210.6702         4.0907      -104.9528       2.419426              1
      1062.5000          4.424       197.3174         4.4011      -104.7239       2.325287              1
      1063.0000           4.64       185.0256         4.7115      -104.5007       2.225449              1
      1063.5000         4.7477       178.2815         5.5115      -104.2975       2.105614              1
      1064.0000         4.8147       171.5376         5.5525      -104.0764       2.003677              1
      1064.5000         4.8561       179.8691         5.4269      -103.8396       1.917442              1
      1065.0000         4.8189       200.4668         5.1923      -103.5596       1.874405              1
      1065.5000         4.7359       229.7461         4.5748      -103.2188       1.892166              1
      1066.0000         4.6529       267.2617         3.9573      -102.8099       1.978035              1
      1066.5000         4.4771       309.2798         3.3536       -102.219       2.245895              1
      1067.0000         3.9472       361.2109         2.7575      -101.4567       2.685158              1
      1067.5000         3.1457       406.1221         2.2774       -100.938       2.880821              1
      1068.0000         2.6408       441.5186         2.1155      -100.5016       2.994186              1
      1068.5000         2.3496       468.6914         2.0325      -100.3861       2.786652              1
      1069.0000         2.1561        495.062         1.9557      -100.5032       2.346519              1
      1069.5000         2.0099       511.1914         1.8984      -100.7241       1.802582              1
      1070.0000          1.947       527.3203         1.8411      -100.9451       1.258545              1
      1070.5000         1.9332       541.5234          1.808      -100.9175      0.9631042              1
      1071.0000         1.9222       549.1953         1.7823      -100.8896      0.6679764              1
      1071.5000         1.9025       556.8662         1.7566      -100.8618      0.3727417              1
      1072.0000         1.8866       559.1182         1.7419      -100.8341     0.07740784              1
      1072.5000         1.8573       561.0479         1.7317      -100.8063     -0.2020798              1
      1073.0000         1.8306       562.9775         1.7216      -100.7406     -0.1702499              1
      1073.5000         1.8097       563.7637         1.7115       -100.651     -0.1145172              1
      1074.0000         1.7945       563.4502         1.7113      -100.5615    -0.05888367              1
      1074.5000         1.7815       563.1367         1.7125      -100.4702   -0.001449585              1
      1075.0000         1.7793       562.8232         1.7137      -100.3693     0.06558228              1
      1075.5000         1.7845        561.374         1.7149      -100.2683      0.1327133              1
      1076.0000         1.7948        559.416         1.7245      -100.1675       0.199646              1
      1076.5000         1.8053        557.457         1.7355      -100.0938      0.2394791              1
      1077.0000         1.8169        555.498         1.7464      -100.0322      0.2672119              1
      1077.5000         1.8279       552.2217         1.7574       -99.9827      0.2828522              1
      1078.0000         1.8371       548.7451         1.7733       -99.9841      0.2475815              1
      1078.5000          1.845       545.2686         1.7951       -99.9885      0.2093124              1
      1079.0000         1.8516        541.792         1.8169      -100.0284      0.1355515              1
      1079.5000         1.8601       535.9346         1.8388      -100.0684     0.06168365              1
      1080.0000         1.8699       527.3965         1.8672      -100.1082    -0.01198578              1
      1080.5000         1.8796       518.8594         1.9045      -100.2632     -0.2008438              1
      1081.0000         1.9041       510.3223         1.9531      -100.4957     -0.4672089              1
      1081.5000         1.9397       495.3906         2.0125      -100.8202     -0.8255768              1
      1082.0000           2.01       479.1328         2.0876      -101.1544      -1.193649      0.9907786
      1082.5000         2.0765       457.5679         2.1798       -101.592      -1.665115      0.9683278
      1083.0000         2.5489        425.187         2.3304      -102.1487      -2.255676      0.9402059
      1083.5000         3.0066       371.2227         2.5685      -102.9106      -3.051445      0.9023122
      1084.0000         3.4642       309.2368         2.8782      -103.9005      -4.075211      0.8535614
      1084.5000         3.9219       256.8633         3.5325      -104.2434      -4.451981        0.83562
      1085.0000         4.3796       218.4629          4.187      -104.5339      -4.776344      0.8201741
      1085.5000         4.8372       199.2568         4.8413      -104.7402       -5.01651      0.8087376
      1086.0000          5.266       180.8503         5.4957      -104.9464      -5.256584      0.7973055
      1086.5000         5.6668       167.3071         6.1135      -105.1421      -5.486145       0.786374
      1087.0000         6.0785        158.425         6.3367      -105.3363      -5.714218      0.7755134
      1087.5000         6.4384       156.1724         6.4452      -105.5305      -5.942284      0.7646531
      1088.0000         6.4881       153.9202          6.503      -105.6746      -6.120247      0.7561787
      1088.5000         6.5334       152.2263         6.5494       -105.787      -6.266518      0.7492135
      1089.0000         6.5645       150.7319         6.5912      -105.8994      -6.412781      0.7422485
      1089.5000           6.59       149.2371         6.6105      -106.0118      -6.559052      0.7352833
      1090.0000         6.6032       147.7427         6.6297      -106.1241      -6.705215      0.7283231
      1090.5000         6.6163       146.2483         6.6423      -106.2588      -6.873779      0.7202962
      1091.0000          6.623       144.7539         6.6501      -106.3933      -7.042152      0.7122785
      1091.5000         6.6103       144.5554         6.6579       -106.528      -7.210716      0.7042516
