#------------------------------------------------------------------------------
# Created by    : vladimir.rabinovich
# Created on    : 09/19/2023 17:21:52
#------------------------------------------------------------------------------
~Version Information Section
VERS.           2.0     :   CWLS log ASCII Standard - VERSION 2.0
WRAP.           NO      :   One line per depth step
~Well Information Section
#MNEM       .UNIT                                         VALUE :DESCRIPTION
#------------------------------------------------------------------------------
STRT        .FT                                            1924 :START DEPTH
STOP        .FT                                            6497 :STOP DEPTH
STEP        .FT                                             0.5 :STEP      
NULL        .                                           -999.25 :NULL      
COMP        .                                ATP OIL & GAS CORP :COMPANY   
WELL        .                               OCS G12451 ST00BP00 :WELL      
FLD         .                                           WILDCAT :FIELD     
LOC         .                                                   :LOCATION  
CNTY        .                                BRAZOS LARGE BLOCK :LOCATION  
STAT        .                                             TEXAS :STATE     
CTRY        .                                     UNITED STATES :COUNTRY   
SRVC        .                                                   :SERVICE COMPANY
DATE        .                             9/13/2023 11:09:51 AM :LOG DATE  
API         .                                    42704402900000 :API NUMBER
UWI         .                                    42704402900000 :UNIQUE WELL ID
XCOORD      .                                  861130.254262163 :SURFACE X 
YCOORD      .                                  10349158.9913488 :SURFACE Y 
LAT         .                                        28.4964901 :LATITUDE  
LON         .                                       -95.4265639 :LONGITUDE 
ELEV        .FT                                              91 :ELEVATION VALUE
ELEV_TYPE   .                                                KB :ELEVATION REFERENCE TYPE
~Curve Information Section
#MNEM       .UNIT                                      API CODE :CURVE DESCRIPTION
#------------------------------------------------------------------------------
DEPT        .FT                                                 :DEPTH     
CALI        .IN                                                 :          
DPHI        .G/C3                                               :          
DRHO        .G/C3                                               :          
GR          .GAPI                                               :          
GR_NORM     .GAPI                                               :GammaRay Normalized
ILD         .OHMM                                               :          
ILM         .OHMM                                               :          
NPHI        .%                                                  :          
SFL         .OHMM                                               :          
SP          .MV                                                 :          
SP_NORM     .MV                                                 :SP Normalized
VSH_GR      .V/V                                                :Volume of Shale from GR
VSH_SP      .V/V                                                :Volume of Shale from SP
~A        DEPTH           CALI           DPHI           DRHO             GR        GR_NORM            ILD            ILM           NPHI            SFL             SP        SP_NORM         VSH_GR         VSH_SP
# ...
      3786.0000         9.8833        25.1779         0.0213         83.069       71.61787         0.5866         0.5554        39.2039          0.599       -76.1705      -13.37981      0.8216568      0.7572587
      3786.5000         9.9188        25.2549         0.0149        81.2183       69.76471         0.5511         0.5385         39.389         0.7926       -78.2982      -15.50751      0.7822279      0.7155391
      3787.0000         9.9181        25.4652         0.0086        75.9844       64.52836          0.519         0.5175         39.088         1.0312       -83.7074       -20.9167      0.6708161      0.6094764
      3787.5000         9.9209        26.0975          0.003          70.64       59.18151         0.4895         0.4904        38.5794         0.9856       -86.7987        -24.008      0.5570534      0.5488627
      3788.0000         9.9658        27.4521         0.0005        68.9747       57.51376         0.4621         0.4705        38.3104         0.6764       -87.0033      -24.21261      0.5215694      0.5448508
      3788.5000        10.1664        29.4941        -0.0002        68.9203       57.45692         0.4425         0.4541        38.0422         0.4572       -86.6151       -23.8244      0.5203599      0.5524627
      3789.0000        10.4155        30.3384         0.0037        65.9282       54.46236         0.4291         0.4418          38.15         0.5634       -88.4105       -25.6198      0.4566461      0.5172588
      3789.5000        10.6687        30.8896         0.0123        61.9761       50.50782         0.4179         0.4341        38.4989         0.6358       -90.2058      -27.41511      0.3725067      0.4820567
      3790.0000        10.9174        31.0212         0.0268        62.9024       51.43167         0.4103         0.4321        38.5028         0.6762        -88.912      -26.12131      0.3921631      0.5074254
      3790.5000        10.9034        29.3185         0.0364        68.9802       57.50702         0.4031         0.4322        38.0427          0.652       -86.9977      -24.20701       0.521426      0.5449606
      3791.0000        10.3361        26.5974         0.0329        70.9923       59.51667         0.4014         0.4297        37.8347          0.533       -88.7174       -25.9267      0.5641845      0.5112411
      3791.5000         9.9725        26.0051         0.0171        68.9259       57.44782         0.4028         0.4266        38.3307         0.4816        -93.947       -31.1563      0.5201665      0.4086999
      3792.0000         9.9672         28.153         0.0056        60.8159       49.33537         0.4027         0.4267        39.7653          0.616       -99.9076      -37.11691       0.347561      0.2918254
      3792.5000        10.6287        32.4716         0.0114        54.0308       42.54782          0.402          0.426        40.4247         0.7779      -103.6725      -40.88181      0.2031451      0.2180038
      3793.0000         11.268        37.9109         0.0625        49.9664       38.48097          0.404         0.4252         41.835          0.981      -107.2211       -44.4304      0.1166164      0.1484234
      3793.5000        11.8698        41.7647         0.1293          48.86       37.37212           0.41         0.4267        43.0762         1.0597      -107.8586       -45.0679     0.09302391      0.1359235
      3794.0000        12.1031        42.0038         0.1461        50.9731       39.48277         0.4219         0.4314        42.1144         0.9812      -106.5817      -43.79101      0.1379312      0.1609606
      3794.5000        11.9743        39.6981         0.1404         57.036       45.54322          0.439         0.4449        39.6921         0.8469      -100.9031       -38.1124       0.266877      0.2723058
      3795.0000        11.5275        36.6974          0.122        62.6835       51.18827         0.4613         0.4627        37.5761         0.8608       -94.6007      -31.81001      0.3869844      0.3958822
      3795.5000        11.0454        33.3143         0.0796        66.6449       55.14722          0.485         0.4828          36.47           0.86       -91.0752      -28.28451      0.4712174      0.4650097
      3796.0000        10.5449        32.1913         0.0584        73.7949       62.29477         0.5047         0.5054        36.4924          0.763       -83.0088       -20.2181       0.623293      0.6231745
      3796.5000        10.2796        31.6414         0.0502        82.6311       71.12852          0.519         0.5213        37.5179         0.6151       -77.9141      -15.12341      0.8112452      0.7230705
      3797.0000        10.1559        30.0328         0.0587        92.0959       80.59087         0.5313         0.5291        38.8672         0.4971       -72.0781      -9.287407              1      0.8375018
      3797.5000        10.1519        27.9796         0.0673        94.8944       83.38692         0.5379          0.535         39.095         0.4891       -71.3552      -8.564507              1      0.8516763
      3798.0000        10.1539         25.381          0.055        93.2374       81.72352         0.5389         0.5326        38.9744         0.5511       -73.1136      -10.32291              1      0.8171979
      3798.5000         10.221        24.8158         0.0346        89.4799       77.94379         0.5361         0.5277        38.4697          0.706       -75.9255       -13.1348      0.9562508      0.7620627
      3799.0000        10.2349        25.5282         0.0184         86.847       75.28866         0.5283         0.5214        37.5676         0.7738       -77.9645      -15.17381      0.8997587      0.7220823
      3799.5000        10.2578        26.9328         0.0116        85.1283       73.54773         0.5209         0.5153        36.9018         0.7833       -78.1682       -15.3775      0.8627176      0.7180882
      3800.0000        10.2697        27.6273         0.0159        84.4602       72.85739         0.5159         0.5112        36.7543         0.6735       -76.8923      -14.10161      0.8480296      0.7431057
      3800.5000        10.2712        27.7508         0.0278        85.3688       73.74376          0.511         0.5107         37.463         0.6346       -75.3834       -12.5927      0.8668885      0.7726921
      3801.0000        10.2239        27.7096          0.033        86.6132       74.96593         0.5086         0.5128        38.0125         0.6425         -75.23      -12.43931      0.8928921      0.7756999
      3801.5000        10.1765        27.7657         0.0339        86.6882        75.0187         0.5101         0.5172        38.3001         0.6875       -75.6139       -12.8232      0.8940149      0.7681724
      3802.0000        10.1313        27.8924         0.0346        86.4387       74.74696         0.5158         0.5213         38.537         0.6827       -75.8931       -13.1024      0.8882332       0.762698
      3802.5000        10.1041        28.0739         0.0359        86.7478       75.03384         0.5244         0.5318          38.85         0.6507       -75.9329       -13.1422      0.8943371      0.7619176
      3803.0000        10.1265        28.0444          0.035           87.6       75.86381         0.5339         0.5453        38.8777         0.6458       -76.6733      -13.88261      0.9119959      0.7473999
      3803.5000        10.1883        27.8506         0.0302        87.0847       75.32628          0.543          0.555        38.1059         0.7805       -77.9951      -15.20441      0.9005591      0.7214822
      3804.0000        10.2336        27.3737         0.0248        84.2029       72.42225         0.5512          0.561        37.8103         0.8746       -79.1232       -16.3325      0.8387712      0.6993626
      3804.5000        10.2518        26.6807         0.0158        79.9537       68.15081         0.5602         0.5684        36.7901         0.9585        -78.864       -16.0733      0.7478896      0.7044451
