#------------------------------------------------------------------------------
# Created by    : vladimir.rabinovich
# Created on    : 09/19/2023 17:20:54
#------------------------------------------------------------------------------
~Version Information Section
VERS.           2.0     :   CWLS log ASCII Standard - VERSION 2.0
WRAP.           NO      :   One line per depth step
~Well Information Section
#MNEM       .UNIT                                         VALUE :DESCRIPTION
#------------------------------------------------------------------------------
STRT        .FT                                            1092 :START DEPTH
STOP        .FT                                            8058 :STOP DEPTH
STEP        .FT                                             0.5 :STEP      
NULL        .                                           -999.25 :NULL      
COMP        .                                    EXXON CO U S A :COMPANY   
WELL        .                               OCS G03029 ST00BP00 :WELL      
FLD         .                                           WILDCAT :FIELD     
LOC         .                                                   :LOCATION  
CNTY        .                        MUSTANG ISLAND LARGE BLOCK :LOCATION  
STAT        .                                             TEXAS :STATE     
CTRY        .                                     UNITED STATES :COUNTRY   
SRVC        .                                                   :SERVICE COMPANY
DATE        .                             9/13/2023 11:19:13 AM :LOG DATE  
API         .                                    42702400190000 :API NUMBER
UWI         .                                    42702400190000 :UNIQUE WELL ID
XCOORD      .                                  486295.566528254 :SURFACE X 
YCOORD      .                                  10047803.1546112 :SURFACE Y 
LAT         .                                         27.643077 :LATITUDE  
LON         .                                        -96.564717 :LONGITUDE 
ELEV        .FT                                              70 :ELEVATION VALUE
ELEV_TYPE   .                                                KB :ELEVATION REFERENCE TYPE
~Curve Information Section
#MNEM       .UNIT                                      API CODE :CURVE DESCRIPTION
#------------------------------------------------------------------------------
DEPT        .FT                                                 :DEPTH     
ASN         .OHMM                                               :          
CALI        .IN                                                 :          
CIL         .MMHO                                               :          
DRHO        .G/C3                                               :          
DT          .US/F                                               :          
GR          .GAPI                                               :          
GR_NORM     .GAPI                                               :GammaRay Normalized
ILD         .OHMM                                               :          
NPHI        .%                                                  :          
RHOB        .G/C3                                               :          
SN          .OHMM                                               :          
SP          .MV                                                 :          
SP_NORM     .MV                                                 :SP Normalized
VSH_GR      .V/V                                                :Volume of Shale from GR
VSH_SP      .V/V                                                :Volume of Shale from SP
~A        DEPTH            ASN           CALI            CIL           DRHO             DT             GR        GR_NORM            ILD           NPHI           RHOB             SN             SP        SP_NORM         VSH_GR         VSH_SP
# ...
      1228.0000         0.5345        -999.25       1891.477        -999.25        -999.25         58.418       75.75274         0.4465        -999.25        -999.25         0.7662      -123.6394       3.009926      0.9096327              1
      1228.5000         0.5921        -999.25       1845.672        -999.25        -999.25        61.2073       77.89487         0.4586        -999.25        -999.25         0.7646      -119.6083       4.705391      0.9552101              1
      1229.0000         0.6974        -999.25        1802.35        -999.25        -999.25        64.4525        80.8327          0.469        -999.25        -999.25         0.7608      -114.9084       7.069656              1              1
      1229.5000         0.7328        -999.25       1756.438        -999.25        -999.25        68.0988       84.47047         0.4849        -999.25        -999.25         0.7589      -111.5986       8.043823              1              1
      1230.0000         0.7549        -999.25       1726.801        -999.25        -999.25        71.5225       87.71978         0.4908        -999.25        -999.25         0.7667      -110.2826       7.024193              1              1
      1230.5000         0.7678        -999.25       1735.391        -999.25        -999.25        74.2101       89.68442         0.4937        -999.25        -999.25         0.7715      -109.9357       5.035461              1              1
      1231.0000         0.7766        -999.25       1746.574        -999.25        -999.25        76.9501       91.43771         0.4905        -999.25        -999.25         0.7703      -109.5044       3.131126              1              1
      1231.5000         0.7783        -999.25       1749.648        -999.25        -999.25        79.8467       92.40421         0.4863        -999.25        -999.25         0.7675      -109.1322       1.167694              1              1
      1232.0000          0.777        -999.25       1747.736        -999.25        -999.25        82.5305       92.99933         0.4825        -999.25        -999.25         0.7636      -109.0377     -0.9945526              1              1
      1232.5000         0.7755        -999.25        1751.02        -999.25        -999.25        84.8358       92.93388           0.48        -999.25        -999.25         0.7587      -109.7258      -1.763504              1              1
      1233.0000         0.7734        -999.25       1759.648        -999.25        -999.25        86.5576       91.85012         0.4789        -999.25        -999.25         0.7542      -110.9703      -3.088852              1      0.9624534
      1233.5000         0.7713        -999.25        1774.43        -999.25        -999.25        88.0724       90.40508         0.4778        -999.25        -999.25           0.75      -112.0927      -4.292099              1      0.9209621
      1234.0000         0.7693        -999.25       1789.211        -999.25        -999.25        89.7511       89.24609         0.4757        -999.25        -999.25         0.7469      -112.5861      -4.866348              1      0.9011604
      1234.5000         0.7672        -999.25       1802.754        -999.25        -999.25        90.3512        86.2047         0.4753        -999.25        -999.25         0.7456      -112.2827      -4.643799              1      0.9088345
      1235.0000         0.7654        -999.25       1814.363        -999.25        -999.25        90.2726       81.97885         0.4743        -999.25        -999.25         0.7461      -111.8368      -4.278748              1      0.9214225
      1235.5000         0.7635        -999.25       1816.592        -999.25        -999.25        90.8416       81.74201         0.4732        -999.25        -999.25         0.7476      -111.4254      -3.948196              1      0.9328208
      1236.0000         0.7616        -999.25        1813.42        -999.25        -999.25        89.5936        81.5154          0.473        -999.25        -999.25         0.7502      -111.0629      -3.666542              1       0.942533
      1236.5000         0.7603        -999.25       1808.414        -999.25        -999.25        88.0527       80.77762         0.4734        -999.25        -999.25         0.7529      -110.2964      -2.980896              1       0.966176
      1237.0000         0.7598        -999.25       1803.209        -999.25        -999.25        86.7092       80.38432         0.4753        -999.25        -999.25         0.7548      -109.1387      -1.904045              1              1
      1237.5000         0.7592        -999.25       1799.283        -999.25        -999.25        85.6229       80.43991         0.4761        -999.25        -999.25         0.7564      -108.4871       -1.33329              1              1
      1238.0000         0.7587        -999.25       1806.236        -999.25        -999.25        84.5471       80.51382         0.4743        -999.25        -999.25         0.7569      -109.2848      -2.211838              1      0.9926953
      1238.5000         0.7584        -999.25       1828.879        -999.25        -999.25        81.2432       76.69923         0.4694        -999.25        -999.25         0.7579      -110.0233      -3.031189      0.9297708      0.9644418
      1239.0000         0.7592        -999.25       1856.287        -999.25        -999.25        78.4077        73.7021         0.4639        -999.25        -999.25         0.7596      -110.4091      -3.497841       0.866002      0.9483503
      1239.5000         0.7599        -999.25       1888.074        -999.25        -999.25        76.1658        71.7409         0.4584        -999.25        -999.25         0.7609      -110.6978      -3.867386      0.8242744      0.9356074
      1240.0000         0.7606        -999.25       1925.342        -999.25        -999.25        76.1129       73.59999         0.4528        -999.25        -999.25         0.7632      -110.8226      -4.073036      0.8638296       0.928516
      1240.5000         0.7641        -999.25       1954.969        -999.25        -999.25        75.6497       74.74303         0.4471        -999.25        -999.25         0.7676      -110.4744      -3.805687      0.8881497       0.937735
      1241.0000          0.768        -999.25       1978.168        -999.25        -999.25        73.3656       72.70819         0.4421        -999.25        -999.25         0.7715      -109.8993      -3.311432      0.8448551      0.9547782
      1241.5000         0.7721        -999.25       1992.326        -999.25        -999.25        71.2489       70.96552         0.4392        -999.25        -999.25          0.775      -109.6432      -3.136185      0.8077771      0.9608212
      1242.0000         0.7764        -999.25       1998.252        -999.25        -999.25        70.0961       70.90504         0.4355        -999.25        -999.25         0.7754      -109.3672      -2.941032      0.8064901      0.9675506
      1242.5000         0.7806        -999.25       2004.059        -999.25        -999.25        70.5679       73.67986          0.431        -999.25        -999.25         0.7755       -108.899       -2.55368      0.8655288      0.9809076
      1243.0000         0.7829        -999.25       2009.035        -999.25        -999.25          71.53       77.31034         0.4272        -999.25        -999.25         0.7727      -108.3386      -2.074127      0.9427732      0.9974439
      1243.5000         0.7839        -999.25       2021.113        -999.25        -999.25        72.3597       80.70979         0.4232        -999.25        -999.25         0.7684      -107.7906      -1.606979              1              1
      1244.0000         0.7842        -999.25       2046.861        -999.25        -999.25        73.1359       84.01582         0.4181        -999.25        -999.25         0.7622      -107.5477      -1.444923              1              1
      1244.5000         0.7822        -999.25       2079.121        -999.25        -999.25        73.2523        84.3327         0.4124        -999.25        -999.25         0.7582      -107.0419      -1.019974              1              1
