#------------------------------------------------------------------------------
# Created by    : vladimir.rabinovich
# Created on    : 09/19/2023 17:22:32
#------------------------------------------------------------------------------
~Version Information Section
VERS.           2.0     :   CWLS log ASCII Standard - VERSION 2.0
WRAP.           NO      :   One line per depth step
~Well Information Section
#MNEM       .UNIT                                         VALUE :DESCRIPTION
#------------------------------------------------------------------------------
STRT        .FT                                          2841.5 :START DEPTH
STOP        .FT                                          6769.5 :STOP DEPTH
STEP        .FT                                             0.5 :STEP      
NULL        .                                           -999.25 :NULL      
COMP        .                      SPINNAKER EXPLORATION CO LLC :COMPANY   
WELL        .                               OCS G18941 ST00BP00 :WELL      
FLD         .                            HIGH ISLAND BLOCK 0235 :FIELD     
LOC         .                                                   :LOCATION  
CNTY        .                           HIGH ISLAND LARGE BLOCK :LOCATION  
STAT        .                                             TEXAS :STATE     
CTRY        .                                     UNITED STATES :COUNTRY   
SRVC        .                                                   :SERVICE COMPANY
DATE        .                             9/13/2023 11:20:02 AM :LOG DATE  
API         .                                    42708405540000 :API NUMBER
UWI         .                                    42708405540000 :UNIQUE WELL ID
XCOORD      .                                  1178439.61066162 :SURFACE X 
YCOORD      .                                  10526520.2311607 :SURFACE Y 
LAT         .                                         28.998365 :LATITUDE  
LON         .                                        -94.445565 :LONGITUDE 
ELEV        .FT                                              98 :ELEVATION VALUE
ELEV_TYPE   .                                                KB :ELEVATION REFERENCE TYPE
~Curve Information Section
#MNEM       .UNIT                                      API CODE :CURVE DESCRIPTION
#------------------------------------------------------------------------------
DEPT        .FT                                                 :DEPTH     
CNCF        .%                                                  :          
DCAL        .IN                                                 :          
DT24        .US/F                                               :          
GR          .GAPI                                               :          
GR_NORM     .GAPI                                               :GammaRay Normalized
M2R1        .OHMM                                               :          
M2R2        .OHMM                                               :          
M2R3        .OHMM                                               :          
M2R6        .OHMM                                               :          
M2R9        .OHMM                                               :          
M2RX        .OHMM                                               :          
PORZ        .%                                                  :          
RWAZ        .OHMM                                               :          
SPCH        .MV                                                 :          
TEN         .LB/F                                               :          
VSH_GR      .V/V                                                :Volume of Shale from GR
ZCOR        .G/CC                                               :          
~A        DEPTH           CNCF           DCAL           DT24             GR        GR_NORM           M2R1           M2R2           M2R3           M2R6           M2R9           M2RX           PORZ           RWAZ           SPCH            TEN         VSH_GR           ZCOR
# ...
      3666.5000         54.466          4.188        159.289         94.983       61.13551          0.679          0.721          0.758          0.793          0.813          0.834         57.877          0.415         -3.533        -28.946      0.5986278         -0.041
      3667.0000         54.318          4.454        159.551         91.977       58.12825           0.67          0.713          0.749          0.783          0.803          0.824         59.883          0.441         -3.017        -46.537      0.5346436          0.016
      3667.5000         53.524          3.141        153.185         92.809         58.959          0.669          0.712          0.748          0.782          0.801          0.822         55.475          0.373         -2.727        -29.846      0.5523192          0.063
      3668.0000         52.032          1.731        145.928         96.025       62.17376          0.675          0.718          0.754          0.788          0.807          0.827         50.266          0.304         -2.692         -4.779      0.6207183          0.056
      3668.5000         50.427          1.671         144.07         96.471       62.61851           0.68          0.724          0.761          0.795          0.813          0.833         48.434          0.283         -2.735        -12.109       0.630181          0.027
      3669.0000          50.54           2.37        146.683         93.104       59.25026           0.68          0.727          0.764          0.798          0.816          0.836         51.406          0.322         -2.704         -44.58      0.5585161          0.042
      3669.5000         52.078          2.572        152.911         90.949       57.09401          0.683          0.735          0.773          0.806          0.824          0.843         53.829          0.359         -2.695        -61.188      0.5126385          0.089
      3670.0000         52.609          2.241        155.424         93.062       59.20576          0.701          0.757          0.798          0.831          0.849          0.868         50.595          0.324          -2.81        -28.141      0.5575693          0.093
      3670.5000         50.327          2.387        150.275         96.971       63.11352          0.727          0.787          0.829          0.862           0.88          0.901         42.305          0.229         -2.862         19.769      0.6407132          0.055
      3671.0000         47.458           3.54        145.076          99.56       65.70126          0.743          0.801          0.844          0.878          0.896          0.916         35.592           0.16         -2.804         20.438      0.6957716          0.028
      3671.5000          46.01          4.984        142.795        100.292       66.43202          0.742          0.795          0.838          0.871          0.888          0.909         32.879          0.134         -2.941        -18.831      0.7113196           0.03
      3672.0000         45.746          5.925        143.894        101.475       67.61377          0.728          0.774          0.815          0.848          0.865          0.885         33.737          0.138         -3.365        -62.668      0.7364632          0.045
      3672.5000         45.762          6.351        146.712        104.517       70.65452          0.705          0.743          0.781          0.813          0.829          0.849          35.03          0.143         -3.705        -81.512        0.80116          0.052
      3673.0000         45.394          6.523        149.778        107.708       73.84428          0.685          0.714          0.751          0.783          0.798          0.817         36.085          0.147         -3.733        -41.174      0.8690271          0.041
      3673.5000         44.254          5.914        152.348        108.224       74.35902          0.684          0.709          0.744          0.776          0.792           0.81         36.038          0.146         -3.633         15.668      0.8799793          0.021
      3674.0000         44.301           4.23        154.741        106.465       72.59878          0.703          0.726          0.762          0.795          0.811           0.83         35.388          0.143         -3.728         12.014      0.8425272          0.009
      3674.5000         46.664          2.516        157.363        105.556       71.68853          0.725           0.75          0.786           0.82          0.837          0.856         35.064          0.145         -4.029        -23.031      0.8231602          0.007
      3675.0000         48.256          2.049        157.811        105.938       72.06928          0.737          0.765          0.801          0.836          0.853          0.873          34.94          0.147         -4.262        -28.629      0.8312613           0.01
      3675.5000          47.61          2.682        156.548        104.937       71.06703          0.739          0.769          0.806          0.842          0.859          0.878         34.772          0.146         -4.199        -19.309      0.8099368          0.013
      3676.0000         46.356          3.367        155.296        102.408       68.53678          0.737          0.771          0.808          0.845          0.861           0.88          35.02          0.149         -3.829         -19.11      0.7561017          0.018
      3676.5000         45.061          3.693        152.993        100.872       66.99954          0.741          0.777          0.815          0.851          0.868          0.886          36.39          0.163         -3.303         -24.83      0.7233945           0.02
      3677.0000         44.379          4.154        150.972        100.804       66.93029          0.752          0.789          0.826          0.864           0.88          0.898         38.775          0.189         -2.837        -33.524      0.7219211          0.019
      3677.5000         44.382          4.864        150.084        100.886       67.01104          0.766          0.803          0.839          0.877          0.893          0.911         40.654          0.212         -2.627        -35.149      0.7236391          0.043
      3678.0000         43.914          4.822        147.585         100.86        66.9838          0.778          0.813          0.848          0.887          0.903           0.92         39.646          0.203         -2.644        -35.391      0.7230595          0.082
      3678.5000         43.174          3.738        143.955        100.367       66.48954          0.783          0.818          0.853          0.892          0.907          0.924         37.116          0.177         -2.698         -41.71      0.7125434          0.088
      3679.0000         43.763            2.9        138.054        100.056        66.1773          0.783          0.819          0.855          0.893          0.909          0.925         34.698          0.153         -2.669        -30.872         0.7059          0.056
      3679.5000         45.931          3.263        131.127        100.518       66.63805          0.784          0.822           0.86          0.898          0.914          0.929         32.741          0.136         -2.678         -9.193      0.7157031          0.031
      3680.0000          48.67          4.187        130.192        101.029        67.1478          0.793          0.834          0.873          0.911          0.927          0.942         33.669          0.146         -2.861        -29.893      0.7265489          0.042
      3680.5000         49.354          4.403        132.697         99.982       66.09956          0.803          0.848          0.888          0.925          0.941          0.956         36.335          0.175         -3.004        -70.844      0.7042459          0.072
      3681.0000         47.586          3.531        136.778          99.36        65.4763          0.801          0.848          0.887          0.923          0.939          0.953          37.94          0.191         -2.897        -54.005      0.6909851          0.075
