#------------------------------------------------------------------------------
# Created by    : vladimir.rabinovich
# Created on    : 09/19/2023 17:20:23
#------------------------------------------------------------------------------
~Version Information Section
VERS.           2.0     :   CWLS log ASCII Standard - VERSION 2.0
WRAP.           NO      :   One line per depth step
~Well Information Section
#MNEM       .UNIT                                         VALUE :DESCRIPTION
#------------------------------------------------------------------------------
STRT        .FT                                            3094 :START DEPTH
STOP        .FT                                           15705 :STOP DEPTH
STEP        .FT                                             0.5 :STEP      
NULL        .                                           -999.25 :NULL      
COMP        .                                       MONSANTO CO :COMPANY   
WELL        .                                     ST TR 00011-L :WELL      
FLD         .                                           WILDCAT :FIELD     
LOC         .                                                   :LOCATION  
CNTY        .                           HIGH ISLAND LARGE BLOCK :LOCATION  
STAT        .                                             TEXAS :STATE     
CTRY        .                                     UNITED STATES :COUNTRY   
SRVC        .                                                   :SERVICE COMPANY
DATE        .                             9/13/2023 11:19:15 AM :LOG DATE  
API         .                                    42708300660000 :API NUMBER
UWI         .                                    42708300660000 :UNIQUE WELL ID
XCOORD      .                                  1343190.12128624 :SURFACE X 
YCOORD      .                                   10724936.940093 :SURFACE Y 
LAT         .                                        29.5487141 :LATITUDE  
LON         .                                       -93.9350737 :LONGITUDE 
ELEV        .FT                                              49 :ELEVATION VALUE
ELEV_TYPE   .                                                KB :ELEVATION REFERENCE TYPE
~Curve Information Section
#MNEM       .UNIT                                      API CODE :CURVE DESCRIPTION
#------------------------------------------------------------------------------
DEPT        .FT                                                 :DEPTH     
ASN         .OHMM                                               :          
CILD        .MMHO                                               :          
ILD         .OHMM                                               :          
SP_NORM     .MV                                                 :SP Normalized
VSH_SP      .V/V                                                :Volume of Shale from SP
~A        DEPTH            ASN           CILD            ILD        SP_NORM         VSH_SP
# ...
      8946.0000         0.8644       1361.748         0.7522      -1.429392      0.9948882
      8946.5000         0.8904       1340.051         0.7538      -1.423664      0.9949564
      8947.0000         0.9132       1316.941         0.7574      -1.418036      0.9950234
      8947.5000         0.9201       1292.498         0.7658      -1.520407      0.9938047
      8948.0000         0.9211       1272.432         0.7742      -1.680681      0.9918966
      8948.5000         0.9222       1259.146         0.7826      -1.841352      0.9899839
      8949.0000         0.9232       1245.836          0.793      -2.015526      0.9879104
      8949.5000         0.9242       1232.525         0.8052      -2.286797       0.984681
      8950.0000         0.9299       1220.328         0.8174      -2.558067      0.9814516
      8950.5000         0.9376       1208.254         0.8296      -2.829342      0.9782221
      8951.0000         0.9452        1196.18         0.8329      -3.100712      0.9749915
      8951.5000           0.96       1187.199         0.8359      -3.205587       0.973743
      8952.0000          0.978       1184.662          0.834      -3.279558      0.9728624
      8952.5000         0.9808       1190.639         0.8251       -3.35343       0.971983
      8953.0000          0.959       1198.457         0.8162      -3.427401      0.9711024
      8953.5000         0.9065       1211.223         0.8073      -3.405973      0.9713575
      8954.0000          0.935       1223.988         0.7985      -3.374346       0.971734
      8954.5000         0.9428       1236.756         0.7896      -3.342718      0.9721105
      8955.0000         0.9188       1277.059         0.7761      -3.310993      0.9724882
      8955.5000         0.8948        1365.93         0.7586      -3.279366      0.9728647
      8956.0000         0.8792       1414.918         0.7412      -3.209335      0.9736984
      8956.5000         0.8644       1472.564         0.7238      -3.066906       0.975394
      8957.0000         0.8469       1482.338         0.7475      -2.924179      0.9770931
      8957.5000         0.8411       1489.463         0.7929       -2.78175      0.9787887
      8958.0000         0.8408        1480.16         0.8385      -2.639023      0.9804878
      8958.5000         0.8575       1464.352         0.8876      -2.496597      0.9821833
      8959.0000         0.9157       1448.516         0.9368      -2.321768      0.9842647
      8959.5000         0.9474       1432.707         0.9859      -1.956141      0.9886174
      8960.0000          0.975       1382.457         1.0318      -1.590513      0.9929701
      8960.5000         1.0086       1188.881         1.0732      -1.224886      0.9973228
      8961.0000         1.0469       1017.573         1.1145     -0.8506565              1
      8961.5000         1.0875       975.3643         1.1559     -0.3833294              1
      8962.0000         1.1396       933.2051         1.1923    -0.02690125              1
      8962.5000         1.2459        873.332         1.2069    -0.01477432              1
      8963.0000         1.3051       839.5352         1.2215   -0.002746582              1
      8963.5000         1.3134       797.8213         1.2325    0.009382248              1
      8964.0000         1.3216       779.8594         1.2305     0.02140999              1
      8964.5000         1.3273       774.2187         1.2284    -0.01086235              1
      8965.0000         1.3329       773.5527         1.2264     -0.1524334              1
      8965.5000         1.3384       772.8848         1.2244     -0.2938061              1
      8966.0000          1.344       774.1191         1.2223     -0.4352798              1
      8966.5000         1.3474       779.9453         1.2186     -0.7613525              1
      8967.0000         1.3507       785.7725         1.2041      -1.232424       0.997233
      8967.5000          1.354       791.5986         1.1896      -1.744797      0.9911334
      8968.0000         1.3573       797.4131         1.1751      -2.307066      0.9844397
      8968.5000         1.3606       809.3506         1.1606      -2.799738      0.9785746
      8969.0000          1.362        824.666         1.1327      -3.234411      0.9733999
      8969.5000         1.3387       840.0049         1.0889      -3.206085      0.9737371
      8970.0000         1.1997       899.7061         1.0449      -2.889156        0.97751
      8970.5000         1.1629       958.9863         1.0036       -2.57283      0.9812759
      8971.0000         1.1119       1016.781         0.9732      -2.382999      0.9835357
      8971.5000         1.0559       1067.254         0.9427      -2.227875      0.9853824
      8972.0000         1.0111       1115.943         0.9123      -2.072845       0.987228
      8972.5000         0.9986       1187.299         0.8819      -1.917816      0.9890736
      8973.0000          0.986       1234.467         0.8619      -1.762991      0.9909168
      8973.5000         0.9737        1233.02         0.8455      -1.607964      0.9927623
      8974.0000          0.969       1216.617         0.8291      -1.452835      0.9946091
      8974.5000         0.9734       1200.262         0.8349      -1.548407      0.9934713
      8975.0000         0.9934       1183.934         0.8454      -1.827179      0.9901527
      8975.5000         1.0151       1169.707          0.856      -2.105551      0.9868387
      8976.0000         1.0342       1155.455         0.8628      -2.493322      0.9822224
      8976.5000         1.0526        1141.23         0.8652      -3.175297      0.9741036
      8977.0000          1.071         1128.5         0.8677      -3.858467      0.9659706
      8977.5000         1.0901       1119.445         0.8701       -5.26424      0.9492353
      8978.0000         1.0961       1110.391         0.8726      -6.771214      0.9312951
      8978.5000         1.0835       1103.723          0.875      -7.808983      0.9189407
      8979.0000         1.0702       1107.271         0.8762      -7.664757      0.9206576
      8979.5000         1.0566       1112.518         0.8709      -7.520828      0.9223711
      8980.0000         1.0429       1117.762         0.8656      -7.376501      0.9240893
      8980.5000         1.0293       1124.455         0.8603      -7.223475       0.925911
      8981.0000         1.0212        1133.82         0.8551      -7.048346      0.9279959
      8981.5000         1.0134       1143.172         0.8498      -6.873316      0.9300796
      8982.0000         1.0057       1152.523         0.8445      -6.698191      0.9321644
      8982.5000         1.0061       1161.889         0.8392       -6.52276      0.9342529
      8983.0000          1.008       1171.426         0.8338      -6.347631      0.9363377
      8983.5000         1.0099       1181.879         0.8283      -6.172508      0.9384225
      8984.0000         1.0118        1192.32         0.8228       -6.90448      0.9297086
      8984.5000         1.0164       1202.773         0.8173       -8.37685      0.9121804
      8985.0000          1.022       1213.215         0.8117      -9.910824      0.8939188
      8985.5000         1.0276       1223.668         0.8062       -11.3857      0.8763608
      8986.0000         1.0319       1234.107         0.8007      -12.31557      0.8652909
      8986.5000         1.0335       1243.918         0.7952      -13.09614      0.8559983
      8987.0000         1.0316       1253.023          0.792      -13.83111      0.8472487
      8987.5000         1.0229       1262.127         0.7911      -12.65098      0.8612978
      8988.0000         1.0143       1271.244         0.7902      -10.77656      0.8836125
      8988.5000         1.0057        1280.35         0.7893      -8.090727      0.9155866
      8989.0000          0.997       1289.924         0.7884      -3.390001      0.9715476
      8989.5000         0.9791       1299.734         0.8074      -2.287573      0.9846718
