#------------------------------------------------------------------------------
# Created by    : vladimir.rabinovich
# Created on    : 09/19/2023 17:20:25
#------------------------------------------------------------------------------
~Version Information Section
VERS.           2.0     :   CWLS log ASCII Standard - VERSION 2.0
WRAP.           NO      :   One line per depth step
~Well Information Section
#MNEM       .UNIT                                         VALUE :DESCRIPTION
#------------------------------------------------------------------------------
STRT        .FT                                            2998 :START DEPTH
STOP        .FT                                           12526 :STOP DEPTH
STEP        .FT                                             0.5 :STEP      
NULL        .                                           -999.25 :NULL      
COMP        .                                 CALIFORNIA CO THE :COMPANY   
WELL        .                               OCS G01117 ST00BP00 :WELL      
FLD         .                                       HIGH ISLAND :FIELD     
LOC         .                                                   :LOCATION  
CNTY        .                           HIGH ISLAND LARGE BLOCK :LOCATION  
STAT        .                                             TEXAS :STATE     
CTRY        .                                     UNITED STATES :COUNTRY   
SRVC        .                                                   :SERVICE COMPANY
DATE        .                             9/13/2023 11:19:15 AM :LOG DATE  
API         .                                    42708000660000 :API NUMBER
UWI         .                                    42708000660000 :UNIQUE WELL ID
XCOORD      .                                  1214371.69372255 :SURFACE X 
YCOORD      .                                  10618355.5582238 :SURFACE Y 
LAT         .                                         29.252113 :LATITUDE  
LON         .                                        -94.336419 :LONGITUDE 
ELEV        .FT                                              77 :ELEVATION VALUE
ELEV_TYPE   .                                                KB :ELEVATION REFERENCE TYPE
~Curve Information Section
#MNEM       .UNIT                                      API CODE :CURVE DESCRIPTION
#------------------------------------------------------------------------------
DEPT        .FT                                                 :DEPTH     
ASN         .OHMM                                               :          
CILD        .OHMM                                               :          
ILD         .OHMM                                               :          
SP          .MV                                                 :          
SP_NORM     .MV                                                 :SP Normalized
VSH_SP      .V/V                                                :Volume of Shale from SP
~A        DEPTH            ASN           CILD            ILD             SP        SP_NORM         VSH_SP
# ...
     11852.0000         0.5512       2852.461         0.4077       -39.7287      -1.217827      0.9965965
     11852.5000         0.5452       2857.027         0.4071       -39.7751      -1.262569      0.9958974
     11853.0000         0.5391       2861.598         0.4066       -39.8215      -1.307308      0.9951983
     11853.5000         0.5364       2818.484         0.4061        -39.868      -1.352154      0.9944976
     11854.0000         0.5359       2771.547         0.4055       -39.9144      -1.396893      0.9937986
     11854.5000         0.5353       2732.355          0.405       -39.9182      -1.399036      0.9937651
     11855.0000         0.5348       2699.234         0.4045       -39.9025      -1.381676      0.9940363
     11855.5000         0.5348       2666.066         0.4039       -39.8868      -1.364315      0.9943076
     11856.0000         0.5366       2625.059         0.4034       -39.8712      -1.347057      0.9945772
     11856.5000         0.5384       2580.723         0.4028       -39.8555        -1.3297      0.9948484
     11857.0000         0.5402       2600.758         0.4023       -39.8398      -1.312344      0.9951196
     11857.5000         0.5419        2620.75         0.4018       -39.8242      -1.295082      0.9953893
     11858.0000         0.5437       2640.785         0.4012       -39.8085      -1.277721      0.9956606
     11858.5000         0.5455       2660.824         0.4007       -39.7928      -1.260365      0.9959318
     11859.0000         0.5473       2676.574         0.4002       -39.7772      -1.243103      0.9962015
     11859.5000         0.5491       2692.328         0.3996       -39.7629       -1.22715      0.9964508
     11860.0000         0.5508       2710.699         0.3991       -39.7568      -1.219391       0.996572
     11860.5000         0.5526       2758.418         0.3986       -39.7507      -1.211632      0.9966933
     11861.0000         0.5512       2787.227          0.398       -39.7445       -1.20377      0.9968161
     11861.5000         0.5493        2806.48         0.3974       -39.7384      -1.196011      0.9969373
     11862.0000         0.5474        2824.07         0.3968       -39.7322      -1.188152      0.9970601
     11862.5000         0.5456       2840.922         0.3962       -39.7261      -1.180397      0.9971813
     11863.0000         0.5437        2860.52         0.3956         -39.72      -1.172638      0.9973025
     11863.5000         0.5418       2894.277         0.3951       -39.6494      -1.100376      0.9984316
     11864.0000           0.54       2926.316         0.3945       -39.4897     -0.9390182              1
     11864.5000         0.5381       2949.734         0.3939       -39.3297      -0.777359              1
     11865.0000         0.5363       2975.996         0.3933       -39.1697     -0.6156998              1
     11865.5000         0.5344       3006.469         0.3927       -39.0096     -0.4539452              1
     11866.0000          0.531       3038.758         0.3921       -38.8497     -0.2923851              1
     11866.5000          0.527       3123.613         0.3915       -38.6896     -0.1306267              1
     11867.0000         0.5229       3151.098         0.3909       -38.5345     0.02613449              1
     11867.5000         0.5188       3167.828         0.3903       -38.3968       0.165493              1
     11868.0000         0.5148       3180.348         0.3897       -38.2589      0.3050537              1
     11868.5000         0.5107       3189.734         0.3891       -38.1212      0.4444122              1
     11869.0000         0.5067       3192.344         0.3885       -37.9835      0.5837669              1
     11869.5000         0.5026       3194.945          0.388       -37.8458      0.7231293              1
     11870.0000         0.4986       3197.555         0.3874       -37.7167      0.8538857              1
     11870.5000         0.4945       3200.156         0.3868       -37.9835      0.5887451              1
     11871.0000         0.4905       3203.176         0.3862       -38.2502      0.3237076              1
     11871.5000         0.4868       3207.371         0.3856       -38.5177     0.05786514              1
     11872.0000         0.4831       3211.559          0.385       -38.6696    -0.09238052              1
     11872.5000         0.4794         3255.5         0.3844       -38.5564     0.02248001              1
     11873.0000         0.4757       3331.145         0.3838       -38.4432      0.1373405              1
     11873.5000          0.472       3402.285         0.3832         -38.33      0.2521973              1
     11874.0000         0.4683        3451.57         0.3824       -38.2167       0.367157              1
     11874.5000         0.4646       3486.453         0.3815       -38.1036      0.4819183              1
     11875.0000         0.4617        3510.41         0.3806       -37.9901      0.5970726              1
     11875.5000         0.4614       3525.109         0.3797       -37.8768      0.7120323              1
     11876.0000         0.4611       3524.277         0.3788       -37.9107      0.6797905              1
     11876.5000         0.4608       3514.797         0.3779       -37.9578      0.6343498              1
     11877.0000         0.4605       3499.047          0.377       -38.0049      0.5889091              1
     11877.5000         0.4602       3466.855         0.3761        -38.052      0.5434723              1
     11878.0000         0.4598       3434.621         0.3752       -38.0991      0.4980278              1
     11878.5000         0.4595       3407.281         0.3743       -38.1462      0.4525871              1
     11879.0000         0.4592       3411.543         0.3734       -38.1933      0.4071465              1
     11879.5000         0.4589       3442.555         0.3725       -38.2404      0.3617058              1
     11880.0000         0.4586       3476.508         0.3716       -38.2874      0.3163643              1
     11880.5000         0.4583       3510.461         0.3707       -38.3491      0.2563248              1
     11881.0000          0.458       3542.109         0.3698       -38.4317      0.1753769              1
     11881.5000         0.4576       3571.457         0.3689       -38.5142     0.09453964              1
     11882.0000         0.4573        3592.77          0.368       -38.5966     0.01379776              1
     11882.5000          0.457       3589.438         0.3671       -38.6791     -0.0670433              1
     11883.0000         0.4567       3548.676         0.3662       -38.7615     -0.1477852              1
     11883.5000         0.4564       3507.816         0.3653        -38.844     -0.2286263              1
     11884.0000         0.4561       3466.953         0.3644       -38.9266     -0.3095665              1
     11884.5000         0.4558       3426.094         0.3635        -39.009     -0.3903084              1
     11885.0000         0.4555       3390.133         0.3626       -39.0915     -0.4711494              1
     11885.5000         0.4551       3358.043         0.3617        -39.174     -0.5519905              1
     11886.0000         0.4548       3327.715         0.3609       -39.2564     -0.6327324              1
     11886.5000         0.4545       3299.789           0.36       -39.2864     -0.6610718              1
     11887.0000         0.4571       3287.199         0.3591       -39.3137     -0.6867142              1
     11887.5000         0.4599       3317.133         0.3576        -39.341     -0.7123566              1
     11888.0000         0.4626       3347.117         0.3522       -39.3682      -0.737896              1
     11888.5000         0.4654       3374.309         0.3467       -39.3956     -0.7636375              1
     11889.0000         0.4682       3393.316         0.3412       -39.4229     -0.7892799              1
     11889.5000         0.4703       3412.277         0.3357       -39.4501     -0.8148193              1
