#------------------------------------------------------------------------------
# Created by    : vladimir.rabinovich
# Created on    : 09/19/2023 17:22:15
#------------------------------------------------------------------------------
~Version Information Section
VERS.           2.0     :   CWLS log ASCII Standard - VERSION 2.0
WRAP.           NO      :   One line per depth step
~Well Information Section
#MNEM       .UNIT                                         VALUE :DESCRIPTION
#------------------------------------------------------------------------------
STRT        .FT                                              41 :START DEPTH
STOP        .FT                                            7991 :STOP DEPTH
STEP        .FT                                             0.5 :STEP      
NULL        .                                           -999.25 :NULL      
COMP        .                           ENERGY DEVELOPMENT CORP :COMPANY   
WELL        .                               OCS G11200 ST00BP00 :WELL      
FLD         .                                           WILDCAT :FIELD     
LOC         .                                                   :LOCATION  
CNTY        .                    NORTH PADRE ISLAND LARGE BLOCK :LOCATION  
STAT        .                                             TEXAS :STATE     
CTRY        .                                     UNITED STATES :COUNTRY   
SRVC        .                                                   :SERVICE COMPANY
DATE        .                             9/13/2023 11:18:55 AM :LOG DATE  
API         .                                    42701400410000 :API NUMBER
UWI         .                                    42701400410000 :UNIQUE WELL ID
XCOORD      .                                   309944.09600436 :SURFACE X 
YCOORD      .                                  9740515.29665267 :SURFACE Y 
LAT         .                                          26.78454 :LATITUDE  
LON         .                                        -97.077486 :LONGITUDE 
ELEV        .FT                                              91 :ELEVATION VALUE
ELEV_TYPE   .                                                KB :ELEVATION REFERENCE TYPE
~Curve Information Section
#MNEM       .UNIT                                      API CODE :CURVE DESCRIPTION
#------------------------------------------------------------------------------
DEPT        .FT                                                 :DEPTH     
CALI        .IN                                                 :          
DRHO        .G/C3                                               :          
DT          .US/F                                               :          
GR          .GAPI                                               :          
GR_NORM     .GAPI                                               :GammaRay Normalized
ILD         .OHMM                                               :          
ILM         .OHMM                                               :          
NPHI        .%                                                  :          
RFOC        .OHMM                                               :          
RHOB        .G/C3                                               :          
SP          .MV                                                 :          
SP_NORM     .MV                                                 :SP Normalized
VSH_GR      .V/V                                                :Volume of Shale from GR
VSH_SP      .V/V                                                :Volume of Shale from SP
~A        DEPTH           CALI           DRHO             DT             GR        GR_NORM            ILD            ILM           NPHI           RFOC           RHOB             SP        SP_NORM         VSH_GR         VSH_SP
# ...
      6953.0000           10.6         0.0764       107.3264        84.1392       91.48249          0.544         0.6472        38.2272         0.7489         2.1339       -44.1802     -0.4940567              1              1
      6953.5000        10.5749         0.1048       107.1515        79.6958       85.78584         0.5136         0.6337        38.7115         0.7482         2.0987       -45.6895      -2.011829              1      0.9805418
      6954.0000        10.5226         0.1288       105.9586          76.65       81.87924         0.4913         0.6182        35.6737          0.724         2.0869        -48.837      -5.167809              1      0.9198498
      6954.5000        10.4626          0.097       103.4041        73.5199       77.86468         0.4795         0.5952        32.6666          0.766         2.1154       -53.9357      -10.27498      0.9545676       0.821635
      6955.0000        10.3975         0.0453       100.5043        68.8779       71.91364         0.4735         0.5798        29.5608          0.911         2.1928       -64.9274      -21.27515      0.8279498      0.6100932
      6955.5000        10.3324         0.0126        96.6364        63.8984       65.53034         0.4859         0.5904        27.8106         1.0578         2.2463       -73.1935      -29.54972      0.6921349      0.4509668
      6956.0000        10.3089         0.0156        93.5853        59.2863        59.6176         0.5211         0.6059         26.709         1.0842         2.2989        -76.681       -33.0457       0.566332      0.3837365
      6956.5000        10.3331         0.0149        89.3995        56.7195       56.32453         0.5873         0.6409        25.3654         1.1424         2.3482       -78.0811      -34.45428      0.4962665      0.3566485
      6957.0000        10.3574         0.0083        84.7074        54.6257       53.63728         0.6861         0.7245        23.8274          1.317         2.4058       -72.9502      -29.33186      0.4390911      0.4551566
      6957.5000        10.4051         0.0013        80.6409        54.3341       53.25833         0.8191          0.857        23.0174         1.7685         2.4732       -65.5231      -21.91323      0.4310282      0.5978225
      6958.0000         10.457         0.0197        76.4254        56.1238       55.54515         0.9699         0.9962        24.6196         2.0117          2.479       -57.6492       -14.0478      0.4796841      0.7490807
      6958.5000        10.5089         0.0445        71.1077        60.0855       60.61391         1.1115         1.0989        27.4922         1.8636         2.4287       -51.1803      -7.587379      0.5875301      0.8733196
      6959.0000        10.5611         0.0711         71.922        64.1665       65.83549          1.248         1.1663        29.9165         1.4645           2.36       -47.5413      -3.956852      0.6986275      0.9431375
      6959.5000        10.6086         0.1001        86.6439        68.3864       71.23498         1.4269         1.2056         34.496          1.188         2.2854       -46.4385      -2.862526      0.8135102      0.9641822
      6960.0000        10.6151         0.1141        97.0559        71.5339       75.26089         1.4523         1.2345        37.6884         1.0746         2.2508       -45.7453      -2.177799      0.8991678        0.97735
      6960.5000        10.6215         0.0937       101.3112        73.4863        77.7561          1.422         1.2495        38.3457           1.03         2.2484       -45.0087      -1.449677      0.9522575      0.9913524
      6961.0000        10.6399         0.0717       104.3698        74.3986       78.91914         1.3602         1.2413        38.1841         1.0278         2.2748       -44.3428     -0.7922478       0.977003              1
      6961.5000        10.6982         0.0862       105.5757        74.7915       79.41691         1.2961         1.2083        36.9232         1.0657         2.3181        -43.688     -0.1459236      0.9875938              1
      6962.0000        10.7761          0.106        99.5931        74.7406       79.34627         1.2602         1.1755        35.1954         1.1473         2.3651       -43.0507      0.4829025      0.9860908              1
      6962.5000         10.798         0.0902        93.4264        74.8981       79.54253         1.2359          1.143         33.372          1.215         2.3974       -42.7358      0.7893257      0.9902667              1
      6963.0000        10.8215         0.0639        88.8633        75.6993       80.56327         1.2413         1.1171        33.6589         1.1962         2.3671       -42.8652      0.6514511              1              1
      6963.5000        10.8449         0.0761        88.1583        77.8713       83.33975         1.2467         1.0983        37.6287          1.044         2.3468       -43.4262     0.08197784              1              1
      6964.0000        10.8644         0.1072        94.1812        80.3536       86.51367         1.2127         1.0942        41.0752         0.9194         2.2608       -44.3341     -0.8343964              1              1
      6964.5000        10.7947         0.1163       100.7352        82.9352       89.81478         1.1735         1.0925        42.1192           0.91         2.2442       -45.3022       -1.81097              1      0.9844044
      6965.0000        10.6754         0.1166       103.3729        81.9026       88.48676         1.1289         1.0939        41.4578         0.9545         2.2505       -45.7813      -2.298546              1       0.975028
      6965.5000        10.5848         0.1173       100.7401        80.2594       86.37664         1.1131          1.099        40.6104         1.0081         2.2719       -46.2089      -2.734619              1       0.966642
      6966.0000        10.5323         0.1079        96.1721        78.9933       84.74953         1.1161         1.1071        39.6747         1.0331         2.2911       -46.1265      -2.660694              1      0.9680636
      6966.5000        10.5051         0.0927        94.2518        79.6934       85.64076         1.1431         1.1171        39.4158         1.0362         2.3059       -45.8135      -2.356167              1      0.9739199
      6967.0000        10.4892         0.0817        94.5411         81.344       87.74943         1.1755         1.1295        39.9864         1.0266         2.3158         -45.17      -1.721142              1      0.9861319
      6967.5000        10.4847          0.085        96.8722        82.7887       89.59436         1.2116         1.1418        40.2902         1.0131         2.3214       -44.6791      -1.238716              1      0.9954093
      6968.0000        10.4839         0.0915        99.2084        80.4653       86.61306         1.2355          1.151        39.3938          1.011         2.3233       -44.2932     -0.8612938              1              1
      6968.5000         10.491         0.0943       100.2126         78.194       83.69846         1.2516         1.1602        37.3895         1.0196         2.3242       -44.0067     -0.5832672              1              1
      6969.0000        10.4995         0.0993        99.8291        77.4294       82.71368         1.2653         1.1717        36.0444           1.04         2.3231       -43.8895     -0.4745407              1              1
      6969.5000        10.5138          0.118        99.1973        76.7207       81.80051         1.2657         1.1835        35.7287         1.0506         2.3223       -43.8054     -0.3989182              1              1
      6970.0000        10.5496         0.1293        98.3693        75.6422       80.41367         1.2661         1.2002        35.9599         1.0569         2.3233       -43.9087     -0.5106888              1              1
      6970.5000        10.5852         0.1161        97.6742        73.6041       77.79778         1.2883         1.2226        37.0532         1.0628         2.3293       -44.0078     -0.6182671      0.9531441              1
