#------------------------------------------------------------------------------
# Created by    : vladimir.rabinovich
# Created on    : 09/19/2023 17:21:04
#------------------------------------------------------------------------------
~Version Information Section
VERS.           2.0     :   CWLS log ASCII Standard - VERSION 2.0
WRAP.           NO      :   One line per depth step
~Well Information Section
#MNEM       .UNIT                                         VALUE :DESCRIPTION
#------------------------------------------------------------------------------
STRT        .FT                                            4500 :START DEPTH
STOP        .FT                                           11014 :STOP DEPTH
STEP        .FT                                             0.5 :STEP      
NULL        .                                           -999.25 :NULL      
COMP        .                              FIELDWOOD ENERGY LLC :COMPANY   
WELL        .                               OCS G06156 ST00BP00 :WELL      
FLD         .                            HIGH ISLAND BLOCK 0116 :FIELD     
LOC         .                                                   :LOCATION  
CNTY        .                           HIGH ISLAND LARGE BLOCK :LOCATION  
STAT        .                                             TEXAS :STATE     
CTRY        .                                     UNITED STATES :COUNTRY   
SRVC        .                                                   :SERVICE COMPANY
DATE        .                             9/13/2023 11:19:57 AM :LOG DATE  
API         .                                    42708404240000 :API NUMBER
UWI         .                                    42708404240000 :UNIQUE WELL ID
XCOORD      .                                  1333979.30181128 :SURFACE X 
YCOORD      .                                  10635798.2403082 :SURFACE Y 
LAT         .                                         29.303317 :LATITUDE  
LON         .                                        -93.961735 :LONGITUDE 
ELEV        .FT                                             101 :ELEVATION VALUE
ELEV_TYPE   .                                                KB :ELEVATION REFERENCE TYPE
~Curve Information Section
#MNEM       .UNIT                                      API CODE :CURVE DESCRIPTION
#------------------------------------------------------------------------------
DEPT        .FT                                                 :DEPTH     
AT10        .OHMM                                               :          
AT20        .OHMM                                               :          
AT30        .OHMM                                               :          
AT60        .OHMM                                               :          
AT90        .OHMM                                               :          
CALI        .IN                                                 :          
DCAL        .IN                                                 :          
DPHI        .DEC                                                :          
DRHO        .G/C3                                               :          
DT2R        .US/F                                               :          
DT4P        .US/F                                               :          
GR          .GAPI                                               :          
GR_NORM     .GAPI                                               :GammaRay Normalized
NPOR        .DEC                                                :          
SP          .MV                                                 :          
SP_NORM     .MV                                                 :SP Normalized
TENS        .LBF                                                :          
VSH_GR      .V/V                                                :Volume of Shale from GR
VSH_SP      .V/V                                                :Volume of Shale from SP
~A        DEPTH           AT10           AT20           AT30           AT60           AT90           CALI           DCAL           DPHI           DRHO           DT2R           DT4P             GR        GR_NORM           NPOR             SP        SP_NORM           TENS         VSH_GR         VSH_SP
# ...
      5337.0000          0.804         0.8423         0.8034         0.8356         0.8342        11.9669        -999.25         0.2144        -0.0198       326.0732       120.3396        68.6279       74.94175        -999.25       -35.7205      -11.72423       2878.242      0.8923777      0.8325109
      5337.5000         0.8126         0.8594         0.8064         0.8414         0.8321        12.0667        -999.25         0.2114        -0.0178       330.8701       120.6393        67.6206       73.77075        -999.25       -36.2259      -12.58159       2868.262      0.8674628       0.820263
      5338.0000         0.8163         0.8473          0.798         0.8461         0.8259        12.1062        -999.25         0.2096        -0.0158       333.2661       120.4395        67.5157       73.64906        -999.25       -36.4308      -12.92768       2858.281      0.8648735      0.8153188
      5338.5000         0.8129         0.8237         0.7899         0.8316         0.8199        12.0957        -999.25         0.2114        -0.0138       329.2686       120.2397         68.713       75.04154        -999.25       -36.2366      -12.59475       2868.262      0.8945009       0.820075
      5339.0000         0.8043         0.8008         0.7813         0.8174         0.8124        12.0852        -999.25         0.2144        -0.0138       320.4834       120.1398        69.9106       76.43438        -999.25       -36.4412      -12.94033       2868.234      0.9241357      0.8151382
      5339.5000         0.7902         0.7845         0.7708         0.8064         0.8044        12.0647        -999.25         0.2192        -0.0138       309.6919       119.1404        69.4045       75.84618        -999.25       -36.3461        -12.776       2888.242      0.9116208      0.8174857
      5340.0000          0.778         0.7704         0.7632         0.7962         0.7966         11.994        -999.25          0.224        -0.0138        302.897       118.0419        67.1956       73.27796        -999.25       -36.4514      -12.95263       2908.184      0.8569779      0.8149624
      5340.5000         0.7687         0.7639         0.7598         0.7867         0.7909        11.9534        -999.25         0.2281        -0.0138        302.897       118.3416        65.8868       71.75638        -999.25       -36.6569      -13.29974       2878.242      0.8246038      0.8100038
      5341.0000         0.7608         0.7576         0.7596         0.7777         0.7873        11.9429        -999.25         0.2269        -0.0138       304.0957       118.6412        66.5848       72.56828        -999.25       -36.5618      -13.13541       2858.281      0.8418784      0.8123512
      5341.5000         0.7546         0.7594         0.7641         0.7721         0.7838        11.9625        -999.25         0.2281        -0.0118       302.4971       117.7417        67.9805       74.19147        -999.25        -36.567      -13.14174       2878.242      0.8764142      0.8122609
      5342.0000         0.7516         0.7677         0.7831         0.7687         0.7905        11.9739        -999.25         0.2331         -0.012       298.5786        116.162        68.5972       74.90884        -999.25       -36.3527      -12.77461       2890.168      0.8916776      0.8175056
      5342.5000         0.7744         0.8058         0.8121         0.7956         0.8095         11.984        -999.25         0.2373         -0.012       293.0054       113.5702        68.1969       74.44366        -999.25       -36.0521      -12.26065       2890.688      0.8817799      0.8248479
      5343.0000         0.8356         0.8564         0.8489         0.8405         0.8621        11.9739        -999.25         0.2367        -0.0101       285.4351       110.9785        67.8961       74.09418        -999.25       -36.0521      -12.25812       2871.207      0.8743442      0.8248839
      5343.5000         0.8985         0.9104         0.8984         0.9118         0.9179        11.9639        -999.25         0.2295        -0.0081       276.2642        108.384        67.0938       73.16154        -999.25       -36.5531      -13.10799       2861.723      0.8545009      0.8127429
      5344.0000         0.9565         0.9546         0.9507           0.98         0.9763        11.9238        -999.25         0.2236        -0.0022       267.4883       104.9939         65.691       71.53065        -999.25       -37.2551      -14.29984       2862.223      0.8198012      0.7957165
      5344.5000         0.9938         1.0033         1.0031         1.0277         1.0142        11.9339        -999.25           0.22        -0.0012       259.1187       103.2012        61.8845       67.10477        -999.25       -38.0561      -15.66013       2862.723      0.7256335      0.7762839
      5345.0000         1.0168         1.0594         1.0253         1.0453         1.0386         12.064        -999.25         0.2189        -0.0013       256.7402       102.6072        59.6795       64.54109        -999.25       -38.4569      -16.33953       2863.223      0.6710871      0.7665781
      5345.5000          1.024         1.1106         1.0385         1.0417         1.0456        12.2345        -999.25         0.2165        -0.0013        255.563       102.4117        58.0763       62.67719        -999.25       -38.4569        -16.337       2863.719      0.6314296      0.7666143
      5346.0000         1.0009         1.0807         1.0251         1.0137         1.0407        12.2946        -999.25         0.2153        -0.0024       247.1909       102.4175        57.2742       61.74479        -999.25       -38.6573      -16.67543       2864.219      0.6115913      0.7617795
      5346.5000         0.9703         1.0354          1.002         0.9682         1.0115        12.1439        -999.25         0.2166        -0.0074       234.4282       103.4216        57.0741        61.5124        -999.25       -38.7575      -16.84339       2864.719      0.6066468      0.7593802
      5347.0000          0.918         0.9894         0.9585         0.9255         0.9747        11.8738        -999.25         0.2232        -0.0095       218.8618       105.9243        58.2777       62.91221        -999.25       -38.5571       -16.4999       2865.215        0.63643      0.7642871
      5347.5000         0.8693         0.9364          0.917         0.8856         0.9335        11.7935        -999.25         0.2352        -0.0135       203.7036       109.5264        61.6827       66.87179        -999.25       -38.5571      -16.49738       2885.676      0.7206764      0.7643232
      5348.0000          0.824         0.8833         0.8788         0.8492         0.8942        11.8336        -999.25         0.2412        -0.0176       194.9226       113.0281        63.3882       68.85521        -999.25       -37.9553      -15.47096       2866.215      0.7628768      0.7789863
      5348.5000         0.7982         0.8354         0.8506         0.8184         0.8605        11.9038        -999.25         0.2412        -0.0186       198.9351       117.5264        67.9955       74.21281        -999.25       -37.2545      -14.27611       2876.695      0.8768684      0.7960556
      5349.0000         0.7777         0.7976         0.8303         0.7955         0.8377        11.9238        -999.25         0.2365        -0.0207       213.7393       121.1285         69.999       76.54275        -999.25       -36.3523      -12.73859       2877.211      0.9264414      0.8180202
      5349.5000         0.7591         0.7696          0.821         0.7837         0.8197        11.9238        -999.25         0.2341        -0.0227       247.7498       124.6307        74.4091       81.67105        -999.25       -35.1491      -10.68896       2887.672              1      0.8473006
      5350.0000          0.719         0.7473         0.8184         0.7753         0.8083        11.9038        -999.25         0.2407        -0.0247       292.8999       127.3318        74.4088       81.67098        -999.25       -33.8477      -8.472238       2888.172              1      0.8789681
