#------------------------------------------------------------------------------
# Created by    : vladimir.rabinovich
# Created on    : 09/19/2023 17:22:43
#------------------------------------------------------------------------------
~Version Information Section
VERS.           2.0     :   CWLS log ASCII Standard - VERSION 2.0
WRAP.           NO      :   One line per depth step
~Well Information Section
#MNEM       .UNIT                                         VALUE :DESCRIPTION
#------------------------------------------------------------------------------
STRT        .FT                                            3600 :START DEPTH
STOP        .FT                                            7940 :STOP DEPTH
STEP        .FT                                             0.5 :STEP      
NULL        .                                           -999.25 :NULL      
COMP        .                          SEAGULL ENERGY E & P INC :COMPANY   
WELL        .                               OCS G09015 ST00BP00 :WELL      
FLD         .                                 BRAZOS BLOCK 0431 :FIELD     
LOC         .                                                   :LOCATION  
CNTY        .                                BRAZOS LARGE BLOCK :LOCATION  
STAT        .                                             TEXAS :STATE     
CTRY        .                                     UNITED STATES :COUNTRY   
SRVC        .                                                   :SERVICE COMPANY
DATE        .                             9/13/2023 11:09:51 AM :LOG DATE  
API         .                                    42704402370000 :API NUMBER
UWI         .                                    42704402370000 :UNIQUE WELL ID
XCOORD      .                                  876086.487249857 :SURFACE X 
YCOORD      .                                  10366258.6106956 :SURFACE Y 
LAT         .                                        28.5443209 :LATITUDE  
LON         .                                       -95.3810825 :LONGITUDE 
ELEV        .FT                                              90 :ELEVATION VALUE
ELEV_TYPE   .                                                KB :ELEVATION REFERENCE TYPE
~Curve Information Section
#MNEM       .UNIT                                      API CODE :CURVE DESCRIPTION
#------------------------------------------------------------------------------
DEPT        .FT                                                 :DEPTH     
DCAL        .IN                                                 :          
DPHI        .%                                                  :          
GR          .GAPI                                               :          
GR_NORM     .GAPI                                               :GammaRay Normalized
ILD         .OHMM                                               :          
ILM         .OHMM                                               :          
NPHI        .%                                                  :          
SGRD        .OHMM                                               :          
SP          .MV                                                 :          
SP_NORM     .MV                                                 :SP Normalized
VSH_GR      .V/V                                                :Volume of Shale from GR
VSH_SP      .V/V                                                :Volume of Shale from SP
~A        DEPTH           DCAL           DPHI             GR        GR_NORM            ILD            ILM           NPHI           SGRD             SP        SP_NORM         VSH_GR         VSH_SP
# ...
      5916.5000         0.9463        32.5818        41.8247       37.25359         0.2454         0.2885        35.6676         0.6111       -75.7792       -28.4326      0.0905019     0.02101488
      5917.0000         0.9773        32.6767        41.1664       36.46102         0.2402         0.2812        35.8991         0.6103        -75.744      -28.38671     0.07363867     0.02271454
      5917.5000         0.9927        32.8563         41.642       37.03362         0.2427         0.2787        35.9946         0.6023        -75.488         -28.12     0.08582168     0.03259249
      5918.0000         0.9696        33.8782        42.2305       37.74216         0.2598         0.2825         35.782         0.5864       -75.1597        -27.781       0.100897     0.04514807
      5918.5000         0.9542        34.5425        43.7708       39.59664         0.2862         0.3007        35.7961         0.5766       -73.3768       -25.9874       0.140354      0.1115776
      5919.0000         0.9479        34.0831        46.5135       42.89877          0.327         0.3224        36.0533         0.5831       -71.6257      -24.22561      0.2106122      0.1768294
      5919.5000         0.9334        32.1097        49.8669       46.93618         0.3738          0.367        36.6279         0.5965       -70.2296      -22.81881      0.2965144      0.2289331
      5920.0000         0.8656        28.2493        53.8465        51.7275         0.4178         0.4224        37.4786         0.6167       -68.6339      -21.21241      0.3984575      0.2884293
      5920.5000         0.9862        24.2417        57.0589       55.59514         0.4657         0.5007        37.7245         0.7358       -66.9716      -19.53941      0.4807476      0.3503922
      5921.0000         1.2203        22.3483        59.4598       58.48576         0.5149         0.5687        37.5891         0.8337       -66.8365      -19.39361      0.5422502      0.3557923
      5921.5000         1.4365        22.2539        60.8735       60.18781         0.5377         0.5894        37.6436         0.8977       -67.7257      -20.27211      0.5784641      0.3232553
      5922.0000         1.5497        24.6386        59.7703       58.85959         0.5288         0.5805        37.8665         0.9454       -69.1741      -21.70981      0.5502041       0.270007
      5922.5000         1.4027        27.3979        54.5406       52.56318         0.4905         0.5536        38.0012         0.9073       -71.2709      -23.79591      0.4162379      0.1927442
      5923.0000         1.1437        30.9062        49.6555       46.68165         0.4165         0.5132        37.9672         0.8032       -72.4347      -24.94901       0.291099      0.1500367
      5923.5000         1.0102        33.5598        45.0469       41.13303         0.3688          0.457        37.9575         0.7365       -73.2007      -25.70431      0.1730432      0.1220627
      5924.0000         0.8766        35.1166        42.6808       38.28431         0.3319          0.393        38.5605         0.6899       -73.6821      -26.17501      0.1124322      0.1046294
      5924.5000         0.8242         34.288        44.3997       40.35381         0.3117         0.3642        39.2728         0.6448       -73.0585      -25.54071      0.1564641      0.1281218
      5925.0000          0.815        31.0278        50.0626       47.17179         0.3168         0.3534        40.0193          0.623       -70.6055      -23.07701      0.3015274        0.21937
      5925.5000         0.9124        29.0768        55.9133       54.21587         0.3263         0.3525        41.0453         0.6121       -68.2803      -20.74111      0.4514016      0.3058849
      5926.0000         1.1755         26.668        61.9102       61.43596         0.3314         0.3735        42.5786         0.6153       -65.0574      -17.50751      0.6050205      0.4256476
      5926.5000         1.3534        26.9657        71.6498       73.16219         0.3353         0.3994        44.8609         0.6262       -62.8777      -15.31711      0.8545146      0.5067737
      5927.0000         1.4198        27.7358        70.4148       71.67528         0.3393         0.4193        45.9714         0.6464       -64.2197      -16.64841      0.8228782      0.4574661
      5927.5000         1.4128        28.3342        65.0313       65.19369         0.3442         0.4257        44.9761         0.6898       -67.9828      -20.40082       0.684972      0.3184882
      5928.0000          1.326        30.2404        57.5991       56.24552         0.3516         0.4173         43.955         0.7161       -70.2179      -22.62522      0.4945856      0.2361031
      5928.5000         1.0911        32.3898        46.6284       43.03711         0.3738         0.4066         43.494         0.6782       -71.1469      -23.54351      0.2135555      0.2020922
      5929.0000         0.8682         33.543        42.4686       38.02883         0.3862         0.3999          43.28         0.6311       -71.5612      -23.94712      0.1069964      0.1871438
      5929.5000         0.8077        33.8411        41.0405       36.30943         0.3772         0.3993        43.0311         0.6088       -71.7187      -24.09391     0.07041347       0.181707
      5930.0000         0.8689        33.6618        41.1133       36.39708         0.3738         0.4092        39.9617         0.5962       -71.8201      -24.18462     0.07227828      0.1783476
      5930.5000         0.9652        31.6168        42.6148       38.20485         0.3704         0.4273        32.1129         0.7185       -71.7002      -24.05402      0.1107414      0.1831844
      5931.0000         1.0566        24.9171        45.8566       42.10789         0.3671         0.4459        26.5944         1.1047       -71.6083      -23.95142      0.1937848      0.1869846
      5931.5000         1.1391        18.8224         45.985       42.26247         0.3812         0.4565        23.1581         1.5267       -71.5151      -23.84752      0.1970739      0.1908328
      5932.0000         1.1229        13.2911        45.6014       41.80063         0.4048         0.4476         22.129         1.8944       -72.1542      -24.47591      0.1872474      0.1675587
      5932.5000         1.0381        12.8686        45.4165       41.57801         0.3887         0.4301        23.1221         1.6169       -73.2906      -25.60162      0.1825109      0.1258658
      5933.0000         0.8786         19.501        44.6111       40.60833         0.3598         0.4146        27.7852         1.1571       -73.9125      -26.21282      0.1618794       0.103229
      5933.5000         0.7519        26.2679        43.6211        39.4164         0.3345         0.3936        33.1821         0.8526       -74.3378      -26.62742      0.1365193     0.08787339
      5934.0000         0.6572        31.3703        43.8106       39.64456         0.3131         0.3721        37.7627         0.6815        -74.756      -27.03492      0.1413736     0.07278089
      5934.5000         0.7085        35.1346        43.9248       39.78205         0.2958         0.3557        39.9545         0.6459       -74.9152      -27.18342       0.144299     0.06728081
      5935.0000          0.897        35.8254        44.3779       40.32757         0.2864         0.3451        38.4205         0.6221       -74.1505      -26.40802      0.1559057     0.09599926
      5935.5000         1.0874        35.6989        45.1011       41.19828         0.2858         0.3417        36.9464          0.617        -72.389      -24.63582      0.1744316      0.1616362
      5936.0000         1.1721        35.2187        46.3882       42.74791         0.2916          0.352        35.8861         0.6103       -70.5415      -22.77762      0.2074024      0.2304586
      5936.5000         1.1757        34.4985        47.9488       44.62683         0.3134         0.3646        35.2886         0.6164       -68.8191      -21.04452      0.2473795      0.2946474
