#------------------------------------------------------------------------------
# Created by    : vladimir.rabinovich
# Created on    : 09/19/2023 17:20:57
#------------------------------------------------------------------------------
~Version Information Section
VERS.           2.0     :   CWLS log ASCII Standard - VERSION 2.0
WRAP.           NO      :   One line per depth step
~Well Information Section
#MNEM       .UNIT                                         VALUE :DESCRIPTION
#------------------------------------------------------------------------------
STRT        .FT                                             598 :START DEPTH
STOP        .FT                                           10008 :STOP DEPTH
STEP        .FT                                             0.5 :STEP      
NULL        .                                           -999.25 :NULL      
COMP        .                                        SUN OIL CO :COMPANY   
WELL        .                               OCS G01712 ST00BP00 :WELL      
FLD         .                                           WILDCAT :FIELD     
LOC         .                                                   :LOCATION  
CNTY        .                                BRAZOS LARGE BLOCK :LOCATION  
STAT        .                                             TEXAS :STATE     
CTRY        .                                     UNITED STATES :COUNTRY   
SRVC        .                                                   :SERVICE COMPANY
DATE        .                             9/13/2023 11:18:52 AM :LOG DATE  
API         .                                    42704300120000 :API NUMBER
UWI         .                                    42704300120000 :UNIQUE WELL ID
XCOORD      .                                   818594.06951761 :SURFACE X 
YCOORD      .                                  10373365.4427938 :SURFACE Y 
LAT         .                                         28.560597 :LATITUDE  
LON         .                                        -95.560517 :LONGITUDE 
ELEV        .FT                                              89 :ELEVATION VALUE
ELEV_TYPE   .                                                KB :ELEVATION REFERENCE TYPE
~Curve Information Section
#MNEM       .UNIT                                      API CODE :CURVE DESCRIPTION
#------------------------------------------------------------------------------
DEPT        .FT                                                 :DEPTH     
ASN         .OHMM                                               :          
CALI        .IN                                                 :          
CILD        .MMHO                                               :          
ILD         .OHMM                                               :          
SP          .MV                                                 :          
SP_NORM     .MV                                                 :SP Normalized
VSH_SP      .V/V                                                :Volume of Shale from SP
~A        DEPTH            ASN           CALI           CILD            ILD             SP        SP_NORM         VSH_SP
# ...
      6862.5000         0.8335         13.544       1250.412         0.6795       -46.1584     -0.4668236              1
      6863.0000         0.8373        13.5793       1266.615         0.6797       -46.1503     -0.4655571              1
      6863.5000         0.8379        13.6741       1284.535           0.68       -46.1422     -0.4642944              1
      6864.0000         0.8364        13.9821       1302.453         0.6802       -46.1342     -0.4631271              1
      6864.5000          0.835         14.021       1320.396         0.6804       -46.1261     -0.4618607              1
      6865.0000         0.8336        13.8587        1344.23         0.6807         -46.17     -0.5125961              1
      6865.5000         0.8322        13.7063       1369.482         0.6809       -46.2141     -0.5635338              1
      6866.0000         0.8307        13.6136       1389.961         0.6812       -46.2472     -0.6034698              1
      6866.5000         0.8293        13.5641       1408.947         0.6814       -46.2373     -0.6004028              1
      6867.0000         0.8279        13.5848        1422.74         0.6816       -46.2275     -0.5974388              1
      6867.5000         0.8264        13.6031       1423.258         0.6818       -46.2177     -0.5944748              1
      6868.0000          0.825        13.6077       1416.807         0.6817       -46.2078     -0.5914116              1
      6868.5000         0.8236        13.5925       1410.357         0.6817        -46.198     -0.5884438              1
      6869.0000         0.8221        13.5403       1403.908         0.6817       -46.1881     -0.5853767              1
      6869.5000         0.8207        13.5036       1393.129         0.6816       -46.1783     -0.5824127              1
      6870.0000         0.8194        13.5822       1378.043         0.6816       -46.1685     -0.5794487              1
      6870.5000          0.818         13.739       1362.957         0.6815       -46.1586     -0.5763855              1
      6871.0000         0.8166        13.7881       1341.199         0.6815       -46.1488     -0.5734177              1
      6871.5000         0.8152        13.8048       1317.018         0.6815       -46.1389     -0.5703545              1
      6872.0000         0.8138         13.748       1304.105         0.6814       -46.1291     -0.5673904              1
      6872.5000         0.8124        13.7303       1317.738         0.6814       -46.1193     -0.5644264              1
      6873.0000          0.811        13.6992        1333.42         0.6813       -46.1094     -0.5613632              1
      6873.5000         0.8096        13.6024       1349.102         0.6813       -46.0996     -0.5583954              1
      6874.0000         0.8083        13.2771        1360.08         0.6813       -46.0897     -0.5553284              1
      6874.5000         0.8069        13.0253       1364.412         0.6812       -46.0799     -0.5523643              1
      6875.0000         0.8055        13.0373       1368.742         0.6812       -46.0701     -0.5494003              1
      6875.5000         0.8041        13.2631       1373.072         0.6809       -46.0602     -0.5463333              1
      6876.0000         0.8027        13.4905       1367.885         0.6806       -46.0504     -0.5433693              1
      6876.5000         0.8013        13.6285       1361.324         0.6802       -46.0405     -0.5403061              1
      6877.0000         0.7999        13.6122       1354.762         0.6799       -46.0307     -0.5373421              1
      6877.5000         0.7985        13.6083       1345.609         0.6796       -46.0209     -0.5343781              1
      6878.0000         0.7972        13.6391       1333.979         0.6792        -46.011      -0.531311              1
      6878.5000         0.7958        13.6798       1326.188         0.6789       -46.0012      -0.528347              1
      6879.0000         0.7944         13.664       1346.418         0.6785       -45.9913       -0.52528              1
      6879.5000          0.793        13.6628       1379.074         0.6782       -45.9815      -0.522316              1
      6880.0000         0.7918        13.8482       1411.682         0.6779       -45.9717     -0.5193481              1
      6880.5000          0.791         14.091       1433.154         0.6775       -45.9619     -0.5163841              1
      6881.0000         0.7901        14.1453       1452.365         0.6772        -45.952     -0.5133209              1
      6881.5000         0.7892        13.9249       1467.408         0.6769       -45.9428     -0.5109558              1
      6882.0000         0.7884        13.7664       1472.658         0.6765       -45.9609     -0.5358925              1
      6882.5000         0.7875        13.6768       1476.455         0.6761        -45.979     -0.5608253              1
      6883.0000         0.7867         13.664       1480.244         0.6757       -45.9971      -0.585762              1
      6883.5000         0.7858        13.7528       1478.275         0.6753       -46.0152     -0.6106987              1
      6884.0000         0.7849         13.752       1468.682         0.6749       -46.0333     -0.6356316              1
      6884.5000         0.7841        13.7049       1456.727         0.6745       -46.0515     -0.6606636              1
      6885.0000         0.7832        13.7672       1447.551         0.6741       -46.0695     -0.6855011              1
      6885.5000         0.7824         13.879       1442.654         0.6737       -46.0876     -0.7104378              1
      6886.0000         0.7815        13.9339       1437.766         0.6733       -46.1057     -0.7353745              1
      6886.5000         0.7806        13.9962       1438.111         0.6728       -46.1041     -0.7406082              1
      6887.0000         0.7798        14.0296       1439.576         0.6724       -46.0774     -0.7207413              1
      6887.5000         0.7789         13.402       1441.041         0.6729       -46.0507     -0.7008781              1
      6888.0000         0.7781        12.9193       1442.506         0.6747        -46.024     -0.6810112              1
      6888.5000         0.7772        12.5249       1444.438         0.6765       -45.9974     -0.6612473              1
      6889.0000         0.7763        12.3954       1447.471         0.6783       -45.9707     -0.6413803              1
      6889.5000         0.7755        12.5478       1450.506           0.68        -45.944     -0.6215172              1
      6890.0000         0.7754        12.5793       1453.541         0.6818       -45.9173     -0.6016541              1
      6890.5000         0.7756        12.5386       1456.572         0.6836       -45.8906     -0.5817871              1
      6891.0000         0.7758         12.459       1459.607         0.6854        -45.864     -0.5620232              1
      6891.5000          0.776        12.4307       1462.643         0.6871       -45.8373     -0.5421562              1
      6892.0000         0.7762        12.4408       1465.678         0.6889       -45.7947     -0.5063934              1
      6892.5000         0.7764        12.4607       1468.709         0.6907       -45.7021     -0.4206276              1
      6893.0000         0.7766        12.4725       1471.744         0.6925       -45.6094     -0.3347664              1
      6893.5000         0.7768         12.484       1474.779         0.6942       -45.5168     -0.2489967              1
      6894.0000          0.777        12.5752       1472.373         0.6954       -45.4242     -0.1632309              1
      6894.5000         0.7772        12.6489        1469.16         0.6944       -45.3315    -0.07736969              1
      6895.0000         0.7774        12.7143       1465.947         0.6934       -45.2388    0.008495331              1
      6895.5000         0.7776        12.7114       1454.926         0.6924       -45.1462     0.09426117              1
