#------------------------------------------------------------------------------
# Created by    : vladimir.rabinovich
# Created on    : 09/19/2023 17:19:36
#------------------------------------------------------------------------------
~Version Information Section
VERS.           2.0     :   CWLS log ASCII Standard - VERSION 2.0
WRAP.           NO      :   One line per depth step
~Well Information Section
#MNEM       .UNIT                                         VALUE :DESCRIPTION
#------------------------------------------------------------------------------
STRT        .FT                                            4496 :START DEPTH
STOP        .FT                                            7801 :STOP DEPTH
STEP        .FT                                             0.5 :STEP      
NULL        .                                           -999.25 :NULL      
COMP        .                             HELIS WM G CO LLC THE :COMPANY   
WELL        .                               OCS G12508 ST00BP00 :WELL      
FLD         .                              GALVESTON BLOCK 0395 :FIELD     
LOC         .                                                   :LOCATION  
CNTY        .                             GALVESTON LARGE BLOCK :LOCATION  
STAT        .                                             TEXAS :STATE     
CTRY        .                                     UNITED STATES :COUNTRY   
SRVC        .                                                   :SERVICE COMPANY
DATE        .                             9/13/2023 11:19:03 AM :LOG DATE  
API         .                                    42706404300000 :API NUMBER
UWI         .                                    42706404300000 :UNIQUE WELL ID
XCOORD      .                                  908236.382466376 :SURFACE X 
YCOORD      .                                  10386259.9403327 :SURFACE Y 
LAT         .                                         28.601028 :LATITUDE  
LON         .                                        -95.282181 :LONGITUDE 
ELEV        .FT                                             103 :ELEVATION VALUE
ELEV_TYPE   .                                                KB :ELEVATION REFERENCE TYPE
~Curve Information Section
#MNEM       .UNIT                                      API CODE :CURVE DESCRIPTION
#------------------------------------------------------------------------------
DEPT        .FT                                                 :DEPTH     
AHT10       .OHMM                                               :          
AHT20       .OHMM                                               :          
AHT30       .OHMM                                               :          
AHT60       .OHMM                                               :          
AHT90       .OHMM                                               :          
CPCHM       .MMHO                                               :          
DCAL        .IN                                                 :          
DPHZ        .FRAC                                               :          
GR          .GAPI                                               :          
GR_NORM     .GAPI                                               :GammaRay Normalized
GRAM        .GAPI                                               :          
HDRA        .G/CC                                               :          
NPOR        .FRAC                                               :          
RACHM       .OHMM                                               :          
ROPS        .F/HR                                               :          
RPCHM       .OHMM                                               :          
RWA         .OHMM                                               :          
SP          .MV                                                 :          
SP_NORM     .MV                                                 :SP Normalized
TENS        .LB/F                                               :          
VSH_GR      .V/V                                                :Volume of Shale from GR
VSH_SP      .V/V                                                :Volume of Shale from SP
~A        DEPTH          AHT10          AHT20          AHT30          AHT60          AHT90          CPCHM           DCAL           DPHZ             GR        GR_NORM           GRAM           HDRA           NPOR          RACHM           ROPS          RPCHM            RWA             SP        SP_NORM           TENS         VSH_GR         VSH_SP
# ...
      4724.0000         0.5948         0.6296         0.6578         0.6894         0.7045       1905.058         1.8612         0.2596        69.8851       84.27177         67.579         0.0108         0.4552          0.504        114.412          0.405         0.0625        -37.875     -0.1948082           2442              1       0.997003
      4724.5000         0.5807         0.6137         0.6382         0.6639         0.6764        2401.71         1.8852         0.2588        74.6298        91.2606         65.363         0.0089          0.431          0.329        114.412          0.436         0.0597            -36       2.430192           2440              1              1
      4725.0000         0.5841         0.6125         0.6374         0.6639         0.6809       2341.575         1.9213         0.2569         78.883       97.52485         66.525         0.0086         0.4787          0.536        114.412          0.521         0.0591       -35.3125       3.392692           2456              1              1
      4725.5000         0.5837         0.6154         0.6401         0.6663         0.6841       2026.331         1.9092          0.258        83.0211       103.6194         68.669         0.0109         0.4653          0.594        147.298           0.59           0.06       -35.5625       3.042692           2475              1              1
      4726.0000          0.583         0.6148         0.6359         0.6625         0.6838       1845.312         1.9573         0.2595        82.1008       102.2566         69.564         0.0171         0.4328          0.597        147.298          0.567         0.0607        -34.875       4.005192           2479              1              1
      4726.5000         0.5846         0.6148         0.6333         0.6577         0.6823       1789.625         1.9092         0.2644        80.7962       100.3272         69.535         0.0251          0.477            0.6        147.298          0.567          0.063       -34.6875       4.267692           2509              1              1
      4727.0000         0.5873         0.6153         0.6311         0.6541         0.6808       1748.403         1.5366         0.2678        78.1288       96.38876         70.875         0.0337         0.5389          0.626        147.298          0.622         0.0646       -35.0625       3.742692           2470              1              1
      4727.5000          0.591         0.6162         0.6297         0.6512         0.6799        1725.73         1.8852         0.2694        76.6855       94.25493         71.906         0.0406         0.4749           0.64        125.106          0.605         0.0654        -36.375       1.905192           2474              1              1
      4728.0000         0.5989         0.6206          0.631         0.6488         0.6794       1703.058         1.8131         0.2686        75.0007       91.76508         71.573         0.0515         0.4871          0.646        125.106          0.591         0.0649       -36.8125       1.292692           2486              1              1
      4728.5000         0.6028         0.6209         0.6269         0.6414         0.6689       1680.385         2.2218         0.2679        73.4559        89.4816         71.687         0.0629         0.4658          0.658        125.106          0.602         0.0635       -37.3125      0.5926918           2455              1              1
      4729.0000         0.6064         0.6142         0.6166          0.626         0.6511       1646.623         2.0535         0.2712        69.1484       83.12521         73.461         0.0696         0.4784          0.671        125.106          0.636         0.0635         -38.75      -1.419808           2480              1      0.9781568
      4729.5000         0.6101         0.6105         0.6071         0.6102         0.6303       1590.568         1.9573          0.275        68.0197       81.45516         68.906         0.0666         0.5142          0.696        118.726          0.605         0.0634            -39      -1.769808           2467              1      0.9727722
      4730.0000         0.6096         0.6086         0.5968         0.5912         0.6053       1591.629         1.7169         0.2748        71.1789       86.10659         65.705         0.0655         0.4535          0.741        118.726          0.636         0.0607            -39      -1.769808           2476              1      0.9727722
      4730.5000         0.5992         0.5953         0.5793         0.5717         0.5829       1600.868         1.4524         0.2733        78.1619       96.39524         63.058         0.0607         0.3898           0.72        118.726          0.873         0.0578         -40.25      -3.519808           2479              1      0.9458491
      4731.0000         0.5868         0.5799         0.5592         0.5459         0.5463       1598.296         1.7169          0.269        82.2137       102.3625         61.358         0.0561         0.4505          0.617        118.726          0.684         0.0524       -44.4375      -9.382308           2521              1      0.8556568
      4731.5000         0.6013         0.5903         0.5644          0.547         0.5417       1586.583         1.5245         0.2752        73.8571       90.03679         62.501         0.0348         0.4526          0.694         85.005          0.634         0.0545        -50.625      -18.04481           2524              1      0.7223876
      4732.0000         0.6338          0.623         0.5881         0.5612         0.5496        1574.87         2.4623         0.2621        63.2253       74.35679         62.247          0.019         0.4157          0.673         85.005          0.621         0.0498            -54      -22.76981           2455      0.8799317      0.6496953
      4732.5000         0.6659         0.6399         0.6081         0.5831         0.5641       1614.664          2.294         0.2521        55.0844       65.94334         63.364         0.0056         0.3451          0.635         85.005          0.585          0.047       -55.0625      -24.25731           2431      0.7009221      0.6268106
      4733.0000         0.6734         0.6418         0.6055         0.5827          0.564       1703.882         1.7409         0.2291        60.0712       74.10528         65.734         0.0062          0.358          0.614         85.005          0.563         0.0383       -54.5625      -23.55731           2411      0.8745804      0.6375799
      4733.5000         0.6919         0.6499         0.6184         0.5921         0.5734       1708.433         2.1497         0.2239        62.2753         77.709         70.164         0.0067         0.3625          0.586        138.777          0.583          0.037       -54.4375      -23.38231           2446      0.9512553      0.6402721
      4734.0000         0.7245         0.6715         0.6447         0.6166         0.5813       1703.073          1.765         0.2131        64.7551       81.76432          68.86         0.0116         0.3101          0.566        138.777          0.574         0.0338       -54.6875      -23.73231           2490              1      0.6348876
      4734.5000         0.7481         0.6705         0.6451         0.6244         0.6035       1697.713         1.5726         0.2077        61.1912       75.91975           54.6         0.0171         0.2857          0.551        138.777          0.504         0.0332         -53.25      -21.71981           2512      0.9131861      0.6658491
      4735.0000         0.7248         0.6614         0.6437         0.6249         0.6077       1692.776         2.1497         0.2083        62.3568       77.82236         48.848         0.0194         0.3364          0.496        138.777          0.385         0.0336        -51.625      -19.44481           2448      0.9536673      0.7008491
      4735.5000         0.7272          0.657          0.639         0.6278         0.6261       2389.245         2.1136          0.216        66.1579       84.04205         46.505         0.0146         0.3773           0.45         79.559          0.367         0.0374        -52.375      -20.49481           2412              1      0.6846952
