#------------------------------------------------------------------------------
# Created by    : vladimir.rabinovich
# Created on    : 09/19/2023 17:20:24
#------------------------------------------------------------------------------
~Version Information Section
VERS.           2.0     :   CWLS log ASCII Standard - VERSION 2.0
WRAP.           NO      :   One line per depth step
~Well Information Section
#MNEM       .UNIT                                         VALUE :DESCRIPTION
#------------------------------------------------------------------------------
STRT        .FT                                            2979 :START DEPTH
STOP        .FT                                           11003 :STOP DEPTH
STEP        .FT                                             0.5 :STEP      
NULL        .                                           -999.25 :NULL      
COMP        .                                        TEXACO USA :COMPANY   
WELL        .                               OCS G01821 ST00BP00 :WELL      
FLD         .                                           WILDCAT :FIELD     
LOC         .                                                   :LOCATION  
CNTY        .                           HIGH ISLAND LARGE BLOCK :LOCATION  
STAT        .                                             TEXAS :STATE     
CTRY        .                                     UNITED STATES :COUNTRY   
SRVC        .                                                   :SERVICE COMPANY
DATE        .                             9/13/2023 11:19:15 AM :LOG DATE  
API         .                                    42708300170000 :API NUMBER
UWI         .                                    42708300170000 :UNIQUE WELL ID
XCOORD      .                                  1345073.13508324 :SURFACE X 
YCOORD      .                                  10640242.4404634 :SURFACE Y 
LAT         .                                         29.315788 :LATITUDE  
LON         .                                        -93.927032 :LONGITUDE 
ELEV        .FT                                              74 :ELEVATION VALUE
ELEV_TYPE   .                                                KB :ELEVATION REFERENCE TYPE
~Curve Information Section
#MNEM       .UNIT                                      API CODE :CURVE DESCRIPTION
#------------------------------------------------------------------------------
DEPT        .FT                                                 :DEPTH     
ASN         .OHMM                                               :          
CILD        .MMHO                                               :          
ILD         .OHMM                                               :          
SP          .MV                                                 :          
SP_NORM     .MV                                                 :SP Normalized
VSH_SP      .V/V                                                :Volume of Shale from SP
~A        DEPTH            ASN           CILD            ILD             SP        SP_NORM         VSH_SP
# ...
      7767.0000         1.4018       711.0693         1.3563       -48.9458      -11.37004      0.8379681
      7767.5000         1.3864       737.6426         1.3538       -50.4958      -12.92004      0.8137494
      7768.0000          1.371       764.9883         1.3295       -51.8169      -14.24114      0.7931072
      7768.5000         1.3431       804.9092         1.2873        -50.252      -12.67624      0.8175588
      7769.0000         1.3024       839.7031          1.245       -43.4525       -5.87674      0.9238009
      7769.5000         1.2617       850.6318         1.2027       -41.8651      -4.289341       0.948604
      7770.0000          1.235       861.5605         1.1605       -40.6361      -3.060341      0.9678072
      7770.5000         1.2248       872.4883         1.1221       -39.8014      -2.225639      0.9808494
      7771.0000         1.2228       856.8066           1.09       -39.0625       -1.48674      0.9923947
      7771.5000         1.2888       827.7646         1.0607       -38.6202      -1.044441      0.9993056
      7772.0000         1.3675       798.7217         1.1554       -38.7527      -1.176941      0.9972353
      7772.5000         1.4543       769.1797         1.2499       -39.6024      -2.026642      0.9839587
      7773.0000         1.5286       737.4424         1.3349       -40.5913      -3.015541      0.9685072
      7773.5000         1.5549       705.7051         1.4201       -41.4521      -3.876339      0.9550572
      7774.0000         1.5812       674.6914         1.5052       -42.2421       -4.66634      0.9427134
      7774.5000         1.5996       651.6621         1.5705       -42.9244       -5.34864      0.9320525
      7775.0000         1.5719       634.8701         1.5357       -43.8318      -6.256039      0.9178744
      7775.5000         1.5442       629.0566         1.5066       -44.7947      -7.218941      0.9028291
      7776.0000         1.5317       633.6289         1.4789       -45.5734      -7.997639      0.8906619
      7776.5000         1.5803        638.207         1.4513       -46.1842       -8.60844      0.8811181
      7777.0000         1.6562       642.4727         1.4237       -46.9094      -9.333641      0.8697869
      7777.5000         1.8548       644.1006          1.433       -47.7977      -10.22194      0.8559072
      7778.0000         1.8806       641.9062         1.4864       -49.2319      -11.65614      0.8334978
      7778.5000         1.9064       615.1094         1.5398       -50.7944      -13.21864      0.8090838
      7779.0000         1.9322       585.6426         1.5912       -52.3294      -14.75364      0.7850994
      7779.5000         1.9575       554.6533         1.6369       -54.3297      -16.75394      0.7538447
      7780.0000         1.9743       565.7314         1.6606       -57.5068      -19.93104      0.7042025
      7780.5000         1.9911       587.3145         1.6175       -62.5648      -24.98904      0.6251712
      7781.0000         2.0068       608.8965         1.5743       -63.9979      -26.42214      0.6027791
      7781.5000         1.9751       630.4785         1.5307       -65.0167      -27.44094      0.5868603
      7782.0000         1.9434       653.1836         1.4841       -65.9373      -28.36154      0.5724759
      7782.5000         1.8977       679.6318         1.4375       -66.7831      -29.20734      0.5592604
      7783.0000         1.8398       706.0791          1.391       -67.3759      -29.80014      0.5499978
      7783.5000         1.7811          733.5         1.3444       -67.9456      -30.36984      0.5410962
      7784.0000         1.7164       762.8428         1.2979       -68.3792      -30.80344      0.5343212
      7784.5000         1.6519       779.2852         1.2513       -68.8182      -31.24244      0.5274619
      7785.0000         1.5546       788.4795         1.2047       -69.2866      -31.71084      0.5201432
      7785.5000         1.5531       793.3887         1.1688       -69.7301      -32.15434      0.5132134
      7786.0000         1.5671       788.2051         1.1834       -70.1125      -32.53674      0.5072384
      7786.5000         1.5811       783.0215          1.205       -69.9098      -32.33404      0.5104057
      7787.0000         1.5951       777.8379         1.2265       -69.4918      -31.91604      0.5169369
      7787.5000         1.6091       769.0303          1.248       -69.0366      -31.46084      0.5240494
      7788.0000         1.6231        759.873         1.2695       -68.5994      -31.02364      0.5308806
      7788.5000         1.6715       750.7168          1.291       -68.2385      -30.66274      0.5365196
      7789.0000         1.7206       741.5596         1.3125       -67.8206      -30.24484      0.5430493
      7789.5000         1.7696       732.4023         1.3338       -67.3762      -29.80044      0.5499932
      7790.0000         1.8187       716.3838         1.3538       -67.6246      -30.04884      0.5461118
      7790.5000          1.863       693.8535         1.3738       -67.9755      -30.39974       0.540629
      7791.0000         1.9073       670.4746         1.3937       -67.5995      -30.02374       0.546504
      7791.5000         1.9504       656.1035         1.4137       -68.7139      -31.13814      0.5290916
      7792.0000         1.9821       686.1943         1.4337       -69.5953      -32.01954      0.5153197
      7792.5000         1.9911       735.0977         1.3782        -70.478      -32.90224      0.5015275
      7793.0000         1.9527       784.2002         1.3176       -71.3595      -33.78374      0.4877541
      7793.5000         1.8707       833.6025         1.2571       -72.4004      -34.82464        0.47149
      7794.0000         1.7595       874.8213         1.1965       -73.9567      -36.38094      0.4471728
      7794.5000         1.6164       909.8027         1.1359       -75.5129      -37.93714      0.4228572
      7795.0000         1.5512       944.7334         1.0754       -77.0692      -39.49344        0.39854
      7795.5000         1.4317       967.1895         1.0149       -79.5718      -41.99604      0.3594369
      7796.0000         1.3983       988.5215         0.9682        -82.261      -44.68524      0.3174181
      7796.5000         1.3738       1007.347         0.9275       -85.0449      -47.46914      0.2739197
      7797.0000         1.3621       1017.352         0.8869       -87.8986      -50.32284      0.2293307
      7797.5000         1.3503       1027.357         0.8463        -89.395      -51.81924      0.2059494
      7798.0000          1.345       1037.363          0.847       -90.0828      -52.50704      0.1952025
      7798.5000         1.3561       1042.908         0.8602       -90.2238      -52.64804      0.1929994
      7799.0000         1.3673       1046.639         0.8734       -90.3646      -52.78884      0.1907994
      7799.5000         1.3784       1045.957         0.8866       -90.5056      -52.92984      0.1885962
      7800.0000         1.3892       1037.051         0.8998       -90.6571      -53.08134      0.1862291
      7800.5000         1.3952       1028.143         0.9098       -90.8149      -53.23914      0.1837634
      7801.0000         1.3998       1019.236         0.9181       -90.4951      -52.91934      0.1887603
      7801.5000         1.3847       1010.329         0.9264       -89.8625      -52.28674      0.1986446
      7802.0000         1.3696       1001.434         0.9347       -89.2307      -51.65494      0.2085166
      7802.5000         1.3545       992.5264          0.943       -88.5989      -51.02314      0.2183884
      7803.0000         1.3394       984.7168         0.9513       -87.9664      -50.39064      0.2282712
      7803.5000         1.3188       977.8682         0.9597       -86.9723      -49.39654      0.2438041
      7804.0000         1.2975       971.0186          0.968       -85.6201      -48.04434      0.2649322
      7804.5000         1.2762       968.2871         0.9763       -84.2655      -46.68974      0.2860978
