#------------------------------------------------------------------------------
# Created by    : vladimir.rabinovich
# Created on    : 09/19/2023 17:19:36
#------------------------------------------------------------------------------
~Version Information Section
VERS.           2.0     :   CWLS log ASCII Standard - VERSION 2.0
WRAP.           NO      :   One line per depth step
~Well Information Section
#MNEM       .UNIT                                         VALUE :DESCRIPTION
#------------------------------------------------------------------------------
STRT        .FT                                            4496 :START DEPTH
STOP        .FT                                            7801 :STOP DEPTH
STEP        .FT                                             0.5 :STEP      
NULL        .                                           -999.25 :NULL      
COMP        .                             HELIS WM G CO LLC THE :COMPANY   
WELL        .                               OCS G12508 ST00BP00 :WELL      
FLD         .                              GALVESTON BLOCK 0395 :FIELD     
LOC         .                                                   :LOCATION  
CNTY        .                             GALVESTON LARGE BLOCK :LOCATION  
STAT        .                                             TEXAS :STATE     
CTRY        .                                     UNITED STATES :COUNTRY   
SRVC        .                                                   :SERVICE COMPANY
DATE        .                             9/13/2023 11:19:03 AM :LOG DATE  
API         .                                    42706404300000 :API NUMBER
UWI         .                                    42706404300000 :UNIQUE WELL ID
XCOORD      .                                  908236.382466376 :SURFACE X 
YCOORD      .                                  10386259.9403327 :SURFACE Y 
LAT         .                                         28.601028 :LATITUDE  
LON         .                                        -95.282181 :LONGITUDE 
ELEV        .FT                                             103 :ELEVATION VALUE
ELEV_TYPE   .                                                KB :ELEVATION REFERENCE TYPE
~Curve Information Section
#MNEM       .UNIT                                      API CODE :CURVE DESCRIPTION
#------------------------------------------------------------------------------
DEPT        .FT                                                 :DEPTH     
AHT10       .OHMM                                               :          
AHT20       .OHMM                                               :          
AHT30       .OHMM                                               :          
AHT60       .OHMM                                               :          
AHT90       .OHMM                                               :          
CPCHM       .MMHO                                               :          
DCAL        .IN                                                 :          
DPHZ        .FRAC                                               :          
GR          .GAPI                                               :          
GR_NORM     .GAPI                                               :GammaRay Normalized
GRAM        .GAPI                                               :          
HDRA        .G/CC                                               :          
NPOR        .FRAC                                               :          
RACHM       .OHMM                                               :          
ROPS        .F/HR                                               :          
RPCHM       .OHMM                                               :          
RWA         .OHMM                                               :          
SP          .MV                                                 :          
SP_NORM     .MV                                                 :SP Normalized
TENS        .LB/F                                               :          
VSH_GR      .V/V                                                :Volume of Shale from GR
VSH_SP      .V/V                                                :Volume of Shale from SP
~A        DEPTH          AHT10          AHT20          AHT30          AHT60          AHT90          CPCHM           DCAL           DPHZ             GR        GR_NORM           GRAM           HDRA           NPOR          RACHM           ROPS          RPCHM            RWA             SP        SP_NORM           TENS         VSH_GR         VSH_SP
# ...
      6692.0000          0.913         1.0054         1.0659           1.11          1.111       1030.727         -0.399         0.2193        73.0059       85.38281         71.933         0.0251         0.3906          1.072        119.056          0.975         0.0686        -30.125      -7.108756           3078              1      0.8984463
      6692.5000         0.9072         1.0121         1.0754         1.1201         1.1189       1026.986        -0.3028          0.203        72.3842       84.48853         69.636         0.0266          0.356          1.073        119.056          0.975         0.0586          -30.5      -7.655737           3068              1      0.8906323
      6693.0000         0.8871          0.978          1.033         1.0713         1.0696       1023.567        -0.3028         0.2032        75.7517       89.31197         70.799         0.0223         0.4233          1.076        119.056          0.976         0.0561       -30.0625      -7.065219           3065              1      0.8990683
      6693.5000         0.8707         0.9599         1.0063         1.0394         1.0379       1023.567        -0.2547          0.211        80.1745       95.64797         73.243          0.015         0.4056          1.076          92.33          0.975          0.059       -29.8125      -6.737198           3038              1      0.9037543
      6694.0000         0.8756         0.9586         1.0054         1.0389         1.0344       1023.567        -0.1586         0.2186        80.5856       96.23401         73.263         0.0123         0.4118          1.076          92.33          0.971         0.0634        -29.375       -6.14668           3058              1      0.9121903
      6694.5000         0.8756         0.9681         1.0076         1.0394         1.0334       1023.567        -0.2668         0.2075        79.1424       94.16227         74.396         0.0231          0.435          1.075          92.33          0.962         0.0567        -29.875      -6.868662           3037              1      0.9018763
      6695.0000         0.8746         0.9639         1.0114         1.0433         1.0369       1029.722        -0.3028         0.1964        73.8771        86.6123         73.564         0.0349         0.3957          1.073          92.33          0.955         0.0505       -30.6875      -8.028144           3022              1      0.8853123
      6695.5000         0.8749         0.9653          1.009         1.0395         1.0321       1035.877        -0.1946         0.1927        72.0213        83.9492         73.806         0.0399         0.3881           1.07        115.281          0.954         0.0483       -29.6875      -6.650123           3052              1      0.9049982
      6696.0000         0.8736          0.963         1.0044         1.0365         1.0278       1042.032        -0.1586         0.1971        72.2787       84.31493         71.953          0.039         0.3958           1.07        115.281          0.956         0.0504        -29.375      -6.234605           3024              1      0.9109342
      6696.5000         0.8744          0.958         1.0015         1.0358         1.0274       1045.488        -0.0023         0.1934        75.3301        88.6853         72.895         0.0403         0.3493          1.072        115.281          0.961         0.0485          -27.5      -3.631587           3020              1      0.9481202
      6697.0000         0.8806         0.9592         1.0062         1.0411         1.0359       1045.488         0.0578         0.1946        72.3419       84.39911          71.92         0.0411          0.415          1.076        115.281           0.96         0.0495        -27.375      -3.478568           3038              1      0.9503062
      6697.5000          0.886         0.9655         1.0064          1.042         1.0391       1045.488        -0.0143         0.1883        71.3888       83.02985         72.818         0.0428         0.4283           1.08        114.165           0.96         0.0462        -27.125      -3.150548           3050              1      0.9549922
      6698.0000          0.896         0.9711          1.016         1.0492         1.0495       1045.488        -0.1105         0.1866        68.5481       78.95506         71.868         0.0362         0.4106          1.084        114.165          0.961         0.0458       -28.8125      -5.535029           3030      0.9777673      0.9209282
      6698.5000         0.8933         0.9759          1.023         1.0532          1.057       1045.488        -0.2066         0.1902        71.2703        82.8536         72.173         0.0251         0.4071          1.088        114.165          0.965         0.0481       -28.1875      -4.682011           3049              1      0.9331141
      6699.0000         0.8857         0.9684         1.0106          1.041         1.0453       1045.488        -0.1946         0.1958        69.9066       80.89581         71.904         0.0131         0.4255          1.094        114.165          0.973         0.0506       -27.4375      -3.653993           3046              1      0.9478001
      6699.5000         0.8812         0.9635         0.9998         1.0266         1.0297        1038.56        -0.2307          0.201         69.696       80.59075         71.758          0.008         0.4053          1.101         118.99          0.977         0.0528       -28.0625      -4.550972           3065              1      0.9349861
      6700.0000         0.8744         0.9523          0.985         1.0095         1.0113       1031.632        -0.2547         0.1937        71.6475       83.38464         71.343         0.0134         0.3726          1.105         118.99          0.986         0.0479       -27.6875      -4.047954           3042              1      0.9421721
      6700.5000         0.8787         0.9544         0.9849         1.0091         1.0019       1024.703        -0.3028         0.1941        70.5799       81.85125         71.516         0.0194         0.4255          1.114         118.99          1.004         0.0476       -27.8125      -4.244936           3030              1      0.9393581
      6701.0000         0.8905          0.967         0.9985         1.0192         1.0085       1014.255        -0.2307         0.1998        70.3693        81.5462         72.969         0.0288         0.3702          1.129         118.99          1.019          0.051        -27.375      -3.654415           3048              1      0.9477941
      6701.5000         0.8985         0.9745         1.0055           1.02         1.0082        995.631        -0.2788         0.1984        72.2956       84.30397         72.878         0.0429         0.3423          1.132         177.39          1.018         0.0502        -28.375      -5.076396           3029              1        0.92748
      6702.0000         0.9009         0.9766          1.005          1.019         1.0044        989.866        -0.2547         0.1996         70.836       82.20872          72.81           0.05          0.352          1.117         177.39          1.026         0.0507       -29.3125      -6.410878           3004              1       0.908416
      6702.5000         0.9023         0.9752         1.0027         1.0173         0.9993        986.446        -0.2547         0.1978        75.4694       88.84657         71.533         0.0487         0.3574          1.111         177.39          1.007         0.0495            -29       -5.99536           3008              1       0.914352
      6703.0000         0.9053         0.9753         1.0041         1.0173         0.9972        983.027        -0.2066         0.1961         71.832        83.6299         71.933          0.038         0.4363           1.11         177.39          0.982         0.0484         -29.75      -7.067339           3020              1       0.899038
      6703.5000         0.9107         0.9803         1.0084         1.0209         0.9992        981.144        -0.1826         0.1899        76.4654       90.26775         73.458         0.0281         0.4209          1.102        195.223          0.974         0.0453       -31.0625      -8.926821           3038              1       0.872474
