#------------------------------------------------------------------------------
# Created by    : vladimir.rabinovich
# Created on    : 09/19/2023 17:22:38
#------------------------------------------------------------------------------
~Version Information Section
VERS.           2.0     :   CWLS log ASCII Standard - VERSION 2.0
WRAP.           NO      :   One line per depth step
~Well Information Section
#MNEM       .UNIT                                         VALUE :DESCRIPTION
#------------------------------------------------------------------------------
STRT        .FT                                             597 :START DEPTH
STOP        .FT                                            8696 :STOP DEPTH
STEP        .FT                                             0.5 :STEP      
NULL        .                                           -999.25 :NULL      
COMP        .                MURPHY EXPLORATION & PRODUCTION CO :COMPANY   
WELL        .                               OCS G13308 ST00BP00 :WELL      
FLD         .                                           WILDCAT :FIELD     
LOC         .                                                   :LOCATION  
CNTY        .                             GALVESTON LARGE BLOCK :LOCATION  
STAT        .                                             TEXAS :STATE     
CTRY        .                                     UNITED STATES :COUNTRY   
SRVC        .                                                   :SERVICE COMPANY
DATE        .                             9/13/2023 11:19:54 AM :LOG DATE  
API         .                                    42706403460000 :API NUMBER
UWI         .                                    42706403460000 :UNIQUE WELL ID
XCOORD      .                                  1110706.35492259 :SURFACE X 
YCOORD      .                                  10520329.8149831 :SURFACE Y 
LAT         .                                         28.978895 :LATITUDE  
LON         .                                        -94.657168 :LONGITUDE 
ELEV        .FT                                              71 :ELEVATION VALUE
ELEV_TYPE   .                                                KB :ELEVATION REFERENCE TYPE
~Curve Information Section
#MNEM       .UNIT                                      API CODE :CURVE DESCRIPTION
#------------------------------------------------------------------------------
DEPT        .FT                                                 :DEPTH     
DCAL        .IN                                                 :          
DPHI        .%                                                  :          
DRHO        .G/C3                                               :          
DTLN        .US/F                                               :          
GR          .GAPI                                               :          
GR_1        .GAPI                                               :          
GR_NORM     .GAPI                                               :GammaRay Normalized
ILD         .OHMM                                               :          
ILM         .OHMM                                               :          
NPHI        .%                                                  :          
SFL         .OHMM                                               :          
SP          .MV                                                 :          
VSH_GR      .V/V                                                :Volume of Shale from GR
~A        DEPTH           DCAL           DPHI           DRHO           DTLN             GR           GR_1        GR_NORM            ILD            ILM           NPHI            SFL             SP         VSH_GR
# ...
      6012.0000         0.3004        23.6736        -0.0048        -999.25        -999.25        70.9049       84.14661         0.5578         0.6549        38.4761         0.6409       -57.6268              1
      6012.5000         0.1461        24.4471        -0.0088        -999.25        -999.25         62.874       73.22021         0.5278         0.6273        35.6576         0.6298       -59.5434      0.8557492
      6013.0000         0.0106        24.4643        -0.0121        -999.25        -999.25        56.0699       63.96293         0.4968         0.5941         32.252         0.6287       -61.2075      0.6587858
      6013.5000        -0.0269        23.8436        -0.0151        -999.25        -999.25        51.4682       57.70211         0.4716         0.5643        29.9202         0.6719       -62.6978      0.5255768
      6014.0000        -0.0384        23.7133        -0.0174        -999.25        -999.25        48.3372       53.44225         0.4533         0.5317         29.144         0.7557       -64.4987      0.4349415
      6014.5000        -0.0521        24.4217        -0.0183        -999.25        -999.25        45.3785       49.41681         0.4389         0.4925         29.247         0.7563       -65.6978      0.3492938
      6015.0000        -0.0652        25.4692        -0.0187        -999.25        -999.25        43.9941       47.53326         0.4304          0.463        30.2631         0.6436        -66.369      0.3092184
      6015.5000        -0.0779        26.7797        -0.0188        -999.25        -999.25        43.2988       46.58729         0.4259          0.443        32.6773         0.5142       -66.6104      0.2890912
      6016.0000         -0.086        27.4581        -0.0176        -999.25        -999.25        45.6273       49.75531         0.4226          0.437        34.7036          0.471       -66.3142      0.3564959
      6016.5000        -0.0856        26.5266        -0.0162        -999.25        -999.25        48.7535       54.00864         0.4216         0.4515        35.9443         0.5388       -64.9568      0.4469924
      6017.0000        -0.0802         25.443        -0.0149        -999.25        -999.25        52.2147       58.71776         0.4235         0.4763        36.0928         0.6399       -64.1451      0.5471863
      6017.5000         -0.083        24.9361         -0.015        -999.25        -999.25        54.6331        62.0081         0.4267          0.504        35.7822         0.7053       -63.8936      0.6171936
      6018.0000        -0.0828        25.5434        -0.0158        -999.25        -999.25        54.7997       62.23477         0.4325         0.5222        35.3903         0.7284       -64.1334      0.6220163
      6018.5000        -0.0716         26.114        -0.0158        -999.25        -999.25        54.2119       61.43504         0.4428         0.5169         36.023         0.6749       -64.8435      0.6050007
      6019.0000        -0.0602         26.585         -0.015        -999.25        -999.25        53.4938       60.45803         0.4506         0.4988        37.4966         0.5829       -65.6324      0.5842134
      6019.5000        -0.0431        26.8272        -0.0131        -999.25        -999.25        54.3603       61.63694         0.4534          0.483        38.9388         0.5166       -64.9347      0.6092967
      6020.0000        -0.0149        26.5101        -0.0116        -999.25        -999.25        60.4155       69.87532         0.4528         0.4784        39.9228         0.5122        -63.565      0.7845813
      6020.5000         0.0162        25.7807        -0.0108        -999.25        -999.25        63.5219        74.1017         0.4542         0.4923        40.0958         0.5575       -62.4755      0.8745043
      6021.0000         0.0587        24.6231         -0.011        -999.25        -999.25        63.9585       74.69571         0.4584         0.5153        39.2084         0.5927       -62.2056      0.8871428
      6021.5000         0.0976        23.9903        -0.0118        -999.25        -999.25        64.0626       74.83735         0.4635         0.5344        38.4482         0.6186       -62.2531      0.8901564
      6022.0000         0.1165        24.4247        -0.0141        -999.25        -999.25        65.0209       76.14114         0.4691         0.5335        38.5076         0.6019       -62.2062      0.9178967
      6022.5000         0.0993        24.9215        -0.0157        -999.25        -999.25        64.5812       75.54292         0.4742          0.528        39.3402         0.5756       -62.4355      0.9051686
      6023.0000         0.0606        25.0536        -0.0171        -999.25        -999.25        62.8149       73.13979         0.4786         0.5234        40.5967         0.5539       -63.4479      0.8540382
      6023.5000         0.0344        25.1941        -0.0174        -999.25        -999.25        61.4045       71.22089         0.4825         0.5199        41.6323         0.5664       -62.5488      0.8132104
      6024.0000          0.072        25.5718        -0.0174        -999.25        -999.25        62.4392       72.62864         0.4832         0.5201        40.8446         0.5834       -61.5061      0.8431625
      6024.5000         0.0716        25.6507        -0.0158        -999.25        -999.25        63.1213       73.55667          0.484         0.5257        39.3342         0.5985       -61.5452      0.8629079
      6025.0000         0.0376        25.5421        -0.0143        -999.25        -999.25         61.194       70.93449         0.4888         0.5348        38.1189         0.6201       -61.8627      0.8071167
      6025.5000        -0.0085        25.7474        -0.0127        -999.25        -999.25        54.0154       61.16769         0.5004         0.5486        37.1177         0.6614       -63.0489      0.5993125
      6026.0000        -0.0186        26.1581        -0.0105        -999.25        -999.25        47.0783       51.72946         0.5156         0.5628        36.2952         0.7244       -65.2697      0.3984992
      6026.5000         0.0078         26.314        -0.0076        -999.25        -999.25        44.6931       48.48429         0.5301          0.579        36.3979         0.7457       -65.8104      0.3294529
      6027.0000         0.0642        25.6707        -0.0047        -999.25        -999.25        47.6794       52.54729         0.5444         0.5953        37.0773         0.7351       -63.5071      0.4158997
      6027.5000         0.2006        24.8665        -0.0025        -999.25        -999.25        54.1287       61.32184         0.5536         0.6096        37.9834          0.713       -61.4304      0.6025923
      6028.0000         0.3465        23.9641        -0.0022        -999.25        -999.25        63.0809       73.50171         0.5585         0.6233        38.8895         0.6936       -59.7774      0.8617385
      6028.5000         0.3589        23.0611        -0.0022        -999.25        -999.25        68.2739       80.56702          0.563         0.6353        39.6517         0.6771       -58.5494              1
      6029.0000         0.3281        22.1213        -0.0016        -999.25        -999.25        69.0524        81.6262          0.569         0.6437        38.8827         0.6636       -58.0246              1
      6029.5000         0.2928        21.4586         0.0003        -999.25        -999.25        66.1208       77.63763         0.5768         0.6418        37.9302         0.6603        -57.968      0.9497367
      6030.0000         0.3009        21.0183         0.0028        -999.25        -999.25        63.8101       74.49382          0.587         0.6352        36.9111         0.6627       -57.2302      0.8828472
      6030.5000          0.454        20.7416         0.0047        -999.25        -999.25        62.2188       72.32877         0.5994         0.6278        36.0825         0.6667       -52.5792      0.8367823
