#------------------------------------------------------------------------------
# Created by    : vladimir.rabinovich
# Created on    : 09/19/2023 17:22:54
#------------------------------------------------------------------------------
~Version Information Section
VERS.           2.0     :   CWLS log ASCII Standard - VERSION 2.0
WRAP.           NO      :   One line per depth step
~Well Information Section
#MNEM       .UNIT                                         VALUE :DESCRIPTION
#------------------------------------------------------------------------------
STRT        .FT                                             494 :START DEPTH
STOP        .FT                                            6854 :STOP DEPTH
STEP        .FT                                             0.5 :STEP      
NULL        .                                           -999.25 :NULL      
COMP        .                          HUMBLE OIL & REFINING CO :COMPANY   
WELL        .                                     ST TR 00247-L :WELL      
FLD         .                                           WILDCAT :FIELD     
LOC         .                                                   :LOCATION  
CNTY        .                             GALVESTON LARGE BLOCK :LOCATION  
STAT        .                                             TEXAS :STATE     
CTRY        .                                     UNITED STATES :COUNTRY   
SRVC        .                                                   :SERVICE COMPANY
DATE        .                             9/13/2023 11:19:42 AM :LOG DATE  
API         .                                    42706000180000 :API NUMBER
UWI         .                                    42706000180000 :UNIQUE WELL ID
XCOORD      .                                  979775.061814126 :SURFACE X 
YCOORD      .                                  10543201.0009156 :SURFACE Y 
LAT         .                                        29.0361078 :LATITUDE  
LON         .                                       -95.0678326 :LONGITUDE 
ELEV        .FT                                              11 :ELEVATION VALUE
ELEV_TYPE   .                                                KB :ELEVATION REFERENCE TYPE
~Curve Information Section
#MNEM       .UNIT                                      API CODE :CURVE DESCRIPTION
#------------------------------------------------------------------------------
DEPT        .FT                                                 :DEPTH     
LAT         .OHMM                                               :          
LN          .OHMM                                               :          
SN          .OHMM                                               :          
SP          .MV                                                 :          
SP_NORM     .MV                                                 :SP Normalized
VSH_SP      .V/V                                                :Volume of Shale from SP
~A        DEPTH            LAT             LN             SN             SP        SP_NORM         VSH_SP
# ...
      3420.0000         0.9487         0.8536         0.7355       -60.5782       1.786884              1
      3420.5000         0.9489         0.8439          0.761       -61.1381       1.220932              1
      3421.0000         0.9492         0.8442         0.7865       -60.6224       1.730583              1
      3421.5000         0.9494         0.8444          0.812       -60.0111       2.335831              1
      3422.0000         0.9496         0.8447         0.8375       -59.4001       2.940777              1
      3422.5000         0.9658         0.8535         0.8523       -58.7888       3.546028              1
      3423.0000         1.0034         0.8662         0.8406       -58.3372       3.991577              1
      3423.5000         1.0409          0.877          0.829       -57.8864       4.436329              1
      3424.0000         1.0785           0.87         0.8174       -57.4357       4.880974              1
      3424.5000         1.1118          0.863         0.8053       -56.9849       5.325722              1
      3425.0000         1.1242          0.856         0.7914       -56.5342       5.770374              1
      3425.5000         1.0963          0.849         0.7727       -56.0837       6.214821              1
      3426.0000         1.0676          0.842         0.7541       -56.3267       5.965771              1
      3426.5000         1.0388          0.835         0.7365        -56.889       5.397419              1
      3427.0000         1.0101         0.8295         0.7232       -57.4511       4.829266              1
      3427.5000         0.9814         0.8247         0.7099       -58.0132       4.261116              1
      3428.0000         0.9526           0.82         0.6966       -58.5756       3.692665              1
      3428.5000         0.9516         0.8152         0.6833       -59.1377       3.124512              1
      3429.0000         0.9674         0.8104           0.67       -59.5682       2.687962              1
      3429.5000         0.9833         0.8056         0.6567       -59.9962        2.25391              1
      3430.0000         0.9992         0.8031         0.6434       -60.4244       1.819656              1
      3430.5000          1.015         0.8083         0.6393       -60.8524       1.385605              1
      3431.0000         1.0309         0.8136         0.6441       -61.2804      0.9515572              1
      3431.5000         1.0468         0.8188          0.649       -61.1806       1.045307              1
      3432.0000         1.0626         0.8241         0.6538       -60.5628       1.657051              1
      3432.5000         1.0613         0.8293         0.6586       -55.2536       6.960201              1
      3433.0000         1.0448         0.8346         0.6635        -49.695       12.51275              1
      3433.5000         1.0282         0.8395         0.6683       -47.9235        14.2782              1
      3434.0000         1.0117         0.8357         0.6732        -46.152       16.04365              1
      3434.5000         0.9952         0.8318          0.678       -44.8495        17.3401              1
      3435.0000         0.9787         0.8279         0.6811       -44.4119       17.77164              1
      3435.5000         0.9622          0.824         0.6708       -45.5986        16.5789              1
      3436.0000         0.9567         0.8202         0.6605       -46.7852       15.38625              1
      3436.5000         0.9578         0.8163         0.6503       -47.9719       14.19349              1
      3437.0000         0.9589         0.8124           0.64       -48.3986       13.76074              1
      3437.5000         0.9599         0.8098         0.6297       -46.6547       15.49859              1
      3438.0000          0.961         0.8123         0.6195        -44.358       17.78924              1
      3438.5000          0.962         0.8149         0.6092       -42.1129       20.02829              1
      3439.0000         0.9631         0.8174         0.5989       -40.2548       21.88034              1
      3439.5000         0.9641           0.82         0.5925       -39.4987       22.63039              1
      3440.0000         0.9652         0.8226         0.5986        -39.067       23.05603              1
      3440.5000         0.9786         0.8251         0.6047        -38.697       23.41998              1
      3441.0000         0.9943         0.8277         0.6107       -38.7037       23.40723              1
      3441.5000           1.01         0.8287         0.6168       -39.8853       22.21958              1
      3442.0000         1.0257         0.8274         0.6228       -40.9178       21.18103              1
      3442.5000         1.0415         0.8261         0.6286        -41.911       20.18178              1
      3443.0000         1.0427         0.8249         0.6294       -42.9042       19.18252              1
      3443.5000         1.0379         0.8236         0.6302       -43.8968       18.18387              1
      3444.0000          1.033         0.8223          0.631         -44.89       17.18462              1
      3444.5000         1.0282          0.821         0.6318       -45.8832       16.18537              1
      3445.0000         1.0234         0.8231         0.6326       -46.6424       15.42012              1
      3445.5000         1.0143          0.831         0.6334       -47.2379       14.81857              1
      3446.0000         1.0032         0.8388          0.632       -47.8338       14.21662              1
      3446.5000         0.9921         0.8466         0.6278       -48.4296       13.61477              1
      3447.0000          0.981         0.8545         0.6236       -49.0252       13.01311              1
      3447.5000         0.9699         0.8623         0.6193       -49.5551       12.47717              1
      3448.0000         0.9588         0.8702         0.6151       -49.3597       12.66651              1
      3448.5000         0.9477          0.878         0.6109       -49.1642       12.85596              1
      3449.0000         0.9366         0.8782         0.6067       -48.9687       13.04541              1
      3449.5000          0.935         0.8765         0.6025       -48.7733       13.23476              1
      3450.0000         0.9474         0.8747         0.6035       -47.9072       14.09481              1
      3450.5000         0.9598          0.873         0.6122       -46.9753       15.02066              1
      3451.0000         0.9722         0.8713          0.621       -46.1673        15.8226              1
      3451.5000         0.9846         0.8695         0.6298       -45.8892       16.09465              1
      3452.0000          0.997         0.8678         0.6386       -46.2476        15.7302              1
      3452.5000         1.0094         0.8649         0.6474       -47.0237       14.94805              1
      3453.0000         1.0218         0.8612         0.6562       -47.7997         14.166              1
      3453.5000          1.033         0.8575          0.665       -48.5753       13.38435              1
      3454.0000         1.0326         0.8537         0.6672       -49.3474        12.6062              1
      3454.5000         1.0322           0.85          0.668       -50.0903       11.85724              1
      3455.0000         1.0317         0.8455         0.6689       -50.8333       11.10819              1
      3455.5000         1.0313         0.8364         0.6697       -51.5756       10.35984              1
      3456.0000         1.0309         0.8272         0.6705       -52.3185       9.610889              1
      3456.5000         1.0372         0.8181         0.6714         -52.92       9.003342              1
      3457.0000         1.0465         0.8089         0.6643       -53.2886       8.628689              1
      3457.5000         1.0559         0.7998         0.6523       -53.6573       8.253937              1
