#------------------------------------------------------------------------------
# Created by    : vladimir.rabinovich
# Created on    : 09/19/2023 17:20:33
#------------------------------------------------------------------------------
~Version Information Section
VERS.           2.0     :   CWLS log ASCII Standard - VERSION 2.0
WRAP.           NO      :   One line per depth step
~Well Information Section
#MNEM       .UNIT                                         VALUE :DESCRIPTION
#------------------------------------------------------------------------------
STRT        .FT                                             510 :START DEPTH
STOP        .FT                                            9509 :STOP DEPTH
STEP        .FT                                             0.5 :STEP      
NULL        .                                           -999.25 :NULL      
COMP        .                       BLUE DOLPHIN EXPLORATION CO :COMPANY   
WELL        .                                OCS 00714 ST00BP00 :WELL      
FLD         .                              GALVESTON BLOCK 0288 :FIELD     
LOC         .                                                   :LOCATION  
CNTY        .                             GALVESTON LARGE BLOCK :LOCATION  
STAT        .                                             TEXAS :STATE     
CTRY        .                                     UNITED STATES :COUNTRY   
SRVC        .                                                   :SERVICE COMPANY
DATE        .                             9/13/2023 11:19:25 AM :LOG DATE  
API         .                                    42706000660000 :API NUMBER
UWI         .                                    42706000660000 :UNIQUE WELL ID
XCOORD      .                                  1093932.46617998 :SURFACE X 
YCOORD      .                                  10479390.8980397 :SURFACE Y 
LAT         .                                         28.865655 :LATITUDE  
LON         .                                       -94.7077791 :LONGITUDE 
ELEV        .FT                                              83 :ELEVATION VALUE
ELEV_TYPE   .                                                KB :ELEVATION REFERENCE TYPE
~Curve Information Section
#MNEM       .UNIT                                      API CODE :CURVE DESCRIPTION
#------------------------------------------------------------------------------
DEPT        .FT                                                 :DEPTH     
ASN         .OHMM                                               :          
CALI        .IN                                                 :          
DT          .US/F                                               :          
IL          .OHMM                                               :          
SP          .MV                                                 :          
SP_NORM     .MV                                                 :SP Normalized
VSH_SP      .V/V                                                :Volume of Shale from SP
~A        DEPTH            ASN           CALI             DT             IL             SP        SP_NORM         VSH_SP
# ...
      2319.0000         0.9315        -999.25        -999.25         0.8257       -60.7498      -9.102619      0.5264921
      2319.5000         0.9619        -999.25        -999.25         0.8113       -61.5411      -9.895813      0.4736125
      2320.0000         0.9702        -999.25        -999.25          0.782       -61.8079      -10.16451      0.4556997
      2320.5000         0.9005        -999.25        -999.25         0.7533       -61.4502      -9.808701        0.47942
      2321.0000          0.835        -999.25        -999.25         0.7177       -63.0898       -11.4502      0.3699867
      2321.5000         0.8029        -999.25        -999.25         0.6772       -64.1016      -12.46389      0.3024071
      2322.0000         0.7914        -999.25        -999.25         0.6452       -64.4998      -12.86399      0.2757339
      2322.5000         0.7932        -999.25        -999.25         0.6168       -64.4988      -12.86489      0.2756742
      2323.0000         0.8035        -999.25        -999.25         0.6068       -63.8195      -12.18748      0.3208348
      2323.5000         0.8045        -999.25        -999.25         0.6055       -63.0245      -11.39437      0.3737083
      2324.0000         0.7892        -999.25        -999.25         0.6096        -63.199      -11.57077      0.3619486
      2324.5000         0.7873        -999.25        -999.25         0.6132       -64.3903      -12.76396      0.2824025
      2325.0000         0.7884        -999.25        -999.25         0.6167       -65.7603      -14.13586      0.1909426
      2325.5000         0.7847        -999.25        -999.25         0.6155       -67.0898      -15.46725       0.102183
      2326.0000         0.7779        -999.25        -999.25         0.6124       -67.8312      -16.21055     0.05263011
      2326.5000         0.7745        -999.25        -999.25         0.6103       -68.0023      -16.38354     0.04109726
      2327.0000         0.7808        -999.25        -999.25         0.6102       -67.4232      -15.80634     0.07957713
      2327.5000         0.7828        -999.25        -999.25         0.6101       -66.5046      -14.88964      0.1406909
      2328.0000         0.7727        -999.25        -999.25         0.6056        -65.804      -14.19093      0.1872711
      2328.5000         0.7578        -999.25        -999.25         0.6004       -65.1895      -13.57833      0.2281115
      2329.0000         0.7489        -999.25        -999.25         0.5957        -64.771      -13.16173      0.2558848
      2329.5000         0.7427        -999.25        -999.25         0.5912        -65.272      -13.66462      0.2223587
      2330.0000         0.7452        -999.25        -999.25         0.5886       -66.4113      -14.80581      0.1462791
      2330.5000         0.7522        -999.25        -999.25          0.591       -66.9242      -15.32061      0.1119593
      2331.0000           0.76        -999.25        -999.25         0.5934       -66.8003       -15.1986       0.120093
      2331.5000         0.7662        -999.25        -999.25         0.5964       -66.0869       -14.4871      0.1675268
      2332.0000         0.7565        -999.25        -999.25         0.6003       -65.6095      -14.01159      0.1992271
      2332.5000         0.7401        -999.25        -999.25         0.6042       -65.6438      -14.04779      0.1968142
      2333.0000         0.7333        -999.25        -999.25         0.6036       -65.8558      -14.26168      0.1825546
      2333.5000         0.7388        -999.25        -999.25         0.6012       -66.0294      -14.43718      0.1708544
      2334.0000         0.7483        -999.25        -999.25         0.5988       -65.6421      -14.05177      0.1965485
      2334.5000         0.7498        -999.25        -999.25         0.5969       -64.3809      -12.79247      0.2805021
      2335.0000          0.745        -999.25        -999.25         0.5954       -64.2499      -12.66337      0.2891088
      2335.5000         0.7458        -999.25        -999.25         0.5943       -65.2584      -13.67376      0.2217494
      2336.0000         0.7543        -999.25        -999.25         0.6041       -66.0195      -14.43676      0.1708829
      2336.5000         0.7493        -999.25        -999.25         0.6139        -65.955      -14.37415      0.1750565
      2337.0000         0.7382        -999.25        -999.25         0.6164       -65.4412      -13.86225      0.2091835
      2337.5000          0.732        -999.25        -999.25         0.6176       -65.1256      -13.54855       0.230097
      2338.0000         0.7439        -999.25        -999.25          0.617       -65.0258      -13.45064      0.2366239
      2338.5000         0.7521        -999.25        -999.25         0.6098       -65.2694      -13.69613      0.2202578
      2339.0000         0.7377        -999.25        -999.25         0.6026       -65.4855      -13.91412      0.2057251
      2339.5000         0.7149        -999.25        -999.25         0.5981       -65.6625      -14.09302      0.1937986
      2340.0000         0.7013        -999.25        -999.25         0.5947       -65.5043      -13.93672      0.2042186
      2340.5000         0.6923        -999.25        -999.25         0.5888       -65.4401      -13.87442      0.2083723
      2341.0000         0.6891        -999.25        -999.25         0.5796       -65.6603      -14.09651      0.1935659
      2341.5000         0.6921        -999.25        -999.25         0.5709       -65.8871       -14.3252      0.1783198
      2342.0000         0.7002        -999.25        -999.25          0.569       -66.0613       -14.5013      0.1665799
      2342.5000         0.7143        -999.25        -999.25         0.5671       -66.1443       -14.5862      0.1609202
      2343.0000         0.7218        -999.25        -999.25         0.5647       -66.1533      -14.59709      0.1601941
      2343.5000         0.6999        -999.25        -999.25         0.5645       -66.0928      -14.53848      0.1641012
      2344.0000          0.684        -999.25        -999.25         0.5668       -65.6617      -14.10928      0.1927147
      2344.5000         0.6832        -999.25        -999.25         0.5807       -65.6034      -14.05288      0.1964747
      2345.0000         0.6971        -999.25        -999.25         0.5933       -65.8878      -14.33917      0.1773885
      2345.5000         0.7207        -999.25        -999.25         0.5998       -65.5887      -14.04197      0.1972023
      2346.0000         0.7449        -999.25        -999.25         0.6024       -65.1073      -13.56246      0.2291692
      2346.5000         0.7652        -999.25        -999.25         0.6054       -64.8635      -13.32056       0.245296
      2347.0000         0.7667        -999.25        -999.25         0.6058       -64.7657      -13.22466      0.2516896
      2347.5000         0.7441        -999.25        -999.25         0.6037       -64.8677      -13.32855      0.2447634
      2348.0000         0.7285        -999.25        -999.25         0.6031       -65.3115      -13.77424      0.2150505
      2348.5000         0.7141        -999.25        -999.25         0.6084       -65.9543      -14.41894      0.1720708
      2349.0000         0.7064        -999.25        -999.25         0.6112       -65.6935      -14.16003      0.1893313
      2349.5000         0.7103        -999.25        -999.25         0.6047       -65.7543      -14.22273      0.1851512
      2350.0000         0.7173        -999.25        -999.25         0.5947       -66.9337      -15.40403      0.1063983
      2350.5000          0.707        -999.25        -999.25         0.5818       -67.2163      -15.68852     0.08743184
      2351.0000         0.6938        -999.25        -999.25         0.5731       -66.8801      -15.35421      0.1097193
      2351.5000         0.6993        -999.25        -999.25         0.5711       -66.1113      -14.58731      0.1608462
      2352.0000         0.7193        -999.25        -999.25         0.5748       -65.4824       -13.9603      0.2026464
