#------------------------------------------------------------------------------
# Created by    : vladimir.rabinovich
# Created on    : 09/19/2023 17:19:47
#------------------------------------------------------------------------------
~Version Information Section
VERS.           2.0     :   CWLS log ASCII Standard - VERSION 2.0
WRAP.           NO      :   One line per depth step
~Well Information Section
#MNEM       .UNIT                                         VALUE :DESCRIPTION
#------------------------------------------------------------------------------
STRT        .FT                                             380 :START DEPTH
STOP        .FT                                            8002 :STOP DEPTH
STEP        .FT                                             0.5 :STEP      
NULL        .                                           -999.25 :NULL      
COMP        .                               AMOCO PRODUCTION CO :COMPANY   
WELL        .                               OCS G07253 ST00BP00 :WELL      
FLD         .                                           WILDCAT :FIELD     
LOC         .                                                   :LOCATION  
CNTY        .                             GALVESTON LARGE BLOCK :LOCATION  
STAT        .                                             TEXAS :STATE     
CTRY        .                                     UNITED STATES :COUNTRY   
SRVC        .                                                   :SERVICE COMPANY
DATE        .                             9/13/2023 11:19:27 AM :LOG DATE  
API         .                                    42706401230000 :API NUMBER
UWI         .                                    42706401230000 :UNIQUE WELL ID
XCOORD      .                                  925879.569593371 :SURFACE X 
YCOORD      .                                  10358786.1357032 :SURFACE Y 
LAT         .                                         28.526408 :LATITUDE  
LON         .                                        -95.225632 :LONGITUDE 
ELEV        .FT                                             100 :ELEVATION VALUE
ELEV_TYPE   .                                                KB :ELEVATION REFERENCE TYPE
~Curve Information Section
#MNEM       .UNIT                                      API CODE :CURVE DESCRIPTION
#------------------------------------------------------------------------------
DEPT        .FT                                                 :DEPTH     
ASFL        .OHMM                                               :          
CILD        .MMHO                                               :          
GR          .GAPI                                               :          
GR_NORM     .GAPI                                               :GammaRay Normalized
ILD         .OHMM                                               :          
SP          .MV                                                 :          
SP_NORM     .MV                                                 :SP Normalized
VSH_GR      .V/V                                                :Volume of Shale from GR
VSH_SP      .V/V                                                :Volume of Shale from SP
~A        DEPTH           ASFL           CILD             GR        GR_NORM            ILD             SP        SP_NORM         VSH_GR         VSH_SP
# ...
       936.5000         1.3278       712.5752         64.198       68.97355         1.4042       -83.3528      -3.382301      0.7653946      0.8272123
       937.0000         1.3163       721.1514        65.3823       70.15726         1.4127       -83.7612      -3.794289      0.7905799      0.7757139
       937.5000         1.3096       707.1348        66.5668       71.34117         1.4212       -84.1276      -4.164284      0.8157696      0.7294645
       938.0000         1.3029       693.1191        67.7511       72.52488         1.4297       -83.1256      -3.165871      0.8409549      0.8542662
       938.5000         1.3052       679.1025        68.8479       73.62109         1.4382       -82.1237      -2.167557      0.8642786      0.9790554
       939.0000         1.3131       669.6377        69.3204       74.09299         1.4467       -82.3412      -2.388649       0.874319      0.9514189
       939.5000         1.3209       663.7148         69.793       74.56501         1.4551       -83.2539      -3.304932      0.8843619      0.8368835
       940.0000         1.3286        657.792          69.52       74.29142         1.4708       -84.1666      -4.221222      0.8785409      0.7223473
       940.5000         1.3363       654.2061        69.1826       73.95343         1.4873       -84.3574      -4.415611      0.8713496      0.6980486
       941.0000         1.3439       655.4551        68.9456       73.71584         1.5037       -84.3699      -4.431702      0.8662946      0.6960373
       941.5000         1.3516       656.7031        69.6257       74.39536         1.5202       -84.3822      -4.447586      0.8807523      0.6940517
       942.0000         1.3588       657.9521        70.3059       75.07497         1.5366       -84.2935       -4.36248      0.8952121        0.70469
       942.5000         1.3658       659.4922        70.6826       75.45107          1.534       -84.2034      -4.275963      0.9032143      0.7155046
       943.0000         1.3728       661.3379        68.3239       73.09178          1.528       -84.1134      -4.189552      0.8530166       0.726306
       943.5000         1.3802       663.1836         66.355        71.1223         1.5219       -84.1022      -4.181946      0.8111128      0.7272568
       944.0000         1.3924       665.0283         64.842       69.60871          1.513       -84.2242      -4.307526      0.7789087      0.7115593
       944.5000         1.3797        666.874        64.0255       68.79161            1.5       -84.3464      -4.433311      0.7615236      0.6958361
       945.0000         1.3671       668.7197        65.6466       70.41212         1.4871       -84.3746      -4.465111      0.7960026      0.6918612
       945.5000         1.3545       671.2969        67.2681       72.03304         1.4742       -83.8799      -3.973991      0.8304901      0.7532511
       946.0000         1.3418       674.8438        68.8892       73.65354         1.4612       -83.3853      -3.482979       0.864969      0.8146276
       946.5000         1.3366       678.3906        70.1169       74.88065         1.4483       -82.8907      -2.991974      0.8910778      0.8760033
       947.0000         1.3403       681.9375        69.4229       74.18607         1.4353       -82.4232      -2.528061      0.8762993      0.9339924
       947.5000         1.3439       685.4834        68.7289       73.49148         1.4239       -82.0067      -2.115143      0.8615208      0.9856071
       948.0000         1.3531       689.0303        68.0349       72.79688         1.4194       -81.5901      -1.702141      0.8467422              1
       948.5000         1.3635       692.8135         67.339        72.1004         1.4148       -81.2081      -1.323723      0.8319233              1
       949.0000         1.3739       696.7695        66.6412       71.40201         1.4103        -80.828     -0.9472122       0.817064              1
       949.5000         1.3767       700.7256        65.9435       70.70372         1.4057       -80.4481        -0.5709      0.8022068              1
       950.0000         1.3664       704.6816        65.2456       70.00523         1.4011       -80.0681     -0.1944885      0.7873452              1
       950.5000         1.3561       708.6377        64.5479       69.30694         1.3966       -79.7815     0.08852386      0.7724881              1
       951.0000         1.3453       712.5947         63.691       68.44946         1.3983       -80.2913     -0.4248657      0.7542437              1
       951.5000         1.3346       713.8096        62.8289       67.58676         1.4023       -80.8573     -0.9944534      0.7358885              1
       952.0000         1.3238       712.4922        62.0638       66.82108         1.4063       -81.4233      -1.564041      0.7195973              1
       952.5000         1.3131       711.1748         61.491       66.24768         1.4103       -81.9895      -2.133835      0.7073975      0.9832706
       953.0000           1.32       709.8574        60.9491        65.7052         1.4142       -82.5559      -2.703819      0.6958553      0.9120226
       953.5000         1.3274         708.54        60.6464        65.4019         1.4182       -83.1246      -3.276108      0.6894022      0.8404865
       954.0000         1.3348       707.2227        60.3436       65.09851         1.4222       -83.6936      -3.848701       0.682947      0.7689123
       954.5000         1.3386       705.9053        60.0121       64.76643         1.4264       -84.2623      -4.420982      0.6758814      0.6973772
       955.0000          1.339       704.5879        59.6511       64.40484         1.4342       -84.6963      -4.858566       0.668188      0.6426792
       955.5000         1.3394       703.2705        59.2927       64.04585         1.4419       -84.9668       -5.13266      0.6605499      0.6084175
       956.0000         1.3398       701.9531        58.9647       63.71725         1.4497       -84.6649      -4.834351      0.6535586      0.6457062
       956.5000         1.3402       700.6357        58.6366       63.38857         1.4574       -84.2545      -4.427536      0.6465653       0.696558
       957.0000         1.3434       699.3184         58.787       63.53837         1.4652        -83.844       -4.02063      0.6497526      0.7474213
       957.5000         1.3534       696.1123        59.7655       64.51628         1.4729        -83.434      -3.614212      0.6705592      0.7982235
       958.0000         1.3634       690.0205        62.4396        67.1898         1.4807       -83.0341      -3.217903      0.7274426      0.8477621
       958.5000         1.3734       683.9287        65.4366       70.18621         1.4746        -82.634      -2.821396       0.791196      0.8973255
       959.0000         1.3813       677.8369        70.2794       75.02842         1.4686       -82.2341      -2.425079      0.8942217      0.9468651
       959.5000         1.3816       671.7461        72.1863       76.93473         1.4626       -81.8341      -2.028664      0.9347815       0.996417
       960.0000         1.3819       665.6543          73.97       78.71784         1.4566       -81.4342      -1.632355        0.97272              1
       960.5000         1.3829       659.5625        75.0391       79.78635           1.45       -81.0342      -1.235947      0.9954544              1
       961.0000         1.3844       655.7295        74.2935       79.04016         1.4404       -80.6403     -0.8456268      0.9795779              1
       961.5000         1.3859       656.7842        73.4542       78.20027         1.4308       -80.2498      -0.458725      0.9617079              1
       962.0000         1.3874       657.8389        72.6151       77.36058         1.4212       -79.8594    -0.07190704      0.9438421              1
       962.5000         1.3889       659.2295        72.0291       76.77399         1.4116        -79.469      0.3149033      0.9313614              1
