#------------------------------------------------------------------------------
# Created by    : vladimir.rabinovich
# Created on    : 09/19/2023 17:22:41
#------------------------------------------------------------------------------
~Version Information Section
VERS.           2.0     :   CWLS log ASCII Standard - VERSION 2.0
WRAP.           NO      :   One line per depth step
~Well Information Section
#MNEM       .UNIT                                         VALUE :DESCRIPTION
#------------------------------------------------------------------------------
STRT        .FT                                            4470 :START DEPTH
STOP        .FT                                            9513 :STOP DEPTH
STEP        .FT                                             0.5 :STEP      
NULL        .                                           -999.25 :NULL      
COMP        .                 FAIRWAYS SPEC SALES & SERVICE INC :COMPANY   
WELL        .                               OCS G11315 ST00BP00 :WELL      
FLD         .                              GALVESTON BLOCK 0319 :FIELD     
LOC         .                                                   :LOCATION  
CNTY        .                             GALVESTON LARGE BLOCK :LOCATION  
STAT        .                                             TEXAS :STATE     
CTRY        .                                     UNITED STATES :COUNTRY   
SRVC        .                                                   :SERVICE COMPANY
DATE        .                             9/13/2023 11:19:34 AM :LOG DATE  
API         .                                    42706402650000 :API NUMBER
UWI         .                                    42706402650000 :UNIQUE WELL ID
XCOORD      .                                  1065572.18570413 :SURFACE X 
YCOORD      .                                  10465680.9820926 :SURFACE Y 
LAT         .                                         28.826802 :LATITUDE  
LON         .                                        -94.795723 :LONGITUDE 
ELEV        .FT                                              86 :ELEVATION VALUE
ELEV_TYPE   .                                                KB :ELEVATION REFERENCE TYPE
~Curve Information Section
#MNEM       .UNIT                                      API CODE :CURVE DESCRIPTION
#------------------------------------------------------------------------------
DEPT        .FT                                                 :DEPTH     
DCAL        .IN                                                 :          
DPHI        .%                                                  :          
DRHO        .G/C3                                               :          
GR          .GAPI                                               :          
GR_NORM     .GAPI                                               :GammaRay Normalized
ILD         .OHMM                                               :          
ILM         .OHMM                                               :          
NPHI        .%                                                  :          
SFL         .OHMM                                               :          
SP          .MV                                                 :          
SP_NORM     .MV                                                 :SP Normalized
VSH_GR      .V/V                                                :Volume of Shale from GR
VSH_SP      .V/V                                                :Volume of Shale from SP
~A        DEPTH           DCAL           DPHI           DRHO             GR        GR_NORM            ILD            ILM           NPHI            SFL             SP        SP_NORM         VSH_GR         VSH_SP
# ...
      5876.0000         2.4369        23.8721         0.0393         71.684       58.46555         0.7428         0.7568        33.8705          0.876       -44.2639      -6.140259      0.5418201      0.9055345
      5876.5000         2.5376        21.4435         0.0464        72.2526       58.99136         0.7418         0.7647        33.8817         0.8965        -42.708       -4.58498      0.5530077      0.9294618
      5877.0000         2.6439        19.2766         0.0479         74.519       61.08186         0.7447         0.7723        35.2887         0.8189       -40.6203      -2.497902      0.5974864      0.9615707
      5877.5000         2.7098        17.3382         0.0381         77.351       63.69364         0.7479         0.7792        36.7433         0.7432       -38.6616     -0.5398178      0.6530561      0.9916951
      5878.0000         2.6927        15.9867         0.0218        79.2223       65.42002         0.7547         0.7846        37.2247         0.7237        -37.824      0.2971573      0.6897877              1
      5878.5000         2.7032        16.6656         0.0081        78.0785       64.36769         0.7639          0.787        35.9787         0.7693       -39.0978     -0.9772644      0.6673977      0.9849651
      5879.0000         2.7498        17.9537        -0.0005        74.2521       60.84307          0.763         0.7893        34.3155         0.8603       -41.3047       -3.18478      0.5924057      0.9510034
      5879.5000         2.8046        18.9348        -0.0014        70.1483        57.0628         0.7595         0.7911        34.0447          0.931       -42.4569      -4.337605      0.5119745      0.9332676
      5880.0000         2.8897        19.5376        -0.0006        67.8818       54.97579         0.7504          0.793         34.735         0.9058       -42.9872      -4.868526      0.4675699      0.9250996
      5880.5000         3.0523        19.9318         0.0005        70.8052       57.67179         0.7395         0.7917        37.0986         0.7873       -43.4648      -5.346745      0.5249317      0.9177424
      5881.0000         2.9692        20.6654        -0.0009        73.3989       60.06394         0.7267         0.7889        38.0401          0.707       -44.3063      -6.188866      0.5758285      0.9047867
      5881.5000         2.7836        21.3904        -0.0027        75.0164       61.55643         0.7109         0.7841        36.9035         0.7074       -46.0031      -7.886288      0.6075836      0.8786725
      5882.0000         2.7152        21.6809        -0.0048        67.4159        54.5536         0.6972         0.7776        34.0292         0.8364       -48.2345      -10.11831      0.4585872      0.8443338
      5882.5000          2.791        21.5547        -0.0081        64.5055       51.87317         0.6871         0.7724        33.3229         0.8862       -50.6866      -12.57103      0.4015567      0.8065996
      5883.0000         2.9044        21.4227        -0.0113        64.3531       51.73451         0.6796         0.7685        33.7654         0.8743        -53.375      -15.26005      0.3986066      0.7652301
      5883.5000         2.9874        21.5881        -0.0153        64.7103       52.06549         0.6762         0.7626        34.2786         0.8584       -56.3057      -18.19137      0.4056487      0.7201328
      5884.0000         3.0661        22.5619        -0.0196        63.3278       50.79317         0.6728         0.7553        34.4415         0.8946       -59.4156      -21.30189      0.3785782      0.6722786
      5884.5000         3.0732        24.2957        -0.0226        60.4462       48.13929          0.672         0.7482        34.4055         1.0122       -63.5477      -25.43461      0.3221125      0.6086983
      5885.0000         3.0488        25.6218         -0.025        58.4277       46.28083         0.6721         0.7414        34.2391         1.0635        -66.892      -28.77953      0.2825708       0.557238
      5885.5000         3.0227        26.4023        -0.0232        57.5588       45.48184         0.6745         0.7347        33.7758         1.0462       -68.8398      -30.72795      0.2655711      0.5272623
      5886.0000         2.9932        26.5946        -0.0156        57.1513       45.10809         0.6796         0.7333        32.7189         1.0144       -69.3971      -31.28587      0.2576189      0.5186788
      5886.5000         2.9637        25.4632        -0.0038        58.0384       45.92743          0.685         0.7348        30.5996         0.9759       -68.8634       -30.7528      0.2750518      0.5268801
      5887.0000         2.9481        23.0013         0.0067        62.1972       49.76198          0.691         0.7477        30.0956         0.9321       -66.6753      -28.56531      0.3566378      0.5605336
      5887.5000         2.9357        21.0533         0.0106        66.9135       54.11031         0.6977         0.7606        30.8978         0.8982       -62.0981      -23.98873      0.4491555      0.6309426
      5888.0000          2.936        19.8687         0.0114        69.7505       56.72669          0.705         0.7737        32.3318         0.8672       -58.5175      -20.40876      0.5048233      0.6860191
      5888.5000         2.9738        19.3206         0.0099        69.6995       56.68148         0.7202         0.7909        33.5176         0.9143        -56.221      -18.11287      0.5038612      0.7213404
      5889.0000         3.0281        19.2602         0.0057         68.969       56.01004          0.739         0.8112        33.5755          0.927       -55.0747      -16.96719      0.4895753      0.7389662
      5889.5000         3.1484        19.2839         0.0021        68.9736       56.01608         0.7649         0.8356        33.2884         0.9246       -53.9285      -15.82162      0.4897037      0.7565905
      5890.0000           3.27        19.1451        -0.0009        70.0737       57.03173         0.7896         0.8592        33.0197         0.9436       -52.7822      -14.67594      0.5113133      0.7742164
      5890.5000         3.3881        18.9261        -0.0039        70.7902       57.69384         0.8128         0.8813        32.6368          1.026       -51.6359      -13.53025      0.5254009      0.7918422
      5891.0000         3.4698         18.305        -0.0056        71.4125       58.26915         0.8369         0.8979        32.0851          1.075       -49.6566      -11.55158      0.5376415      0.8222834
      5891.5000         3.5149         17.362        -0.0073        72.3494       59.13439         0.8619         0.9111        31.5652         1.0815       -47.3187      -9.214298      0.5560509      0.8582416
      5892.0000         3.5118        16.3864        -0.0086        73.9407       60.60272         0.8883         0.9277        31.6723         1.0216       -44.8725      -6.768719       0.587292      0.8958659
      5892.5000         3.4815        16.0171        -0.0099        76.0659        62.5631         0.9149         0.9434        32.2141         0.9774       -42.4382      -4.335041      0.6290022      0.9333071
      5893.0000         3.3691        16.0401        -0.0106         78.458       64.76945         0.9337         0.9546         32.799         0.9384       -40.4903       -2.38776      0.6759459      0.9632652
      5893.5000         3.2643        16.2123          -0.01         79.972       66.16655         0.9511          0.966        33.3815         0.9278       -39.9102      -1.808277      0.7056713      0.9721804
      5894.0000         3.1646        16.6061        -0.0093        80.3083       66.47828          0.963         0.9737        33.9213         0.9353       -39.9841      -1.882801      0.7123038      0.9710338
      5894.5000         3.1388        16.9999        -0.0087         79.293       65.54437         0.9675         0.9685        34.4642         0.9448       -40.2281      -2.127422      0.6924335      0.9672704
