#------------------------------------------------------------------------------
# Created by    : vladimir.rabinovich
# Created on    : 09/19/2023 17:20:34
#------------------------------------------------------------------------------
~Version Information Section
VERS.           2.0     :   CWLS log ASCII Standard - VERSION 2.0
WRAP.           NO      :   One line per depth step
~Well Information Section
#MNEM       .UNIT                                         VALUE :DESCRIPTION
#------------------------------------------------------------------------------
STRT        .FT                                             495 :START DEPTH
STOP        .FT                                            9652 :STOP DEPTH
STEP        .FT                                             0.5 :STEP      
NULL        .                                           -999.25 :NULL      
COMP        .                                      SHELL OIL CO :COMPANY   
WELL        .                                OCS 00714 ST00BP00 :WELL      
FLD         .                                FEDERAL BLOCK 0288 :FIELD     
LOC         .                                                   :LOCATION  
CNTY        .                             GALVESTON LARGE BLOCK :LOCATION  
STAT        .                                             TEXAS :STATE     
CTRY        .                                     UNITED STATES :COUNTRY   
SRVC        .                                                   :SERVICE COMPANY
DATE        .                             9/13/2023 11:19:25 AM :LOG DATE  
API         .                                    42706000490000 :API NUMBER
UWI         .                                    42706000490000 :UNIQUE WELL ID
XCOORD      .                                  1093419.85109126 :SURFACE X 
YCOORD      .                                  10468907.9519753 :SURFACE Y 
LAT         .                                         28.836806 :LATITUDE  
LON         .                                        -94.708909 :LONGITUDE 
ELEV        .FT                                              83 :ELEVATION VALUE
ELEV_TYPE   .                                                KB :ELEVATION REFERENCE TYPE
~Curve Information Section
#MNEM       .UNIT                                      API CODE :CURVE DESCRIPTION
#------------------------------------------------------------------------------
DEPT        .FT                                                 :DEPTH     
ASN         .OHMM                                               :          
ASN_1       .OHMM                                               :          
CALI        .IN                                                 :          
CALI_1      .IN                                                 :          
DRHO        .G/C3                                               :          
DT          .US/F                                               :          
ILD         .OHMM                                               :          
LAT         .OHMM                                               :          
LN          .OHMM                                               :          
RHOB        .G/C3                                               :          
SP          .MV                                                 :          
SP_1        .MV                                                 :          
SP_NORM     .MV                                                 :SP Normalized
VSH_SP      .V/V                                                :Volume of Shale from SP
~A        DEPTH            ASN          ASN_1           CALI         CALI_1           DRHO             DT            ILD            LAT             LN           RHOB             SP           SP_1        SP_NORM         VSH_SP
# ...
      8469.0000         1.3825        -999.25        11.3792        -999.25         0.2341        99.3856         0.9478        -999.25        -999.25         2.3836        -999.25        -45.868      -3.590889      0.9431825
      8469.5000         1.3556        -999.25        11.4579        -999.25         0.2008       100.9238         0.9272        -999.25        -999.25          2.368        -999.25       -45.7213      -3.439777      0.9485794
      8470.0000          1.338        -999.25        11.2232        -999.25         0.1455        95.7738         0.9026        -999.25        -999.25         2.3517        -999.25       -45.2932      -3.007267      0.9640262
      8470.5000         1.3292        -999.25        11.2102        -999.25          0.139        95.8278         0.8868        -999.25        -999.25         2.3322        -999.25        -44.863      -2.572655       0.979548
      8471.0000         1.3232        -999.25        11.2769        -999.25         0.1508       101.6481          0.876        -999.25        -999.25         2.3205        -999.25       -44.7713      -2.476543      0.9829806
      8471.5000         1.3185        -999.25        11.2484        -999.25         0.1891       105.0349         0.8674        -999.25        -999.25         2.3223        -999.25       -44.7385      -2.439331      0.9843096
      8472.0000         1.2965        -999.25        11.0166        -999.25         0.2179       104.1611         0.8595        -999.25        -999.25         2.3179        -999.25       -44.8745      -2.570919        0.97961
      8472.5000         1.2742        -999.25        10.9986        -999.25         0.2345       104.2737         0.8536        -999.25        -999.25         2.3205        -999.25        -45.017      -2.709007      0.9746783
      8473.0000         1.2535        -999.25        10.8219        -999.25         0.2462       103.2706         0.8478        -999.25        -999.25         2.3129        -999.25       -44.7817      -2.469296      0.9832395
      8473.5000         1.2292        -999.25        11.0488        -999.25         0.2728       103.2897         0.8436        -999.25        -999.25         2.3235        -999.25       -44.5595      -2.242687      0.9913326
      8474.0000         1.2156        -999.25        11.0932        -999.25         0.2477       100.3751         0.8394        -999.25        -999.25         2.3201        -999.25       -44.5687      -2.247475      0.9911616
      8474.5000         1.2098        -999.25        11.1304        -999.25         0.2137        99.5363         0.8398        -999.25        -999.25         2.3228        -999.25       -44.5966      -2.270962      0.9903228
      8475.0000         1.2143        -999.25        11.2633        -999.25         0.1957       101.2972         0.8405        -999.25        -999.25         2.3279        -999.25       -44.6675      -2.337452      0.9879481
      8475.5000         1.2254        -999.25        11.2626        -999.25         0.2607       101.5536         0.8375        -999.25        -999.25         2.3491        -999.25       -44.3135      -1.979038              1
      8476.0000         1.2319        -999.25        11.3754        -999.25         0.3015        98.2926         0.8353        -999.25        -999.25         2.3562        -999.25       -44.0837      -1.744827              1
      8476.5000         1.2348        -999.25        11.4369        -999.25         0.3115       100.1007         0.8399        -999.25        -999.25         2.3701        -999.25       -43.8475      -1.504215              1
      8477.0000         1.2349        -999.25        11.5228        -999.25         0.2796       102.5656          0.843        -999.25        -999.25         2.3816        -999.25       -43.4822      -1.134506              1
      8477.5000         1.2363        -999.25        11.5951        -999.25         0.2216       101.4276         0.8417        -999.25        -999.25         2.3944        -999.25       -42.9903     -0.6381912              1
      8478.0000         1.2396        -999.25        11.6538        -999.25          0.169        99.8309         0.8457        -999.25        -999.25         2.3849        -999.25       -42.7769     -0.4203835              1
      8478.5000         1.2467        -999.25         11.668        -999.25         0.1482       101.2252         0.8547        -999.25        -999.25         2.3776        -999.25       -42.8118     -0.4508705              1
      8479.0000         1.2557        -999.25        11.6563        -999.25         0.1456       103.0829         0.8676        -999.25        -999.25         2.3751        -999.25       -43.2853       -0.91996              1
      8479.5000          1.268        -999.25        11.6655        -999.25         0.1511       101.1803         0.8817        -999.25        -999.25         2.3603        -999.25       -44.1121      -1.742348              1
      8480.0000         1.2832        -999.25        11.7041        -999.25         0.1627        95.0002         0.9129        -999.25        -999.25         2.3507        -999.25       -45.0322      -2.658035      0.9764987
      8480.5000         1.3119        -999.25        11.4231        -999.25         0.1855        86.1484         0.9492        -999.25        -999.25         2.3484        -999.25       -45.5328      -3.154224      0.9587777
      8481.0000         1.3704        -999.25        11.2765        -999.25         0.2294        72.6008         1.0051        -999.25        -999.25         2.3731        -999.25       -45.9732      -3.590214      0.9432067
      8481.5000         1.4537        -999.25        11.0531        -999.25         0.2472        61.9005         1.0753        -999.25        -999.25          2.372        -999.25       -46.3236      -3.936203      0.9308499
      8482.0000          1.553        -999.25        11.2262        -999.25          0.159        77.6565         1.1604        -999.25        -999.25         2.3418        -999.25       -46.0789      -3.687088      0.9397469
      8482.5000         1.7096        -999.25        11.2172        -999.25         0.1179        87.3539          1.235        -999.25        -999.25         2.3486        -999.25       -45.6447      -3.248478      0.9554115
      8483.0000         1.8571        -999.25        11.5868        -999.25         0.0897        94.0287          1.305        -999.25        -999.25         2.3799        -999.25       -45.4977      -3.097069      0.9608189
      8483.5000         1.9269        -999.25         11.716        -999.25          0.117       102.3497         1.3666        -999.25        -999.25         2.4138        -999.25        -45.688      -3.282955      0.9541802
      8484.0000         1.9796        -999.25        11.0252        -999.25         0.2354       101.0992          1.411        -999.25        -999.25         2.4548        -999.25       -46.0699      -3.660446      0.9406983
      8484.5000         1.9575        -999.25        10.3819        -999.25         0.3214        92.7423          1.419        -999.25        -999.25          2.429        -999.25       -46.4097      -3.995831      0.9287204
      8485.0000         1.9012        -999.25         10.352        -999.25         0.3604        87.8666         1.3891        -999.25        -999.25         2.3756        -999.25       -46.4763      -4.058022      0.9264992
      8485.5000         1.8541        -999.25        10.3799        -999.25         0.3519         85.422         1.3231        -999.25        -999.25         2.3356        -999.25       -46.5488       -4.12611      0.9240675
      8486.0000         1.8063        -999.25        10.5603        -999.25         0.3204        85.8403         1.2578        -999.25        -999.25         2.3056        -999.25       -46.7061      -4.278999      0.9186072
      8486.5000         1.7646        -999.25         11.216        -999.25         0.2774         93.507          1.209        -999.25        -999.25         2.3249        -999.25       -46.6189      -4.187386      0.9218791
