#------------------------------------------------------------------------------
# Created by    : vladimir.rabinovich
# Created on    : 09/19/2023 17:22:17
#------------------------------------------------------------------------------
~Version Information Section
VERS.           2.0     :   CWLS log ASCII Standard - VERSION 2.0
WRAP.           NO      :   One line per depth step
~Well Information Section
#MNEM       .UNIT                                         VALUE :DESCRIPTION
#------------------------------------------------------------------------------
STRT        .FT                                            2222 :START DEPTH
STOP        .FT                                            8603 :STOP DEPTH
STEP        .FT                                             0.5 :STEP      
NULL        .                                           -999.25 :NULL      
COMP        .                                    HRUBETZ OIL CO :COMPANY   
WELL        .                                     ST TR 00028-L :WELL      
FLD         .                                           WILDCAT :FIELD     
LOC         .                                                   :LOCATION  
CNTY        .                           HIGH ISLAND LARGE BLOCK :LOCATION  
STAT        .                                             TEXAS :STATE     
CTRY        .                                     UNITED STATES :COUNTRY   
SRVC        .                                                   :SERVICE COMPANY
DATE        .                             9/13/2023 11:19:15 AM :LOG DATE  
API         .                                    42708303040000 :API NUMBER
UWI         .                                    42708303040000 :UNIQUE WELL ID
XCOORD      .                                  1211101.11829014 :SURFACE X 
YCOORD      .                                  10709910.5532953 :SURFACE Y 
LAT         .                                         29.503814 :LATITUDE  
LON         .                                       -94.3499952 :LONGITUDE 
ELEV        .FT                                              60 :ELEVATION VALUE
ELEV_TYPE   .                                                KB :ELEVATION REFERENCE TYPE
~Curve Information Section
#MNEM       .UNIT                                      API CODE :CURVE DESCRIPTION
#------------------------------------------------------------------------------
DEPT        .FT                                                 :DEPTH     
CALI        .IN                                                 :          
GR          .GAPI                                               :          
GR_NORM     .GAPI                                               :GammaRay Normalized
ILD         .OHMM                                               :          
ILM         .OHMM                                               :          
RHOB        .G/C3                                               :          
SFL         .OHMM                                               :          
SP          .MV                                                 :          
SP_NORM     .MV                                                 :SP Normalized
VSH_GR      .V/V                                                :Volume of Shale from GR
VSH_SP      .V/V                                                :Volume of Shale from SP
~A        DEPTH           CALI             GR        GR_NORM            ILD            ILM           RHOB            SFL             SP        SP_NORM         VSH_GR         VSH_SP
# ...
      8589.5000        10.0396        64.2925       62.96502         0.6391         0.6212         2.9354         1.0531       -44.9934      0.2896194      0.6375537              1
      8590.0000        10.0388        64.1875       62.82539         0.6346         0.6176         2.9351         1.0573        -44.571      0.7120209      0.6345828              1
      8590.5000        10.0379        64.1401       62.76236         0.6283          0.614         2.9351         1.0288       -44.1486       1.134418      0.6332416              1
      8591.0000        10.0371        64.0927       62.69933         0.6209         0.6054         2.9351         1.0027       -43.7266       1.556419      0.6319005              1
      8591.5000        10.0362        64.0452       62.63615         0.6137         0.5952         2.9351         0.9941       -43.3347       1.948318      0.6305565              1
      8592.0000        10.0353        63.9977         62.573         0.6066         0.5851         2.9351         0.9857       -43.1432        2.13982      0.6292128              1
      8592.5000        10.0356        63.9503       62.50996         0.5995         0.5756         2.9351         0.9773       -42.9514       2.331619      0.6278714              1
      8593.0000        10.0368        63.9028        62.4468         0.5906         0.5674         2.9351         0.9708       -42.7599       2.523121      0.6265277              1
      8593.5000        10.0379        63.8884       62.42766         0.5818         0.5593         2.9351         0.9748       -42.5682       2.714821      0.6261204              1
      8594.0000        10.0391           63.9       62.44308         0.5732         0.5625         2.9353         0.9789       -42.3776       2.905418      0.6264485              1
      8594.5000        10.0403        63.9117       62.45864         0.5645         0.5735         2.9355         0.9829       -42.3021       2.980919      0.6267796              1
      8595.0000        10.0415        63.9233       62.47406         0.5527         0.5847         2.9357         0.9869       -42.2265       3.056519      0.6271077              1
      8595.5000        10.0427         63.935       62.48963         0.5411         0.5961         2.9359          0.991       -42.1509       3.132118      0.6274389              1
      8596.0000        10.0439        63.9467       62.50518         0.5342         0.6044         2.9361         0.9952       -42.0754       3.207619      0.6277698              1
      8596.5000        10.0451        63.9583       62.52061          0.535         0.6122         2.9363         0.9994       -41.9998       3.283218      0.6280981              1
      8597.0000        10.0455          63.97       62.53616         0.5358         0.6202         2.9365         1.0037       -41.8961       3.386921       0.628429              1
      8597.5000        10.0456        63.9817       62.55172         0.5366         0.6283         2.9366         1.0079       -41.7816       3.501419      0.6287599              1
      8598.0000        10.0456        64.0043       62.58178         0.5373         0.6335         2.9365         1.0122       -41.6669       3.616119      0.6293995              1
      8598.5000        10.0457        64.0277       62.61289         0.5384         0.6373         2.9364         1.0127       -41.5525       3.730518      0.6300615              1
      8599.0000        10.0457         64.051       62.64388         0.5397         0.6413         2.9363         1.0104       -41.2847       3.998322      0.6307209              1
      8599.5000        10.0458        64.0743       62.67486          0.541         0.6452         2.9362         1.0081       -40.8622       4.420818        0.63138              1
      8600.0000        10.0459        64.0978       62.70611         0.5423         0.6492         2.9361         1.0058       -40.4398        4.84322      0.6320449              1
      8600.5000        10.0459        64.1211       62.73709         0.5437         0.6514          2.936         1.0035       -40.4506        4.83242      0.6327041              1
      8601.0000         10.046        64.1444       62.76808          0.545         0.6536          2.936         1.0002       -40.5717       4.711319      0.6333634              1
      8601.5000        10.0412        64.1678        62.7992         0.5463         0.6558         2.9357         0.9951       -40.5765        4.70652      0.6340255              1
      8602.0000        10.0354        64.1826       62.81888         0.5489         0.6581         2.9355           0.99       -40.4785        4.80452      0.6344442              1
      8602.5000        10.0297        64.1964       62.83723         0.5516         0.6603         2.9353         0.9849       -40.3806        4.90242      0.6348347              1
      8603.0000        10.0239        64.2101       62.85544         0.5544         0.6625         2.9351         0.9798       -40.3665       4.916519      0.6352222              1
