#------------------------------------------------------------------------------
# Created by    : vladimir.rabinovich
# Created on    : 09/19/2023 17:22:56
#------------------------------------------------------------------------------
~Version Information Section
VERS.           2.0     :   CWLS log ASCII Standard - VERSION 2.0
WRAP.           NO      :   One line per depth step
~Well Information Section
#MNEM       .UNIT                                         VALUE :DESCRIPTION
#------------------------------------------------------------------------------
STRT        .FT                                             671 :START DEPTH
STOP        .FT                                           10000 :STOP DEPTH
STEP        .FT                                             0.5 :STEP      
NULL        .                                           -999.25 :NULL      
COMP        .                                    MOBIL OIL CORP :COMPANY   
WELL        .                                     ST TR 00565-L :WELL      
FLD         .                                           WILDCAT :FIELD     
LOC         .                                                   :LOCATION  
CNTY        .                      MATAGORDA ISLAND LARGE BLOCK :LOCATION  
STAT        .                                             TEXAS :STATE     
CTRY        .                                     UNITED STATES :COUNTRY   
SRVC        .                                                   :SERVICE COMPANY
DATE        .                             9/13/2023 11:12:05 AM :LOG DATE  
API         .                                    42703000150000 :API NUMBER
UWI         .                                    42703000150000 :UNIQUE WELL ID
XCOORD      .                                  584511.465629887 :SURFACE X 
YCOORD      .                                  10263641.5286434 :SURFACE Y 
LAT         .                                         28.243485 :LATITUDE  
LON         .                                       -96.2796592 :LONGITUDE 
ELEV        .FT                                              11 :ELEVATION VALUE
ELEV_TYPE   .                                                KB :ELEVATION REFERENCE TYPE
~Curve Information Section
#MNEM       .UNIT                                      API CODE :CURVE DESCRIPTION
#------------------------------------------------------------------------------
DEPT        .FT                                                 :DEPTH     
SP          .MV                                                 :          
SP_NORM     .MV                                                 :SP Normalized
VSH_SP      .V/V                                                :Volume of Shale from SP
~A        DEPTH             SP        SP_NORM         VSH_SP
# ...
      5621.0000        20.1015        -8.8845      0.7006739
      5621.5000        14.8169        -3.6016      0.9303652
      5622.0000        14.2474        -3.0338      0.9550522
      5622.5000        14.0198        -2.8079      0.9648739
      5623.0000        14.7039        -3.4937      0.9350565
      5623.5000        18.0334        -6.8249      0.7902218
      5624.0000        19.5424        -8.3356      0.7245392
      5624.5000        20.4517        -9.2466      0.6849304
      5625.0000        21.1149        -9.9115      0.6560217
      5625.5000        21.7575       -10.5558      0.6280087
      5626.0000        22.3241       -11.1241         0.6033
      5626.5000        22.0988       -10.9005      0.6130217
      5627.0000          21.45       -10.2533      0.6411609
      5627.5000        20.7963        -9.6013      0.6695087
      5628.0000        20.5803         -9.387      0.6788261
      5628.5000        20.8978        -9.7062      0.6649479
      5629.0000        21.6075       -10.4176      0.6340174
      5629.5000        23.5075       -12.3193      0.5513348
      5630.0000        25.2281       -14.0416      0.4764522
      5630.5000        26.4592       -15.2744      0.4228522
      5631.0000        27.4513       -16.2682      0.3796435
      5631.5000         28.016       -16.8346      0.3550174
      5632.0000        24.8604       -13.6807      0.4921435
      5632.5000        25.1013       -13.9233      0.4815957
      5633.0000        23.2365       -12.0602         0.5626
      5633.5000        20.7993        -9.6247      0.6684913
      5634.0000        14.8394        -3.6665      0.9275435
      5634.5000        14.3847        -3.2135      0.9472391
      5635.0000         14.174        -3.0045      0.9563261
      5635.5000        13.9133        -2.7455      0.9675869
      5636.0000        13.6428        -2.4767      0.9792739
      5636.5000        13.3238        -2.1593      0.9930739
      5637.0000        13.0047        -1.8419              1
      5637.5000        12.6856        -1.5245              1
      5638.0000        12.5443        -1.3849              1
      5638.5000        12.6583        -1.5006              1
      5639.0000        13.4012        -2.2452      0.9893391
      5639.5000         19.085        -7.9307      0.7421435
      5640.0000         21.157       -10.0044      0.6519826
      5640.5000        23.8602       -12.7093      0.5343782
      5641.0000         25.636       -14.4868      0.4570957
      5641.5000        29.1674       -18.0199      0.3034826
      5642.0000         30.044       -18.8982      0.2652957
      5642.5000        30.7161        -19.572          0.236
      5643.0000        31.3972       -20.2548       0.206313
      5643.5000        31.8085       -20.6678      0.1883565
      5644.0000        32.2634       -21.1244      0.1685044
      5644.5000         33.285       -22.1477      0.1240131
      5645.0000        34.0411       -22.9055      0.0910652
      5645.5000        34.4871       -23.3532     0.07159996
      5646.0000        33.8786       -22.7464     0.09798257
      5646.5000        32.0413       -20.9107      0.1777957
      5647.0000         31.395       -20.2661      0.2058217
      5647.5000         31.225       -20.0978      0.2131392
      5648.0000        31.0532       -19.9277      0.2205348
      5648.5000        30.8783       -19.7545      0.2280652
      5649.0000        28.7157       -17.5936      0.3220174
      5649.5000        24.0095       -12.8891      0.5265608
      5650.0000         22.791       -11.6723      0.5794652
      5650.5000        22.4182       -11.3012         0.5956
      5651.0000        24.8579       -13.7426      0.4894522
      5651.5000        27.1068       -15.9932         0.3916
      5652.0000        29.9204       -18.8085      0.2691956
      5652.5000        32.4379       -21.3277      0.1596652
      5653.0000        34.4885         -23.38     0.07043482
      5653.5000        35.9756       -24.8688    0.005704382
      5654.0000        36.8667       -25.7616              0
      5654.5000         37.384       -26.2806              0
      5655.0000        37.4901       -26.3884              0
      5655.5000        37.4333       -26.3333              0
      5656.0000        37.2617       -26.1634              0
      5656.5000        37.0714       -25.9747              0
      5657.0000        36.8811       -25.7861              0
      5657.5000        36.6909       -25.5976              0
      5658.0000        36.4689       -25.3773              0
      5658.5000        36.2314       -25.1415              0
      5659.0000        36.0171       -24.9289    0.003091315
      5659.5000        36.1368       -25.0503              0
      5660.0000        36.8328        -25.748              0
      5660.5000        37.4572       -26.3741              0
      5661.0000        38.0068       -26.9254              0
      5661.5000        38.1734       -27.0937              0
      5662.0000        38.2445       -27.1665              0
      5662.5000        37.9736       -26.8973              0
      5663.0000        37.4854       -26.4108              0
      5663.5000        36.9979        -25.925              0
      5664.0000        36.4036       -25.3324              0
      5664.5000        35.8405        -24.771    0.009956526
      5665.0000        35.7909       -24.7231      0.0120391
      5665.5000        35.7609       -24.6948     0.01326959
      5666.0000        35.9076       -24.8431    0.006821757
      5666.5000        36.0538        -24.991   0.0003913382
      5667.0000        36.1978       -25.1367              0
      5667.5000        35.9148       -24.8554    0.006286953
      5668.0000        33.8887        -22.831     0.09430438
      5668.5000        32.9481       -21.8921      0.1351261
      5669.0000        32.8103        -21.756      0.1410435
      5669.5000         33.428       -22.3754       0.114113
      5670.0000         34.198       -23.1471     0.08056085
      5670.5000        34.9818       -23.9326     0.04640869
      5671.0000        35.8847       -24.8372    0.007078254
      5671.5000        36.6125       -25.5667              0
      5672.0000        36.9942       -25.9501              0
      5672.5000        37.1869       -26.1445              0
      5673.0000        37.3047        -26.264              0
      5673.5000        37.3288       -26.2898              0
      5674.0000        37.3217       -26.2844              0
      5674.5000        37.1993       -26.1637              0
      5675.0000        36.9019        -25.868              0
      5675.5000        36.4168       -25.3846              0
      5676.0000        35.6487       -24.6181     0.01660438
      5676.5000        35.0677       -24.0388     0.04179133
      5677.0000        34.6313       -23.6041     0.06069133
      5677.5000        34.2661       -23.2406     0.07649563
      5678.0000        33.6954       -22.6716      0.1012348
      5678.5000         33.024       -22.0019      0.1303522
      5679.0000        32.3777       -21.3573      0.1583783
      5679.5000        31.5274       -20.5087      0.1952739
      5680.0000        31.3474       -20.3304      0.2030261
      5680.5000        31.8556       -20.8403      0.1808565
      5681.0000        32.1731       -21.1595      0.1669783
      5681.5000        32.4903       -21.4784      0.1531131
      5682.0000        31.7351       -20.7249      0.1858739
      5682.5000        30.7036       -19.6951      0.2306478
      5683.0000        29.5399       -18.5331      0.2811696
      5683.5000        29.1756       -18.1705      0.2969348
      5684.0000         28.811       -17.8076      0.3127131
      5684.5000        28.5581       -17.5564      0.3236348
      5685.0000        28.4758       -17.4758      0.3271391
      5685.5000        28.3935       -17.3951      0.3306479
      5686.0000        28.3125       -17.3158      0.3340957
      5686.5000        28.2656       -17.2706      0.3360609
