#------------------------------------------------------------------------------
# Created by    : vladimir.rabinovich
# Created on    : 09/19/2023 17:21:44
#------------------------------------------------------------------------------
~Version Information Section
VERS.           2.0     :   CWLS log ASCII Standard - VERSION 2.0
WRAP.           NO      :   One line per depth step
~Well Information Section
#MNEM       .UNIT                                         VALUE :DESCRIPTION
#------------------------------------------------------------------------------
STRT        .FT                                            3434 :START DEPTH
STOP        .FT                                            9802 :STOP DEPTH
STEP        .FT                                             0.5 :STEP      
NULL        .                                           -999.25 :NULL      
COMP        .                                  UMC PETROLEUM CO :COMPANY   
WELL        .                               OCS G11352 ST00BP00 :WELL      
FLD         .                            HIGH ISLAND BLOCK 0093 :FIELD     
LOC         .                                                   :LOCATION  
CNTY        .                           HIGH ISLAND LARGE BLOCK :LOCATION  
STAT        .                                             TEXAS :STATE     
CTRY        .                                     UNITED STATES :COUNTRY   
SRVC        .                                                   :SERVICE COMPANY
DATE        .                             9/13/2023 11:19:57 AM :LOG DATE  
API         .                                    42708403880000 :API NUMBER
UWI         .                                    42708403880000 :UNIQUE WELL ID
XCOORD      .                                  1243413.75648782 :SURFACE X 
YCOORD      .                                  10663707.7269925 :SURFACE Y 
LAT         .                                         29.377731 :LATITUDE  
LON         .                                        -94.246854 :LONGITUDE 
ELEV        .FT                                              85 :ELEVATION VALUE
ELEV_TYPE   .                                                KB :ELEVATION REFERENCE TYPE
~Curve Information Section
#MNEM       .UNIT                                      API CODE :CURVE DESCRIPTION
#------------------------------------------------------------------------------
DEPT        .FT                                                 :DEPTH     
CALI        .IN                                                 :          
CALI_1      .IN                                                 :          
DPHI        .%                                                  :          
DRHO        .G/C3                                               :          
DT          .US/F                                               :          
GR          .GAPI                                               :          
GR_1        .GAPI                                               :          
GR_NORM     .GAPI                                               :GammaRay Normalized
ILD         .OHMM                                               :          
ILM         .OHMM                                               :          
NPHI        .%                                                  :          
RFOC        .OHMM                                               :          
SP          .MV                                                 :          
SP_NORM     .MV                                                 :SP Normalized
VSH_GR      .V/V                                                :Volume of Shale from GR
VSH_SP      .V/V                                                :Volume of Shale from SP
~A        DEPTH           CALI         CALI_1           DPHI           DRHO             DT             GR           GR_1        GR_NORM            ILD            ILM           NPHI           RFOC             SP        SP_NORM         VSH_GR         VSH_SP
# ...
      8074.0000        -999.25         12.328        -999.25        -999.25       112.0981        56.4087        -999.25       75.71772          0.434          0.461        -999.25         0.6659       -54.1542      -15.34786      0.9088877      0.7742962
      8074.5000        -999.25        12.2411        -999.25        -999.25       112.0923        55.5803        -999.25       74.33968         0.4309         0.4675        -999.25         0.6819       -53.9683      -15.16636      0.8795677      0.7769654
      8075.0000        -999.25          12.19        -999.25        -999.25       111.9186        57.3264        -999.25       77.24107          0.432         0.4757        -999.25         0.6827       -50.6597      -11.86216      0.9412993      0.8255565
      8075.5000        -999.25        12.1661        -999.25        -999.25       112.3336         58.936        -999.25       79.91554         0.4355          0.485        -999.25         0.6872       -47.9464      -9.153255       0.998203      0.8653933
      8076.0000        -999.25        12.1573        -999.25        -999.25       113.1324        60.3422        -999.25       82.25193         0.4398         0.4888        -999.25         0.7008       -46.6629      -7.874153              1      0.8842036
      8076.5000        -999.25        12.1603        -999.25        -999.25        113.749        59.4642        -999.25       80.79144         0.4419         0.4852        -999.25         0.7115       -46.9271      -8.142754              1      0.8802536
      8077.0000        -999.25         12.177        -999.25        -999.25        113.011        55.9127        -999.25       74.88696         0.4441         0.4808        -999.25         0.7072       -48.6409       -9.86095       0.891212       0.854986
      8077.5000        -999.25        12.1921        -999.25        -999.25        111.744        53.7475        -999.25       71.28684         0.4458         0.4777        -999.25         0.6999        -50.191      -11.41545      0.8146136      0.8321257
      8078.0000        -999.25        12.1913        -999.25        -999.25         110.83        52.0535        -999.25       68.46997         0.4466         0.4759        -999.25         0.6969       -51.2996      -12.52845      0.7546802      0.8157582
      8078.5000        -999.25        12.1823        -999.25        -999.25       110.0895        53.5466        -999.25        70.9508         0.4465         0.4787        -999.25         0.7037       -51.7222      -12.95544      0.8074638      0.8094788
      8079.0000        -999.25        12.1478        -999.25        -999.25       109.5999        55.5307        -999.25        74.2478         0.4441         0.4845        -999.25          0.714       -51.2797      -12.51735      0.8776128      0.8159214
      8079.5000        -999.25        12.1066        -999.25        -999.25       109.5764        57.0833        -999.25       76.82752         0.4448         0.4933        -999.25         0.7063       -50.2281      -11.47015      0.9325005      0.8313214
      8080.0000        -999.25        12.0846        -999.25        -999.25       110.8701        58.5491        -999.25       79.26297         0.4507         0.5051        -999.25         0.6841       -49.0861      -10.33255      0.9843185      0.8480508
      8080.5000        -999.25        12.0607        -999.25        -999.25       112.8607        59.8011        -999.25       81.34305         0.4622         0.5187        -999.25         0.6669       -46.0218      -7.272644              1      0.8930494
      8081.0000        -999.25        12.0213        -999.25        -999.25       115.1168         59.525        -999.25       80.88306          0.477         0.5339        -999.25          0.674       -43.7549      -5.010143              1      0.9263214
      8081.5000        -999.25        11.9913        -999.25        -999.25       117.2854        58.9025        -999.25       79.84726         0.4895         0.5372        -999.25         0.7069       -42.9272       -4.18684      0.9967502      0.9384288
      8082.0000        -999.25        11.9976        -999.25        -999.25       115.2921        56.6517        -999.25       76.10485         0.4993         0.5318        -999.25         0.7407       -44.0972      -5.361237      0.9171245      0.9211583
      8082.5000        -999.25        12.1405        -999.25        -999.25       112.4727        53.4325        -999.25       70.75272         0.5074         0.5308        -999.25         0.7762       -46.5451      -7.813538      0.8032494      0.8850951
      8083.0000        -999.25        12.1906        -999.25        -999.25       110.3367        50.9573        -999.25       66.63732         0.5147         0.5362        -999.25         0.7807       -48.3531      -9.625935      0.7156877      0.8584421
      8083.5000        -999.25        12.2133        -999.25        -999.25       108.2032        52.7182        -999.25        69.5633         0.5251         0.5498        -999.25         0.7579       -49.3961      -10.67334      0.7779426      0.8430392
      8084.0000        -999.25        12.2204        -999.25        -999.25       107.4395        56.2499        -999.25       75.43276         0.5377          0.567        -999.25         0.7469       -49.8391      -11.12074      0.9028247      0.8364598
      8084.5000        -999.25        12.2171        -999.25        -999.25       108.0123        59.5411        -999.25       80.90246         0.5566         0.5878        -999.25         0.7514       -48.0704      -9.356434              1      0.8624054
      8085.0000        -999.25        12.2103        -999.25        -999.25       108.7867        60.3337        -999.25       82.21889         0.5765         0.6071        -999.25         0.7607       -46.0689      -7.359333              1      0.8917745
      8085.5000        -999.25        12.2046        -999.25        -999.25        109.222        60.4786        -999.25        82.4587         0.5974         0.6255        -999.25         0.7705       -43.9459       -5.24073              1      0.9229304
      8086.0000        -999.25        12.1931        -999.25        -999.25        109.153        61.0224        -999.25       83.36158         0.6141         0.6357        -999.25         0.7799       -42.3896      -3.688828              1      0.9457526
      8086.5000        -999.25        12.1783        -999.25        -999.25       109.1179        60.8668        -999.25       83.10188         0.6283         0.6425        -999.25         0.7859       -41.4478      -2.751427              1      0.9595379
      8087.0000        -999.25        12.1715        -999.25        -999.25       109.1896        60.1971        -999.25       81.98763          0.639         0.6453        -999.25         0.7792       -40.7874      -2.095425              1      0.9691849
      8087.5000        -999.25        12.1774        -999.25        -999.25       109.6631        59.8849        -999.25       81.46764         0.6353          0.643        -999.25         0.7649       -39.8983      -1.210724              1      0.9821953
      8088.0000        -999.25        12.1924        -999.25        -999.25       110.4631        60.0691        -999.25       81.77277         0.6239         0.6362        -999.25         0.7591       -39.5294     -0.8462257              1      0.9875555
      8088.5000        -999.25        12.2121        -999.25        -999.25        110.981        59.8952        -999.25       81.48266         0.6132         0.6263        -999.25         0.7781       -39.4655     -0.7867241              1      0.9884305
      8089.0000        -999.25        12.2364        -999.25        -999.25       110.8657        58.8467        -999.25       79.73875         0.6035         0.6165        -999.25         0.7965       -39.3516     -0.6772232      0.9944414      0.9900408
      8089.5000        -999.25        12.2773        -999.25        -999.25       110.1414        57.5148        -999.25       77.52377         0.5944         0.6068        -999.25         0.7882       -39.2077     -0.5377197      0.9473143      0.9920924
