#------------------------------------------------------------------------------
# Created by    : vladimir.rabinovich
# Created on    : 09/19/2023 17:22:50
#------------------------------------------------------------------------------
~Version Information Section
VERS.           2.0     :   CWLS log ASCII Standard - VERSION 2.0
WRAP.           NO      :   One line per depth step
~Well Information Section
#MNEM       .UNIT                                         VALUE :DESCRIPTION
#------------------------------------------------------------------------------
STRT        .FT                                            1142 :START DEPTH
STOP        .FT                                           15630 :STOP DEPTH
STEP        .FT                                             0.5 :STEP      
NULL        .                                           -999.25 :NULL      
COMP        .                                     PRIMARY FUELS :COMPANY   
WELL        .                                ST TR 00520-L SE/4 :WELL      
FLD         .                                          EL GORDO :FIELD     
LOC         .                                                   :LOCATION  
CNTY        .                      MATAGORDA ISLAND LARGE BLOCK :LOCATION  
STAT        .                                             TEXAS :STATE     
CTRY        .                                     UNITED STATES :COUNTRY   
SRVC        .                                                   :SERVICE COMPANY
DATE        .                             9/13/2023 11:19:05 AM :LOG DATE  
API         .                                    42703303520000 :API NUMBER
UWI         .                                    42703303520000 :UNIQUE WELL ID
XCOORD      .                                  629148.716839967 :SURFACE X 
YCOORD      .                                   10306131.761235 :SURFACE Y 
LAT         .                                        28.3634759 :LATITUDE  
LON         .                                       -96.1446235 :LONGITUDE 
ELEV        .FT                                             101 :ELEVATION VALUE
ELEV_TYPE   .                                                KB :ELEVATION REFERENCE TYPE
~Curve Information Section
#MNEM       .UNIT                                      API CODE :CURVE DESCRIPTION
#------------------------------------------------------------------------------
DEPT        .FT                                                 :DEPTH     
DT          .US/F                                               :          
ILD         .OHMM                                               :          
SP          .MV                                                 :          
SP_NORM     .MV                                                 :SP Normalized
VSH_SP      .V/V                                                :Volume of Shale from SP
~A        DEPTH             DT            ILD             SP        SP_NORM         VSH_SP
# ...
      7874.0000       118.1072         0.9323         99.948       1.470047              1
      7874.5000       119.8936         0.9145       100.1206       1.643852              1
      7875.0000       121.1976          0.897       100.2479       1.772354              1
      7875.5000       121.0288         0.8799       100.3224       1.848061              1
      7876.0000       120.4963         0.8646       100.3484       1.875252              1
      7876.5000       120.4521         0.8501       100.3745       1.902557              1
      7877.0000        121.005         0.8359       100.4784       2.007668              1
      7877.5000       121.7653          0.824       100.6373       2.167763              1
      7878.0000       122.4803         0.8217       100.7971       2.328766              1
      7878.5000       123.0526         0.8195       100.9722       2.505074              1
      7879.0000       122.8553         0.8181       101.1472       2.681274              1
      7879.5000       122.1252          0.818       101.2203       2.755577              1
      7880.0000       121.9009          0.818       101.2191       2.755585              1
      7880.5000       122.0541         0.8178       101.2208       2.758484              1
      7881.0000       122.2347         0.8173       101.2345       2.773384              1
      7881.5000        122.415         0.8168       101.2482       2.788284              1
      7882.0000       122.5511         0.8163       101.3286       2.869888              1
      7882.5000       122.6396         0.8162       101.4763       3.018799              1
      7883.0000       123.0442         0.8161       101.6298       3.173492              1
      7883.5000       123.6508         0.8014       101.8527       3.397598              1
      7884.0000       124.2604         0.7861       102.0753       3.621407              1
      7884.5000       124.8738         0.7703       102.2704       3.817703              1
      7885.0000       125.4935         0.7568       102.3623       3.910805              1
      7885.5000       126.1327         0.7482       102.4543       4.004005              1
      7886.0000       126.1283         0.7418       102.3146       3.865509              1
      7886.5000       125.0068         0.7356       102.0786       3.630714              1
      7887.0000       123.8853         0.7252        102.037       3.590317              1
      7887.5000       123.5616         0.7149       102.0127       3.567223              1
      7888.0000       125.3556         0.7098       102.0668       3.622528              1
      7888.5000          127.3         0.6858        102.121       3.677925              1
      7889.0000       129.2468         0.6627       102.1721       3.730225              1
      7889.5000       130.2761         0.6405       102.2153       3.774635              1
      7890.0000       129.9248         0.6187       102.2587       3.819229              1
      7890.5000       130.1025         0.5967       102.3407       3.902435              1
      7891.0000       131.1611         0.5754       102.4503       4.013237              1
      7891.5000       133.3264         0.5576       102.5598        4.12394              1
      7892.0000       135.7903         0.5453       102.6825       4.247849              1
      7892.5000       138.5552         0.5385       102.8328       4.399345              1
      7893.0000       142.6396         0.5366       102.9829       4.550652              1
      7893.5000        145.239         0.5513       103.1105       4.679451              1
      7894.0000       143.3647         0.5675       103.1093       4.679451              1
      7894.5000       140.2864         0.6027       103.1082       4.679558              1
      7895.0000       135.8606          0.642       102.9618       4.534363              1
      7895.5000       131.7156         0.6856       102.7219       4.295662              1
      7896.0000       127.6563         0.7319       102.4865        4.06147              1
      7896.5000       123.9681         0.7638        102.257       3.833168              1
      7897.0000       120.9724          0.797       102.0277       3.605072              1
      7897.5000       118.4911         0.8133       101.7744       3.352974              1
      7898.0000       116.5542         0.8294       101.7546       3.334373              1
      7898.5000       116.0459         0.8401       101.9347       3.515678              1
      7899.0000       117.2742         0.8504       102.3406       3.922783              1
      7899.5000       119.9287         0.8683       102.7495       4.332878              1
      7900.0000       123.9028         0.8957       102.9426       4.527184              1
      7900.5000       126.2814         0.9238       102.9993       4.585091              1
      7901.0000       126.2111         0.9558        102.705       4.291992              1
      7901.5000       120.3301          0.998        102.355       3.943199              1
      7902.0000       114.9208         1.0421       101.8464       3.435791              1
      7902.5000       111.1825         1.0856       101.3385         2.9291              1
      7903.0000       109.0637         1.1216       100.4368       2.028603              1
      7903.5000       110.4824         1.1539        99.5187       1.111702              1
      7904.0000       112.5198         1.1646        98.2023     -0.2034912              1
      7904.5000       114.5746         1.1637        96.8372       -1.56739      0.9917769
      7905.0000       116.7775         1.1448        94.9333      -3.470093      0.9642016
      7905.5000       118.7269         1.0827        92.6088      -5.793381      0.9305307
      7906.0000       120.1394         1.0112         89.212       -9.18898      0.8813191
      7906.5000       119.9977         0.9221        82.6039      -15.79588      0.7855669
      7907.0000       118.7231         0.8448        75.4497      -22.94888      0.6819004
      7907.5000       118.0024          0.783        71.3616      -27.03577      0.6226699
      7908.0000       118.2301         0.7258        67.7094      -30.68678      0.5697569
      7908.5000       119.1572         0.6706        64.3076      -34.08736       0.520473
      7909.0000       119.9675         0.6193        60.5051      -37.88867      0.4653816
      7909.5000       120.3427         0.5801        56.1966      -42.19596      0.4029571
      7910.0000       120.7184         0.5455        51.7678      -46.62356       0.338789
      7910.5000       121.1117         0.5181        48.1657      -50.22446       0.286602
      7911.0000       121.5438         0.4973        46.3314      -52.05755      0.2600355
      7911.5000        122.173         0.4883        47.9478      -50.43996      0.2834789
      7912.0000        123.046         0.4842         49.606      -48.78055      0.3075282
      7912.5000       123.9016          0.491        50.9236      -47.46175      0.3266414
      7913.0000       124.7371         0.4979        52.2162      -46.16795      0.3453921
      7913.5000       125.1288         0.5087        53.6265      -44.75644      0.3658487
      7914.0000       124.6681         0.5268        54.5991      -43.78264      0.3799618
      7914.5000       123.2882         0.5455        51.8931      -46.48744      0.3407618
      7915.0000       121.0477         0.5644        49.2979      -49.08143      0.3031676
      7915.5000       118.6165         0.5814        46.6877      -51.69043      0.2653561
      7916.0000       115.7738         0.5989        44.0074      -54.36953      0.2265286
      7916.5000       112.5925         0.6141        43.0324      -55.34333      0.2124156
      7917.0000       108.9596         0.6276        45.3802      -52.99433       0.246459
      7917.5000       106.8219         0.6414        48.1481      -50.22522       0.286591
