#------------------------------------------------------------------------------
# Created by    : vladimir.rabinovich
# Created on    : 09/19/2023 17:20:30
#------------------------------------------------------------------------------
~Version Information Section
VERS.           2.0     :   CWLS log ASCII Standard - VERSION 2.0
WRAP.           NO      :   One line per depth step
~Well Information Section
#MNEM       .UNIT                                         VALUE :DESCRIPTION
#------------------------------------------------------------------------------
STRT        .FT                                             617 :START DEPTH
STOP        .FT                                           12396 :STOP DEPTH
STEP        .FT                                             0.5 :STEP      
NULL        .                                           -999.25 :NULL      
COMP        .                                        SUN OIL CO :COMPANY   
WELL        .                               OCS G01781 ST00BP00 :WELL      
FLD         .                                           WILDCAT :FIELD     
LOC         .                                                   :LOCATION  
CNTY        .                             GALVESTON LARGE BLOCK :LOCATION  
STAT        .                                             TEXAS :STATE     
CTRY        .                                     UNITED STATES :COUNTRY   
SRVC        .                                                   :SERVICE COMPANY
DATE        .                             9/13/2023 11:19:24 AM :LOG DATE  
API         .                                    42706001390000 :API NUMBER
UWI         .                                    42706001390000 :UNIQUE WELL ID
XCOORD      .                                  1010631.41746955 :SURFACE X 
YCOORD      .                                  10491097.5822315 :SURFACE Y 
LAT         .                                         28.894296 :LATITUDE  
LON         .                                        -94.968586 :LONGITUDE 
ELEV        .FT                                              65 :ELEVATION VALUE
ELEV_TYPE   .                                                KB :ELEVATION REFERENCE TYPE
~Curve Information Section
#MNEM       .UNIT                                      API CODE :CURVE DESCRIPTION
#------------------------------------------------------------------------------
DEPT        .FT                                                 :DEPTH     
ASN         .OHMM                                               :          
CILD        .MMHO                                               :          
DT          .US/F                                               :          
ILD         .OHMM                                               :          
SP          .MV                                                 :          
SP_NORM     .MV                                                 :SP Normalized
VSH_SP      .V/V                                                :Volume of Shale from SP
~A        DEPTH            ASN           CILD             DT            ILD             SP        SP_NORM         VSH_SP
# ...
     10030.5000         0.5814        2111.25        118.943         0.5323       -51.3477      -4.882252      0.9456179
     10031.0000         0.5876       2080.063       119.0361         0.5344       -52.1561      -5.692265      0.9303346
     10031.5000         0.5939        2026.76       119.2311         0.5366       -53.0912      -6.628971      0.9126609
     10032.0000         0.6001       1968.961       119.1754         0.5387       -54.0264      -7.565781      0.8949853
     10032.5000         0.6064       1913.947       117.9846         0.5408       -55.6853      -9.226284       0.863655
     10033.0000         0.6126        1863.41       114.9646          0.543       -57.7247       -11.2673      0.8251454
     10033.5000         0.6188       1794.867       110.8423         0.5451       -59.7567       -13.3009      0.7867755
     10034.0000         0.6251       1719.857       108.4153         0.5442       -61.7862      -15.33201      0.7484526
     10034.5000         0.6333        1669.32       107.0594         0.5376       -63.5695      -17.11692      0.7147751
     10035.0000         0.6421       1620.475         106.36         0.5311       -65.0468      -18.59583      0.6868712
     10035.5000         0.6509       1577.896       105.8722         0.5246       -66.5242      -20.07483      0.6589654
     10036.0000         0.6597       1568.098       104.3383         0.5181       -67.8746      -21.42685      0.6334558
     10036.5000         0.6679       1609.332       102.1145         0.5116       -69.1107      -22.66455      0.6101028
     10037.0000         0.6653       1633.805       101.6041          0.505       -70.3494      -23.90486      0.5867007
     10037.5000         0.6627        1657.93       102.2963         0.4985       -71.1304      -24.68747      0.5719346
     10038.0000         0.6601       1682.104         105.51          0.492       -71.7758      -25.33448      0.5597268
     10038.5000         0.6513       1707.621       108.2168         0.4855       -70.8182      -24.37848      0.5777646
     10039.0000         0.6385       1739.654       108.7428         0.4789       -69.1356      -22.69749      0.6094814
     10039.5000         0.6257       1771.639       106.7916         0.4724       -67.2305      -20.79399      0.6453964
     10040.0000         0.6129       1857.939       102.7888         0.4659       -65.3279      -18.89301       0.681264
     10040.5000         0.6002       1992.141        100.699         0.4594       -63.9202      -17.48691      0.7077941
     10041.0000         0.5873       2086.758        99.4197         0.4528       -62.5199      -16.08822      0.7341845
     10041.5000         0.5755       2240.953        99.6611         0.4463       -61.4355      -15.00543      0.7546145
     10042.0000         0.5647       2317.059         105.62         0.4398        -60.718      -14.28954       0.768122
     10042.5000          0.554       2365.605       109.9336         0.4398       -60.0378      -13.61094      0.7809256
     10043.0000         0.5433        2413.16       112.8436           0.44       -60.4854      -14.06015      0.7724499
     10043.5000         0.5326       2468.172       115.4333         0.4402       -61.6445      -15.22086      0.7505498
     10044.0000         0.5218       2524.926       115.2803         0.4404       -64.4574      -18.03537      0.6974459
     10044.5000         0.5111       2566.262       112.5448         0.4405        -67.999      -21.57858      0.6305929
     10045.0000         0.5004       2607.746       111.5752         0.4407       -70.9836      -24.56478      0.5742494
     10045.5000         0.4896       2651.766       110.1345         0.4409       -73.4458      -27.02859      0.5277624
     10046.0000         0.4789       2638.586       107.4014         0.4411       -75.2925       -28.8769      0.4928886
     10046.5000         0.4731       2606.305       107.8916         0.4413       -80.4645      -34.05051      0.3952734
     10047.0000         0.4725        2574.02        111.244         0.4415       -75.3708      -28.95841      0.4913507
     10047.5000         0.4719       2531.441       115.3855         0.4417       -65.4025      -18.99172      0.6794015
     10048.0000         0.4713       2488.664       118.8156         0.4437       -60.1397      -13.73053      0.7786692
     10048.5000         0.4707       2445.887       119.8951         0.4482       -56.9214      -10.51384      0.8393616
     10049.0000         0.4701       2399.926       121.0848         0.4528       -55.5584      -9.152447      0.8650482
     10049.5000         0.4761       2350.684       121.9169         0.4573       -54.2626      -7.858253      0.8894669
     10050.0000         0.4837       2338.738       122.8363         0.4619       -53.3853      -6.982563      0.9059893
     10050.5000         0.4912       2343.582       123.6846         0.4664       -53.0321      -6.630974      0.9126231
     10051.0000         0.4987       2350.434       122.3582         0.4709        -52.679       -6.27948      0.9192551
     10051.5000         0.5062       2357.285       121.6719         0.4755       -52.3252      -5.927288      0.9259002
     10052.0000         0.5138       2354.613       122.2123           0.48        -51.972      -5.575695       0.932534
     10052.5000         0.5223        2219.07       123.2931         0.4846       -52.0552      -5.660503      0.9309339
     10053.0000         0.5314        2142.07       124.9453         0.4891       -52.1612      -5.768112      0.9289035
     10053.5000         0.5404        2070.84       124.6895         0.4937       -52.2672      -5.875721      0.9268732
     10054.0000         0.5494       1995.035        122.755         0.4982       -52.3734      -5.983528      0.9248391
     10054.5000         0.5585        1984.58       118.2262         0.4991       -52.4794      -6.091137      0.9228088
     10055.0000         0.5675       1937.227       113.6495         0.4979       -52.5854      -6.198742      0.9207785
     10055.5000         0.5765       1898.775       110.3007         0.4967       -53.0092      -6.624153      0.9127519
     10056.0000         0.5767       1876.145       110.9523         0.4955       -53.4667       -7.08326      0.9040895
     10056.5000         0.5727       1872.514       114.2616         0.4943        -53.925      -7.543167       0.895412
     10057.0000         0.5687        2027.75       117.7048         0.4931       -53.5837      -7.203472      0.9018213
     10057.5000         0.5534       2103.074       121.7507         0.4919        -52.493      -6.114384      0.9223701
     10058.0000         0.5363       2148.535       121.8162         0.4907       -51.9036      -5.526588      0.9334606
     10058.5000         0.5192       2198.477       121.7483         0.4861       -51.3141      -4.938698      0.9445529
     10059.0000         0.5021        2249.41       123.0323         0.4812       -50.7247      -4.350906      0.9556433
     10059.5000         0.4877        2299.25       124.5173         0.4764       -50.1353      -3.763115      0.9667337
     10060.0000         0.4736       2350.883       124.5287         0.4716        -49.998      -3.627422      0.9692939
     10060.5000         0.4734       2340.637       123.4987         0.4668       -49.8931      -3.524132      0.9712428
     10061.0000         0.4778       2251.699       121.9755          0.462       -49.7883      -3.420937      0.9731899
     10061.5000         0.4901       2152.813       120.8031         0.4577       -49.6833      -3.317547      0.9751406
     10062.0000         0.5024       2059.199       121.4208         0.4626       -49.5786      -3.214455      0.9770858
     10062.5000         0.5147       1996.926       121.6333         0.4675       -49.9213      -3.558762      0.9705894
     10063.0000         0.5269       2022.938        121.517         0.4724       -50.4946      -4.133667      0.9597421
     10063.5000         0.5392       1996.367       120.4452         0.4773       -51.0679       -4.70858      0.9488947
