#------------------------------------------------------------------------------
# Created by    : vladimir.rabinovich
# Created on    : 09/19/2023 17:20:32
#------------------------------------------------------------------------------
~Version Information Section
VERS.           2.0     :   CWLS log ASCII Standard - VERSION 2.0
WRAP.           NO      :   One line per depth step
~Well Information Section
#MNEM       .UNIT                                         VALUE :DESCRIPTION
#------------------------------------------------------------------------------
STRT        .FT                                             530 :START DEPTH
STOP        .FT                                           15895 :STOP DEPTH
STEP        .FT                                             0.5 :STEP      
NULL        .                                           -999.25 :NULL      
COMP        .                                      SHELL OIL CO :COMPANY   
WELL        .                                OCS 00708 ST00BP00 :WELL      
FLD         .                                FEDERAL BLOCK 0288 :FIELD     
LOC         .                                                   :LOCATION  
CNTY        .                             GALVESTON LARGE BLOCK :LOCATION  
STAT        .                                             TEXAS :STATE     
CTRY        .                                     UNITED STATES :COUNTRY   
SRVC        .                                                   :SERVICE COMPANY
DATE        .                             9/13/2023 11:19:24 AM :LOG DATE  
API         .                                    42706000930000 :API NUMBER
UWI         .                                    42706000930000 :UNIQUE WELL ID
XCOORD      .                                  1077631.85251343 :SURFACE X 
YCOORD      .                                  10490946.9562601 :SURFACE Y 
LAT         .                                         28.896779 :LATITUDE  
LON         .                                        -94.759235 :LONGITUDE 
ELEV        .FT                                              76 :ELEVATION VALUE
ELEV_TYPE   .                                                KB :ELEVATION REFERENCE TYPE
~Curve Information Section
#MNEM       .UNIT                                      API CODE :CURVE DESCRIPTION
#------------------------------------------------------------------------------
DEPT        .FT                                                 :DEPTH     
ASN         .OHMM                                               :          
CILD        .MMHO                                               :          
SP          .MV                                                 :          
SP_NORM     .MV                                                 :SP Normalized
VSH_SP      .V/V                                                :Volume of Shale from SP
~A        DEPTH            ASN           CILD             SP        SP_NORM         VSH_SP
# ...
      7658.0000         0.9617       1782.563      -103.3743       -48.0372      0.1600499
      7658.5000         0.9507       1829.438      -103.8994      -48.56365      0.1506491
      7659.0000         0.9396       1834.688       -104.584       -49.2496      0.1384001
      7659.5000         0.9247       1783.875      -105.4922      -50.15914      0.1221582
      7660.0000         0.9082       1692.625      -106.6113      -51.27958      0.1021503
      7660.5000         0.9283        1601.25      -107.9375      -52.60713     0.07844414
      7661.0000         0.9772       1509.875       -108.447      -53.11797     0.06932191
      7661.5000         1.0148         1418.5      -108.5725      -53.24482     0.06705679
      7662.0000         1.0459        1327.25      -108.5719      -53.24556     0.06704351
      7662.5000         1.6563       1211.844      -108.5996      -53.27461     0.06652485
      7663.0000         1.8753         1225.5      -108.9443      -53.62065     0.06034551
      7663.5000         1.9034         1435.5      -109.2891       -53.9668     0.05416434
      7664.0000         1.9495        1625.75      -109.6333      -54.31234     0.04799393
      7664.5000          1.913           1850      -109.9795      -54.65989     0.04178776
      7665.0000         1.8173       2006.664      -110.3564      -55.03813     0.03503343
      7665.5000         1.4526       2004.598      -110.7334      -55.41647     0.02827726
      7666.0000         1.0674       2002.533      -111.0693      -55.75372     0.02225508
      7666.5000         0.7637           2107      -111.3329      -56.01867     0.01752383
      7667.0000         0.7281        2702.25      -111.4181      -56.10521     0.01597847
      7667.5000         0.7041        2766.75       -111.239      -55.92745     0.01915264
      7668.0000         0.6858           2668      -110.9976      -55.68739     0.02343941
      7668.5000         0.6882       2598.063       -110.843      -55.53415     0.02617598
      7669.0000          0.691           2557      -110.7335      -55.42598     0.02810744
      7669.5000         0.6939         2524.5      -110.6307      -55.32453     0.02991908
      7670.0000         0.6964       2502.875      -110.5898      -55.28497     0.03062548
      7670.5000         0.6987       2483.797      -110.5798      -55.27633     0.03077991
      7671.0000         0.7011       2471.844      -110.7998      -55.49766     0.02682747
      7671.5000         0.7034       2483.844      -111.0776      -55.77681     0.02184268
      7672.0000         0.7018       2505.313      -111.4819      -56.18246     0.01459898
      7672.5000         0.6975       2526.781      -111.8867       -56.5886    0.007346426
      7673.0000         0.6916       2559.313       -112.291      -56.99424   0.0001027925
      7673.5000         0.6857       2595.375       -112.668      -57.37259              0
      7674.0000         0.6795       2727.875      -113.0415      -57.74743              0
      7674.5000          0.672       2784.375      -112.9526      -57.65987              0
      7675.0000         0.6645       2837.125      -112.7798      -57.48842              0
      7675.5000          0.657       2869.875      -112.6067      -57.31666              0
      7676.0000         0.6524       2900.438      -112.4336      -57.14491              0
      7676.5000         0.6537       2927.281      -111.9248      -56.63745    0.006474086
      7677.0000           0.66       2814.375      -111.3867       -56.1007     0.01605885
      7677.5000         0.6664           2714      -110.8223      -55.53765     0.02611344
      7678.0000         0.6727       2586.625      -109.4648      -54.18149     0.05033057
      7678.5000         0.6802        2459.25      -108.1055      -52.82353     0.07457978
      7679.0000         0.6954       2331.875      -106.7285      -51.44788       0.099145
      7679.5000         0.7106         2204.5      -105.6982      -50.41892      0.1175193
      7680.0000         0.7463       2125.844      -104.8125      -49.53457      0.1333113
      7680.5000          0.807       2100.063      -104.0352      -48.75861      0.1471676
      7681.0000         0.8496        1951.75      -103.2822      -48.00696        0.16059
      7681.5000         0.8786        1851.75      -102.6143       -47.3404      0.1724928
      7682.0000         0.8965        1751.75      -102.8296      -47.55704      0.1686243
      7682.5000         0.9101       1651.625      -103.3271      -48.05589      0.1597162
      7683.0000         0.9332       1551.625      -103.7705      -48.50063      0.1517744
      7683.5000         0.9628       1451.625      -104.1631      -48.89458      0.1447396
      7684.0000         0.9924       1351.625      -103.8813      -48.61412      0.1497478
      7684.5000          1.042         1295.5      -103.3945      -48.12867      0.1584166
      7685.0000         1.3262       1229.938      -102.6621      -47.39761      0.1714712
      7685.5000         1.5221       1210.016       -101.873      -46.60986      0.1855382
      7686.0000         1.5789        1219.25      -100.0449       -44.7831      0.2181589
      7686.5000         1.5536         1286.5       -98.0137      -42.75325      0.2544062
      7687.0000         1.4641           1359       -96.3125      -41.05339      0.2847609
      7687.5000         1.2883        1573.25       -94.7207      -39.46294      0.3131618
      7688.0000         1.1128         1787.5       -93.0215      -37.76508      0.3434807
      7688.5000         0.9672       1923.625       -92.1504      -36.89532      0.3590121
      7689.0000         0.9392           1993       -94.3633      -39.10957       0.319472
      7689.5000         0.9599       2005.863       -99.2031      -43.95072      0.2330229
      7690.0000         0.9798       2004.279      -105.5391      -50.28806      0.1198561
      7690.5000         0.9996       2002.693      -106.2549       -51.0052        0.10705
      7691.0000         1.0195       2001.109      -106.5269      -51.27855      0.1021688
      7691.5000         1.0398           2143      -106.7397      -51.49269      0.0983448
      7692.0000         1.0602         2615.5      -106.6989      -51.45324     0.09904937
      7692.5000         0.8551           3088      -106.5879      -51.34358      0.1010075
      7693.0000         0.7568        3145.75      -105.9854      -50.74242      0.1117424
      7693.5000         0.7019       3221.281      -105.2207      -49.97907      0.1253737
      7694.0000         0.6767           3141      -103.8281      -48.58782      0.1502175
      7694.5000         0.6946         2924.5       -99.1797      -43.94076      0.2332007
      7695.0000         0.7175           2708       -91.7969       -36.5593      0.3650124
      7695.5000         0.7443         2491.5       -84.4219      -29.18565      0.4966849
      7696.0000         0.8137           2275       -77.0469      -21.81199      0.6283573
      7696.5000         0.8429           2038       -69.6641      -14.43054       0.760169
      7697.0000          0.872         1746.5       -67.6973      -12.46509      0.7952663
      7697.5000          0.908         1454.5       -65.6738      -10.44292      0.8313764
      7698.0000          0.945         1162.5       -64.6904      -9.460873       0.848913
      7698.5000          0.974       1057.344       -64.0664      -8.838215      0.8600319
      7699.0000         0.9967       1038.906       -63.4424      -8.215561      0.8711507
      7699.5000         1.0082       1010.656       -61.8545      -6.629005      0.8994821
      7700.0000         1.0197       981.6953       -61.1611      -5.936947      0.9118403
      7700.5000         1.0385       957.2822       -60.5176      -5.294796      0.9233072
      7701.0000         1.0609       931.3437       -59.8984      -4.676937      0.9343404
      7701.5000         1.0833       904.3564       -59.4082      -4.188084      0.9430699
