#------------------------------------------------------------------------------
# Created by    : vladimir.rabinovich
# Created on    : 09/19/2023 17:20:32
#------------------------------------------------------------------------------
~Version Information Section
VERS.           2.0     :   CWLS log ASCII Standard - VERSION 2.0
WRAP.           NO      :   One line per depth step
~Well Information Section
#MNEM       .UNIT                                         VALUE :DESCRIPTION
#------------------------------------------------------------------------------
STRT        .FT                                             642 :START DEPTH
STOP        .FT                                           11989 :STOP DEPTH
STEP        .FT                                             0.5 :STEP      
NULL        .                                           -999.25 :NULL      
COMP        .                       CORPUS CHRISTI OIL & GAS CO :COMPANY   
WELL        .                               OCS G05177 ST00BP00 :WELL      
FLD         .                              GALVESTON BLOCK 0151 :FIELD     
LOC         .                                                   :LOCATION  
CNTY        .                             GALVESTON LARGE BLOCK :LOCATION  
STAT        .                                             TEXAS :STATE     
CTRY        .                                     UNITED STATES :COUNTRY   
SRVC        .                                                   :SERVICE COMPANY
DATE        .                             9/13/2023 11:19:27 AM :LOG DATE  
API         .                                    42706401010000 :API NUMBER
UWI         .                                    42706401010000 :UNIQUE WELL ID
XCOORD      .                                   1130272.6689428 :SURFACE X 
YCOORD      .                                  10609756.0111422 :SURFACE Y 
LAT         .                                         29.225567 :LATITUDE  
LON         .                                        -94.599775 :LONGITUDE 
ELEV        .FT                                              83 :ELEVATION VALUE
ELEV_TYPE   .                                                KB :ELEVATION REFERENCE TYPE
~Curve Information Section
#MNEM       .UNIT                                      API CODE :CURVE DESCRIPTION
#------------------------------------------------------------------------------
DEPT        .FT                                                 :DEPTH     
ASN         .OHMM                                               :          
CILD        .MMHO                                               :          
DT          .US/F                                               :          
ILD         .OHMM                                               :          
RHOB        .G/CC                                               :          
SP          .MV                                                 :          
SP_NORM     .MV                                                 :SP Normalized
VSH_SP      .V/V                                                :Volume of Shale from SP
~A        DEPTH            ASN           CILD             DT            ILD           RHOB             SP        SP_NORM         VSH_SP
# ...
     10465.5000         0.6401       1754.617       109.0881         0.5319         2.3554       -46.8562      -1.967224      0.9718968
     10466.0000         0.6401       1750.637       109.5614         0.5353         2.3747       -46.8254      -1.934708      0.9723613
     10466.5000           0.64       1746.658       109.8778          0.538         2.3937        -46.796      -1.903587      0.9728059
     10467.0000           0.64       1742.672       109.1161         0.5404         2.4085       -46.8032      -1.909069      0.9727276
     10467.5000           0.64        1738.73       107.2693         0.5428         2.3915       -46.8103      -1.914448      0.9726508
     10468.0000         0.6397       1740.639       106.6576         0.5452         2.3729       -46.8175      -1.919933      0.9725724
     10468.5000         0.6391       1742.549       106.3576         0.5475         2.3705       -46.8246      -1.925312      0.9724956
     10469.0000         0.6384       1744.457        106.988         0.5499          2.382       -46.8318      -1.930794      0.9724172
     10469.5000         0.6378       1746.369       108.2348         0.5523         2.3997       -46.8669      -1.964176      0.9719403
     10470.0000         0.6377       1749.355       108.5535         0.5546          2.412       -46.9144      -2.009956      0.9712864
     10470.5000         0.6391       1752.615       108.5629          0.557         2.4112       -46.9619       -2.05574      0.9706323
     10471.0000         0.6405       1755.867       108.4173         0.5594         2.3918       -47.0094      -2.101521      0.9699783
     10471.5000         0.6419       1757.945        108.272         0.5618         2.3651       -47.0569      -2.147305      0.9693242
     10472.0000         0.6427       1757.961       107.8175         0.5616         2.3354        -47.092      -2.180683      0.9688474
     10472.5000         0.6427       1757.977       107.8269         0.5613         2.3538       -47.1229      -2.209866      0.9684305
     10473.0000         0.6426       1757.994       107.9911         0.5611         2.3584       -47.1536      -2.238846      0.9680165
     10473.5000         0.6426       1758.809       108.3269         0.5609          2.356       -47.1844      -2.267929       0.967601
     10474.0000         0.6407       1759.912       109.1171         0.5607         2.3583       -47.1053      -2.187111      0.9687555
     10474.5000         0.6377       1761.016       109.7228         0.5605         2.3845       -47.0168      -2.096893      0.9700444
     10475.0000         0.6347       1762.119       109.7321         0.5603         2.4014       -46.9284      -2.006771      0.9713318
     10475.5000         0.6354         1763.9       109.5845           0.56         2.3805       -46.8401      -1.916756      0.9726178
     10476.0000         0.6364       1766.984       108.9775         0.5598         2.3549        -46.779      -1.853939      0.9735152
     10476.5000         0.6373       1770.074       108.5204         0.5596         2.3541       -46.7208      -1.794018      0.9743712
     10477.0000         0.6375       1773.158       108.2204         0.5594          2.388       -46.6627      -1.734203      0.9752257
     10477.5000         0.6375       1777.609       108.2321         0.5589         2.4273       -46.6046      -1.674381      0.9760802
     10478.0000         0.6375       1782.621       108.5508         0.5583         2.4288       -46.5464      -1.614464      0.9769362
     10478.5000         0.6374       1787.633       109.0242         0.5577         2.4094       -46.4882      -1.554546      0.9777922
     10479.0000          0.634       1799.348       109.4976          0.557         2.3909       -46.3947      -1.459328      0.9791524
     10479.5000         0.6302        1812.33        109.507         0.5564          2.363       -46.2916      -1.354507      0.9806499
     10480.0000         0.6263       1825.287       109.8257         0.5558          2.329       -46.1885      -1.249691      0.9821473
     10480.5000         0.6225       1839.439       110.6084         0.5552         2.3614       -46.0854      -1.144871      0.9836447
     10481.0000         0.6181       1853.963       111.0818         0.5546         2.3992       -45.9824      -1.040154      0.9851407
     10481.5000         0.6131       1868.463       111.2458          0.554         2.4021       -45.9271     -0.9831352      0.9859552
     10482.0000         0.6081       1876.459       110.6365         0.5534         2.3697       -45.9354     -0.9897156      0.9858612
     10482.5000         0.6032       1881.582       110.3365          0.552         2.3688       -45.9438     -0.9964027      0.9857657
     10483.0000         0.5983       1884.406       110.0365         0.5501         2.3765       -45.9523      -1.003181      0.9856688
     10483.5000         0.5935       1878.449         110.51         0.5483         2.3811       -45.9607      -1.009865      0.9855734
     10484.0000         0.5887        1872.48       110.5194         0.5464         2.3795       -46.0139      -1.061344      0.9848379
     10484.5000         0.5918       1860.953       110.5289         0.5446         2.3848       -46.0749      -1.120628       0.983991
     10485.0000         0.5964       1844.785       110.3272         0.5427         2.3763       -46.1359      -1.179905      0.9831442
     10485.5000         0.6011       1828.619       109.6215         0.5409         2.3631        -46.197      -1.239288      0.9822959
     10486.0000         0.6153       1812.453       109.1668         0.5405         2.3785        -46.258      -1.298569       0.981449
     10486.5000         0.6293       1796.287       108.5575         0.5423         2.4058       -46.2949      -1.333752      0.9809464
     10487.0000         0.6376       1782.436       108.1005         0.5441         2.4547       -46.3216      -1.358734      0.9805895
     10487.5000         0.6382       1771.666       107.6481         0.5459         2.4824       -46.3483      -1.383717      0.9802326
     10488.0000         0.6359       1760.922       107.9668         0.5477         2.4554       -46.3751      -1.408794      0.9798744
     10488.5000         0.6322       1764.914       108.1309         0.5495          2.416       -46.3903      -1.422279      0.9796817
     10489.0000         0.6244       1773.244       108.6043         0.5513         2.3897       -46.3807      -1.410961      0.9798434
     10489.5000         0.6265       1780.656        108.923         0.5531         2.3873       -46.3711      -1.399643      0.9800051
     10490.0000         0.6323       1785.793       109.8604         0.5563         2.3865       -46.3615      -1.388325      0.9801668
     10490.5000          0.638       1790.941       110.0244         0.5605         2.3879       -46.3507      -1.375805      0.9803457
     10491.0000         0.6436       1788.857       110.0338         0.5648         2.3863       -46.3308      -1.354187      0.9806545
     10491.5000         0.6482       1784.947       110.0431          0.569          2.384        -46.311      -1.332668      0.9809619
     10492.0000         0.6506       1781.029       109.5885         0.5732         2.4055       -46.2912       -1.31115      0.9812693
     10492.5000         0.6507       1776.131       108.2057         0.5774         2.4109       -46.2735      -1.291729      0.9815467
     10493.0000         0.6475       1770.447       107.5962         0.5817         2.4008       -46.2733      -1.289814      0.9815741
     10493.5000         0.6444       1764.752       107.6057         0.5859           2.41       -46.2731      -1.287895      0.9816015
     10494.0000         0.6412       1759.068       108.0791         0.5882         2.4323       -46.2729      -1.285976      0.9816289
     10494.5000         0.6389       1757.676       108.2531         0.5891         2.4608       -46.2727      -1.284061      0.9816563
