#------------------------------------------------------------------------------
# Created by    : vladimir.rabinovich
# Created on    : 09/19/2023 17:21:51
#------------------------------------------------------------------------------
~Version Information Section
VERS.           2.0     :   CWLS log ASCII Standard - VERSION 2.0
WRAP.           NO      :   One line per depth step
~Well Information Section
#MNEM       .UNIT                                         VALUE :DESCRIPTION
#------------------------------------------------------------------------------
STRT        .FT                                             692 :START DEPTH
STOP        .FT                                            6716 :STOP DEPTH
STEP        .FT                                             0.5 :STEP      
NULL        .                                           -999.25 :NULL      
COMP        .                                  FMP OPERATING CO :COMPANY   
WELL        .                                          SL 89457 :WELL      
FLD         .                                           WILDCAT :FIELD     
LOC         .                                                   :LOCATION  
CNTY        .                      MATAGORDA ISLAND LARGE BLOCK :LOCATION  
STAT        .                                             TEXAS :STATE     
CTRY        .                                     UNITED STATES :COUNTRY   
SRVC        .                                                   :SERVICE COMPANY
DATE        .                             9/13/2023 11:12:01 AM :LOG DATE  
API         .                                    42703303600000 :API NUMBER
UWI         .                                    42703303600000 :UNIQUE WELL ID
XCOORD      .                                  499223.886875127 :SURFACE X 
YCOORD      .                                  10221285.9321665 :SURFACE Y 
LAT         .                                        28.1205561 :LATITUDE  
LON         .                                       -96.5403272 :LONGITUDE 
ELEV        .FT                                              81 :ELEVATION VALUE
ELEV_TYPE   .                                                KB :ELEVATION REFERENCE TYPE
~Curve Information Section
#MNEM       .UNIT                                      API CODE :CURVE DESCRIPTION
#------------------------------------------------------------------------------
DEPT        .FT                                                 :DEPTH     
CALI        .IN                                                 :          
CILD        .MMHO                                               :          
DT          .US/F                                               :          
DTL         .US/F                                               :          
GR          .GAPI                                               :          
GR_NORM     .GAPI                                               :GammaRay Normalized
ILD         .OHMM                                               :          
ILM         .OHMM                                               :          
SFLU        .OHMM                                               :          
SP          .MV                                                 :          
SP_NORM     .MV                                                 :SP Normalized
TENS        .LBS                                                :          
VSH_GR      .V/V                                                :Volume of Shale from GR
VSH_SP      .V/V                                                :Volume of Shale from SP
~A        DEPTH           CALI           CILD             DT            DTL             GR        GR_NORM            ILD            ILM           SFLU             SP        SP_NORM           TENS         VSH_GR         VSH_SP
# ...
      1664.0000        19.3152       1534.417        151.785       152.2284        52.0106       74.94195         0.6464         0.6098         0.5594        -6.5305        -1.9278       1436.516      0.8923818              1
      1664.5000        19.3152       1513.051       150.5838       151.8642        50.9116       73.33469         0.6573         0.6134         0.5543        -6.3304        -1.7454       1436.383      0.8581848              1
      1665.0000        19.2352       1491.685       149.3826       150.0556        51.1902       73.72446         0.6681         0.6106         0.5467        -6.5299        -1.9626       1436.245       0.866478              1
      1665.5000        19.2352        1470.32       147.7813       148.7616         52.709       75.91183         0.6791         0.6277         0.5468        -6.6121        -2.0624       1416.072      0.9130177              1
      1666.0000        19.2352       1448.954       146.4761       146.4685        54.5066       78.50334         0.6903         0.6452         0.5673        -6.6944        -2.1624       1455.461      0.9681562              1
      1666.5000        19.2352       1427.588       144.3788        144.559        56.6042       81.52985         0.7017         0.6635         0.5833        -6.7767        -2.2624       1455.899              1              1
      1667.0000        19.2192       1420.158       144.1776       143.7576        56.9037        81.9498          0.711         0.6636         0.6024        -6.8589        -2.3623       1435.801              1              1
      1667.5000        19.2192       1460.156       145.1764       143.7564        56.2044       80.92191         0.7078         0.6575          0.608        -6.9261        -2.4472       1435.673              1              1
      1668.0000        19.2032       1496.145       148.9751       145.3551        54.7845       78.84963         0.6698         0.6455         0.6109        -7.6246        -3.1634       1435.546      0.9755241         0.9914
      1668.5000        19.1872       1544.158       151.1739       150.2234        53.9067       77.56303         0.6279         0.6029         0.6025        -8.0236        -3.5801       1435.418      0.9481497      0.9694684
      1669.0000        19.1552       1584.156       154.1727       154.7527        56.3039       81.02366         0.5886          0.563         0.5574        -8.5226        -4.0968        1435.29              1      0.9422737
      1669.5000        19.0944        1612.17       156.7714       155.0524        56.7035       81.58885         0.5517         0.5258         0.5156        -8.9214        -4.5132       1435.163              1      0.9203579
      1670.0000        19.0144       1759.949       158.3702       158.4497        57.3543       82.51801         0.5172         0.4966          0.477        -8.9212        -4.5307       1435.035              1      0.9194368
      1670.5000        18.9184       1907.728        158.369        158.349        58.0052       83.44732         0.4989         0.4876         0.4509        -8.8855        -4.5127       1434.908              1      0.9203842
      1671.0000        18.8384        2084.81       158.1677       157.7471        58.7013       84.44228         0.4921         0.4765         0.4509        -8.8499        -4.4948        1434.78              1      0.9213263
      1671.5000        18.7584       2108.816       157.5663       157.5641        58.6014       84.28328         0.4922         0.4765          0.453        -8.8142        -4.4768       1434.653              1      0.9222737
      1672.0000        18.6784       2096.712        156.765       156.9451        56.8519       81.73309         0.4945         0.4766         0.4551        -8.7785        -4.4588       1434.525              1      0.9232211
      1672.5000        18.5984       2060.602       154.1638       153.9201        54.9045       78.89617         0.5014         0.4864         0.4573        -8.7428        -4.4408       1434.398      0.9765143      0.9241684
      1673.0000        18.5184        1954.94       149.9625       150.8952        52.1068       74.82656         0.5202         0.5014         0.4615        -8.7183        -4.4339        1434.27      0.8899269      0.9245316
      1673.5000        18.4384       1849.278       146.1613       147.8702        48.6095       69.74299         0.5601          0.506         0.5021        -8.6177         -4.351       1434.143      0.7817657      0.9288948
      1674.0000        18.3744       1743.617         144.16       144.8452        47.5099       68.13485         0.5948         0.5458         0.5463        -8.4173        -4.1683       1434.015        0.74755      0.9385105
      1674.5000        18.2944       1637.955       142.3588       142.1383        48.9086       70.14813         0.6316         0.5886         0.5919        -8.2169        -3.9856       1433.888      0.7903858      0.9481263
      1675.0000        18.2304       1532.294       142.1576       141.9311        51.7062       74.18919         0.6706         0.6198         0.5892        -8.2164        -4.0028        1433.76      0.8763658       0.947221
      1675.5000        18.2304       1394.701       143.1563       141.7363         53.105       76.20277         0.7052         0.6298         0.5839        -8.1159          -3.92       1433.633      0.9192078      0.9515789
      1676.0000        18.2304       1410.636       143.3551       142.9351        55.7533       80.02738         0.7052         0.6398         0.5812        -7.9155        -3.7373       1433.505              1      0.9611948
      1676.5000        18.2304       1418.612       145.1539       144.5339        57.7142       82.85561         0.7118         0.6492          0.592        -7.9149        -3.7543       1433.328              1         0.9603
      1677.0000        18.2304       1465.553       147.3526       145.7326        59.0007       84.70641         0.6989         0.6552         0.6003        -7.9144        -3.7715       1433.221              1      0.9593948
      1677.5000        18.2304       1512.494       149.7514       148.7314        57.9014       83.09871         0.6893         0.6462         0.6003        -7.8139        -3.6887       1433.115              1      0.9637526
      1678.0000        18.2304       1559.436       151.3502       150.2323         56.702       81.34605         0.6665         0.6287         0.5753        -8.0132        -3.9057       1433.056              1      0.9523316
      1678.5000        18.2144       1606.377       152.3489       151.7289        56.8019       81.47666         0.6444         0.6127         0.5527        -8.3125        -4.2227       1431.498              1      0.9356474
      1679.0000        18.2144       1653.319       152.3477       152.1615        58.1457       83.41035         0.6231         0.5972         0.5327        -8.1121          -4.04       1429.939              1      0.9452631
      1679.5000        18.2144        1700.26       152.3465       151.9263        59.9001       85.93938         0.6116          0.582         0.5182        -7.9116        -3.8572        1428.38              1      0.9548842
      1680.0000        18.2144       1726.688       152.3452       152.2064             60       86.06998         0.5868         0.5672         0.5088        -7.5113        -3.4745       1426.822              1      0.9750263
      1680.5000        18.1984       1786.725        152.944       152.4864        60.6036       86.93073         0.5579         0.5528         0.4995        -7.1109        -3.0918       1425.263              1      0.9951684
      1681.0000        18.1984       1810.691       153.1427       152.8223        61.2071       87.79147         0.5503         0.5427         0.5065        -6.7105        -2.7091       1423.705              1              1
      1681.5000        18.1984       1822.634       153.5413       152.9213        61.7993       88.63569         0.5453         0.5402         0.5135          -6.61        -2.6263       1422.146              1              1
