#------------------------------------------------------------------------------
# Created by    : vladimir.rabinovich
# Created on    : 09/19/2023 17:19:46
#------------------------------------------------------------------------------
~Version Information Section
VERS.           2.0     :   CWLS log ASCII Standard - VERSION 2.0
WRAP.           NO      :   One line per depth step
~Well Information Section
#MNEM       .UNIT                                         VALUE :DESCRIPTION
#------------------------------------------------------------------------------
STRT        .FT                                            3460 :START DEPTH
STOP        .FT                                           13634 :STOP DEPTH
STEP        .FT                                             0.5 :STEP      
NULL        .                                           -999.25 :NULL      
COMP        .                                SHELL OFFSHORE INC :COMPANY   
WELL        .                               OCS G06107 ST00BP00 :WELL      
FLD         .                                           WILDCAT :FIELD     
LOC         .                                                   :LOCATION  
CNTY        .                             GALVESTON LARGE BLOCK :LOCATION  
STAT        .                                             TEXAS :STATE     
CTRY        .                                     UNITED STATES :COUNTRY   
SRVC        .                                                   :SERVICE COMPANY
DATE        .                             9/13/2023 11:19:27 AM :LOG DATE  
API         .                                    42706401270000 :API NUMBER
UWI         .                                    42706401270000 :UNIQUE WELL ID
XCOORD      .                                  941908.785460496 :SURFACE X 
YCOORD      .                                  10441108.8632451 :SURFACE Y 
LAT         .                                         28.753553 :LATITUDE  
LON         .                                        -95.180411 :LONGITUDE 
ELEV        .FT                                              90 :ELEVATION VALUE
ELEV_TYPE   .                                                KB :ELEVATION REFERENCE TYPE
~Curve Information Section
#MNEM       .UNIT                                      API CODE :CURVE DESCRIPTION
#------------------------------------------------------------------------------
DEPT        .FT                                                 :DEPTH     
ASFL        .OHMM                                               :          
CALI        .IN                                                 :          
CILD        .MMHO                                               :          
DT          .US/F                                               :          
GR          .GAPI                                               :          
GR_1        .GAPI                                               :          
GR_NORM     .GAPI                                               :GammaRay Normalized
ILD         .OHMM                                               :          
ILM         .OHMM                                               :          
RHOB        .G/C3                                               :          
SP          .MV                                                 :          
VSH_GR      .V/V                                                :Volume of Shale from GR
~A        DEPTH           ASFL           CALI           CILD             DT             GR           GR_1        GR_NORM            ILD            ILM           RHOB             SP         VSH_GR
# ...
      9589.5000        -999.25        10.1748       2963.105       126.8984        -999.25        51.2278       79.49816         0.3357         0.3519         2.2835        -999.25      0.9893226
      9590.0000        -999.25        10.1839       2966.992       127.4718        -999.25        50.4973       78.31113         0.3344         0.3514         2.2813        -999.25      0.9640665
      9590.5000        -999.25        10.1744       2974.699       128.3181        -999.25        52.7153       81.91373          0.333         0.3504         2.2847        -999.25              1
      9591.0000        -999.25        10.1706       2987.777       128.9397        -999.25        54.4279       84.69534         0.3304         0.3495         2.2909        -999.25              1
      9591.5000        -999.25        10.1721       3004.703        129.134        -999.25        55.9493       87.16637         0.3278         0.3485         2.2972        -999.25              1
      9592.0000        -999.25        10.1783       3035.723       129.1597        -999.25        56.0493       87.32842         0.3235         0.3464         2.3009        -999.25              1
      9592.5000        -999.25        10.1776       3069.883       129.0964        -999.25        55.5017       86.43848         0.3195         0.3432         2.3022        -999.25              1
      9593.0000        -999.25        10.1809       3104.496       129.0676        -999.25        54.9321       85.51283         0.3161         0.3408          2.296        -999.25              1
      9593.5000        -999.25        10.1878       3154.113       129.2678        -999.25        54.2455        84.3971         0.3126         0.3381         2.2858        -999.25              1
      9594.0000        -999.25        10.1923        3199.93       129.6301        -999.25        54.0963       84.15436         0.3083         0.3343         2.2775        -999.25              1
      9594.5000        -999.25        10.1936        3240.07       130.1628        -999.25        54.4644       84.75191         0.3051         0.3313         2.2726        -999.25              1
      9595.0000        -999.25        10.1929        3272.66       130.8547        -999.25         55.723       86.79604         0.3016         0.3293         2.2741        -999.25              1
      9595.5000        -999.25        10.1903       3308.543       131.6174        -999.25        57.6544       89.93307         0.2998         0.3269         2.2738        -999.25              1
      9596.0000        -999.25        10.1855       3331.133       132.2808        -999.25         59.035       92.17538         0.2992         0.3249         2.2694        -999.25              1
      9596.5000        -999.25        10.1869        3335.91       132.5144        -999.25        58.8816        91.9258         0.3004         0.3253          2.269        -999.25              1
      9597.0000        -999.25        10.1882       3325.219       132.4133        -999.25        58.3258       91.02255         0.3021         0.3256         2.2734        -999.25              1
      9597.5000        -999.25        10.1895       3298.355       132.0913        -999.25        57.1854       89.16967         0.3033         0.3257         2.2789        -999.25              1
      9598.0000        -999.25        10.1908       3264.805       131.7695        -999.25        56.7736       88.50034         0.3032         0.3267         2.2845        -999.25              1
      9598.5000        -999.25        10.1928       3238.855       131.4243        -999.25        56.9534       88.79202         0.3036         0.3267         2.2886        -999.25              1
      9599.0000        -999.25        10.1985       3206.621       130.9512        -999.25        57.4425       89.58615         0.3055         0.3257         2.2917        -999.25              1
      9599.5000        -999.25        10.2029       3191.465       130.3594        -999.25        58.1787       90.78166         0.3094         0.3255         2.2944        -999.25              1
      9600.0000        -999.25        10.2027       3190.758       129.9675        -999.25        58.7532        91.7145         0.3125         0.3263         2.2955        -999.25              1
      9600.5000        -999.25        10.1944       3188.289       129.9336        -999.25        58.6194       91.49676          0.312         0.3274         2.2948        -999.25              1
      9601.0000        -999.25        10.2015       3196.688       130.3569        -999.25        58.3019       90.98063         0.3116         0.3308         2.2937        -999.25              1
      9601.5000        -999.25        10.2042       3207.117       131.0537        -999.25         57.782       90.13568         0.3113          0.332         2.2927        -999.25              1
      9602.0000        -999.25        10.1902       3213.918       131.7095        -999.25        55.9594       87.17461         0.3106         0.3328         2.2933        -999.25              1
      9602.5000        -999.25        10.1855       3220.074       132.0498        -999.25        54.1965       84.31051         0.3102         0.3319         2.2959        -999.25              1
      9603.0000        -999.25        10.1866       3218.961       131.8586        -999.25        53.6495       83.42156         0.3099         0.3325         2.2958        -999.25              1
      9603.5000        -999.25        10.1825       3213.449       131.5618        -999.25        54.6442       85.03699         0.3088         0.3335         2.2932        -999.25              1
      9604.0000        -999.25        10.1779       3199.652       131.1221        -999.25        54.9183       85.48186         0.3086         0.3342         2.2921        -999.25              1
      9604.5000        -999.25        10.1743       3186.855       130.4961        -999.25        53.8243       83.70435         0.3095         0.3355         2.2927        -999.25              1
      9605.0000        -999.25        10.1741       3168.965       130.0801        -999.25        52.3029       81.23255         0.3118         0.3366          2.294        -999.25              1
      9605.5000        -999.25        10.1694       3145.602       129.9751        -999.25        51.5532       80.01433         0.3167         0.3382         2.2968        -999.25              1
      9606.0000        -999.25        10.1669       3116.965       130.0859        -999.25        52.4588       81.48503         0.3208         0.3403         2.2994        -999.25              1
      9606.5000        -999.25        10.1655       3083.465       130.1687        -999.25        54.5259        84.8425         0.3247         0.3423          2.302        -999.25              1
      9607.0000        -999.25        10.1647       3041.449       130.1902        -999.25        55.5822       86.55799         0.3284         0.3453         2.3031        -999.25              1
      9607.5000        -999.25        10.1638       3007.441       130.0996        -999.25        56.6145        88.2345         0.3328         0.3464         2.3034        -999.25              1
      9608.0000        -999.25         10.159       2993.211       129.8132        -999.25        56.6309       88.26077         0.3355         0.3473         2.3016        -999.25              1
      9608.5000        -999.25        10.1542       2988.449        128.991        -999.25         55.845       86.98373          0.335         0.3472         2.2989        -999.25              1
      9609.0000        -999.25          10.15       2997.648       127.9691        -999.25         54.873        85.4044         0.3333          0.348         2.2959        -999.25              1
      9609.5000        -999.25        10.1439       3028.121       127.7173        -999.25        54.6379        85.0221         0.3299         0.3478         2.2928        -999.25              1
