#------------------------------------------------------------------------------
# Created by    : vladimir.rabinovich
# Created on    : 09/19/2023 17:22:43
#------------------------------------------------------------------------------
~Version Information Section
VERS.           2.0     :   CWLS log ASCII Standard - VERSION 2.0
WRAP.           NO      :   One line per depth step
~Well Information Section
#MNEM       .UNIT                                         VALUE :DESCRIPTION
#------------------------------------------------------------------------------
STRT        .FT                                            3600 :START DEPTH
STOP        .FT                                            7940 :STOP DEPTH
STEP        .FT                                             0.5 :STEP      
NULL        .                                           -999.25 :NULL      
COMP        .                          SEAGULL ENERGY E & P INC :COMPANY   
WELL        .                               OCS G09015 ST00BP00 :WELL      
FLD         .                                 BRAZOS BLOCK 0431 :FIELD     
LOC         .                                                   :LOCATION  
CNTY        .                                BRAZOS LARGE BLOCK :LOCATION  
STAT        .                                             TEXAS :STATE     
CTRY        .                                     UNITED STATES :COUNTRY   
SRVC        .                                                   :SERVICE COMPANY
DATE        .                             9/13/2023 11:09:51 AM :LOG DATE  
API         .                                    42704402370000 :API NUMBER
UWI         .                                    42704402370000 :UNIQUE WELL ID
XCOORD      .                                  876086.487249857 :SURFACE X 
YCOORD      .                                  10366258.6106956 :SURFACE Y 
LAT         .                                        28.5443209 :LATITUDE  
LON         .                                       -95.3810825 :LONGITUDE 
ELEV        .FT                                              90 :ELEVATION VALUE
ELEV_TYPE   .                                                KB :ELEVATION REFERENCE TYPE
~Curve Information Section
#MNEM       .UNIT                                      API CODE :CURVE DESCRIPTION
#------------------------------------------------------------------------------
DEPT        .FT                                                 :DEPTH     
DCAL        .IN                                                 :          
DPHI        .%                                                  :          
GR          .GAPI                                               :          
GR_NORM     .GAPI                                               :GammaRay Normalized
ILD         .OHMM                                               :          
ILM         .OHMM                                               :          
NPHI        .%                                                  :          
SGRD        .OHMM                                               :          
SP          .MV                                                 :          
SP_NORM     .MV                                                 :SP Normalized
VSH_GR      .V/V                                                :Volume of Shale from GR
VSH_SP      .V/V                                                :Volume of Shale from SP
~A        DEPTH           DCAL           DPHI             GR        GR_NORM            ILD            ILM           NPHI           SGRD             SP        SP_NORM         VSH_GR         VSH_SP
# ...
      4174.0000          1.012        28.3803        57.9839        73.1216         0.5252         0.6187        42.7395         0.8363       -61.6461      -6.676113       0.853651      0.7538888
      4174.5000         1.0036        28.4596        59.1465       75.01809         0.5177         0.6123        42.8041         0.8364       -61.7968       -6.85944      0.8940019        0.74424
      4175.0000         1.0033         28.819        60.5663       77.33653           0.51          0.608        43.0529         0.8352       -61.8041      -6.899364      0.9433305      0.7421387
      4175.5000         1.0043         29.312        62.1074       79.85395         0.5142         0.6066        43.5074         0.8284       -61.5166      -6.644493      0.9968926       0.755553
      4176.0000         1.0076        29.7809         63.552       82.21308         0.5214         0.6055        43.9278         0.8207       -60.7592       -5.91972              1       0.793699
      4176.5000         1.0104        30.0458        64.9288       84.46098         0.5277         0.6048        44.1353          0.815       -59.6402      -4.833347              1      0.8508765
      4177.0000         1.0027        29.8078        66.0256       86.24952         0.5325         0.6037        44.5444         0.8123       -58.1252      -3.350971              1      0.9288962
      4177.5000          0.995        28.8483        66.9348       87.73032         0.5378          0.602        44.8309         0.8126       -57.0239      -2.282299              1      0.9851422
      4178.0000         0.9706        27.8582        65.9548       86.11189         0.5445         0.6044        45.0013         0.8135       -56.3429      -1.633926              1              1
      4178.5000         0.9499        26.9979         66.166       86.44762         0.5496         0.6094        45.3845         0.8109       -55.9554      -1.279053              1              1
      4179.0000         0.9495        27.0929        66.5624       87.08717         0.5536         0.6162         45.759         0.8073       -55.9075      -1.263783              1              1
      4179.5000          0.965        27.1201        66.4503       86.89251         0.5528         0.6223        45.8003         0.8041       -56.0273       -1.41621              1              1
      4180.0000         0.8783        26.9853        65.2428       84.90083         0.5466         0.6254        45.6027          0.804       -57.0102      -2.431736              1       0.977277
      4180.5000         0.7933        26.9793        63.4282       81.91322         0.5389         0.6278        44.9516          0.806       -58.3766      -3.830761              1      0.9036441
      4181.0000          0.739        27.7701        64.4299       83.54577         0.5318          0.623        44.1456         0.8117       -60.1521      -5.638889              1      0.8084795
      4181.5000         0.7487        28.9621        66.0061        86.1208         0.5256         0.6177        43.2413         0.8169       -61.6423      -7.161716              1      0.7283307
      4182.0000         0.7745        30.1437        65.2499        84.8695         0.5183         0.6122         42.455         0.8215        -62.588      -8.140045              1      0.6768397
      4182.5000         0.8353        31.1601        66.1937       86.40704           0.51         0.6092        41.8229         0.8233       -62.6707      -8.255367              1      0.6707702
      4183.0000         0.9018        32.1661        68.0591       89.45647         0.5106         0.6076        41.3056          0.824       -62.7332      -8.350494              1      0.6657634
      4183.5000         0.9666        31.7758        68.2258       89.71922         0.5155         0.6084        40.9796         0.8243       -62.7399       -8.38982              1      0.6636937
      4184.0000         0.9986        30.8455        66.4529       86.80003         0.5257         0.6111        40.8701         0.8246       -62.6953       -8.37785              1      0.6643237
      4184.5000         0.9351        30.2202        64.4364       83.48119         0.5451         0.6206        40.4613         0.8286       -62.5677      -8.282875              1      0.6693224
      4185.0000         0.8725        29.6535        62.1439       79.70958          0.567         0.6451        39.8821         0.8421       -62.4081      -8.155903      0.9938208      0.6760051
      4185.5000         0.8283        28.9489        59.6232       75.56361         0.5894         0.6719        39.4276         0.8574       -61.9986       -7.77903      0.9056088      0.6958405
      4186.0000         0.8005        28.1929        57.5403       72.13586         0.6104         0.6994        39.1639         0.8743       -61.2776      -7.090656       0.832678      0.7320707
      4186.5000         0.8112        27.6919        58.3467         73.448         0.6297         0.7233        39.1252         0.8919       -60.5618      -6.407482      0.8605957      0.7680272
      4187.0000         0.8374         27.324        59.9802         76.117         0.6467         0.7481        39.1467         0.9047       -60.0899      -5.968212      0.9173831      0.7911468
      4187.5000         0.8801        27.0576        61.2841       78.24532         0.6597         0.7728        38.8539         0.9165       -59.8074      -5.718338      0.9626665       0.804298
      4188.0000         0.9112        26.6117        63.2941         81.532         0.6728         0.7929        38.4537         0.9286       -59.6169      -5.560467              1       0.812607
      4188.5000         0.9412        26.0258        62.5203        80.2518         0.6838         0.8103        38.1085         0.9502       -59.4669      -5.443092              1      0.8187846
      4189.0000         0.9236        25.6035         60.212       76.45427         0.6852          0.809        38.1074         0.9801       -59.2983      -5.307121      0.9245589       0.825941
      4189.5000         0.8911        26.0566        56.1895        69.8446         0.6791         0.8028        38.6609         0.9595       -59.0646      -5.106049      0.7839277      0.8365238
      4190.0000         0.8282        26.7632        53.2651       65.03636         0.6661         0.7938        39.3635         0.9101        -58.702       -4.77607      0.6816247      0.8538911
      4190.5000         0.7824        27.1681        51.6063       62.30436         0.6511         0.7829         39.145         0.9094       -58.3206      -4.427296      0.6234971      0.8722476
      4191.0000         0.7513         25.827        50.6058       60.65229         0.6375           0.77        37.9001         0.9458       -58.0063      -4.145626      0.5883466      0.8870723
      4191.5000         0.7311        24.3945        50.4554       60.39479         0.6291         0.7554        37.2604         0.9933       -57.7015      -3.873451      0.5828678      0.9013973
      4192.0000         0.7076         23.692        52.5187       63.76889         0.6273         0.7425         37.314         0.9942       -57.5365      -3.741077      0.6546572      0.9083644
      4192.5000         0.6832        24.4417        54.9169       67.69241         0.6263         0.7324        37.7595         0.9535       -57.5313      -3.768505      0.7381363      0.9069208
      4193.0000         0.6551        25.6783        57.5495       71.93252         0.6244         0.7251        38.4292         0.9104       -57.6455      -3.915333      0.8283514       0.899193
      4193.5000         0.6269        26.0368        60.8177       77.15347         0.6204         0.7235        39.2701         0.8839       -57.6461      -3.948559      0.9394356      0.8974442
      4194.0000         0.6247        26.0463        62.2422       79.34979         0.6142         0.7189         40.192         0.8888       -57.6285      -3.963589      0.9861658      0.8966532
