#------------------------------------------------------------------------------
# Created by    : vladimir.rabinovich
# Created on    : 09/19/2023 17:22:25
#------------------------------------------------------------------------------
~Version Information Section
VERS.           2.0     :   CWLS log ASCII Standard - VERSION 2.0
WRAP.           NO      :   One line per depth step
~Well Information Section
#MNEM       .UNIT                                         VALUE :DESCRIPTION
#------------------------------------------------------------------------------
STRT        .FT                                            3984 :START DEPTH
STOP        .FT                                           14348 :STOP DEPTH
STEP        .FT                                             0.5 :STEP      
NULL        .                                           -999.25 :NULL      
COMP        .                                  CNG PRODUCING CO :COMPANY   
WELL        .                               OCS G07292 ST00BP00 :WELL      
FLD         .                                           WILDCAT :FIELD     
LOC         .                                                   :LOCATION  
CNTY        .                           HIGH ISLAND LARGE BLOCK :LOCATION  
STAT        .                                             TEXAS :STATE     
CTRY        .                                     UNITED STATES :COUNTRY   
SRVC        .                                                   :SERVICE COMPANY
DATE        .                             9/13/2023 11:19:59 AM :LOG DATE  
API         .                                    42708402890000 :API NUMBER
UWI         .                                    42708402890000 :UNIQUE WELL ID
XCOORD      .                                  1158246.84135722 :SURFACE X 
YCOORD      .                                  10525039.0147689 :SURFACE Y 
LAT         .                                         28.993597 :LATITUDE  
LON         .                                        -94.508673 :LONGITUDE 
ELEV        .FT                                             101 :ELEVATION VALUE
ELEV_TYPE   .                                                KB :ELEVATION REFERENCE TYPE
~Curve Information Section
#MNEM       .UNIT                                      API CODE :CURVE DESCRIPTION
#------------------------------------------------------------------------------
DEPT        .FT                                                 :DEPTH     
CALX        .IN                                                 :          
DTL         .US/F                                               :          
GR          .GAPI                                               :          
GR_NORM     .GAPI                                               :GammaRay Normalized
ILD         .OHMM                                               :          
ILM         .OHMM                                               :          
LL3         .OHMM                                               :          
SP          .MV                                                 :          
SP_NORM     .MV                                                 :SP Normalized
VSH_GR      .V/V                                                :Volume of Shale from GR
VSH_SP      .V/V                                                :Volume of Shale from SP
~A        DEPTH           CALX            DTL             GR        GR_NORM            ILD            ILM            LL3             SP        SP_NORM         VSH_GR         VSH_SP
# ...
     11589.0000        12.2104       107.8812        45.9077       74.49181         0.5981         0.5896         0.5601         -49.26      -5.737118      0.8828046      0.9180412
     11589.5000        12.2048       125.9364        46.6989       76.03527         0.5863          0.574         0.5408       -49.4508       -5.92503       0.915644      0.9153567
     11590.0000        12.1724       142.9534        46.4569       75.61074         0.5728         0.5633         0.5367        -49.429      -5.900337      0.9066115      0.9157095
     11590.5000        12.5526       147.3501        45.4116       73.65611          0.559         0.5545         0.5369       -49.2589      -5.727345      0.8650237      0.9181808
     11591.0000        12.3455        141.783        45.2319       73.35025         0.5457         0.5445          0.537       -49.2143      -5.679852       0.858516      0.9188592
     11591.5000        12.5308        135.605        45.7811       74.43277         0.5338         0.5325          0.527       -49.1151      -5.577763      0.8815483      0.9203176
     11592.0000        11.9669       138.8721        47.6946       78.11394         0.5213         0.5199         0.5114       -48.9436       -5.40337       0.959871       0.922809
     11592.5000        11.7115       144.7446        47.8857       78.51437         0.5079         0.5119         0.5076       -48.7639      -5.220779      0.9683908      0.9254174
     11593.0000        11.7882       148.9429        47.3364       77.50449         0.4966         0.5037         0.5066       -49.1221      -5.576088      0.9469041      0.9203416
     11593.5000         12.219       151.0012        46.4949       75.93805         0.4901         0.4985         0.5022       -52.5111      -8.962196      0.9135755      0.8719686
     11594.0000         12.632       151.8748        45.4774       74.03638         0.4867         0.4964         0.4966       -53.4223      -9.870502      0.8731146      0.8589928
     11594.5000         12.302       151.1719        44.4327       72.08289         0.4857         0.4994         0.4964        -51.853      -8.298313      0.8315509      0.8814527
     11595.0000        12.0562       146.0474        45.3052       73.78122         0.4879         0.5191         0.5009       -53.1743      -9.616722      0.8676855      0.8626183
     11595.5000        12.4873       135.8291         46.224       75.56774         0.5001         0.5493         0.5134       -54.2803      -10.71983      0.9056966      0.8468596
     11596.0000        12.6123       121.8654         46.257       75.66701         0.5273         0.5898         0.5291       -55.3016      -11.73824      0.9078087      0.8323109
     11596.5000        12.7257       114.3542        43.7208       70.87257         0.5399         0.6241         0.5411       -55.7319      -12.16565      0.8057993      0.8262051
     11597.0000        13.3944         97.897        42.5945       68.76366         0.5376         0.6378         0.5416        -55.648      -12.07885      0.7609289       0.827445
     11597.5000        12.9145        89.6429        42.2642       68.17093         0.5691         0.6494         0.5653       -55.9749      -12.40286      0.7483177      0.8228163
     11598.0000        11.7138        -999.25        42.4594       68.57916         0.6028           0.66            0.6       -57.1859      -13.61097      0.7570035      0.8055575
     11598.5000        11.3934        -999.25        42.3098       68.33063         0.6249         0.6757         0.6312       -58.1578      -14.57998      0.7517155      0.7917147
     11599.0000        11.6543        -999.25        40.6532       65.21162         0.6463         0.7055         0.6966       -59.0209      -15.44019      0.6853535      0.7794259
     11599.5000        11.4318        -999.25        38.3601       60.88024         0.6618         0.7571         0.7784       -59.3994      -15.81579      0.5931966      0.7740601
     11600.0000        10.9697        -999.25        36.1733       56.75133         0.6755          0.773          0.953       -59.6145        -16.028      0.5053474      0.7710286
     11600.5000        10.6158        -999.25        33.6321       51.94736         0.6865         0.7805         0.9859       -59.5069      -15.91751      0.4031353       0.772607
     11601.0000        10.5172        89.0526        31.2353       47.41844         0.6991         0.7845         0.9483       -59.5781      -15.98582      0.3067754      0.7716312
     11601.5000        10.4666       104.6753        29.5952       44.33087         0.7074         0.7848         0.8774       -59.3361      -15.74093      0.2410823      0.7751296
     11602.0000        10.4409       108.2883        28.5005       42.28214         0.7134         0.7817         0.8528       -58.9539      -15.35583      0.1974924      0.7806309
     11602.5000        10.4611        119.097        27.8816        41.1397          0.719         0.7742         0.8338       -58.3679      -14.76694      0.1731851      0.7890437
     11603.0000        10.5262       145.2332        27.5941       40.62851         0.7144         0.7719         0.8192       -57.2289      -13.62505      0.1623087      0.8053564
     11603.5000        10.5617       165.5476        28.1525       41.72855         0.7067          0.769         0.7969       -55.7711      -12.16436      0.1857138      0.8262234
     11604.0000        10.5543        169.863        30.3064       45.86763          0.694         0.7604         0.7199       -54.6372      -11.02757      0.2737794      0.8424633
     11604.5000        10.5839       172.7993        33.7536       52.47014         0.6855         0.7509          0.659       -53.9285      -10.31598      0.4142584      0.8526289
     11605.0000        10.7171       173.4666        36.3758       57.50124         0.6749         0.7448         0.6284       -53.4818      -9.866386      0.5213029      0.8590516
     11605.5000        10.9641       169.5168        38.1652       60.94603         0.6679         0.7371         0.6543       -52.7693      -9.150993      0.5945964      0.8692715
     11606.0000        11.1244       163.7971        39.1561       62.86988         0.6655         0.7307         0.6847       -51.7949      -8.173702      0.6355295      0.8832328
     11606.5000        10.9266        142.302        39.3748       63.32288         0.6698         0.7286         0.7202       -50.9052      -7.281113      0.6451676      0.8959841
     11607.0000        11.0717       133.2642        38.6056       61.89415         0.6734         0.7257         0.7383       -50.2383       -6.61132       0.614769      0.9055526
     11607.5000        10.9765       128.8318        37.4034       59.64066           0.68         0.7252         0.7365       -49.8364      -6.206528      0.5668226      0.9113353
     11608.0000          10.94       126.1705        37.0414       58.98756         0.6927         0.7334         0.7306        -49.736      -6.103237      0.5529267      0.9128109
     11608.5000        10.9776       120.1962        37.8918       60.64379          0.715         0.7534         0.7281       -49.7531      -6.117447      0.5881657      0.9126079
     11609.0000        10.9449       108.8583        38.9334       62.66421         0.7402         0.7789         0.7307       -49.8181      -6.179554      0.6311533      0.9117206
     11609.5000        10.8383        100.248        39.1688       63.14901         0.7647         0.8067         0.7575       -49.9106      -6.269161      0.6414683      0.9104406
     11610.0000        10.6862        96.8284        37.8033       60.58447         0.7821         0.8382         0.8036       -49.7251      -6.080772      0.5869035      0.9131318
     11610.5000          10.55       117.9572        36.2391       57.64147         0.7887         0.8632         0.8529       -49.3018      -5.654579      0.5242866      0.9192203
     11611.0000        10.5226       148.9988        35.5696       56.40265         0.7945         0.8724         0.7649       -48.7665      -5.116386      0.4979286      0.9269088
