#------------------------------------------------------------------------------
# Created by    : vladimir.rabinovich
# Created on    : 09/19/2023 17:20:40
#------------------------------------------------------------------------------
~Version Information Section
VERS.           2.0     :   CWLS log ASCII Standard - VERSION 2.0
WRAP.           NO      :   One line per depth step
~Well Information Section
#MNEM       .UNIT                                         VALUE :DESCRIPTION
#------------------------------------------------------------------------------
STRT        .FT                                             400 :START DEPTH
STOP        .FT                                           11002 :STOP DEPTH
STEP        .FT                                             0.5 :STEP      
NULL        .                                           -999.25 :NULL      
COMP        .                            STANOLIND OIL & GAS CO :COMPANY   
WELL        .                                     ST TR 00245-L :WELL      
FLD         .                              GALVESTON BLOCK 0245 :FIELD     
LOC         .                                                   :LOCATION  
CNTY        .                             GALVESTON LARGE BLOCK :LOCATION  
STAT        .                                             TEXAS :STATE     
CTRY        .                                     UNITED STATES :COUNTRY   
SRVC        .                                                   :SERVICE COMPANY
DATE        .                             9/13/2023 11:19:42 AM :LOG DATE  
API         .                                    42706000160000 :API NUMBER
UWI         .                                    42706000160000 :UNIQUE WELL ID
XCOORD      .                                  1024804.26554262 :SURFACE X 
YCOORD      .                                  10549089.4715911 :SURFACE Y 
LAT         .                                        29.0543948 :LATITUDE  
LON         .                                       -94.9272588 :LONGITUDE 
ELEV        .FT                                              11 :ELEVATION VALUE
ELEV_TYPE   .                                                KB :ELEVATION REFERENCE TYPE
~Curve Information Section
#MNEM       .UNIT                                      API CODE :CURVE DESCRIPTION
#------------------------------------------------------------------------------
DEPT        .FT                                                 :DEPTH     
ASN         .OHMM                                               :          
LAT         .OHMM                                               :          
LN          .OHMM                                               :          
SP          .MV                                                 :          
SP_NORM     .MV                                                 :SP Normalized
VSH_SP      .V/V                                                :Volume of Shale from SP
~A        DEPTH            ASN            LAT             LN             SP        SP_NORM         VSH_SP
# ...
      3934.0000         1.9873         0.6994         0.1854      -127.9084      -75.26932      0.1172371
      3934.5000         1.9877         0.7298          0.187      -130.4602      -77.82321     0.08646733
      3935.0000         1.9897         0.6669         0.1872      -132.5947      -79.95979     0.06072538
      3935.5000         1.9917         0.6041         0.1874      -134.0134      -81.38058     0.04360741
      3936.0000         1.9937         0.5412         0.1876      -135.4309      -82.80017     0.02650397
      3936.5000          1.982         0.4784         0.1878      -136.8496      -84.22096    0.009385994
      3937.0000         1.9148         0.4156          0.188      -137.6694      -85.04286              0
      3937.5000         1.8477         0.3691         0.1882      -138.2512      -85.62675              0
      3938.0000         1.7805         0.3534         0.1884       -138.833      -86.21062              0
      3938.5000         1.4368         0.3378         0.1886      -139.4148      -86.79452              0
      3939.0000         1.1122         0.3259         0.1888      -139.9966      -87.37841              0
      3939.5000         0.9036         0.3209          0.189      -139.8757      -87.25961              0
      3940.0000         0.8778          0.316         0.1892      -139.0872       -86.4732              0
      3940.5000         0.8522          0.311         0.1894      -138.2988      -85.68688              0
      3941.0000         0.8234         0.3061         0.1897      -137.5103      -84.90047    0.001199102
      3941.5000         0.7912         0.3011         0.1911      -136.7212      -84.11347     0.01068106
      3942.0000          0.759         0.2962         0.1924      -135.9329      -83.32726     0.02015346
      3942.5000         0.7188         0.2912         0.1938      -134.6697      -82.06614     0.03534772
      3943.0000         0.6674         0.2863         0.1952       -133.137      -80.53553     0.05378879
      3943.5000         0.7087         0.2813         0.1965      -131.6033      -79.00393     0.07224182
      3944.0000           0.75         0.2798         0.1979      -130.0708      -77.47352      0.0906805
      3944.5000         0.7913         0.2806         0.1993      -128.5369       -75.9417      0.1091361
      3945.0000         0.8325         0.2815         0.2006      -126.0649       -73.4718       0.138894
      3945.5000         0.8738         0.2823          0.202      -120.2753      -67.68428      0.2086231
      3946.0000         0.9026         0.2832         0.2034      -113.4631      -60.87417      0.2906726
      3946.5000         0.8862          0.284         0.2047      -105.1239      -52.53707      0.3911197
      3947.0000         0.8551         0.2849         0.2055       -91.8448      -39.26006      0.5510836
      3947.5000         0.8135          0.307         0.2056       -82.6425      -30.05985      0.6619295
      3948.0000         0.7718          0.357         0.2058       -78.5481      -25.96754      0.7112345
      3948.5000         0.7302          0.407          0.206       -74.4537      -21.87523      0.7605395
      3949.0000          0.693          0.457         0.2061       -71.4106      -18.83422      0.7971781
      3949.5000         0.6904          0.507         0.2063       -69.1731      -16.59881      0.8241107
      3950.0000         0.7271         0.5518         0.2064       -66.9355       -14.3633      0.8510446
      3950.5000         0.8011         0.5923         0.2066       -68.1495      -15.57939      0.8363929
      3951.0000         0.8751         0.6328         0.2068        -71.446      -18.87798      0.7966508
      3951.5000         0.9491         0.6733         0.2069       -74.9916      -22.42567      0.7539076
      3952.0000         1.3871         0.7047         0.2071        -78.537      -25.97316      0.7111667
      3952.5000         1.6364         0.7304         0.2073       -84.6122      -32.05045      0.6379464
      3953.0000           1.62          0.753         0.2067       -90.8976      -38.33794      0.5621935
      3953.5000         1.6049         0.7162         0.2048      -102.0431      -49.48553      0.4278852
      3954.0000         1.5897         0.6794         0.2028      -114.1094      -61.55392      0.2824829
      3954.5000         1.5824         0.6433         0.2009      -124.0288      -71.47541      0.1629469
      3955.0000         1.6997         0.6097          0.199       -130.531      -77.97971     0.08458186
      3955.5000         1.9233         0.5761         0.1971      -132.6824      -80.13319     0.05863622
      3956.0000         1.9925         0.5425         0.1952      -134.6641      -82.11697     0.03473525
      3956.5000         1.9919         0.5089         0.1933       -136.645      -84.09998     0.01084367
      3957.0000         1.9914         0.4753         0.1913       -138.627      -86.08406              0
      3957.5000         1.9912         0.4417         0.1894      -140.6077      -88.06685              0
      3958.0000          1.991         0.4081         0.1875      -142.0044      -89.46564              0
      3958.5000         1.9908         0.3745         0.1856      -142.5627      -90.02603              0
      3959.0000         1.9906         0.3408         0.1837      -143.1208      -90.58623              0
      3959.5000         1.9904         0.3273         0.1817      -143.6189      -91.08641              0
      3960.0000         2.1473         0.3282         0.1782      -143.8906       -91.3602              0
      3960.5000         2.1824          0.329         0.1746      -144.1626      -91.63429              0
      3961.0000          2.215         0.3424          0.171      -144.4346      -91.90839              0
      3961.5000         2.1253         0.3744         0.1674      -144.7065      -92.18237              0
      3962.0000         2.0357         0.4064         0.1638      -144.9785      -92.45647              0
      3962.5000         1.9892         0.4175         0.1602      -145.2505      -92.73056              0
      3963.0000         1.9891         0.4029         0.1566      -145.1514      -92.63354              0
      3963.5000         1.9892         0.3884          0.153       -144.981      -92.46524              0
      3964.0000         1.9894         0.3738         0.1494      -144.7795      -92.26582              0
      3964.5000         1.9895         0.3593         0.1458      -144.1665      -91.65492              0
      3965.0000         1.9897          0.349         0.1422      -143.5535      -91.04401              0
      3965.5000         1.9898         0.3394         0.1386      -142.9404        -90.433              0
      3966.0000           1.99         0.3298         0.1351      -142.3271      -89.82179              0
      3966.5000         1.9895         0.3276         0.1315      -141.8987      -89.39548              0
      3967.0000          1.989         0.3339         0.1281      -141.6172      -89.11607              0
      3967.5000         1.9866         0.3403         0.1253      -141.3359      -88.83687              0
      3968.0000         1.9837         0.3708         0.1226      -141.0544      -88.55744              0
      3968.5000         1.9807         0.4046         0.1199      -140.7732      -88.27833              0
      3969.0000         1.9778         0.4234         0.1172      -140.4919      -87.99912              0
      3969.5000         1.9706         0.4285         0.1144      -140.2104      -87.71972              0
      3970.0000         1.8942         0.4335         0.1117      -139.9492      -87.46061              0
      3970.5000         1.7649         0.4369          0.109      -140.0449       -87.5584              0
      3971.0000         1.3508         0.4307         0.1063      -140.1406      -87.65618              0
      3971.5000          0.937         0.4244         0.1035      -140.2361      -87.75378              0
