#------------------------------------------------------------------------------
# Created by    : vladimir.rabinovich
# Created on    : 09/19/2023 17:21:24
#------------------------------------------------------------------------------
~Version Information Section
VERS.           2.0     :   CWLS log ASCII Standard - VERSION 2.0
WRAP.           NO      :   One line per depth step
~Well Information Section
#MNEM       .UNIT                                         VALUE :DESCRIPTION
#------------------------------------------------------------------------------
STRT        .FT                                            4000 :START DEPTH
STOP        .FT                                            8085 :STOP DEPTH
STEP        .FT                                             0.5 :STEP      
NULL        .                                           -999.25 :NULL      
COMP        .                             WALTER OIL & GAS CORP :COMPANY   
WELL        .                               OCS G09047 ST00BP00 :WELL      
FLD         .                              GALVESTON BLOCK 0351 :FIELD     
LOC         .                                                   :LOCATION  
CNTY        .                             GALVESTON LARGE BLOCK :LOCATION  
STAT        .                                             TEXAS :STATE     
CTRY        .                                     UNITED STATES :COUNTRY   
SRVC        .                                                   :SERVICE COMPANY
DATE        .                             9/13/2023 11:19:36 AM :LOG DATE  
API         .                                    42706402000000 :API NUMBER
UWI         .                                    42706402000000 :UNIQUE WELL ID
XCOORD      .                                  1036183.96101641 :SURFACE X 
YCOORD      .                                  10437562.0132666 :SURFACE Y 
LAT         .                                        28.7482272 :LATITUDE  
LON         .                                       -94.8860948 :LONGITUDE 
ELEV        .FT                                              80 :ELEVATION VALUE
ELEV_TYPE   .                                                KB :ELEVATION REFERENCE TYPE
~Curve Information Section
#MNEM       .UNIT                                      API CODE :CURVE DESCRIPTION
#------------------------------------------------------------------------------
DEPT        .FT                                                 :DEPTH     
CALI        .IN                                                 :          
DRHO        .G/C3                                               :          
GR          .GAPI                                               :          
GR_NORM     .GAPI                                               :GammaRay Normalized
ILD         .OHMM                                               :          
ILM         .OHMM                                               :          
NPHI        .%                                                  :          
RHOB        .G/C3                                               :          
SFL         .OHMM                                               :          
SP          .MV                                                 :          
SP_NORM     .MV                                                 :SP Normalized
VSH_GR      .V/V                                                :Volume of Shale from GR
VSH_SP      .V/V                                                :Volume of Shale from SP
~A        DEPTH           CALI           DRHO             GR        GR_NORM            ILD            ILM           NPHI           RHOB            SFL             SP        SP_NORM         VSH_GR         VSH_SP
# ...
      4019.0000        -999.25        -999.25        40.0763       75.07507        -999.25        -999.25        52.8584        -999.25        -999.25        -999.25        -999.25      0.8952143        -999.25
      4019.5000        -999.25        -999.25        39.6743       73.74121        -999.25        -999.25        56.1891        -999.25        -999.25        -999.25        -999.25      0.8668343        -999.25
      4020.0000         9.2186        -0.0913          39.79       72.98257        12.5982       1933.783        56.9667         2.1033         0.2118      -153.2947      -16.56194      0.8506929      0.7634009
      4020.5000         9.3731        -0.0436        41.5236        74.0216        15.4869       1939.898        55.8057         2.0456         0.2841      -124.8437      0.1962738         0.8728              1
      4021.0000         9.5322        -0.0043        42.6858       74.42573        19.9632        25.6268        54.5691         1.9864         0.6294      -103.9436       9.403572      0.8813984              1
      4021.5000         9.6502         0.0157        43.3199        74.2431         8.8068         2.7221        53.0152         1.9642         0.7739       -97.3517       4.302689      0.8775127              1
      4022.0000         9.6923          0.025        43.7526       73.83668         1.4215         0.9753        51.5502         1.9703          0.831       -94.2965      -1.666832      0.8688655      0.9761881
      4022.5000         9.7249         0.0277        44.0569       73.28759         0.9071         0.7191         50.463          1.977         0.8684       -92.3859      -2.196472      0.8571827      0.9686219
      4023.0000         9.7414         0.0272        44.5725       72.97328         0.8958         0.6623        49.6658         1.9581         0.8923       -90.9819      -3.232704      0.8504953      0.9538185
      4023.5000         9.7551         0.0255         45.129       72.70442         0.9604         0.6696        49.1626         1.9465         0.9097        -90.155      -4.846031       0.844775       0.930771
      4024.0000         9.7652         0.0211        44.8116       71.46456          1.022         0.6946        49.1473         1.9445         0.9179        -89.161      -6.292274      0.8183949      0.9101104
      4024.5000         9.8382          0.012        43.7607       69.40971         0.9396         0.7234        49.4601         1.9421         0.9169       -87.5211      -7.092606      0.7746746      0.8986771
      4025.0000         9.9448         0.0004        42.7556       67.40572         0.7983          0.737        50.1934         1.9404         0.9158       -84.2876      -6.299339      0.7320367      0.9100094
      4025.5000        10.1704        -0.0103        43.5955       67.45176         0.7279         0.7221        51.0931         1.9275         0.9106       -79.6625      -4.114471      0.7330161      0.9412218
      4026.0000        10.6975        -0.0256         45.433       68.60623         0.6705          0.708        52.0068         1.8649         0.8781       -75.3893      -2.281509      0.7575794       0.967407
      4026.5000        11.8152        -0.0636        48.1652       70.75481         0.6438         0.6986        52.5396         1.7781         0.8326       -71.0338     -0.3662415      0.8032938       0.994768
      4027.0000        12.5611        -0.0946         50.653       72.63184          0.624         0.6888        52.9669         1.7367         0.8005       -65.2007       3.026627      0.8432305              1
      4027.5000        12.5541        -0.1083        53.0809       74.44231         0.6132         0.6713         53.069         1.7107         0.7781       -62.3615       4.060841      0.8817512              1
      4028.0000        11.9252        -0.0741        55.6934       76.45789         0.6083         0.6523        52.9708         1.7005         0.7778       -60.8763       4.868198       0.924636              1
      4028.5000        11.0942        -0.0382        59.0428       79.29224         0.6073         0.6382        52.5894         1.7628         0.8057       -60.1643       4.902359      0.9849414              1
      4029.0000        10.6562        -0.0048        63.2178       83.04395         0.6063         0.6332        52.1707         1.8549         0.8007       -59.6848       4.704018              1              1
      4029.5000        10.5886         0.0243        67.0486       86.41319         0.6049         0.6282        51.3344         1.9665         0.7863       -59.1085        4.60247              1              1
      4030.0000         10.602         0.0423        72.6439         91.743         0.6036         0.6233        50.5018         2.0212         0.7722        -58.449       4.584126              1              1
      4030.5000        10.6215         0.0528        74.9559        93.4247          0.608         0.6184        49.6789         2.0508         0.7753       -57.8596       4.495686              1              1
      4031.0000        10.6451         0.0592        76.2466       93.97161         0.6143         0.6157        49.0236         2.0527           0.79        -57.346        4.33144              1              1
      4031.5000        10.6599         0.0845        76.8569       93.76253         0.6203          0.622        48.4348         2.0517          0.805         -57.22       3.779598              1              1
      4032.0000        10.6439         0.0994        77.3557       93.42955         0.6227         0.6282        47.8345         2.0535         0.8067        -57.163       3.158756              1              1
      4032.5000        10.6279         0.0847        78.0142       93.27402         0.6251         0.6234        47.3073         2.0558         0.8043       -57.1061       2.537811              1              1
      4033.0000         10.619         0.0686        79.0074       93.49039         0.6259         0.6187        46.8779          2.058         0.8043       -57.1432       1.822868              1              1
      4033.5000        10.6351         0.0553        79.3724       93.00874         0.6194         0.6141        46.7175         2.0544         0.8043       -57.3605      0.9277229              1              1
      4034.0000        10.6512         0.0459        78.5117       91.16522         0.6131         0.6097        46.7514         2.0474         0.8043       -57.5777     0.03268051              1              1
      4034.5000        10.6691         0.0365        79.6497       91.54246         0.6067         0.6056        46.8132         2.0416         0.8043       -57.7985      -0.865963              1      0.9876291
      4035.0000        10.6878         0.0446        80.2485       91.32059         0.5997         0.6016        46.8522         2.0361         0.7988       -58.0203      -1.765606              1       0.974777
      4035.5000        10.7065         0.0536         78.657       88.66508         0.5918         0.5963         46.829         2.0303         0.7877       -57.8468      -2.269951              1      0.9675722
      4036.0000        10.7594         0.0731        77.3651       86.34244          0.584         0.5883        46.8058         2.0244         0.7762       -57.1486      -2.249592              1       0.967863
      4036.5000        10.8247         0.0836        77.5703       85.68324         0.5771         0.5804        46.9946         2.0272         0.7646        -56.298      -2.076836              1      0.9703309
      4037.0000        10.8979         0.0756        78.3599       85.67338         0.5709          0.579        47.5399         2.0305          0.759       -55.1873      -1.643978              1      0.9765146
      4037.5000        10.9909         0.0571         78.691       85.15407         0.5648         0.5786        48.1324          2.033         0.7608        -54.304     -0.9834938              1      0.9859501
