#------------------------------------------------------------------------------
# Created by    : vladimir.rabinovich
# Created on    : 09/19/2023 17:20:32
#------------------------------------------------------------------------------
~Version Information Section
VERS.           2.0     :   CWLS log ASCII Standard - VERSION 2.0
WRAP.           NO      :   One line per depth step
~Well Information Section
#MNEM       .UNIT                                         VALUE :DESCRIPTION
#------------------------------------------------------------------------------
STRT        .FT                                             530 :START DEPTH
STOP        .FT                                           15895 :STOP DEPTH
STEP        .FT                                             0.5 :STEP      
NULL        .                                           -999.25 :NULL      
COMP        .                                      SHELL OIL CO :COMPANY   
WELL        .                                OCS 00708 ST00BP00 :WELL      
FLD         .                                FEDERAL BLOCK 0288 :FIELD     
LOC         .                                                   :LOCATION  
CNTY        .                             GALVESTON LARGE BLOCK :LOCATION  
STAT        .                                             TEXAS :STATE     
CTRY        .                                     UNITED STATES :COUNTRY   
SRVC        .                                                   :SERVICE COMPANY
DATE        .                             9/13/2023 11:19:24 AM :LOG DATE  
API         .                                    42706000930000 :API NUMBER
UWI         .                                    42706000930000 :UNIQUE WELL ID
XCOORD      .                                  1077631.85251343 :SURFACE X 
YCOORD      .                                  10490946.9562601 :SURFACE Y 
LAT         .                                         28.896779 :LATITUDE  
LON         .                                        -94.759235 :LONGITUDE 
ELEV        .FT                                              76 :ELEVATION VALUE
ELEV_TYPE   .                                                KB :ELEVATION REFERENCE TYPE
~Curve Information Section
#MNEM       .UNIT                                      API CODE :CURVE DESCRIPTION
#------------------------------------------------------------------------------
DEPT        .FT                                                 :DEPTH     
ASN         .OHMM                                               :          
CILD        .MMHO                                               :          
SP          .MV                                                 :          
SP_NORM     .MV                                                 :SP Normalized
VSH_SP      .V/V                                                :Volume of Shale from SP
~A        DEPTH            ASN           CILD             SP        SP_NORM         VSH_SP
       530.0000          0.526       982.9687         2.8027       4.822902              1
       530.5000         0.6282       952.4531        -4.6611       2.143538              1
       531.0000         0.6796       921.9375        -8.6638       2.925275              1
       531.5000         0.7312       888.4492       -21.1733      -4.799789      0.6500263
       532.0000         0.7832       851.0547       -25.9685      -4.810553      0.6486809
       532.5000          0.827       810.4844       -28.2585      -2.316114      0.9604857
       533.0000         0.8601       753.5479       -30.0635      0.6330509              1
       533.5000         0.8932        762.916       -36.7476       -1.60836              1
       534.0000         0.9362       772.2842       -39.0283      0.5536308              1
       534.5000         0.9818       781.6523       -41.6528       2.371822              1
       535.0000         1.0351       791.0215       -47.6394      0.8279152              1
       535.5000         1.0767       800.3896       -50.3782       2.531807              1
       536.0000         1.0912       808.9688       -56.1765       1.176197              1
       536.5000         1.1058       810.6221       -58.7896       3.005787              1
       537.0000         1.1203       812.2764       -60.2732       1.982117              1
       537.5000         1.1336       813.6816       -61.7568      0.9379005              1
       538.0000         1.1426       814.2461       -62.5016      0.6324921              1
       538.5000         1.1517       814.8115       -63.1786      0.3948784              1
       539.0000         1.1607        815.376       -63.8557      0.1571617              1
       539.5000         1.1698       815.9414       -64.5327    -0.08044434              1
       540.0000         1.1788       816.5059       -64.9417    -0.05006409              1
       540.5000         1.1859       815.5078       -65.3234    0.007621765              1
       541.0000         1.1923       813.8066       -65.7052     0.06521606              1
       541.5000         1.1987       812.1055       -66.0869      0.1229019              1
       542.0000          1.205       810.4043       -66.4688      0.1803818              1
       542.5000         1.2114       808.7041         -66.83      0.2585754              1
       543.0000         1.2178       807.0029       -67.1812      0.3467636              1
       543.5000         1.2225       787.3516       -67.5322      0.4351425              1
       544.0000          1.225       753.0977       -67.8834      0.5233383              1
       544.5000         1.2275       718.8437       -68.2346      0.6115265              1
       545.0000           1.23        687.418       -68.4307      0.6349869              1
       545.5000         1.2325        669.332        -68.425       0.583725              1
       546.0000         1.2261       704.9414       -68.4194      0.5323715              1
       546.5000         1.2165       737.6309       -68.4138      0.4810104              1
       547.0000          1.207       767.2461       -68.4082      0.4296494              1
       547.5000         1.1974       796.8594       -68.4027      0.3781967              1
       548.0000         1.1878       826.4727       -68.3354      0.3885345              1
       548.5000         1.1783       865.2344       -68.2488      0.4181824              1
       549.0000         1.1687       930.1016       -68.1622      0.4478226              1
       549.5000         1.1575       1019.746       -68.0757      0.4773712              1
       550.0000         1.1439       984.3906       -67.9891      0.5070114              1
       550.5000         1.1304       811.1914       -67.9026      0.5365448              1
       551.0000         1.1356       762.1289       -68.0911      0.2910919              1
       551.5000         1.1462       716.9648        -68.318    0.007232666              1
       552.0000         1.1567        684.375       -68.5448     -0.2765198              1
       552.5000         1.1692       655.3926       -68.7717      -0.560379              1
       553.0000         1.1818        637.043       -68.8115      -0.657135              1
       553.5000         1.1945       639.7529       -68.7451     -0.6476974              1
       554.0000         1.2071       654.1221       -68.6788     -0.6383514              1
       554.5000         1.2198       668.4902       -68.6125     -0.6290131              1
       555.0000         1.2289       682.8594       -68.5463     -0.6197739              1
       555.5000         1.2332       697.2275         -68.48     -0.6104279              1
       556.0000         1.2375       711.9043       -68.5337     -0.7210846              1
       556.5000         1.2419       726.7441        -68.626     -0.8703384              1
       557.0000         1.2462       741.5859       -68.7183        -1.0196              1
       557.5000         1.2505       748.6982       -68.8105      -1.168755              1
       558.0000         1.2549       739.4258       -68.9028      -1.318016              1
       558.5000         1.2635       730.1533       -68.8838      -1.355965              1
       559.0000         1.2739       720.8809       -68.7518       -1.28093              1
       559.5000         1.2843       711.6084       -68.6199      -1.205994              1
       560.0000         1.2947       702.3359       -68.4879      -1.130943              1
       560.5000         1.3038       698.3682        -68.356      -1.056007              1
       561.0000         1.3085       697.4482       -68.3721      -1.129059              1
       561.5000         1.3132       696.5273       -68.5922       -1.40612              1
       562.0000         1.3179       695.6074       -68.8124      -1.683273              1
       562.5000         1.3226       694.6865       -69.0325      -1.960335              1
       563.0000         1.3273       693.7666       -69.2526      -2.237396      0.9703255
       563.5000         1.3284       694.4785       -69.4728      -2.514549      0.9356813
       564.0000         1.3263       696.8809       -69.6929      -2.791611      0.9010487
       564.5000         1.3242       699.2832        -69.913      -3.068665      0.8664169
       565.0000         1.3221       701.6846       -70.1332      -3.345825      0.8317719
       565.5000           1.32       704.0869       -70.3182      -3.587776       0.801528
       566.0000         1.3179       706.4883        -70.277      -3.603539      0.7995577
       566.5000         1.3156       708.8906       -70.2357      -3.569038      0.8038702
       567.0000         1.3073        711.293       -70.1943      -3.527634      0.8090458
       567.5000          1.299        717.418       -70.1531      -3.486435      0.8141956
       568.0000         1.2907       724.0107       -70.0718      -3.405136       0.824358
       568.5000         1.2824       730.6035       -69.9454      -3.278732      0.8401585
       569.0000         1.2741       737.1953       -69.8192      -3.152534      0.8559332
       569.5000         1.2657       743.7881       -69.6929      -3.026237      0.8717203
       570.0000         1.2574       739.5518       -69.5665      -2.899834      0.8875208
       570.5000         1.2491       734.5713       -69.4402      -2.773537      0.9033079
       571.0000         1.2408       729.5908        -69.314      -2.647339      0.9190826
       571.5000         1.2309       724.6104       -69.1876      -2.520935      0.9348831
       572.0000         1.2164       719.6309       -69.0613      -2.394638      0.9506702
       572.5000         1.2019       714.6504       -69.1257      -2.459038      0.9426203
       573.0000         1.1875       709.6699        -69.257       -2.59034      0.9262075
       573.5000          1.173       706.7441       -69.3881      -2.721436      0.9098206
