#------------------------------------------------------------------------------
# Created by    : vladimir.rabinovich
# Created on    : 09/19/2023 17:20:23
#------------------------------------------------------------------------------
~Version Information Section
VERS.           2.0     :   CWLS log ASCII Standard - VERSION 2.0
WRAP.           NO      :   One line per depth step
~Well Information Section
#MNEM       .UNIT                                         VALUE :DESCRIPTION
#------------------------------------------------------------------------------
STRT        .FT                                            3094 :START DEPTH
STOP        .FT                                           15705 :STOP DEPTH
STEP        .FT                                             0.5 :STEP      
NULL        .                                           -999.25 :NULL      
COMP        .                                       MONSANTO CO :COMPANY   
WELL        .                                     ST TR 00011-L :WELL      
FLD         .                                           WILDCAT :FIELD     
LOC         .                                                   :LOCATION  
CNTY        .                           HIGH ISLAND LARGE BLOCK :LOCATION  
STAT        .                                             TEXAS :STATE     
CTRY        .                                     UNITED STATES :COUNTRY   
SRVC        .                                                   :SERVICE COMPANY
DATE        .                             9/13/2023 11:19:15 AM :LOG DATE  
API         .                                    42708300660000 :API NUMBER
UWI         .                                    42708300660000 :UNIQUE WELL ID
XCOORD      .                                  1343190.12128624 :SURFACE X 
YCOORD      .                                   10724936.940093 :SURFACE Y 
LAT         .                                        29.5487141 :LATITUDE  
LON         .                                       -93.9350737 :LONGITUDE 
ELEV        .FT                                              49 :ELEVATION VALUE
ELEV_TYPE   .                                                KB :ELEVATION REFERENCE TYPE
~Curve Information Section
#MNEM       .UNIT                                      API CODE :CURVE DESCRIPTION
#------------------------------------------------------------------------------
DEPT        .FT                                                 :DEPTH     
ASN         .OHMM                                               :          
CILD        .MMHO                                               :          
ILD         .OHMM                                               :          
SP_NORM     .MV                                                 :SP Normalized
VSH_SP      .V/V                                                :Volume of Shale from SP
~A        DEPTH            ASN           CILD            ILD        SP_NORM         VSH_SP
      3094.0000         0.0048       3301.395         0.0005      -9.572529      0.8547029
      3094.5000         0.0061       3263.066          0.042      -9.987125      0.8476759
      3095.0000         0.0112       3219.305         0.0835      -12.45194      0.8058993
      3095.5000         0.0235       3167.395         0.1268      -15.66187      0.7514937
      3096.0000         0.0499       3107.758         0.1707       -20.2887      0.6730728
      3096.5000         0.0733       3079.488         0.2142      -26.25433      0.5719604
      3097.0000         0.1033       3051.223         0.2547      -32.51217      0.4658954
      3097.5000         0.1411       3021.391          0.286       -44.2004      0.2677898
      3098.0000          0.255       2989.648         0.3052      -45.10473      0.2524622
      3098.5000         0.7737       2955.031         0.3239      -46.10976      0.2354277
      3099.0000         0.8635       2913.035          0.341      -44.83929      0.2569611
      3099.5000         0.8824        2878.98          0.358      -44.22222        0.26742
      3100.0000         0.8925       2853.387         0.3751      -43.62405      0.2775584
      3100.5000         0.8968       2821.043          0.388      -43.07589      0.2868493
      3101.0000         0.9006       2783.422         0.3976      -42.65812      0.2939302
      3101.5000         0.9038       2739.313         0.4071      -42.33925      0.2993348
      3102.0000          0.907       2693.441         0.4167      -42.03748      0.3044494
      3102.5000         0.9162       2656.789         0.4294      -41.75451      0.3092456
      3103.0000         0.9314        2620.41         0.4425      -41.54585      0.3127823
      3103.5000         0.9514        2590.43         0.4555      -41.39108      0.3154055
      3104.0000         0.9057       2552.199         0.4686      -41.15601      0.3193897
      3104.5000         0.8521       2504.461         0.4806      -40.53333      0.3299435
      3105.0000         0.8265       2456.727         0.4914      -38.13617      0.3705734
      3105.5000         0.8064       2409.016         0.5023       -35.8819      0.4087814
      3106.0000         0.7828       2361.281         0.5131      -31.45463      0.4838199
      3106.5000         0.7134       2313.543         0.5239      -23.64216      0.6162346
      3107.0000         0.6917       2265.809         0.5344       -15.8298      0.7486475
      3107.5000         0.6827       2218.098         0.5449      -10.46022      0.8396572
      3108.0000         0.6815       2170.363         0.5555      -8.007355      0.8812312
      3108.5000         0.6804       2122.625          0.566      -6.150887      0.9126968
      3109.0000         0.6792       2074.891         0.5752      -2.575619      0.9732946
      3109.5000         0.6775       2002.357         0.5841      0.4915504              1
      3110.0000         0.6714       1940.211          0.593        1.05172              1
      3110.5000           0.68       1902.279         0.5906        1.66819              1
      3111.0000         0.6838       1943.342         0.5844       2.177559              1
      3111.5000         0.6829       2001.018         0.5781       2.230328              1
      3112.0000         0.6765       2002.207         0.5719       2.288895              1
      3112.5000         0.6702       2036.027         0.5661       2.018665              1
      3113.0000         0.6652       2063.559         0.5633       1.546795              1
      3113.5000         0.6608       2085.836         0.5605       1.297649              1
      3114.0000         0.6569        2103.23         0.5577      0.9013977              1
      3114.5000         0.6534       2089.316         0.5549      0.4334526              1
      3115.0000         0.6499       2078.238         0.5553     -0.1215935              1
      3115.5000         0.6552       2076.078         0.5583      -2.082539      0.9816519
      3116.0000         0.6714       2091.156         0.5641       -5.50399      0.9236612
      3116.5000         0.6914       2086.148         0.5881      -8.775635      0.8682096
      3117.0000         0.7118       2042.439         0.6121      -10.76898       0.834424
      3117.5000         0.7294       2014.893         0.6344      -12.90963       0.798142
      3118.0000         0.7335        1986.58          0.656      -14.02438      0.7792479
      3118.5000         0.7304       1814.523         0.6775      -14.80032      0.7660962
      3119.0000         0.7461       1755.432         0.7022      -15.54997      0.7533904
      3119.5000         0.8557       1701.932         0.6826      -19.01072      0.6947336
      3120.0000         0.8872       1648.455         0.6322      -34.44686       0.433104
      3120.5000         0.9013       1985.586         0.5817      -40.16871      0.3361236
      3121.0000         0.9093       1998.535         0.5423      -41.96165      0.3057347
      3121.5000          0.921       1999.059         0.5076       -44.8992      0.2559457
      3122.0000         0.9321       1999.582         0.4728      -48.16965      0.2005144
      3122.5000          0.942       2493.926          0.443        -53.863       0.104017
      3123.0000         0.9357       3060.293         0.4135      -54.76155     0.08878734
      3123.5000         0.8806       3176.887         0.3894      -55.29399     0.07976286
      3124.0000         0.8115       3289.355         0.3737      -55.70744      0.0727552
      3124.5000         0.8252       3351.031         0.3737      -56.09779     0.06613922
      3125.0000         0.8395       3287.316         0.3839      -56.48863     0.05951471
      3125.5000         0.8522       3076.148          0.394      -56.88308     0.05282909
      3126.0000         0.8349       3031.691         0.4042      -57.34373     0.04502151
      3126.5000         0.7911       2905.332         0.4143      -57.87037     0.03609538
      3127.0000         0.7619       2821.379         0.4245      -58.37362     0.02756571
      3127.5000         0.6551       2789.188         0.4342      -58.79587     0.02040902
      3128.0000         0.6023       2767.035         0.4413      -59.06101     0.01591505
      3128.5000         0.5689       2767.152         0.4484      -59.10536     0.01516336
      3129.0000         0.5429       2791.438         0.4555      -54.15831     0.09901163
      3129.5000         0.5622       2791.969         0.4626      -49.27506      0.1817787
      3130.0000         0.5857       2723.336         0.4697       -38.4517      0.3652254
      3130.5000         0.6131       2541.836         0.4768      -33.74665      0.4449721
      3131.0000         0.6404       2345.824         0.4839        -30.102      0.5067458
      3131.5000          0.667       2265.113         0.4912      -23.96255      0.6108043
      3132.0000         0.6931       2152.371         0.5008       -21.2021      0.6575916
      3132.5000          0.695       2109.891         0.5103      -20.00224      0.6779282
      3133.0000         0.6867       2088.191         0.5198      -18.92598      0.6961698
      3133.5000         0.6801       2072.891         0.5294      -17.26013      0.7244046
      3134.0000         0.7269       2060.176         0.5389      -18.33338       0.706214
      3134.5000         0.7712       2049.844         0.5484      -21.11992      0.6589844
      3135.0000         0.8287       2035.145         0.5555      -22.89748      0.6288564
      3135.5000         0.8915       2022.721         0.5626      -24.56842      0.6005353
      3136.0000         0.9645       2011.631         0.5697      -27.09887      0.5576463
      3136.5000         0.9859       1997.797         0.5768      -32.18462      0.4714471
      3137.0000         0.9932       1983.422         0.5849      -35.05906      0.4227277
      3137.5000         1.0015       1969.549          0.597      -36.78381      0.3934948
