#------------------------------------------------------------------------------
# Created by    : vladimir.rabinovich
# Created on    : 09/19/2023 17:22:17
#------------------------------------------------------------------------------
~Version Information Section
VERS.           2.0     :   CWLS log ASCII Standard - VERSION 2.0
WRAP.           NO      :   One line per depth step
~Well Information Section
#MNEM       .UNIT                                         VALUE :DESCRIPTION
#------------------------------------------------------------------------------
STRT        .FT                                            2222 :START DEPTH
STOP        .FT                                            8603 :STOP DEPTH
STEP        .FT                                             0.5 :STEP      
NULL        .                                           -999.25 :NULL      
COMP        .                                    HRUBETZ OIL CO :COMPANY   
WELL        .                                     ST TR 00028-L :WELL      
FLD         .                                           WILDCAT :FIELD     
LOC         .                                                   :LOCATION  
CNTY        .                           HIGH ISLAND LARGE BLOCK :LOCATION  
STAT        .                                             TEXAS :STATE     
CTRY        .                                     UNITED STATES :COUNTRY   
SRVC        .                                                   :SERVICE COMPANY
DATE        .                             9/13/2023 11:19:15 AM :LOG DATE  
API         .                                    42708303040000 :API NUMBER
UWI         .                                    42708303040000 :UNIQUE WELL ID
XCOORD      .                                  1211101.11829014 :SURFACE X 
YCOORD      .                                  10709910.5532953 :SURFACE Y 
LAT         .                                         29.503814 :LATITUDE  
LON         .                                       -94.3499952 :LONGITUDE 
ELEV        .FT                                              60 :ELEVATION VALUE
ELEV_TYPE   .                                                KB :ELEVATION REFERENCE TYPE
~Curve Information Section
#MNEM       .UNIT                                      API CODE :CURVE DESCRIPTION
#------------------------------------------------------------------------------
DEPT        .FT                                                 :DEPTH     
CALI        .IN                                                 :          
GR          .GAPI                                               :          
GR_NORM     .GAPI                                               :GammaRay Normalized
ILD         .OHMM                                               :          
ILM         .OHMM                                               :          
RHOB        .G/C3                                               :          
SFL         .OHMM                                               :          
SP          .MV                                                 :          
SP_NORM     .MV                                                 :SP Normalized
VSH_GR      .V/V                                                :Volume of Shale from GR
VSH_SP      .V/V                                                :Volume of Shale from SP
~A        DEPTH           CALI             GR        GR_NORM            ILD            ILM           RHOB            SFL             SP        SP_NORM         VSH_GR         VSH_SP
      2222.0000         16.103        33.0096       34.41474         0.2199         0.4168         1.8452         1.4158      -141.3528      -50.78676      0.0301008       0.153554
      2222.5000        16.1045        33.5247       35.09971         0.2862         0.4417         1.8725         1.4023      -139.9426      -49.37656     0.04467473      0.1770574
      2223.0000        16.1078        33.9933       35.72285         0.3273         0.4688         1.8973         1.3931      -138.6614      -48.09537       0.057933      0.1984105
      2223.5000        16.1149        33.6589       35.27817         0.3572         0.5123         1.9038         1.4123      -137.5273      -46.96126     0.04847165      0.2173124
      2224.0000        16.1219        33.5866       35.18202         0.3819         0.5653          1.905         1.4316      -136.2583      -45.69226       0.046426      0.2384623
      2224.5000         16.129        34.0217       35.76062         0.4007         0.6279         1.8912         1.4476      -134.7183      -44.15227     0.05873652      0.2641289
      2225.0000        16.1302        34.7851       36.77577         0.4178         0.6812         1.8688         1.4551      -133.3254      -42.75935     0.08033558      0.2873441
      2225.5000        16.1176        35.7238       38.02404         0.4393         0.7232         1.8389         1.4519      -131.9861      -41.42006      0.1068946      0.3096657
      2226.0000        16.1051        36.8735        39.5529         0.4478         0.7494         1.7766         1.4445       -130.843      -40.27696      0.1394234      0.3287173
      2226.5000        16.0926        36.4429        38.9803         0.4567         0.7614         1.7119          1.433      -130.4673      -39.90126      0.1272404       0.334979
      2227.0000          16.08        35.8713       38.22018          0.466         0.7249         1.6645         1.4214      -130.1562      -39.59016      0.1110677      0.3401639
      2227.5000        16.0774        35.1697       37.28721         0.4725         0.6692         1.6705         1.4096      -129.9814      -39.41536      0.0912172      0.3430773
      2228.0000        16.0795         34.468        36.3541         0.4757         0.6342         1.7092          1.399      -129.7539      -39.18787     0.07136373      0.3468689
      2228.5000        16.0816         34.027       35.76766         0.4789         0.6151         1.6984         1.3902      -129.4556      -38.88956     0.05888635      0.3518407
      2229.0000        16.0838        33.7458       35.39373         0.4753         0.5988         1.6716         1.3847      -129.1389      -38.57286     0.05093035       0.357119
      2229.5000        16.0859        33.7083       35.34386          0.471         0.5934         1.6512         1.3822      -128.3142      -37.74815     0.04986937      0.3708641
      2230.0000         16.089        33.6708       35.29399         0.4667         0.5903         1.6502         1.3811      -125.0536      -34.48756     0.04880824      0.4252074
      2230.5000        16.0958        33.3931       34.92471         0.4623         0.5872         1.6503         1.3867      -120.7611      -30.19506     0.04095126       0.496749
      2231.0000        16.1025         33.004       34.40729         0.4578         0.6115         1.6508         1.3746      -116.7622      -26.19616     0.02994237      0.5633973
      2231.5000        16.1093        32.6093       33.88242           0.47         0.6413         1.6513         1.3466      -113.6544      -23.08836     0.01877489       0.615194
      2232.0000         16.116        31.9963       33.06726          0.491         0.6739         1.6519         1.3214      -111.6532      -21.08716     0.00143108      0.6485474
      2232.5000        16.1227        31.3837       32.25263         0.5047           0.71         1.6526         1.2967      -110.0594      -19.49336              0      0.6751106
      2233.0000        16.1141        30.7762       31.44479         0.5163         0.7384         1.6532         1.2771      -108.1698      -17.60376              0       0.706604
      2233.5000        16.1053        30.2552       30.75197          0.511         0.7408         1.6539          1.258      -105.7472      -15.18116              0      0.7469807
      2234.0000        16.0965        29.7914       30.13521          0.499         0.6871          1.654         1.2364      -103.7263      -13.16026              0      0.7806623
      2234.5000        16.0876        29.9402       30.33309          0.488         0.6439         1.6539         1.2152      -100.2068      -9.640762              0      0.8393206
      2235.0000        16.0788        30.0891       30.53109          0.479         0.6198         1.6539         1.1997       -97.0121       -6.44606              0      0.8925657
      2235.5000          16.07        30.8369       31.52551         0.4703         0.5967         1.6538         1.1876       -94.2072      -3.641159              0       0.939314
      2236.0000        16.0638        32.0085       33.08348         0.4617         0.5748         1.6538         1.1756       -92.0942       -1.52816    0.001776269      0.9745306
      2236.5000        16.0659        33.1807       34.64226         0.4532         0.5467          1.654         1.1637       -90.5531     0.01293945     0.03494165              1
      2237.0000         16.068        34.2484       36.06208         0.4444         0.5114         1.6541          1.152       -89.3409       1.225143     0.06515057              1
      2237.5000        16.0701        35.3005       37.46114          0.434         0.4962         1.6543         1.1406       -88.2736       2.292442     0.09491795              1
      2238.0000        16.0722        36.3526       38.86021         0.4238         0.4908         1.6545         1.1315       -88.0636       2.502441      0.1246854              1
      2238.5000        16.0743        36.8512       39.52325         0.4145         0.4871         1.6547         1.1224       -87.9069       2.659142      0.1387925              1
      2239.0000        16.0728        36.7844       39.43442           0.41         0.4833          1.655         1.1189       -87.8073       2.758743      0.1369026              1
      2239.5000          16.07        35.7963       38.12045         0.4056         0.4824         1.6557         1.1171        -87.994       2.572037      0.1089458              1
      2240.0000        16.0671        34.5927       36.51992         0.4048          0.484         1.6564         1.1154       -88.6901       1.875938     0.07489201              1
      2240.5000        16.0647        33.1777       34.63828         0.4056         0.4857         1.6571         1.1279        -89.386       1.180038     0.03485692              1
      2241.0000        16.0685        32.0469       33.13455         0.4064         0.4901         1.6578         1.1427        -90.082      0.4840393    0.002862809              1
      2241.5000        16.0722        33.2899       34.78748         0.4115          0.497         1.6585         1.1578        -90.778     -0.2119598     0.03803148      0.9964674
      2242.0000         16.076        34.5323        36.4396         0.4226         0.5039         1.6587         1.1723       -91.5463     -0.9802628     0.07318302      0.9836623
      2242.5000        16.0797         37.885       40.89798         0.4339         0.5109          1.658         1.1864       -92.3683      -1.802261       0.168042      0.9699623
      2243.0000        16.0835          39.36       42.85942         0.4456         0.5159         1.6572         1.2008       -93.1901      -2.624062      0.2097748      0.9562656
      2243.5000        16.0878        39.9467        43.6396         0.4578           0.52         1.6565         1.2112        -93.808      -3.241959      0.2263745      0.9459674
      2244.0000        16.0923        40.0038       43.71553         0.4704         0.5171         1.6563         1.2193       -94.3389      -3.772858      0.2279901      0.9371191
