#------------------------------------------------------------------------------
# Created by    : vladimir.rabinovich
# Created on    : 09/19/2023 17:20:30
#------------------------------------------------------------------------------
~Version Information Section
VERS.           2.0     :   CWLS log ASCII Standard - VERSION 2.0
WRAP.           NO      :   One line per depth step
~Well Information Section
#MNEM       .UNIT                                         VALUE :DESCRIPTION
#------------------------------------------------------------------------------
STRT        .FT                                             617 :START DEPTH
STOP        .FT                                           12396 :STOP DEPTH
STEP        .FT                                             0.5 :STEP      
NULL        .                                           -999.25 :NULL      
COMP        .                                        SUN OIL CO :COMPANY   
WELL        .                               OCS G01781 ST00BP00 :WELL      
FLD         .                                           WILDCAT :FIELD     
LOC         .                                                   :LOCATION  
CNTY        .                             GALVESTON LARGE BLOCK :LOCATION  
STAT        .                                             TEXAS :STATE     
CTRY        .                                     UNITED STATES :COUNTRY   
SRVC        .                                                   :SERVICE COMPANY
DATE        .                             9/13/2023 11:19:24 AM :LOG DATE  
API         .                                    42706001390000 :API NUMBER
UWI         .                                    42706001390000 :UNIQUE WELL ID
XCOORD      .                                  1010631.41746955 :SURFACE X 
YCOORD      .                                  10491097.5822315 :SURFACE Y 
LAT         .                                         28.894296 :LATITUDE  
LON         .                                        -94.968586 :LONGITUDE 
ELEV        .FT                                              65 :ELEVATION VALUE
ELEV_TYPE   .                                                KB :ELEVATION REFERENCE TYPE
~Curve Information Section
#MNEM       .UNIT                                      API CODE :CURVE DESCRIPTION
#------------------------------------------------------------------------------
DEPT        .FT                                                 :DEPTH     
ASN         .OHMM                                               :          
CILD        .MMHO                                               :          
DT          .US/F                                               :          
ILD         .OHMM                                               :          
SP          .MV                                                 :          
SP_NORM     .MV                                                 :SP Normalized
VSH_SP      .V/V                                                :Volume of Shale from SP
~A        DEPTH            ASN           CILD             DT            ILD             SP        SP_NORM         VSH_SP
# ...
      7685.5000         0.6123       1916.598       125.8717         0.4761       -63.8309      -2.565742      0.9893256
      7686.0000         0.6079       1914.809       125.9309         0.4742       -63.8372      -2.575218      0.9891468
      7686.5000         0.6035       1913.021       126.3168         0.4714       -63.8436      -2.584797      0.9889661
      7687.0000         0.5991        1912.08        126.425         0.4685       -63.8499      -2.594269      0.9887874
      7687.5000         0.5948       1913.512        126.426         0.4657       -63.8563      -2.603844      0.9886068
      7688.0000         0.5904       1914.945       126.2244         0.4629       -63.8529      -2.603622      0.9886109
      7688.5000          0.586       1916.379       125.4808           0.46        -63.812      -2.565895      0.9893227
      7689.0000         0.5816       1933.375       125.4814         0.4572       -63.7711      -2.528168      0.9900346
      7689.5000         0.5771       1965.719       125.9741         0.4543       -63.7302      -2.490448      0.9907463
      7690.0000         0.5725       1991.982       127.1006         0.4515       -63.6893      -2.452721      0.9914581
      7690.5000          0.568       2016.734       128.6101         0.4487        -63.747      -2.513596      0.9903095
      7691.0000         0.5634       2032.199       129.3394         0.4458       -64.0266      -2.796375       0.984974
      7691.5000         0.5589       2046.479       130.0198          0.443       -64.3063      -3.079243      0.9796369
      7692.0000         0.5543        2060.73       130.4563         0.4399       -64.5859      -3.362019      0.9743015
      7692.5000         0.5501       2074.059       130.0613         0.4366       -64.8906      -3.669899      0.9684924
      7693.0000         0.5488       2083.211        129.552         0.4334       -65.2961      -4.078568      0.9607818
      7693.5000         0.5475       2092.375        129.321         0.4301       -65.7017      -4.487343       0.953069
      7694.0000         0.5462       2101.539       129.2961         0.4268       -66.0597      -4.848522      0.9462543
      7694.5000         0.5449       2110.695       130.3223         0.4236       -65.7878        -4.5798      0.9513245
      7695.0000         0.5437       2119.859       130.6953         0.4203       -65.5159      -4.311069      0.9563949
      7695.5000         0.5424       2127.305       130.7329          0.417        -65.244      -4.042351      0.9614651
      7696.0000         0.5411       2133.098       130.7178         0.4137       -64.9722       -3.77372      0.9665336
      7696.5000         0.5398       2138.887       130.2695         0.4105       -64.7003      -3.504997      0.9716038
      7697.0000         0.5385       2144.672       130.5642         0.4072       -64.4283      -3.236172       0.976676
      7697.5000         0.5373       2150.465       131.3479         0.4039       -64.1569      -2.967945      0.9817369
      7698.0000          0.536       2151.027       131.9663         0.4007       -63.8868      -2.701019      0.9867732
      7698.5000         0.5347       2150.988       131.9045         0.3978       -63.6766      -2.493999      0.9906793
      7699.0000         0.5335       2150.949       131.0681         0.3952       -63.4665      -2.287071      0.9945835
      7699.5000         0.5322       2150.938       130.1094         0.3926       -63.2563      -2.080048      0.9984897
      7700.0000         0.5309       2151.086       129.7136           0.39       -63.0461      -1.873024              1
      7700.5000         0.5297       2151.234        129.845         0.3874       -62.8362      -1.666298              1
      7701.0000         0.5284       2151.383        129.895         0.3848       -62.4788      -1.312073              1
      7701.5000         0.5272       2151.531       130.2717         0.3821       -62.1118      -0.948246              1
      7702.0000         0.5257       2152.801       130.9648         0.3795       -62.0088      -0.848423              1
      7702.5000         0.5233       2167.473       131.7227         0.3769        -62.444      -1.286797              1
      7703.0000          0.521       2182.148       132.4968         0.3743       -62.8793      -1.725269              1
      7703.5000         0.5187        2196.82       133.0732         0.3717       -63.2618      -2.110947      0.9979067
      7704.0000         0.5164        2215.57       133.4829         0.3691       -63.3505       -2.20282      0.9961732
      7704.5000         0.5141       2237.313       133.9998         0.3665       -63.4392      -2.294697      0.9944397
      7705.0000         0.5117       2259.051       134.2168         0.3638        -63.082      -1.940674              1
      7705.5000         0.5094       2280.691       134.0769         0.3612       -62.7051      -1.566948              1
      7706.0000         0.5071        2297.02       133.2676         0.3586       -62.3287      -1.193722              1
      7706.5000          0.504       2313.371       132.0974          0.356       -62.0237     -0.8918991              1
      7707.0000         0.5008       2329.727        132.759         0.3534       -62.1313      -1.002674              1
      7707.5000         0.4976        2344.25       134.5281         0.3508        -62.239      -1.113544              1
      7708.0000         0.4944       2354.504        136.449         0.3482       -62.3467      -1.224422              1
      7708.5000         0.4912       2364.754       138.0427         0.3455       -62.4114      -1.292297              1
      7709.0000         0.4906       2367.418       138.3403         0.3429       -62.2508      -1.134872              1
      7709.5000         0.4921        2360.66         137.79         0.3423       -62.0903     -0.9775505              1
      7710.0000         0.4936       2352.367       137.2458         0.3426       -61.8755     -0.7659225              1
      7710.5000         0.4952       2343.375       136.7017         0.3429       -61.3801     -0.2736969              1
      7711.0000         0.4967       2334.371       136.5403         0.3432       -60.8841      0.2191238              1
      7711.5000         0.4982       2325.379       137.0391         0.3435       -60.3881      0.7119522              1
      7712.0000         0.4983       2316.504       137.3699         0.3438       -60.3719      0.7249794              1
      7712.5000         0.4975       2312.945       137.6099         0.3441       -60.7526      0.3410988              1
      7713.0000         0.4967       2309.391       137.9722         0.3444       -61.1284    -0.03787231              1
      7713.5000         0.4959       2305.832       137.4189          0.349       -61.4756     -0.3882484              1
      7714.0000         0.4951       2308.672       136.6851          0.355       -61.4589     -0.3747253              1
      7714.5000         0.4943       2314.637       136.1377         0.3611        -61.168    -0.08699799              1
      7715.0000         0.4942       2320.598       135.9866         0.3671       -60.8776      0.2002258              1
      7715.5000          0.496       2326.563       136.0449         0.3731       -60.5868      0.4878502              1
      7716.0000         0.4979       2344.031       136.0129         0.3805       -60.2963       0.775177              1
      7716.5000         0.4998       2375.996       135.7964         0.3923       -60.0743      0.9940033              1
      7717.0000         0.5016       2406.578       135.4846         0.4042       -59.8741       1.191025              1
      7717.5000         0.5035           2434       135.7046          0.416        -59.769        1.29295              1
      7718.0000         0.5072       2461.172       136.2891         0.4278       -59.8301       1.228676              1
      7718.5000         0.5213       2462.754       136.9578         0.4397       -59.8911       1.164497              1
