#------------------------------------------------------------------------------
# Created by    : vladimir.rabinovich
# Created on    : 09/19/2023 17:22:56
#------------------------------------------------------------------------------
~Version Information Section
VERS.           2.0     :   CWLS log ASCII Standard - VERSION 2.0
WRAP.           NO      :   One line per depth step
~Well Information Section
#MNEM       .UNIT                                         VALUE :DESCRIPTION
#------------------------------------------------------------------------------
STRT        .FT                                             890 :START DEPTH
STOP        .FT                                            9495 :STOP DEPTH
STEP        .FT                                             0.5 :STEP      
NULL        .                                           -999.25 :NULL      
COMP        .                                   MARATHON OIL CO :COMPANY   
WELL        .                               OCS G04138 ST00BP00 :WELL      
FLD         .                                           WILDCAT :FIELD     
LOC         .                                                   :LOCATION  
CNTY        .                      MATAGORDA ISLAND LARGE BLOCK :LOCATION  
STAT        .                                             TEXAS :STATE     
CTRY        .                                     UNITED STATES :COUNTRY   
SRVC        .                                                   :SERVICE COMPANY
DATE        .                             9/13/2023 11:12:11 AM :LOG DATE  
API         .                                    42703402070000 :API NUMBER
UWI         .                                    42703402070000 :UNIQUE WELL ID
XCOORD      .                                  590883.400226114 :SURFACE X 
YCOORD      .                                  10259990.6406746 :SURFACE Y 
LAT         .                                         28.233929 :LATITUDE  
LON         .                                        -96.259589 :LONGITUDE 
ELEV        .FT                                              90 :ELEVATION VALUE
ELEV_TYPE   .                                                KB :ELEVATION REFERENCE TYPE
~Curve Information Section
#MNEM       .UNIT                                      API CODE :CURVE DESCRIPTION
#------------------------------------------------------------------------------
DEPT        .FT                                                 :DEPTH     
SP          .MV                                                 :          
SP_NORM     .MV                                                 :SP Normalized
VSH_SP      .V/V                                                :Volume of Shale from SP
~A        DEPTH             SP        SP_NORM         VSH_SP
# ...
      4850.0000        32.6021      -4.422287      0.9307918
      4850.5000        33.4825      -5.300896      0.9056887
      4851.0000        34.4453      -6.261908      0.8782312
      4851.5000        34.8273      -6.642118       0.867368
      4852.0000          35.32      -7.133026      0.8533421
      4852.5000        35.8698      -7.681038      0.8376846
      4853.0000        35.3212      -7.130648      0.8534101
      4853.5000        34.6853      -6.492956      0.8716298
      4854.0000        33.5554      -5.361269      0.9039637
      4854.5000        32.3963      -4.200378      0.9371321
      4855.0000        31.8617      -3.663988      0.9524575
      4855.5000        31.1329      -2.933397      0.9733315
      4856.0000         30.415      -2.213709       0.993894
      4856.5000         29.989      -1.785917              1
      4857.0000        29.8259      -1.621027              1
      4857.5000        29.6772      -1.470539              1
      4858.0000        29.5345      -1.326048              1
      4858.5000        29.3918      -1.181559              1
      4859.0000         29.249      -1.036968              1
      4859.5000        29.0898     -0.8759785              1
      4860.0000        28.9233     -0.7076874              1
      4860.5000        28.7567      -0.539299              1
      4861.0000        29.0327      -0.813509              1
      4861.5000        29.7961      -1.575119              1
      4862.0000        30.5594       -2.33663       0.990382
      4862.5000        32.2009      -3.976339      0.9435332
      4863.0000         33.968      -5.741648      0.8930958
      4863.5000        36.3553      -8.127159      0.8249383
      4864.0000        41.1129      -12.88297       0.689058
      4864.5000        44.9116      -16.67988      0.5805749
      4865.0000        46.5331      -18.29959      0.5342975
      4865.5000        49.3804       -21.1451      0.4529971
      4866.0000        51.3125      -23.07541      0.3978454
      4866.5000        52.3854      -24.14652      0.3672423
      4867.0000        53.2283      -24.98763      0.3432107
      4867.5000        56.1187      -27.87624      0.2606789
      4868.0000        56.8098      -28.56555      0.2409843
      4868.5000        57.2206      -28.97456      0.2292983
      4869.0000        54.6525      -26.40467      0.3027237
      4869.5000        53.6361      -25.38648      0.3318149
      4870.0000         52.281      -24.02959      0.3705832
      4870.5000        48.8973       -20.6441      0.4673114
      4871.0000        46.0403      -17.78531      0.5489912
      4871.5000        40.8386      -12.58182      0.6976622
      4872.0000        38.1636      -9.905031       0.774142
      4872.5000         37.024      -8.763639      0.8067532
      4873.0000         35.831      -7.568851      0.8408899
      4873.5000        35.3646      -7.100662      0.8542668
      4874.0000        34.9726      -6.706871       0.865518
      4874.5000        34.6325      -6.364981      0.8752863
      4875.0000        34.3567      -6.087393      0.8832173
      4875.5000        34.0991      -5.827999      0.8906286
      4876.0000        33.9088       -5.63591      0.8961169
      4876.5000        33.8161      -5.541422      0.8988165
      4877.0000        33.7885      -5.512033      0.8996562
      4877.5000        33.7621      -5.483843      0.9004616
      4878.0000        33.8109      -5.530853      0.8991185
      4878.5000        33.8596      -5.577763      0.8977782
      4879.0000        33.9084      -5.624773      0.8964351
      4879.5000         33.968      -5.682581      0.8947834
      4880.0000        34.0331      -5.745892      0.8929746
      4880.5000        34.0982      -5.809204      0.8911656
      4881.0000        34.1634      -5.872612      0.8893539
      4881.5000        34.2172      -5.924623      0.8878679
      4882.0000        34.2477      -5.953333      0.8870476
      4882.5000        34.2782       -5.98204      0.8862274
      4883.0000        34.3087      -6.010754       0.885407
      4883.5000        34.3392      -6.039461      0.8845868
      4884.0000        34.3696      -6.068071      0.8837694
      4884.5000        34.2954      -5.992083      0.8859405
      4885.0000        34.1932      -5.888092      0.8889117
      4885.5000        34.0911      -5.784203      0.8918799
      4886.0000         33.989      -5.680311      0.8948482
      4886.5000        33.8868      -5.576323      0.8978193
      4887.0000        33.7541      -5.441833      0.9016619
      4887.5000           33.6      -5.285942      0.9061159
      4888.0000         33.446      -5.130154       0.910567
      4888.5000        33.2919      -4.974264       0.915021
      4889.0000        33.1362      -4.816774      0.9195207
      4889.5000        32.9775      -4.656284      0.9241062
      4890.0000         32.819      -4.495995      0.9286858
      4890.5000        32.6603      -4.335505      0.9332713
      4891.0000        32.4946      -4.168013      0.9380568
      4891.5000        32.3267      -3.998323      0.9429051
      4892.0000        32.1588      -3.828632      0.9477534
      4892.5000        32.0115      -3.679546       0.952013
      4893.0000         31.906      -3.572254      0.9550784
      4893.5000         31.997      -3.661465      0.9525296
      4894.0000        32.2598      -3.922474      0.9450722
      4894.5000        32.5271      -4.187984      0.9374862
      4895.0000        32.7968      -4.455894      0.9298316
      4895.5000        33.0665      -4.723806       0.922177
      4896.0000        33.3351      -4.990614      0.9145539
      4896.5000        33.5951      -5.248825      0.9071764
      4897.0000        33.8552      -5.507137      0.8997961
      4897.5000        33.9781      -5.628244      0.8963359
      4898.0000        33.8899      -5.538256       0.898907
      4898.5000        33.8015      -5.448065      0.9014838
      4899.0000         33.662      -5.306774      0.9055207
      4899.5000        33.4448      -5.087788      0.9117775
      4900.0000        33.2275      -4.868696      0.9180372
      4900.5000         33.089      -4.728407      0.9220455
      4901.0000        33.0103      -4.647917      0.9243453
      4901.5000        32.9711      -4.606926      0.9255164
      4902.0000        33.1196      -4.753635      0.9213247
      4902.5000        33.2683      -4.900545      0.9171273
      4903.0000         33.417      -5.047457      0.9129298
      4903.5000        33.5111      -5.139767      0.9102924
      4904.0000        33.5397      -5.166576      0.9095264
      4904.5000        33.5683      -5.193386      0.9087604
      4905.0000        33.5406      -5.163897      0.9096029
      4905.5000        33.4539      -5.075407      0.9121312
      4906.0000        33.3672      -4.986916      0.9146596
      4906.5000        33.2804      -4.898327      0.9171907
      4907.0000        33.1937      -4.809835       0.919719
      4907.5000        33.0536      -4.667948      0.9237729
      4908.0000        32.8906      -4.503157      0.9284812
      4908.5000        32.7275      -4.338268      0.9331923
      4909.0000        32.5644      -4.173378      0.9379035
      4909.5000        32.3717      -3.978888      0.9434603
      4910.0000         32.146      -3.751398      0.9499601
      4910.5000        31.9203      -3.523907      0.9564598
      4911.0000        31.7082      -3.310019      0.9625709
      4911.5000        31.5402      -3.140228      0.9674221
      4912.0000        31.3723      -2.970537      0.9722704
      4912.5000        31.2043      -2.800749      0.9771215
      4913.0000        30.9872      -2.581858      0.9833755
      4913.5000        30.7591      -2.351969      0.9899437
      4914.0000        30.5311      -2.122177      0.9965093
      4914.5000        30.3753      -1.964588              1
      4915.0000        30.2394        -1.8269              1
      4915.5000        30.1035      -1.689209              1
