#------------------------------------------------------------------------------
# Created by    : vladimir.rabinovich
# Created on    : 09/19/2023 17:21:35
#------------------------------------------------------------------------------
~Version Information Section
VERS.           2.0     :   CWLS log ASCII Standard - VERSION 2.0
WRAP.           NO      :   One line per depth step
~Well Information Section
#MNEM       .UNIT                                         VALUE :DESCRIPTION
#------------------------------------------------------------------------------
STRT        .FT                                            3376 :START DEPTH
STOP        .FT                                            7813 :STOP DEPTH
STEP        .FT                                             0.5 :STEP      
NULL        .                                           -999.25 :NULL      
COMP        .                                MARINER ENERGY INC :COMPANY   
WELL        .                               OCS G27491 ST00BP00 :WELL      
FLD         .                                           WILDCAT :FIELD     
LOC         .                                                   :LOCATION  
CNTY        .                             GALVESTON LARGE BLOCK :LOCATION  
STAT        .                                             TEXAS :STATE     
CTRY        .                                     UNITED STATES :COUNTRY   
SRVC        .                                                   :SERVICE COMPANY
DATE        .                             9/13/2023 11:19:33 AM :LOG DATE  
API         .                                    42706404580000 :API NUMBER
UWI         .                                    42706404580000 :UNIQUE WELL ID
XCOORD      .                                  1038987.60828679 :SURFACE X 
YCOORD      .                                  10490484.8642062 :SURFACE Y 
LAT         .                                         28.893877 :LATITUDE  
LON         .                                         -94.87996 :LONGITUDE 
ELEV        .FT                                             110 :ELEVATION VALUE
ELEV_TYPE   .                                                KB :ELEVATION REFERENCE TYPE
~Curve Information Section
#MNEM       .UNIT                                      API CODE :CURVE DESCRIPTION
#------------------------------------------------------------------------------
DEPT        .FT                                                 :DEPTH     
CALI        .IN                                                 :          
DPSS        .%                                                  :          
DRHO        .G/CM3                                              :          
GR          .GAPI                                               :          
GR_NORM     .GAPI                                               :GammaRay Normalized
M2R1        .OHMM                                               :          
M2R2        .OHMM                                               :          
M2R3        .OHMM                                               :          
M2R6        .OHMM                                               :          
M2R9        .OHMM                                               :          
M2RX        .OHMM                                               :          
NPSS        .%                                                  :Neutron Porosity Sandstone
SP          .MV                                                 :          
SP_NORM     .MV                                                 :SP Normalized
TENS        .LB                                                 :          
VSH_GR      .V/V                                                :Volume of Shale from GR
VSH_SP      .V/V                                                :Volume of Shale from SP
~A        DEPTH           CALI           DPSS           DRHO             GR        GR_NORM           M2R1           M2R2           M2R3           M2R6           M2R9           M2RX           NPSS             SP        SP_NORM           TENS         VSH_GR         VSH_SP
# ...
      5221.0000         10.835        28.1633           0.04           63.8       57.92408          0.439         0.3849         0.3776         0.3669           0.36          0.374          36.96          -84.4      -40.08862         18.096      0.5302995      0.3318563
      5221.5000         10.835        27.6735          0.036           65.2       59.73041         0.4472         0.3849         0.3813          0.374         0.3705          0.374          36.96            -80      -35.68862        17.1462      0.5687321      0.4051896
      5222.0000         10.835        27.3061           0.04           66.2       61.02064         0.4556         0.4037            0.4         0.3887         0.3962         0.3887          37.08          -74.8      -30.48862        16.1927      0.5961838      0.4918562
      5222.5000         10.755         26.449          0.052             68       63.34305         0.4817         0.4514         0.4349         0.4229         0.4269         0.4113          37.08          -70.4      -26.08862        15.2355      0.6455967      0.5651896
      5223.0000         10.715        25.3469           0.06           71.6       67.98788         0.5378         0.5046         0.4862         0.4773         0.4773         0.4685          37.56          -65.6      -21.28862        14.2744      0.7444231      0.6451896
      5223.5000         10.675        24.6122          0.076             75       72.37468            0.6         0.5578         0.5428         0.5378         0.5329         0.5233          38.52            -60      -15.68862        13.3095      0.8377591      0.7385229
      5224.0000         10.675        24.8571          0.096             78       76.24536          0.651          0.611         0.5892         0.5838         0.5785         0.5681             39       -55.9184      -11.60702        12.3408      0.9201141      0.8065497
      5224.5000         10.675        24.9796          0.092           79.6       78.30974          0.669         0.6278          0.611         0.6055            0.6         0.5892          38.04       -52.2449      -7.933521        11.3682       0.964037      0.8677747
      5225.0000         10.675          23.88          0.076           79.6       78.30974         0.6751          0.651         0.6222          0.611         0.6055         0.5946          36.96       -53.0612      -8.749821        10.3917       0.964037      0.8541697
      5225.5000         10.675          22.32          0.052           78.8       77.27756            0.7          0.651         0.6222          0.611         0.6055         0.5946        35.8824       -54.2857      -9.974323         9.4113      0.9420757      0.8337613
      5226.0000         10.675          21.24          0.048           78.2       76.50341         0.7063         0.6393         0.6055         0.6055         0.5892         0.5785        35.1765       -55.5102      -11.19882          8.427      0.9256045      0.8133529
      5226.5000         10.675          21.36           0.04           78.2       76.50341         0.6751            0.6         0.5785         0.5733         0.5527         0.5428        35.6471       -57.1429      -12.83152         7.4387      0.9256045      0.7861413
      5227.0000         10.675           22.8           0.04             77       74.95514         0.6335         0.5578         0.5378         0.5233         0.5139            0.5           41.4          -60.8      -16.48862         6.4464      0.8926625      0.7251896
      5227.5000         10.675        24.3673          0.036           75.2       72.63271         0.5838         0.5139         0.4908         0.4773         0.4729         0.4599        42.6122          -63.6      -19.28862         5.4501      0.8432492       0.678523
      5228.0000         10.675        25.5918           0.04           74.8       72.11663         0.5477         0.4817         0.4599         0.4514         0.4472         0.4349          40.32            -66      -21.68862         4.4498      0.8322687       0.638523
      5228.5000         10.635         26.449          0.036           75.8       73.40687         0.5186         0.4514         0.4309         0.4269         0.4229         0.4113          38.52          -66.4      -22.08862         3.4455      0.8597206      0.6318563
      5229.0000         10.635        27.3061          0.036           75.4       72.89076         0.4773         0.4229         0.4075         0.4037            0.4         0.3924          39.12          -67.2      -22.88862          2.437      0.8487396       0.618523
      5229.5000         10.635        28.2857          0.036           73.8       70.82641         0.4349         0.3924         0.3813         0.3776          0.374         0.3669          39.96          -69.6      -25.28862         1.4245      0.8048172       0.578523
      5230.0000         10.595        28.7755          0.036           73.2       70.05225         0.4152         0.3705         0.3634           0.36         0.3565         0.3497          39.24          -73.6      -29.28862         0.4078      0.7883458      0.5118563
      5230.5000         10.595         27.551          0.044             75       72.37468         0.4152          0.374         0.3705         0.3669         0.3634         0.3565          40.92          -70.8      -26.48862              0      0.8377591      0.5585229
      5231.0000         10.555        25.7143          0.052           79.8       78.56778         0.4729         0.4309          0.419         0.4152         0.4113         0.4037        43.7143          -63.6      -19.28862              0      0.9695272       0.678523
      5231.5000         10.555        24.2449          0.064           84.4       84.50285         0.5378         0.4954         0.4729         0.4685         0.4642         0.4556         45.551       -56.3265      -12.01512              0              1       0.799748
      5232.0000         10.555          23.52          0.072           87.6       88.63159         0.5946         0.5281         0.5186         0.5139         0.5092         0.5046        44.8163       -52.6531      -8.341721              0              1      0.8609713
      5232.5000         10.555          23.52          0.068           87.4       88.37355         0.6055         0.5527         0.5378         0.5329         0.5186         0.5281        42.7347       -53.0612      -8.749821              0              1      0.8541697
      5233.0000         10.515          23.16          0.064           85.8       86.30917            0.6         0.5527         0.5378         0.5329         0.5186         0.5281           40.8       -54.2857      -9.974323              0              1      0.8337613
      5233.5000         10.475          22.56          0.064           84.6       84.76089            0.6         0.5527         0.5378         0.5329         0.5186         0.5281          41.52       -54.6939      -10.38252              0              1      0.8269579
      5234.0000         10.395           22.2          0.064           85.2       85.53503            0.6         0.5578         0.5428         0.5378         0.5186         0.5281        42.1224       -53.8776      -9.566223              0              1      0.8405629
      5234.5000         10.395          22.08          0.072           87.6       88.63159            0.6         0.5681         0.5428         0.5378         0.5233         0.5281          40.44       -51.8367      -7.525322              0              1      0.8745779
      5235.0000         10.355          21.72          0.068        92.0408       94.36125            0.6         0.5681         0.5428         0.5378         0.5233         0.5281          39.24       -50.6122      -6.300823              0              1      0.8949863
      5235.5000         10.355          21.84          0.056        93.2653       95.94112         0.5946         0.5578         0.5329         0.5281            0.5         0.5092          39.96       -49.3878       -5.07642              0              1       0.915393
