#------------------------------------------------------------------------------
# Created by    : vladimir.rabinovich
# Created on    : 09/19/2023 17:21:31
#------------------------------------------------------------------------------
~Version Information Section
VERS.           2.0     :   CWLS log ASCII Standard - VERSION 2.0
WRAP.           NO      :   One line per depth step
~Well Information Section
#MNEM       .UNIT                                         VALUE :DESCRIPTION
#------------------------------------------------------------------------------
STRT        .FT                                              40 :START DEPTH
STOP        .FT                                           13401 :STOP DEPTH
STEP        .FT                                             0.5 :STEP      
NULL        .                                           -999.25 :NULL      
COMP        .                                        TEXACO USA :COMPANY   
WELL        .                               OCS G01759 ST00BP00 :WELL      
FLD         .                                           WILDCAT :FIELD     
LOC         .                                                   :LOCATION  
CNTY        .                             GALVESTON LARGE BLOCK :LOCATION  
STAT        .                                             TEXAS :STATE     
CTRY        .                                     UNITED STATES :COUNTRY   
SRVC        .                                                   :SERVICE COMPANY
DATE        .                             9/13/2023 11:19:24 AM :LOG DATE  
API         .                                    42706001440000 :API NUMBER
UWI         .                                    42706001440000 :UNIQUE WELL ID
XCOORD      .                                   1131482.4965331 :SURFACE X 
YCOORD      .                                  10562344.6824913 :SURFACE Y 
LAT         .                                         29.095227 :LATITUDE  
LON         .                                        -94.593967 :LONGITUDE 
ELEV        .FT                                              83 :ELEVATION VALUE
ELEV_TYPE   .                                                KB :ELEVATION REFERENCE TYPE
~Curve Information Section
#MNEM       .UNIT                                      API CODE :CURVE DESCRIPTION
#------------------------------------------------------------------------------
DEPT        .FT                                                 :DEPTH     
CALI        .IN                                                 :          
DT          .US/F                                               :          
GR          .GAPI                                               :          
GR_NORM     .GAPI                                               :GammaRay Normalized
RHOB        .G/C3                                               :          
SP          .MV                                                 :          
SP_NORM     .MV                                                 :SP Normalized
VSH_GR      .V/V                                                :Volume of Shale from GR
VSH_SP      .V/V                                                :Volume of Shale from SP
~A        DEPTH           CALI             DT             GR        GR_NORM           RHOB             SP        SP_NORM         VSH_GR         VSH_SP
# ...
     11673.5000         7.1629       100.7666        77.4323       84.56641         2.4016       -39.2092      -1.553181              1      0.9689364
     11674.0000         7.1496        97.3088        75.7625        82.5025         2.4012       -38.6052      -0.939682              1      0.9812064
     11674.5000         7.1191        90.8159        74.3318       80.73381         2.4108       -39.3702      -1.695183              1      0.9660963
     11675.0000         7.1395        89.2352        73.9379       80.24508         2.4251       -41.1541      -3.469582              1      0.9306084
     11675.5000         7.1808        89.9175        70.6448       76.17712         2.4208       -43.3994      -5.705383      0.9186621      0.8858923
     11676.0000         7.1863        95.8423        68.5823       73.62841         2.4139        -43.308      -5.604485      0.8644342      0.8879103
     11676.5000         7.1809        98.1029        66.0331       70.47883         2.4352       -40.3559      -2.642887      0.7974219      0.9471422
     11677.0000         7.1686        96.8621        59.9276       62.93876          2.445        -39.708      -1.985485      0.6369949      0.9602903
     11677.5000         7.1453        93.2295        59.2915       62.15103         2.4519       -40.2766      -2.544586      0.6202346      0.9491083
     11678.0000         7.1447        90.0875        62.6551       66.30122         2.4306       -40.3174       -2.57589      0.7085365      0.9484822
     11678.5000         7.1391        91.8358        66.8668       71.49843         2.4161       -37.5768      0.1742096      0.8191155              1
     11679.0000         7.1526        94.3999        69.1558       74.32194         2.4113       -37.9134     -0.1528893      0.8791901      0.9969422
     11679.5000         7.1666        93.7297        67.8716       72.73409         2.4251       -37.4662      0.3038063      0.8454061              1
     11680.0000         7.1567        91.8309        63.1852         66.946         2.4437       -36.7087       1.074562      0.7222553              1
     11680.5000         7.1411        90.2137        62.6672       66.30408         2.4601       -36.5347       1.278702      0.7085974              1
     11681.0000          7.138         88.854        63.8502       67.76216         2.4756       -36.4542       1.389343      0.7396204              1
     11681.5000         7.1731        87.4481        64.4116       68.45282         2.4731       -36.7451        1.12859      0.7543153              1
     11682.0000         7.2148        93.3752        62.0853       65.57844         2.4709        -36.831       1.072826      0.6931583              1
     11682.5000          7.246        96.8427        62.1251       65.62516         2.4765       -36.5607       1.373272      0.6941524              1
     11683.0000         7.2717        95.8884         62.884       66.55965         2.4816        -36.404       1.560112       0.714035              1
     11683.5000         7.2588        95.0701         63.187       66.93131         2.4812       -36.0984       1.895855      0.7219428              1
     11684.0000         7.2495        94.5675        63.2068       66.95332         2.4841       -35.2272       2.797199      0.7224112              1
     11684.5000         7.2534        93.9131        64.0165       67.95055         2.4889       -35.1313       2.923237      0.7436288              1
     11685.0000         7.2603        92.7512        64.5028        68.5485         2.4848       -35.1506       2.934082      0.7563511              1
     11685.5000         7.2512        90.8984        64.2103       68.18498         2.4825       -36.1464       1.968422      0.7486166              1
     11686.0000         7.2404        91.7848         62.713       66.33405         2.4847       -36.2695       1.875465       0.709235              1
     11686.5000         7.2537        91.5055        61.2564       64.53336          2.484       -36.3351       1.840012      0.6709225              1
     11687.0000         7.3422        93.4772        60.2167       63.24736         2.4854       -36.0788        2.12645      0.6435608              1
     11687.5000         7.3014        97.0466         58.135       60.67494         2.4977       -36.1732       2.062195      0.5888284              1
     11688.0000         7.3243        99.0426        57.8146       60.27699         2.5182       -35.9661       2.299438      0.5803614              1
     11688.5000         7.3692        99.7546        58.4097       61.00925         2.5146       -35.4087       2.886978      0.5959414              1
     11689.0000         7.4109        99.9003        60.0095        62.9819         2.5058       -35.3877       2.938122      0.6379128              1
     11689.5000         7.4359         99.334        62.7515       66.36465         2.5027       -35.6194       2.736561      0.7098863              1
     11690.0000         7.4533        97.8528        65.9705       70.33633         2.5001       -35.1259       3.260204      0.7943899              1
     11690.5000         7.4576        97.6937        68.1871       73.07047         2.4854       -34.5926       3.823647      0.8525631              1
     11691.0000         7.4492        97.2509        70.1051       75.43594         2.4651       -34.4708        3.97559      0.9028922              1
     11691.5000         7.4475        98.7439        69.5533        74.7523         2.4724       -34.5766       3.899933      0.8883467              1
     11692.0000         7.4754        99.6107        67.8595       72.65875         2.4762       -33.6105       4.896175      0.8438032              1
     11692.5000         7.4789       100.8199        66.1102       70.49672         2.4812        -33.832       4.704815      0.7978026              1
     11693.0000         7.4977       100.7762        64.2019       68.13837         2.4953       -34.1607       4.406258       0.747625              1
     11693.5000         7.5061       103.0344        63.0793       66.75004         2.4922       -33.4569       5.140198      0.7180859              1
     11694.0000         7.5029       104.2728        62.7684       66.36379         2.4875       -33.3097       5.317543      0.7098679              1
     11694.5000         7.4951       103.6433        62.5196       66.05421         2.4701       -33.8223       4.835087      0.7032812              1
     11695.0000         7.4852        103.493        59.6578       62.51871         2.4572       -34.5225       4.165028      0.6280578              1
     11695.5000         7.5022       103.2152        56.2364       58.29235          2.458       -35.6296        3.08807      0.5381351              1
     11696.0000         7.5226       103.2351        53.7498       55.22006         2.4661       -36.4752       2.272614      0.4727673              1
     11696.5000          7.543       103.2832        53.6606       55.10751         2.4707       -36.8244       1.953552      0.4703726              1
     11697.0000         7.5616       103.3127          52.88        54.1414         2.4636        -37.231       1.577099      0.4498171              1
     11697.5000         7.5485       103.2986        52.2271       53.33293         2.4522       -37.1862       1.652039      0.4326156              1
     11698.0000         7.4411       103.2146        51.8452       52.85904         2.4496       -36.5106        2.35778      0.4225327              1
     11698.5000         7.3877       103.1312        50.7356       51.48674         2.4607       -36.8749       2.023624      0.3933349              1
     11699.0000         7.3852       103.1338        49.0972       49.46162         2.4699       -37.9554      0.9732666      0.3502472              1
     11699.5000         7.3893       103.2028        50.1019       50.69956         2.4677       -37.9242       1.034611      0.3765864              1
