#------------------------------------------------------------------------------
# Created by    : vladimir.rabinovich
# Created on    : 09/19/2023 17:22:54
#------------------------------------------------------------------------------
~Version Information Section
VERS.           2.0     :   CWLS log ASCII Standard - VERSION 2.0
WRAP.           NO      :   One line per depth step
~Well Information Section
#MNEM       .UNIT                                         VALUE :DESCRIPTION
#------------------------------------------------------------------------------
STRT        .FT                                             606 :START DEPTH
STOP        .FT                                           12703 :STOP DEPTH
STEP        .FT                                             0.5 :STEP      
NULL        .                                           -999.25 :NULL      
COMP        .                                       PURE OIL CO :COMPANY   
WELL        .                                OCS 00099 ST00BP00 :WELL      
FLD         .                                           WILDCAT :FIELD     
LOC         .                                                   :LOCATION  
CNTY        .                             GALVESTON LARGE BLOCK :LOCATION  
STAT        .                                             TEXAS :STATE     
CTRY        .                                     UNITED STATES :COUNTRY   
SRVC        .                                                   :SERVICE COMPANY
DATE        .                             9/13/2023 11:19:42 AM :LOG DATE  
API         .                                    42706000130000 :API NUMBER
UWI         .                                    42706000130000 :UNIQUE WELL ID
XCOORD      .                                  1105531.03723184 :SURFACE X 
YCOORD      .                                  10576678.2721464 :SURFACE Y 
LAT         .                                         29.133654 :LATITUDE  
LON         .                                        -94.675857 :LONGITUDE 
ELEV        .FT                                              66 :ELEVATION VALUE
ELEV_TYPE   .                                                KB :ELEVATION REFERENCE TYPE
~Curve Information Section
#MNEM       .UNIT                                      API CODE :CURVE DESCRIPTION
#------------------------------------------------------------------------------
DEPT        .FT                                                 :DEPTH     
LAT         .OHMM                                               :          
LN          .OHMM                                               :          
SN          .OHMM                                               :          
SP          .MV                                                 :          
SP_NORM     .MV                                                 :SP Normalized
VSH_SP      .V/V                                                :Volume of Shale from SP
~A        DEPTH            LAT             LN             SN             SP        SP_NORM         VSH_SP
# ...
     11056.0000         0.5796         0.5421          0.581       -52.2823     -0.7392159              1
     11056.5000         0.5738         0.5392         0.5819       -52.2392     -0.6972198              1
     11057.0000          0.568         0.5363         0.5828       -52.1961     -0.6552162              1
     11057.5000         0.5481         0.5334         0.5838       -52.1529     -0.6131172              1
     11058.0000         0.5267         0.5305         0.5847       -52.1097     -0.5710182              1
     11058.5000         0.5052         0.5276         0.5856       -52.0646     -0.5270195              1
     11059.0000         0.4838         0.5247          0.585       -52.0164     -0.4799156              1
     11059.5000         0.4623         0.5218         0.5825       -51.9682     -0.4328156              1
     11060.0000         0.4409         0.5189         0.5801         -51.92     -0.3857155              1
     11060.5000         0.4194          0.516         0.5776       -51.8718     -0.3386154              1
     11061.0000          0.398         0.5131         0.5751       -51.8236     -0.2915154              1
     11061.5000         0.3765         0.5103         0.5726       -51.7755     -0.2445183              1
     11062.0000         0.3551         0.5073         0.5701       -51.7272     -0.1973152              1
     11062.5000         0.3562         0.5045         0.5676        -51.679     -0.1502151              1
     11063.0000           0.36         0.5051         0.5651       -51.6308     -0.1031113              1
     11063.5000         0.3638         0.5059         0.5626       -51.5827     -0.0561142              1
     11064.0000         0.3675         0.5066         0.5601       -51.5345    -0.00901413              1
     11064.5000         0.3713         0.5074         0.5576       -51.4863     0.03808594              1
     11065.0000         0.3751         0.5081         0.5551        -51.438     0.08528519              1
     11065.5000         0.3788         0.5089          0.553       -51.3935       0.128685              1
     11066.0000         0.3826         0.5096          0.551       -51.3957      0.1253891              1
     11066.5000         0.3864         0.5104          0.549       -51.3978      0.1221886              1
     11067.0000         0.3901         0.5112          0.547          -51.4       0.118885              1
     11067.5000         0.3939         0.5119          0.545       -51.4022      0.1155891              1
     11068.0000         0.3977         0.5127         0.5431       -51.4044      0.1122894              1
     11068.5000         0.4013         0.5134         0.5411       -51.4065      0.1090851              1
     11069.0000         0.4047         0.5142         0.5391       -51.4087      0.1057892              1
     11069.5000         0.4081         0.5149         0.5371       -51.4108      0.1025887              1
     11070.0000         0.4115         0.5157         0.5352        -51.413     0.09929276              1
     11070.5000         0.4149         0.5208         0.5332       -51.4152     0.09598923              1
     11071.0000         0.4183          0.526         0.5312       -51.4174     0.09268951              1
     11071.5000         0.4218         0.5313         0.5305       -51.4195      0.0894928              1
     11072.0000         0.4252         0.5365         0.5344       -51.4217     0.08618927              1
     11072.5000         0.4286         0.5417         0.5384       -51.4238     0.08298874              1
     11073.0000          0.432         0.5469         0.5423        -51.426     0.07969284              1
     11073.5000         0.4354         0.5521         0.5463       -51.4775     0.02709198              1
     11074.0000         0.4388         0.5574         0.5502       -51.5441    -0.04061127              1
     11074.5000         0.4422         0.5626         0.5542       -51.6106     -0.1082077              1
     11075.0000         0.4456         0.5678         0.5581       -51.6771      -0.175808              1
     11075.5000         0.4493          0.573         0.5621       -51.7437     -0.2435074              1
     11076.0000         0.4531         0.5782          0.566       -51.8101     -0.3110085              1
     11076.5000         0.4569          0.579           0.57       -51.8766     -0.3786049              1
     11077.0000         0.4607         0.5794         0.5739       -51.9431     -0.4462051              1
     11077.5000         0.4644         0.5799         0.5778       -52.0096     -0.5138092              1
     11078.0000         0.4682         0.5803         0.5905       -52.0762     -0.5815048              1
     11078.5000          0.472         0.5807         0.6034       -52.1427     -0.6491051              1
     11079.0000         0.4757         0.5811         0.6164       -52.2092     -0.7167091              1
     11079.5000         0.4795         0.5816         0.6293       -52.2757     -0.7843056              1
     11080.0000         0.4833          0.582         0.6422       -52.3422     -0.8519058              1
     11080.5000          0.487         0.5824         0.6551       -52.4088     -0.9196014              1
     11081.0000         0.4908         0.5829          0.668       -52.4753     -0.9872055              1
     11081.5000         0.4946         0.5833         0.6809       -52.5418      -1.054806      0.9985947
     11082.0000         0.4983         0.5837         0.6947       -52.6083      -1.122402      0.9968615
     11082.5000         0.5036         0.5842         0.7089       -52.6749      -1.190105      0.9951255
     11083.0000         0.5099         0.5847         0.7231       -52.7414      -1.257706      0.9933922
     11083.5000         0.5162         0.5851         0.7373       -52.8079      -1.325302      0.9916589
     11084.0000         0.5225         0.5856         0.7515       -52.8745      -1.393002      0.9899231
     11084.5000         0.5288         0.5861          0.764        -52.916      -1.435604      0.9888307
     11085.0000         0.5351         0.5865         0.7611       -52.9088      -1.429501      0.9889871
     11085.5000         0.5415          0.587         0.7582       -52.9015      -1.423302      0.9891461
     11086.0000         0.5478         0.5875         0.7552       -52.8942      -1.417103      0.9893051
     11086.5000         0.5541         0.5879         0.7523        -52.887      -1.411003      0.9894615
     11087.0000         0.5604         0.5884         0.7494       -52.8797        -1.4048      0.9896205
     11087.5000         0.5667         0.5903         0.7465       -52.8724      -1.398598      0.9897795
     11088.0000          0.573         0.5922         0.7435       -52.8652      -1.392502      0.9899359
     11088.5000         0.5774         0.5941         0.7404       -52.8579      -1.386299      0.9900949
     11089.0000         0.5798         0.5959         0.7283       -52.8506        -1.3801      0.9902539
     11089.5000         0.5823         0.5978         0.7162       -52.8434      -1.374001      0.9904103
     11090.0000         0.5847         0.5997         0.7041       -52.8361      -1.367802      0.9905692
     11090.5000         0.5871         0.6015         0.6921       -52.8289      -1.361698      0.9907257
     11091.0000         0.5896         0.6034           0.68       -52.8216      -1.355499      0.9908847
     11091.5000          0.592         0.6053         0.6679       -52.8143        -1.3493      0.9910436
     11092.0000         0.5945         0.6072         0.6558        -52.808      -1.344097       0.991177
     11092.5000         0.5946         0.6083         0.6437       -52.8371      -1.374298      0.9904026
     11093.0000         0.5933         0.6088         0.6317       -52.8661        -1.4044      0.9896308
     11093.5000          0.592         0.6093         0.6225       -52.8953        -1.4347      0.9888539
