#------------------------------------------------------------------------------
# Created by    : vladimir.rabinovich
# Created on    : 09/19/2023 17:19:56
#------------------------------------------------------------------------------
~Version Information Section
VERS.           2.0     :   CWLS log ASCII Standard - VERSION 2.0
WRAP.           NO      :   One line per depth step
~Well Information Section
#MNEM       .UNIT                                         VALUE :DESCRIPTION
#------------------------------------------------------------------------------
STRT        .FT                                            3966 :START DEPTH
STOP        .FT                                           12200 :STOP DEPTH
STEP        .FT                                             0.5 :STEP      
NULL        .                                           -999.25 :NULL      
COMP        .                       HOUSTON OIL & MINERALS CORP :COMPANY   
WELL        .                                ST TR 00526-L SW/4 :WELL      
FLD         .                                           CAVALLO :FIELD     
LOC         .                                                   :LOCATION  
CNTY        .                      MATAGORDA ISLAND LARGE BLOCK :LOCATION  
STAT        .                                             TEXAS :STATE     
CTRY        .                                     UNITED STATES :COUNTRY   
SRVC        .                                                   :SERVICE COMPANY
DATE        .                             9/13/2023 11:19:05 AM :LOG DATE  
API         .                                    42703302090000 :API NUMBER
UWI         .                                    42703302090000 :UNIQUE WELL ID
XCOORD      .                                  601997.830501628 :SURFACE X 
YCOORD      .                                  10286578.1750905 :SURFACE Y 
LAT         .                                        28.3077871 :LATITUDE  
LON         .                                       -96.2273179 :LONGITUDE 
ELEV        .FT                                             113 :ELEVATION VALUE
ELEV_TYPE   .                                                KB :ELEVATION REFERENCE TYPE
~Curve Information Section
#MNEM       .UNIT                                      API CODE :CURVE DESCRIPTION
#------------------------------------------------------------------------------
DEPT        .FT                                                 :DEPTH     
ASFL        .OHMM                                               :          
CILD        .MMHO                                               :          
ILD         .OHMM                                               :          
SP          .MV                                                 :          
SP_NORM     .MV                                                 :SP Normalized
VSH_SP      .V/V                                                :Volume of Shale from SP
~A        DEPTH           ASFL           CILD            ILD             SP        SP_NORM         VSH_SP
# ...
      8906.0000         1.0837        1039.02         1.0392       -47.7941      -3.482723      0.9664497
      8906.5000         1.0518       1039.135         1.0392       -47.3529      -3.041523      0.9724119
      8907.0000         1.0159       1039.251         1.0392       -47.3529      -3.041523      0.9724119
      8907.5000         0.9801       1039.368         1.0392       -47.0588      -2.747421      0.9763862
      8908.0000         0.9442       1059.439         1.0392       -46.7647      -2.453323      0.9803605
      8908.5000         0.9442       1059.568         1.0392       -46.4706      -2.159222      0.9843348
      8909.0000         0.9641       1059.697         1.0392       -46.4706      -2.159222      0.9843348
      8909.5000          0.992       1059.826         1.0196       -46.4706      -2.159222      0.9843348
      8910.0000          0.992           1064         1.0196       -45.8824      -1.571022      0.9922835
      8910.5000          0.988           1064         1.0196       -45.5882      -1.276821      0.9962592
      8911.0000         0.9841           1072              1       -45.2941     -0.9827232              1
      8911.5000         0.9602           1072              1            -45     -0.6886215              1
      8912.0000         0.9363           1080           0.98            -45     -0.6886215              1
      8912.5000         0.9124           1080           0.98          -44.7     -0.3886223              1
      8913.0000         0.8876           1088           0.96          -44.7     -0.3886223              1
      8913.5000         0.8837           1088           0.96          -44.4    -0.08862305              1
      8914.0000         0.8837           1096           0.96          -44.4    -0.08862305              1
      8914.5000         0.8837           1096           0.96          -44.4    -0.08862305              1
      8915.0000         0.8797           1104           0.96          -44.4    -0.08862305              1
      8915.5000         0.8797           1104           0.94          -44.1        0.21138              1
      8916.0000         0.8837           1104           0.94          -44.1        0.21138              1
      8916.5000         0.8876           1112           0.92          -43.8      0.5113792              1
      8917.0000         0.9044           1112            0.9          -43.5      0.8113785              1
      8917.5000         0.9203           1112            0.9          -43.5      0.8113785              1
      8918.0000         0.9363           1112            0.9          -43.5      0.8113785              1
      8918.5000         0.9522           1120            0.9          -43.5      0.8113785              1
      8919.0000         0.9721           1120            0.9          -43.5      0.8113785              1
      8919.5000         0.9721           1120           0.88          -43.5      0.8113785              1
      8920.0000         0.9721           1120           0.88          -43.5      0.8113785              1
      8920.5000         0.9721           1120           0.86          -43.5      0.8113785              1
      8921.0000         0.9721           1120           0.86          -43.5      0.8113785              1
      8921.5000         0.9681           1128           0.84          -43.5      0.8113785              1
      8922.0000         0.9641           1128           0.84          -43.5      0.8113785              1
      8922.5000         0.9562           1136           0.82          -43.8      0.5113792              1
      8923.0000         0.9442           1144           0.82          -43.8      0.5113792              1
      8923.5000         0.9323           1152           0.82          -44.1        0.21138              1
      8924.0000         0.9203           1160           0.82          -44.1        0.21138              1
      8924.5000         0.9084       1170.667           0.82          -44.4    -0.08862305              1
      8925.0000         0.8956           1184           0.81          -44.4    -0.08862305              1
      8925.5000         0.8717           1200            0.8          -44.7     -0.3886223              1
      8926.0000         0.8558       1223.765            0.8          -44.7     -0.3886223              1
      8926.5000         0.8438       1247.529           0.78          -44.7     -0.3886223              1
      8927.0000         0.8319       1271.294           0.78          -44.7     -0.3886223              1
      8927.5000         0.8199       1295.059           0.76          -44.7     -0.3886223              1
      8928.0000          0.808       1318.823           0.76          -44.7     -0.3886223              1
      8928.5000          0.796       1342.588           0.74          -44.7     -0.3886223              1
      8929.0000         0.7841       1366.353           0.74          -44.7     -0.3886223              1
      8929.5000         0.7729       1374.275           0.72          -44.4    -0.08862305              1
      8930.0000          0.757       1390.118           0.72          -44.4    -0.08862305              1
      8930.5000          0.745       1398.039           0.72          -44.1        0.21138              1
      8931.0000          0.745       1398.039           0.72          -44.1        0.21138              1
      8931.5000          0.745       1398.039            0.7          -43.8      0.5113792              1
      8932.0000          0.757       1398.039            0.7          -43.5      0.8113785              1
      8932.5000         0.7729       1390.118            0.7          -43.5      0.8113785              1
      8933.0000         0.7841       1390.118           0.68          -43.5      0.8113785              1
      8933.5000            0.8       1390.118           0.68          -43.5      0.8113785              1
      8934.0000            0.8       1382.196           0.68          -43.2       1.111378              1
      8934.5000          0.796       1382.196           0.66          -43.2       1.111378              1
      8935.0000          0.792       1382.196           0.66          -43.2       1.111378              1
      8935.5000         0.7801       1382.196           0.64          -42.9       1.411377              1
      8936.0000         0.7689       1382.196           0.64          -42.9       1.411377              1
      8936.5000          0.757       1382.196           0.64          -42.9       1.411377              1
      8937.0000          0.745       1390.118           0.64          -42.9       1.411377              1
      8937.5000         0.7139       1403.922           0.64          -42.9       1.411377              1
      8938.0000         0.7139       1419.608           0.64          -42.6        1.71138              1
      8938.5000         0.7179       1427.451           0.64          -42.6        1.71138              1
      8939.0000         0.7371       1443.137           0.64          -42.6        1.71138              1
      8939.5000          0.761       1443.137           0.64          -42.6        1.71138              1
      8940.0000         0.7841       1443.137           0.64       -42.5996       1.711777              1
      8940.5000          0.788       1443.137          0.639       -42.6019        1.70948              1
      8941.0000          0.788        1450.98         0.6181       -42.6042        1.70718              1
      8941.5000         0.7721        1450.98         0.6171       -42.6065        1.70488              1
      8942.0000          0.753        1450.98         0.6162       -42.3099        2.00148              1
      8942.5000         0.7371        1450.98         0.6152       -42.3125       1.998878              1
      8943.0000         0.7171       1458.823         0.6143        -42.315        1.99638              1
      8943.5000         0.6972       1458.823         0.6133       -42.3176       1.993778              1
