#------------------------------------------------------------------------------
# Created by    : vladimir.rabinovich
# Created on    : 09/19/2023 17:19:46
#------------------------------------------------------------------------------
~Version Information Section
VERS.           2.0     :   CWLS log ASCII Standard - VERSION 2.0
WRAP.           NO      :   One line per depth step
~Well Information Section
#MNEM       .UNIT                                         VALUE :DESCRIPTION
#------------------------------------------------------------------------------
STRT        .FT                                            3460 :START DEPTH
STOP        .FT                                           13634 :STOP DEPTH
STEP        .FT                                             0.5 :STEP      
NULL        .                                           -999.25 :NULL      
COMP        .                                SHELL OFFSHORE INC :COMPANY   
WELL        .                               OCS G06107 ST00BP00 :WELL      
FLD         .                                           WILDCAT :FIELD     
LOC         .                                                   :LOCATION  
CNTY        .                             GALVESTON LARGE BLOCK :LOCATION  
STAT        .                                             TEXAS :STATE     
CTRY        .                                     UNITED STATES :COUNTRY   
SRVC        .                                                   :SERVICE COMPANY
DATE        .                             9/13/2023 11:19:27 AM :LOG DATE  
API         .                                    42706401270000 :API NUMBER
UWI         .                                    42706401270000 :UNIQUE WELL ID
XCOORD      .                                  941908.785460496 :SURFACE X 
YCOORD      .                                  10441108.8632451 :SURFACE Y 
LAT         .                                         28.753553 :LATITUDE  
LON         .                                        -95.180411 :LONGITUDE 
ELEV        .FT                                              90 :ELEVATION VALUE
ELEV_TYPE   .                                                KB :ELEVATION REFERENCE TYPE
~Curve Information Section
#MNEM       .UNIT                                      API CODE :CURVE DESCRIPTION
#------------------------------------------------------------------------------
DEPT        .FT                                                 :DEPTH     
ASFL        .OHMM                                               :          
CALI        .IN                                                 :          
CILD        .MMHO                                               :          
DT          .US/F                                               :          
GR          .GAPI                                               :          
GR_1        .GAPI                                               :          
GR_NORM     .GAPI                                               :GammaRay Normalized
ILD         .OHMM                                               :          
ILM         .OHMM                                               :          
RHOB        .G/C3                                               :          
SP          .MV                                                 :          
VSH_GR      .V/V                                                :Volume of Shale from GR
~A        DEPTH           ASFL           CALI           CILD             DT             GR           GR_1        GR_NORM            ILD            ILM           RHOB             SP         VSH_GR
# ...
      5571.5000         0.5897        16.7952       5172.859       105.8967        -999.25        26.5285       46.86681         0.1951         0.2576         2.1221       -89.3755      0.2950385
      5572.0000         0.5805        16.8238       4887.945       105.8563        -999.25        27.4046       49.66934         0.2081          0.263         2.1245       -85.9701      0.3546668
      5572.5000         0.5644        16.8438        4588.07       105.6296        -999.25        28.7799       54.06939         0.2211         0.2809         2.1333       -81.4714      0.4482848
      5573.0000          0.562        16.8432       4242.547       107.5802        -999.25        30.1997       58.61186         0.2531          0.297         2.1477         -75.58      0.5449333
      5573.5000         0.5838          16.84       3754.434       112.0024        -999.25         31.412       62.49028         0.2925          0.326         2.1672       -66.2294      0.6274528
      5574.0000         0.6156        16.8293       3254.648       117.1626        -999.25        32.5644       66.17702         0.3323         0.3591         2.1975       -55.0251      0.7058942
      5574.5000         0.6642        16.8103       2861.508       119.8706        -999.25        33.8326       70.23432         0.3845         0.3865         2.2336       -49.4844      0.7922196
      5575.0000         0.6717        16.7919       2523.859       119.6432        -999.25        34.9647       73.85607         0.4341         0.4234         2.2619       -45.9997      0.8692781
      5575.5000         0.7076        16.9972       2244.254       117.8981        -999.25        35.9548       77.02341         0.4795         0.4641         2.2744       -43.6863      0.9366684
      5576.0000         0.7289        17.1403       2065.395       116.2766        -999.25        36.6621       79.28575         0.5097         0.4967         2.2823       -44.2676      0.9848032
      5576.5000         0.7446        16.3396       1926.084        115.769        -999.25        37.0684       80.58481         0.5336         0.5235         2.2854       -44.0432              1
      5577.0000         0.7239        16.3247       1837.439       115.4213        -999.25        35.8867       76.80188         0.5563         0.5491         2.2747       -45.9331      0.9319549
      5577.5000         0.7166        16.2973       1770.688       114.8611        -999.25        34.4821       72.30565         0.5799         0.5729         2.2713       -46.1331      0.8362904
      5578.0000         0.7368        16.2944       1717.904       113.9197        -999.25        33.6707       69.70779         0.6046           0.59         2.2752       -45.8419      0.7810169
      5578.5000         0.8185        16.3151       1668.566       110.4136        -999.25        33.6192       69.54177         0.6312          0.608         2.3104       -44.6837      0.7774845
      5579.0000         0.9175        16.3292        1609.93       104.6188        -999.25        33.7719       70.02925         0.6584         0.6271         2.3368       -44.5601      0.7878564
      5579.5000         0.9718        16.3326       1547.014        99.7123        -999.25        34.1688       71.29819         0.6858         0.6492          2.343       -43.2882      0.8148552
      5580.0000         0.9407        16.3221       1497.232        99.8688        -999.25        36.2101       77.82959         0.7082         0.6689         2.3448        -43.324      0.9538211
      5580.5000         0.9113        16.3156       1454.484        102.297        -999.25        39.2739       87.63323          0.727          0.682         2.3336        -42.538              1
      5581.0000          0.924        16.3643       1415.131       106.9652        -999.25         40.446         91.383          0.739         0.6932         2.3172       -42.4945              1
      5581.5000         0.9138        16.4261       1388.689       108.5361        -999.25         40.998       93.14835         0.7462         0.7025         2.2955       -42.6033              1
      5582.0000         0.9298        16.4827       1395.049       108.3779        -999.25        40.7801       92.44981         0.7417         0.7055         2.2787       -41.1477              1
      5582.5000         0.9452        16.5125       1412.818        107.955        -999.25        40.2289       89.03918         0.7372         0.7062         2.2748       -41.5906              1
      5583.0000         0.9523        16.5508       1433.184       108.0216        -999.25        39.6483       87.46628         0.7328         0.7063         2.2814       -40.1235              1
      5583.5000         0.9469        16.5966       1456.305        109.752        -999.25        38.2501       83.67976         0.7227         0.7031         2.2775       -40.1351              1
      5584.0000         0.9189        16.6127         1479.4       112.1451        -999.25        36.6889         79.452         0.7114         0.6985         2.2716       -39.4732      0.9883405
      5584.5000         0.9934        16.5497       1500.602       114.2063        -999.25        35.2308       75.50333         0.6989           0.69         2.2657       -39.9568      0.9043263
      5585.0000         1.0901        16.3882       1520.289       108.7559        -999.25        36.0178       77.63303         0.6848          0.681         2.2956       -40.1832      0.9496388
      5585.5000         1.1643        16.1949       1538.602       103.1406        -999.25        37.0582       80.44878         0.6714         0.6673         2.3261       -40.1462              1
      5586.0000         1.0547        16.0681       1561.131       101.6227        -999.25        37.4125       81.40698         0.6597         0.6545         2.3438       -40.3143              1
      5586.5000         0.9398        16.0748       1579.604       106.3356        -999.25        37.6356       82.00999         0.6486         0.6431         2.3347       -41.6675              1
      5587.0000         0.9211        16.1659       1598.148       111.8647        -999.25        38.4156       84.12074         0.6417         0.6335          2.309       -42.0787              1
      5587.5000         0.9641        16.2156       1616.816       116.7064        -999.25         39.179       86.18652         0.6349         0.6243         2.2857        -43.543              1
      5588.0000         1.0065         16.191       1632.619       115.8677        -999.25         38.683       84.84266         0.6295         0.6219          2.271       -45.0792              1
      5588.5000         1.0346        16.1264       1647.377       114.2689        -999.25         37.756       82.33188         0.6247         0.6198         2.2567       -46.4746              1
      5589.0000         1.0216        16.1075       1677.715       113.4603        -999.25        37.2559       80.97691         0.6198         0.6188         2.2403       -47.1874              1
      5589.5000         1.0354        16.1252        1729.07       113.1161        -999.25        37.6987       82.17473         0.6018         0.6179         2.2353       -46.7422              1
      5590.0000         1.0499         16.154       1773.146       112.2545        -999.25        37.8008       82.45012         0.5829         0.6161         2.2653       -46.5515              1
      5590.5000          1.026        16.1937       1839.113        109.233        -999.25        35.5225       76.28085         0.5634         0.6136         2.2955       -48.9569      0.9208692
      5591.0000          1.016        16.2117        1928.74       104.7886        -999.25        33.5971       71.06705         0.5383         0.6065         2.3245        -53.709      0.8099372
      5591.5000          1.053        16.1076       2040.207       102.3068        -999.25        32.1174       67.05992         0.5081         0.5756         2.3181       -59.7362      0.7246792
