#------------------------------------------------------------------------------
# Created by    : vladimir.rabinovich
# Created on    : 09/19/2023 17:20:39
#------------------------------------------------------------------------------
~Version Information Section
VERS.           2.0     :   CWLS log ASCII Standard - VERSION 2.0
WRAP.           NO      :   One line per depth step
~Well Information Section
#MNEM       .UNIT                                         VALUE :DESCRIPTION
#------------------------------------------------------------------------------
STRT        .FT                                             523 :START DEPTH
STOP        .FT                                           11863 :STOP DEPTH
STEP        .FT                                             0.5 :STEP      
NULL        .                                           -999.25 :NULL      
COMP        .                                      SHELL OIL CO :COMPANY   
WELL        .                                OCS 00727 ST00BP00 :WELL      
FLD         .                                           WILDCAT :FIELD     
LOC         .                                                   :LOCATION  
CNTY        .                             GALVESTON LARGE BLOCK :LOCATION  
STAT        .                                             TEXAS :STATE     
CTRY        .                                     UNITED STATES :COUNTRY   
SRVC        .                                                   :SERVICE COMPANY
DATE        .                             9/13/2023 11:19:42 AM :LOG DATE  
API         .                                    42706000240000 :API NUMBER
UWI         .                                    42706000240000 :UNIQUE WELL ID
XCOORD      .                                  977080.798970248 :SURFACE X 
YCOORD      .                                   10388448.113324 :SURFACE Y 
LAT         .                                         28.610486 :LATITUDE  
LON         .                                        -95.067834 :LONGITUDE 
ELEV        .FT                                              76 :ELEVATION VALUE
ELEV_TYPE   .                                                KB :ELEVATION REFERENCE TYPE
~Curve Information Section
#MNEM       .UNIT                                      API CODE :CURVE DESCRIPTION
#------------------------------------------------------------------------------
DEPT        .FT                                                 :DEPTH     
ASN         .OHMM                                               :          
ILD         .OHMM                                               :          
LN          .OHMM                                               :          
SP          .MV                                                 :          
SP_NORM     .MV                                                 :SP Normalized
VSH_SP      .V/V                                                :Volume of Shale from SP
~A        DEPTH            ASN            ILD             LN             SP        SP_NORM         VSH_SP
# ...
      2043.0000          0.994        -999.25         0.6195       -74.3457      -30.94121              0
      2043.5000         0.9963        -999.25         0.6172       -74.0824      -30.68251              0
      2044.0000         0.9986        -999.25         0.6149       -73.8193      -30.42401              0
      2044.5000         1.0009        -999.25         0.6126       -73.2946      -29.90391    0.003313393
      2045.0000         1.0063        -999.25         0.6102       -72.6725      -29.28641     0.02460651
      2045.5000         1.0141        -999.25         0.6079       -72.0503      -28.66881     0.04590317
      2046.0000         1.0219        -999.25         0.6056       -71.8264      -28.44951     0.05346522
      2046.5000         1.0296        -999.25         0.6032       -71.9056      -28.53331     0.05057552
      2047.0000         1.0374        -999.25         0.6009       -72.0587      -28.69101      0.0451376
      2047.5000         1.0464        -999.25         0.5986       -72.2361      -28.87301     0.03886177
      2048.0000         1.0601        -999.25         0.5965       -72.3606      -29.00211     0.03440988
      2048.5000         1.0739        -999.25         0.5958       -72.1715      -28.81761     0.04077201
      2049.0000         1.0859        -999.25         0.5951       -71.8533      -28.50401     0.05158576
      2049.5000         1.0961        -999.25         0.5943       -71.2305      -27.88581     0.07290307
      2050.0000         1.1063        -999.25         0.5936       -70.6079      -27.26781     0.09421329
      2050.5000         1.0858        -999.25         0.5929       -69.9851      -26.64961      0.1155306
      2051.0000         1.0236        -999.25         0.5921       -69.4889      -26.15801      0.1324823
      2051.5000          0.992        -999.25         0.5914       -69.2961      -25.96981      0.1389721
      2052.0000         0.9789        -999.25         0.5907       -69.1034      -25.78172      0.1454581
      2052.5000         0.9657        -999.25         0.5899       -68.9415      -25.62441      0.1508823
      2053.0000         0.9484        -999.25         0.5892       -68.8914      -25.57892      0.1524511
      2053.5000         0.9269        -999.25         0.5884       -68.8412      -25.53332      0.1540235
      2054.0000         0.9061        -999.25         0.5871        -68.791      -25.48772       0.155596
      2054.5000         0.8949        -999.25         0.5858       -68.7408      -25.44212      0.1571684
      2055.0000         0.8858        -999.25         0.5845       -68.6907      -25.39661      0.1587375
      2055.5000         0.8779        -999.25         0.5832       -68.6609      -25.37141      0.1596064
      2056.0000         0.8738        -999.25         0.5819       -68.7877      -25.50281      0.1550755
      2056.5000         0.8696        -999.25         0.5806       -68.9146      -25.63431       0.150541
      2057.0000         0.8655        -999.25         0.5793       -69.0564      -25.78071      0.1454927
      2057.5000         0.8639        -999.25          0.578       -69.2338      -25.96272      0.1392166
      2058.0000         0.8654        -999.25         0.5767        -69.411      -26.14452      0.1329476
      2058.5000         0.8669        -999.25         0.5754       -69.5525      -26.29062      0.1279098
      2059.0000         0.8712        -999.25         0.5741       -69.3301      -26.07282        0.13542
      2059.5000         0.8873        -999.25         0.5736       -69.1078      -25.85512      0.1429268
      2060.0000         0.9034        -999.25         0.5748       -69.2498      -26.00172      0.1378717
      2060.5000         0.9195        -999.25          0.576       -69.8984      -26.65492      0.1153476
      2061.0000         0.9356        -999.25         0.5772       -70.5289      -27.29002     0.09344759
      2061.5000         0.9508        -999.25         0.5784       -70.9417      -27.70742     0.07905434
      2062.0000         0.9656        -999.25         0.5796       -71.3541      -28.12442     0.06467503
      2062.5000         0.9804        -999.25         0.5808        -71.303      -28.07792     0.06627852
      2063.0000         0.9938        -999.25          0.582       -70.7997      -27.57922     0.08347518
      2063.5000         1.0002        -999.25         0.5832       -70.2963      -27.08043       0.100675
      2064.0000         0.9976        -999.25         0.5844        -69.793      -26.58172      0.1178716
      2064.5000         0.9786        -999.25         0.5856       -69.2894      -26.08272      0.1350786
      2065.0000         0.9527        -999.25         0.5881        -68.806      -25.60392      0.1515888
      2065.5000         0.9065        -999.25         0.5926       -68.5935      -25.39602      0.1587578
      2066.0000         0.8434        -999.25          0.597        -68.381      -25.18812       0.165927
      2066.5000         0.8108        -999.25         0.6015       -68.1685      -24.98022      0.1730957
      2067.0000         0.8253        -999.25         0.6059       -67.9558      -24.77213      0.1802715
      2067.5000         0.8415        -999.25         0.6104       -67.8662      -24.68713      0.1832025
      2068.0000         0.8576        -999.25         0.6149       -67.8307      -24.65623       0.184268
      2068.5000          0.888        -999.25         0.6193       -67.8947      -24.72482      0.1819027
      2069.0000          0.942        -999.25         0.6238       -67.9587      -24.79343       0.179537
      2069.5000         0.9779        -999.25          0.628       -68.0227      -24.86202      0.1771716
      2070.0000          0.985        -999.25         0.6284       -68.0868      -24.93073      0.1748026
      2070.5000         0.9572        -999.25         0.6288       -68.1508      -24.99933      0.1724369
      2071.0000         0.9434        -999.25         0.6292       -68.2148      -25.06792      0.1700716
      2071.5000         0.9683        -999.25         0.6297       -68.2788      -25.13653      0.1677059
      2072.0000         0.9962        -999.25         0.6301       -68.3429      -25.20523      0.1653369
      2072.5000         1.0443        -999.25         0.6305       -67.9519      -24.81882      0.1786612
      2073.0000         1.0872        -999.25         0.6306       -67.4791      -24.35063      0.1948058
      2073.5000         1.1227        -999.25         0.6301       -67.0066      -23.88273      0.2109404
      2074.0000         1.1326        -999.25         0.6296       -66.6499      -23.53063      0.2230816
      2074.5000          1.091        -999.25         0.6291       -66.4056      -23.29093      0.2313472
      2075.0000         1.0495        -999.25         0.6286       -66.1615      -23.05143      0.2396059
      2075.5000         1.0278        -999.25         0.6281        -65.975      -22.86953      0.2458783
      2076.0000         1.0072        -999.25         0.6276       -65.9994      -22.89853      0.2448784
      2076.5000         0.9866        -999.25         0.6271       -66.0239      -22.92763      0.2438748
      2077.0000         0.9659        -999.25         0.6266       -66.0483      -22.95663      0.2428748
      2077.5000         0.9326        -999.25         0.6255       -66.0728      -22.98573      0.2418714
      2078.0000         0.8811        -999.25         0.6243         -65.46      -22.37753      0.2628438
      2078.5000         0.8183        -999.25          0.623       -64.3435      -21.26563      0.3011852
      2079.0000         0.8009        -999.25         0.6314       -62.9598      -19.88653      0.3487403
      2079.5000         0.8091        -999.25         0.6447       -59.9513      -16.88263       0.452323
      2080.0000           0.82        -999.25          0.658        -53.657      -10.59293      0.6692092
      2080.5000         0.8308        -999.25         0.6713       -47.3582      -4.298733      0.8862506
