#------------------------------------------------------------------------------
# Created by    : vladimir.rabinovich
# Created on    : 09/19/2023 17:22:54
#------------------------------------------------------------------------------
~Version Information Section
VERS.           2.0     :   CWLS log ASCII Standard - VERSION 2.0
WRAP.           NO      :   One line per depth step
~Well Information Section
#MNEM       .UNIT                                         VALUE :DESCRIPTION
#------------------------------------------------------------------------------
STRT        .FT                                             494 :START DEPTH
STOP        .FT                                            6854 :STOP DEPTH
STEP        .FT                                             0.5 :STEP      
NULL        .                                           -999.25 :NULL      
COMP        .                          HUMBLE OIL & REFINING CO :COMPANY   
WELL        .                                     ST TR 00247-L :WELL      
FLD         .                                           WILDCAT :FIELD     
LOC         .                                                   :LOCATION  
CNTY        .                             GALVESTON LARGE BLOCK :LOCATION  
STAT        .                                             TEXAS :STATE     
CTRY        .                                     UNITED STATES :COUNTRY   
SRVC        .                                                   :SERVICE COMPANY
DATE        .                             9/13/2023 11:19:42 AM :LOG DATE  
API         .                                    42706000180000 :API NUMBER
UWI         .                                    42706000180000 :UNIQUE WELL ID
XCOORD      .                                  979775.061814126 :SURFACE X 
YCOORD      .                                  10543201.0009156 :SURFACE Y 
LAT         .                                        29.0361078 :LATITUDE  
LON         .                                       -95.0678326 :LONGITUDE 
ELEV        .FT                                              11 :ELEVATION VALUE
ELEV_TYPE   .                                                KB :ELEVATION REFERENCE TYPE
~Curve Information Section
#MNEM       .UNIT                                      API CODE :CURVE DESCRIPTION
#------------------------------------------------------------------------------
DEPT        .FT                                                 :DEPTH     
LAT         .OHMM                                               :          
LN          .OHMM                                               :          
SN          .OHMM                                               :          
SP          .MV                                                 :          
SP_NORM     .MV                                                 :SP Normalized
VSH_SP      .V/V                                                :Volume of Shale from SP
~A        DEPTH            LAT             LN             SN             SP        SP_NORM         VSH_SP
# ...
      4294.0000         0.5104         0.8669         1.0429       -56.5859       2.313568              1
      4294.5000         0.5008         0.8682         1.0348       -57.5363       1.360332              1
      4295.0000         0.5398         0.8695         1.0267       -58.4862      0.4076004              1
      4295.5000         0.5788         0.8708         1.0186       -59.4366     -0.5456314              1
      4296.0000         0.6178         0.8273         1.0105        -60.035      -1.146866      0.9977052
      4296.5000         0.6568         0.7823         1.0025       -58.8945    -0.00920105              1
      4297.0000         0.6756         0.7372         0.9945       -57.7528       1.129669              1
      4297.5000         0.6443         0.6922         0.9866       -56.2772       2.602436              1
      4298.0000         0.6131         0.6593         0.9786       -54.7294         4.1474              1
      4298.5000         0.5901         0.6288         0.9707       -54.0197       4.854271              1
      4299.0000         0.5783         0.5983         0.9495       -55.1906       3.680534              1
      4299.5000         0.5664         0.5677         0.9257       -56.3604         2.5079              1
      4300.0000         0.5546         0.5372         0.9019       -57.5313       1.334167              1
      4300.5000         0.5758          0.511         0.8781        -58.701      0.1616364              1
      4301.0000          0.624         0.4879         0.8544       -60.0969      -1.237099      0.9962953
      4301.5000         0.6722         0.4647         0.8306        -61.649       -2.79203      0.9719995
      4302.0000         0.7204         0.4415         0.8068       -63.2001      -4.345963      0.9477193
      4302.5000         0.7686         0.4183         0.7698       -63.4869      -4.635597      0.9431938
      4303.0000         0.8176         0.3952         0.7298       -62.1788       -3.33033      0.9635886
      4303.5000         0.8182         0.3845         0.6897       -60.8718      -2.026161      0.9839662
      4304.0000         0.7666          0.375         0.6497       -62.3397      -3.496895       0.960986
      4304.5000          0.715         0.3654         0.6096       -65.8961      -7.056133      0.9053729
      4305.0000         0.6783         0.3559         0.5695       -69.2637      -10.42656      0.8527099
      4305.5000         0.6462         0.3464         0.5303       -72.5751       -13.7408       0.800925
      4306.0000          0.614         0.3369         0.5119        -75.884      -17.05253      0.7491792
      4306.5000         0.5819         0.3297         0.4935       -81.6497      -22.82106       0.659046
      4307.0000         0.5498         0.3283         0.4751       -87.8403       -29.0145      0.5622735
      4307.5000         0.5176         0.3269         0.4567       -91.9885      -33.16553      0.4974136
      4308.0000         0.4855         0.3254         0.5271       -97.8868      -39.06667      0.4052083
      4308.5000          0.456          0.324         0.6203      -104.0596      -45.24229      0.3087142
      4309.0000         0.4395         0.3226         0.7136       -109.265      -50.45053      0.2273355
      4309.5000          0.423         0.3211         0.7578      -113.2556      -54.44396      0.1649381
      4310.0000         0.4065         0.3172         0.7729      -116.3151      -57.50629      0.1170892
      4310.5000         0.3901         0.3131          0.788      -118.9155      -60.10952     0.07641369
      4311.0000         0.3736          0.309         0.7791      -120.6904      -61.88726     0.04863656
      4311.5000         0.3574         0.3049         0.7438      -121.9777      -63.17739     0.02847826
      4312.0000          0.343         0.3008         0.7084      -122.6796      -63.88213     0.01746672
      4312.5000         0.3286         0.2967         0.6731      -123.1553      -64.36066    0.009989738
      4313.0000         0.3142          0.295         0.6377      -122.7859      -63.99409     0.01571739
      4313.5000         0.2998         0.2983         0.6024      -122.3782      -63.58922     0.02204341
      4314.0000         0.2854         0.3017          0.567      -122.1387      -63.35256     0.02574122
      4314.5000         0.2813          0.305         0.5317      -122.4073      -63.62399     0.02150011
      4315.0000         0.2821         0.3084         0.5725      -122.6761      -63.89563     0.01725584
      4315.5000         0.2829         0.3117         0.6214      -122.9448      -64.16716     0.01301312
      4316.0000         0.2837         0.3151         0.6863       -123.193       -64.4182    0.009090662
      4316.5000         0.2846         0.3146         0.7516      -122.8373      -64.06532     0.01460433
      4317.0000         0.2854         0.3074         0.8168      -122.4819      -63.71276     0.02011311
      4317.5000         0.2963         0.3002          0.797      -122.1265       -63.3602     0.02562195
      4318.0000         0.3112         0.2929          0.772       -121.771      -63.00753      0.0311324
      4318.5000         0.3261         0.2857          0.747      -121.4153      -62.65466     0.03664601
      4319.0000          0.341         0.2785         0.7219      -121.5885      -62.83069     0.03389543
      4319.5000         0.3558         0.2713          0.759      -121.9788      -63.22382     0.02775282
      4320.0000         0.3707          0.266         0.8255      -122.3688      -63.61665     0.02161479
      4320.5000         0.3847         0.2715         0.8864      -122.7592      -64.00989      0.0154705
      4321.0000         0.3869          0.277         0.8968      -121.8652      -63.11872     0.02939504
      4321.5000          0.389         0.2824         0.8457      -120.7849      -62.04125     0.04623044
      4322.0000         0.3912         0.2879         0.7946      -119.7051      -60.96429     0.06305796
      4322.5000          0.391         0.2934         0.7435      -118.2845      -59.54652     0.08521056
      4323.0000         0.3854         0.2989         0.6924      -116.6333      -57.89816      0.1109663
      4323.5000         0.3798         0.3044         0.6512      -114.9833      -56.25099      0.1367033
      4324.0000         0.3742         0.3071         0.6209       -113.412      -54.68253      0.1612105
      4324.5000         0.3686         0.3079         0.5906      -112.9773      -54.25066      0.1679585
      4325.0000          0.363         0.3087         0.5603      -113.6392      -54.91539      0.1575721
      4325.5000           0.36         0.3096           0.53      -114.3011      -55.58012      0.1471856
      4326.0000          0.358         0.3104         0.4997       -114.963      -56.24485      0.1367992
      4326.5000          0.356         0.3112         0.4868       -115.625      -56.90969      0.1264111
      4327.0000         0.3541          0.314         0.5045      -116.2886      -57.57612      0.1159981
      4327.5000         0.3521         0.3191         0.5223       -116.964      -58.25435      0.1054008
      4328.0000          0.348         0.3242         0.5401      -117.6394      -58.93258     0.09480339
      4328.5000         0.3373         0.3293         0.5578      -118.6107      -59.90672     0.07958245
      4329.0000         0.3152         0.3345          0.567      -119.9143      -61.21315     0.05916953
      4329.5000         0.2858         0.3362         0.5713      -121.2168      -62.51848     0.03877372
      4330.0000         0.2533         0.3293         0.5757      -122.5204      -63.82492     0.01836061
      4330.5000         0.2208         0.3224         0.5801       -116.531      -57.83835      0.1119007
      4331.0000         0.1883         0.3154         0.5753      -112.0364      -53.34658      0.1820846
      4331.5000         0.1606         0.3085         0.5463      -109.6069      -50.91992      0.2200012
