#------------------------------------------------------------------------------
# Created by    : vladimir.rabinovich
# Created on    : 09/19/2023 17:22:53
#------------------------------------------------------------------------------
~Version Information Section
VERS.           2.0     :   CWLS log ASCII Standard - VERSION 2.0
WRAP.           NO      :   One line per depth step
~Well Information Section
#MNEM       .UNIT                                         VALUE :DESCRIPTION
#------------------------------------------------------------------------------
STRT        .FT                                             252 :START DEPTH
STOP        .FT                                           11321 :STOP DEPTH
STEP        .FT                                             0.5 :STEP      
NULL        .                                           -999.25 :NULL      
COMP        .                          HUMBLE OIL & REFINING CO :COMPANY   
WELL        .                                OCS 00615 ST00BP00 :WELL      
FLD         .                                           WILDCAT :FIELD     
LOC         .                                                   :LOCATION  
CNTY        .                             GALVESTON LARGE BLOCK :LOCATION  
STAT        .                                             TEXAS :STATE     
CTRY        .                                     UNITED STATES :COUNTRY   
SRVC        .                                                   :SERVICE COMPANY
DATE        .                             9/13/2023 11:19:42 AM :LOG DATE  
API         .                                    42706000270000 :API NUMBER
UWI         .                                    42706000270000 :UNIQUE WELL ID
XCOORD      .                                  1043929.24471964 :SURFACE X 
YCOORD      .                                  10527500.2798036 :SURFACE Y 
LAT         .                                         28.995876 :LATITUDE  
LON         .                                        -94.866344 :LONGITUDE 
ELEV        .FT                                              67 :ELEVATION VALUE
ELEV_TYPE   .                                                KB :ELEVATION REFERENCE TYPE
~Curve Information Section
#MNEM       .UNIT                                      API CODE :CURVE DESCRIPTION
#------------------------------------------------------------------------------
DEPT        .FT                                                 :DEPTH     
LAT         .OHMM                                               :          
LN          .OHMM                                               :          
SN          .OHMM                                               :          
SP          .MV                                                 :          
SP_NORM     .MV                                                 :SP Normalized
VSH_SP      .V/V                                                :Volume of Shale from SP
~A        DEPTH            LAT             LN             SN             SP        SP_NORM         VSH_SP
# ...
      9068.0000         0.7134         0.7841         0.8302       -92.0146      -11.52679       0.830213
      9068.5000         0.6663         0.7992         0.8097       -91.2754      -10.78759      0.8421357
      9069.0000         0.6193         0.8143         0.8038       -90.5361      -10.04829      0.8540598
      9069.5000         0.5722         0.8294          0.798       -89.7969       -9.30909      0.8659824
      9070.0000         0.5681         0.8445         0.7921       -89.0576      -8.569794      0.8779066
      9070.5000         0.5825         0.8565          0.795       -88.3184      -7.830589      0.8898292
      9071.0000         0.5971         0.8485         0.8067       -87.5791      -7.091293      0.9017533
      9071.5000         0.6121         0.8406         0.8184       -86.8398       -6.35199      0.9136776
      9072.0000         0.6271         0.8327         0.8301       -86.1006      -5.612793      0.9256001
      9072.5000         0.6421         0.8247         0.8418       -85.6497      -5.161888      0.9328728
      9073.0000         0.6527         0.8168         0.8546        -85.436      -4.948189      0.9363195
      9073.5000         0.6489         0.8084         0.8719       -85.2227      -4.734894      0.9397598
      9074.0000         0.6452         0.7992         0.8892        -85.009      -4.521194      0.9432065
      9074.5000         0.6415           0.79         0.9065       -84.7954      -4.307594      0.9466517
      9075.0000         0.6378         0.7808         0.9238        -84.582      -4.094193      0.9500937
      9075.5000         0.6341         0.7717          0.941       -84.3462      -3.858391      0.9538969
      9076.0000         0.6434         0.7625         0.9437       -84.0811      -3.593292      0.9581727
      9076.5000         0.6584         0.7627         0.9325       -83.8164       -3.32859      0.9624421
      9077.0000         0.6962         0.7685         0.9212       -83.5513      -3.063492      0.9667179
      9077.5000         0.7418         0.7744           0.91       -83.9707      -3.482895      0.9599533
      9078.0000         0.7875         0.7802         0.9253       -84.4746      -3.986794      0.9518259
      9078.5000         0.8331         0.7861         0.9501       -84.9785      -4.490692      0.9436985
      9079.0000         0.8705         0.7919         0.9748       -85.4824      -4.994591      0.9355711
      9079.5000         0.8874         0.8072         0.9996        -85.958      -5.470192      0.9279001
      9080.0000         0.8369         0.8232         1.0208       -86.2192      -5.731392      0.9236872
      9080.5000         0.7951         0.8394         0.9794         -86.48      -5.992195      0.9194807
      9081.0000         0.7565         0.8194          0.938       -86.7407      -6.252892      0.9152759
      9081.5000         0.7229         0.7984         0.8972       -86.9315      -6.443695      0.9121985
      9082.0000         0.7009         0.7774          0.875       -86.9933      -6.505493      0.9112017
      9082.5000         0.6788         0.7564         0.8529       -86.9492      -6.461395       0.911913
      9083.0000         0.6473         0.7354         0.8307       -86.4141      -5.926292      0.9205437
      9083.5000         0.6279         0.7144         0.8086       -85.8789       -5.39109       0.929176
      9084.0000           0.65         0.6964         0.7864       -85.3438      -4.855995      0.9378065
      9084.5000         0.6722         0.6921         0.7676       -84.8086      -4.320793      0.9464388
      9085.0000         0.6943         0.6877         0.7602       -84.2734      -3.785591      0.9550711
      9085.5000         0.7164         0.6834         0.7528       -83.7383      -3.250488      0.9637018
      9086.0000         0.7386          0.679         0.7455       -83.2031      -2.715294       0.972334
      9086.5000         0.7388         0.6747         0.7381        -82.668      -2.180191      0.9809647
      9087.0000         0.7344         0.6703         0.7307       -83.3418      -2.853989      0.9700969
      9087.5000           0.73          0.666         0.7233        -84.457      -3.969193      0.9521098
      9088.0000         0.7257         0.6616         0.7159       -85.5703      -5.082489      0.9341534
      9088.5000         0.7213         0.6572         0.7085       -86.2842      -5.796394      0.9226388
      9089.0000         0.7169         0.6529         0.7011       -86.9668      -6.478989      0.9116292
      9089.5000         0.7126         0.6492         0.6937       -87.2031      -6.715294      0.9078178
      9090.0000         0.7082         0.6527         0.6883       -86.5586      -6.070793       0.918213
      9090.5000         0.6968         0.6562         0.6874        -85.915      -5.427193      0.9285937
      9091.0000         0.6847         0.6597         0.6864       -85.2705      -4.782692      0.9389889
      9091.5000         0.6726         0.6632         0.6912       -85.1504       -4.66259       0.940926
      9092.0000         0.6605         0.6667         0.7278       -86.8711      -6.383293      0.9131727
      9092.5000         0.6483         0.6702         0.7645       -88.6523       -8.16449      0.8844437
      9093.0000         0.6362         0.6737         0.8011       -90.0078      -9.519989      0.8625808
      9093.5000         0.6193         0.6772         0.8377       -89.1543      -8.666489      0.8763469
      9094.0000         0.6005         0.6807         0.8743       -88.3018      -7.813995      0.8900968
      9094.5000         0.5818         0.6842         0.9296       -93.9375      -13.44969      0.7991985
      9095.0000          0.563         0.6864         1.0015      -101.5156      -21.02779      0.6769711
      9095.5000         0.5532         0.6839         0.9647           -103      -22.51219      0.6530291
      9096.0000          0.561         0.6814         0.8903      -104.4453      -23.95749      0.6297179
      9096.5000         0.5688          0.679         0.8236         -103.5      -23.01219      0.6449646
      9097.0000         0.5766         0.6765          0.757      -101.4961      -21.00829      0.6772856
      9097.5000          0.599          0.674         0.7225       -99.4883      -19.00049      0.7096695
      9098.0000         0.6202         0.6716         0.7007       -97.4805      -16.99269      0.7420534
      9098.5000         0.6129         0.6691          0.736       -95.4727      -14.98489      0.7744372
      9099.0000         0.6056         0.6667         0.7763       -93.7598        -13.272      0.8020646
      9099.5000         0.5983         0.6642         0.8167       -92.7715      -12.28369       0.818005
      9100.0000         0.5828         0.6684          0.857      -100.5313       -20.0435      0.6928468
      9100.5000         0.5634          0.675         0.8974       -109.125      -28.63719      0.5542389
      9101.0000         0.5429         0.6815         0.9377      -115.1172      -34.62939      0.4575904
      9101.5000         0.5196         0.6881         0.9781      -121.1094      -40.62159      0.3609421
      9102.0000         0.5046         0.7026         1.0091      -122.7969      -42.30909      0.3337243
      9102.5000         0.5119         0.7191          1.037      -121.5996      -41.11179      0.3530356
      9103.0000         0.5193         0.7357         1.0648      -120.4043      -39.91649      0.3723147
      9103.5000         0.5267         0.7522         1.0927       -119.207      -38.71919      0.3916259
      9104.0000         0.5668         0.7687         1.0727      -117.0039      -36.51609      0.4271598
      9104.5000          0.604         0.7852         1.0574       -116.002      -35.51419      0.4433195
      9105.0000         0.5806         0.8017         1.0573      -117.3633      -36.87549      0.4213631
      9105.5000         0.5572         0.7891         1.0572      -118.7227      -38.23489      0.3994372
