#------------------------------------------------------------------------------
# Created by    : vladimir.rabinovich
# Created on    : 09/19/2023 17:20:04
#------------------------------------------------------------------------------
~Version Information Section
VERS.           2.0     :   CWLS log ASCII Standard - VERSION 2.0
WRAP.           NO      :   One line per depth step
~Well Information Section
#MNEM       .UNIT                                         VALUE :DESCRIPTION
#------------------------------------------------------------------------------
STRT        .FT                                             723 :START DEPTH
STOP        .FT                                            8219 :STOP DEPTH
STEP        .FT                                             0.5 :STEP      
NULL        .                                           -999.25 :NULL      
COMP        .                                    MOBIL OIL CORP :COMPANY   
WELL        .                               OCS G02338 ST00BP00 :WELL      
FLD         .                                           WILDCAT :FIELD     
LOC         .                                                   :LOCATION  
CNTY        .                             GALVESTON LARGE BLOCK :LOCATION  
STAT        .                                             TEXAS :STATE     
CTRY        .                                     UNITED STATES :COUNTRY   
SRVC        .                                                   :SERVICE COMPANY
DATE        .                             9/13/2023 11:18:53 AM :LOG DATE  
API         .                                    42706400200000 :API NUMBER
UWI         .                                    42706400200000 :UNIQUE WELL ID
XCOORD      .                                  941616.333010477 :SURFACE X 
YCOORD      .                                  10405518.1254327 :SURFACE Y 
LAT         .                                         28.655687 :LATITUDE  
LON         .                                        -95.179294 :LONGITUDE 
ELEV        .FT                                              84 :ELEVATION VALUE
ELEV_TYPE   .                                                KB :ELEVATION REFERENCE TYPE
~Curve Information Section
#MNEM       .UNIT                                      API CODE :CURVE DESCRIPTION
#------------------------------------------------------------------------------
DEPT        .FT                                                 :DEPTH     
ASFL        .OHMM                                               :          
CALI        .IN                                                 :          
CILD        .MMHO                                               :          
DPHI        .%                                                  :          
DT          .US/F                                               :          
GR          .GAPI                                               :          
GR_1        .GAPI                                               :          
GR_NORM     .GAPI                                               :GammaRay Normalized
ILD         .OHMM                                               :          
NPHI        .DEC                                                :          
SP          .MV                                                 :          
SP_NORM     .MV                                                 :SP Normalized
VSH_GR      .V/V                                                :Volume of Shale from GR
VSH_SP      .V/V                                                :Volume of Shale from SP
~A        DEPTH           ASFL           CALI           CILD           DPHI             DT             GR           GR_1        GR_NORM            ILD           NPHI             SP        SP_NORM         VSH_GR         VSH_SP
# ...
      1245.0000         1.5573        14.5995       559.1426        -999.25       130.7263        86.0746        -999.25       83.39118          1.902        -999.25        75.9076      -4.450371              1      0.8562346
      1245.5000         1.5527        14.5953       566.9971        -999.25       129.8398        86.4254        -999.25       83.83929         1.8793        -999.25        75.4999      -4.859764              1      0.8391765
      1246.0000         1.5482        14.5911       581.5195        -999.25       129.3364        86.7761        -999.25       84.28728         1.8567        -999.25        75.3105      -5.050858              1      0.8312142
      1246.5000         1.5438        14.5861       600.6074        -999.25       128.8335        87.1567        -999.25       84.77356         1.8346        -999.25        75.6399      -4.723152              1      0.8448687
      1247.0000         1.5395        14.5812       619.6953        -999.25       128.6814        87.6637        -999.25       85.42173         1.8139        -999.25        75.9413      -4.423454              1      0.8573561
      1247.5000         1.5352        14.5755       638.7803        -999.25       129.8975        88.1707        -999.25       86.06992         1.7932        -999.25        76.1854      -4.181046              1      0.8674564
      1248.0000         1.5309        14.5647       657.8682        -999.25       131.3381        88.6864        -999.25       86.72923         1.7725        -999.25        76.3785      -3.989639              1      0.8754317
      1248.5000         1.5266        14.5539       676.9561        -999.25       132.7964         89.203        -999.25       87.38969         1.7544        -999.25        76.6886      -3.681236              1      0.8882818
      1249.0000         1.5235        14.5407        688.665        -999.25          133.8        89.6442        -999.25       87.95361         1.7371        -999.25        76.9331      -3.438438              1      0.8983984
      1249.5000         1.5224        14.5266       698.4385        -999.25       134.6912         89.995        -999.25       88.40171         1.7198        -999.25        76.9991       -3.37413              1      0.9010779
      1250.0000         1.5217        14.5125       707.0928        -999.25       134.9133        90.3457        -999.25       88.84969         1.7062        -999.25        76.6936       -3.68132              1      0.8882783
      1250.5000         1.5284         14.497       707.1445        -999.25       134.7568         90.656        -999.25       89.24592          1.704        -999.25        76.1593      -4.217316              1      0.8659452
      1251.0000         1.5351        14.4811       704.0674        -999.25       134.8979        90.9058        -999.25       89.56467         1.7056        -999.25        75.9401      -4.438217              1       0.856741
      1251.5000         1.5419        14.4651        684.373        -999.25       135.2229        91.1555        -999.25       89.88329         1.7379        -999.25        75.9113      -4.468712              1      0.8554704
      1252.0000          1.549        14.4466       664.6748        -999.25          135.7        91.4053        -999.25       90.20203         1.7703        -999.25        76.2058      -4.175903              1      0.8676707
      1252.5000         1.5565        14.4212       644.9766        -999.25       135.9919         91.483        -999.25       90.30035          1.807        -999.25         76.795      -3.588409              1      0.8921496
      1253.0000          1.564        14.3957       625.2783        -999.25       136.1155        91.5062        -999.25       90.32887         1.8613        -999.25        77.0305      -3.354599              1      0.9018917
      1253.5000         1.5715        14.3703       604.6475        -999.25       136.0422        91.5294        -999.25       90.35739         1.9155        -999.25         76.621      -3.765793              1      0.8847587
      1254.0000         1.5789        14.3448       583.8555        -999.25       135.9255        91.3945        -999.25        90.1834         1.9672        -999.25        76.2568      -4.131691              1      0.8695129
      1254.5000         1.5861        14.3226       563.0576        -999.25       136.5334        91.1788        -999.25       89.90591         2.0129        -999.25        76.5983      -3.791893              1      0.8836711
      1255.0000         1.5929        14.3031       541.9268        -999.25       143.2554        90.9633        -999.25        89.6287         2.0585        -999.25        76.7538      -3.638084              1      0.8900798
      1255.5000         1.5997        14.2844       518.7197        -999.25       152.1401        90.7476        -999.25       89.35123         2.1032        -999.25         76.542      -3.851578              1      0.8811843
      1256.0000         1.6065        14.2689       496.7754        -999.25       154.9478        90.4492        -999.25       88.96783         2.1437        -999.25        76.2666       -4.12867              1      0.8696387
      1256.5000         1.6136        14.2534       478.5039        -999.25       151.3401          89.72        -999.25       88.03265         2.1843        -999.25        75.7339      -4.663071              1      0.8473721
      1257.0000         1.6217        14.2361       466.8047        -999.25         152.27         88.991        -999.25       87.09772         2.2248        -999.25        75.3073       -5.09137              1      0.8295262
      1257.5000         1.6298        14.2106       469.9556        -999.25       148.6306        88.2188        -999.25       86.10748         2.2515        -999.25        75.0184      -5.381958              1      0.8174184
      1258.0000         1.6379        14.1852       476.0591        -999.25       153.9363        87.3687        -999.25       85.01745         2.2657        -999.25        75.1919      -5.210152              1       0.824577
      1258.5000         1.6461        14.1486       482.1631        -999.25       159.0923        86.5187        -999.25       83.92754         2.2799        -999.25        75.5981      -4.805656              1       0.841431
      1259.0000         1.6542        14.1107       488.2666        -999.25       148.1138        85.6686        -999.25       82.83752         2.2609        -999.25        76.3427      -4.062752              1      0.8723853
      1259.5000         1.6647        14.0903       494.3706        -999.25        144.916        84.8185        -999.25       81.74749          2.234        -999.25        76.0918      -4.315346              1      0.8618606
      1260.0000         1.6757        14.0805       500.4746        -999.25       146.0127        83.6899        -999.25       80.30076         2.2071        -999.25         74.458      -5.950836              1      0.7937152
      1260.5000         1.6867        14.0736       506.5781        -999.25       144.7183         82.514        -999.25       78.79344         2.1801        -999.25        73.2085      -7.202034      0.9743286      0.7415819
      1261.0000         1.6969        14.0708       512.6816        -999.25       145.7161        81.3251        -999.25       77.26947         2.1532        -999.25        72.4403      -7.971931      0.9419037      0.7095029
      1261.5000         1.7018        14.0752       518.7852        -999.25       138.4075        80.9011        -999.25        76.7252         2.1183        -999.25        71.6069      -8.807022      0.9303234      0.6747074
      1262.0000         1.6992        14.0936        527.085        -999.25       137.5205        80.4771        -999.25       76.18093         2.0805        -999.25        70.5093      -9.906319      0.9187432      0.6289034
      1262.5000         1.6894        14.1593       544.7432        -999.25       135.4106        80.1268        -999.25       75.73105         2.0428        -999.25        69.1793      -11.23802      0.9091712      0.5734158
