#------------------------------------------------------------------------------
# Created by    : vladimir.rabinovich
# Created on    : 09/19/2023 17:19:50
#------------------------------------------------------------------------------
~Version Information Section
VERS.           2.0     :   CWLS log ASCII Standard - VERSION 2.0
WRAP.           NO      :   One line per depth step
~Well Information Section
#MNEM       .UNIT                                         VALUE :DESCRIPTION
#------------------------------------------------------------------------------
STRT        .FT                                             816 :START DEPTH
STOP        .FT                                            7470 :STOP DEPTH
STEP        .FT                                             0.5 :STEP      
NULL        .                                           -999.25 :NULL      
COMP        .                                   KERR-MCGEE CORP :COMPANY   
WELL        .                               OCS G05003 ST00BP00 :WELL      
FLD         .                                 BRAZOS BLOCK 0412 :FIELD     
LOC         .                                                   :LOCATION  
CNTY        .                                BRAZOS LARGE BLOCK :LOCATION  
STAT        .                                             TEXAS :STATE     
CTRY        .                                     UNITED STATES :COUNTRY   
SRVC        .                                                   :SERVICE COMPANY
DATE        .                             9/13/2023 11:19:08 AM :LOG DATE  
API         .                                    42704401140000 :API NUMBER
UWI         .                                    42704401140000 :UNIQUE WELL ID
XCOORD      .                                  819493.037302503 :SURFACE X 
YCOORD      .                                  10380289.6446028 :SURFACE Y 
LAT         .                                         28.579682 :LATITUDE  
LON         .                                        -95.558179 :LONGITUDE 
ELEV        .FT                                              90 :ELEVATION VALUE
ELEV_TYPE   .                                                KB :ELEVATION REFERENCE TYPE
~Curve Information Section
#MNEM       .UNIT                                      API CODE :CURVE DESCRIPTION
#------------------------------------------------------------------------------
DEPT        .FT                                                 :DEPTH     
ASFL        .OHMM                                               :          
CALI        .IN                                                 :          
CILD        .MMHO                                               :          
GR          .GAPI                                               :          
GR_NORM     .GAPI                                               :GammaRay Normalized
ILD         .OHMM                                               :          
ILM         .OHMM                                               :          
RHOB        .G/C3                                               :          
SP          .MV                                                 :          
SP_NORM     .MV                                                 :SP Normalized
VSH_GR      .V/V                                                :Volume of Shale from GR
VSH_SP      .V/V                                                :Volume of Shale from SP
~A        DEPTH           ASFL           CALI           CILD             GR        GR_NORM            ILD            ILM           RHOB             SP        SP_NORM         VSH_GR         VSH_SP
# ...
      6125.5000         0.9112        11.4794       1233.328        -999.25        -999.25         0.8108         0.8144         2.0332       -34.7597       2.059353        -999.25              1
      6126.0000         0.8991         11.926       1251.799        -999.25        -999.25         0.8069         0.8182         1.8864       -34.7275       2.094635        -999.25              1
      6126.5000         0.8822         12.249       1262.805        -999.25        -999.25          0.803         0.8228         1.7919       -34.6953       2.129917        -999.25              1
      6127.0000         0.8626        12.5217       1257.215        -999.25        -999.25         0.7991         0.8274         1.7738       -34.6631       2.165195        -999.25              1
      6127.5000           0.87        12.8007       1248.754        -999.25        -999.25         0.7927         0.8322          1.799       -34.6735       2.157879        -999.25              1
      6128.0000         0.9013         13.183       1238.182        -999.25        -999.25         0.7843         0.8371         1.9007       -34.9424       1.892059        -999.25              1
      6128.5000         0.9287        13.5462       1227.609        -999.25        -999.25         0.7758         0.8432         1.9603       -35.2118       1.625744        -999.25              1
      6129.0000         0.9471        13.9533       1217.037        -999.25        -999.25         0.7673         0.8504         1.9992       -35.7002       1.140423        -999.25              1
      6129.5000         0.9651        14.2631       1205.697        -999.25        -999.25         0.7588         0.8556         2.0231       -36.1917      0.6520042        -999.25              1
      6130.0000         0.9679        14.3995       1191.088        -999.25        -999.25         0.7494         0.8595         2.0442       -36.6831      0.1636848        -999.25              1
      6130.5000           0.96        14.3636        1176.48        -999.25        -999.25         0.7399         0.8567         2.0219       -37.2792     -0.4293327        -999.25              1
      6131.0000         0.9445        14.2917       1161.873        -999.25        -999.25         0.7305         0.8499         1.9508       -37.8998      -1.046848        -999.25      0.9990439
      6131.5000          0.929        14.2209       1161.576        -999.25        -999.25         0.7211          0.837         1.9253        -38.496      -1.639969        -999.25      0.9869394
      6132.0000         0.9135         14.268       1171.318        -999.25        -999.25         0.7116         0.8124         1.9767       -39.0603      -2.201187        -999.25       0.975486
      6132.5000         0.9049        14.3871       1202.502        -999.25        -999.25         0.7029         0.7815         2.0578       -39.0311      -2.168907        -999.25      0.9761447
      6133.0000          0.927        14.4835       1238.553        -999.25        -999.25          0.695          0.756         2.1262       -38.8736      -2.008324        -999.25       0.979422
      6133.5000         0.9622        14.5507       1274.553        -999.25        -999.25         0.6871         0.7323         2.1839       -38.7078      -1.839447        -999.25      0.9828684
      6134.0000         0.9672        14.5969       1305.551        -999.25        -999.25         0.6792          0.715         2.2042       -38.5419      -1.670464        -999.25      0.9863171
      6134.5000         0.9471        14.5474       1334.766        -999.25        -999.25         0.6713         0.7065         2.1152        -38.373      -1.498482        -999.25      0.9898269
      6135.0000         0.9231        14.3719       1363.982        -999.25        -999.25         0.6641         0.7049         1.9148       -38.2034      -1.325798        -999.25       0.993351
      6135.5000         0.8987        13.9436       1397.357        -999.25        -999.25         0.6592         0.7061          1.891       -38.0338      -1.153118        -999.25      0.9968752
      6136.0000          0.872        13.3171       1434.893        -999.25        -999.25         0.6543         0.7083         1.9175       -37.8642     -0.9804382        -999.25              1
      6136.5000         0.8541        13.0841       1449.303        -999.25        -999.25         0.6494         0.7068          1.946       -37.7269     -0.8400536        -999.25              1
      6137.0000         0.8583        13.1346       1453.504        -999.25        -999.25         0.6445         0.7055         1.9446       -37.6154     -0.7254715        -999.25              1
      6137.5000         0.8644        13.4125       1454.633        -999.25        -999.25         0.6405          0.704         1.9468        -37.504     -0.6109924        -999.25              1
      6138.0000         0.8707        13.7355       1455.762        -999.25        -999.25         0.6369          0.698         1.9764       -37.5455     -0.6494141        -999.25              1
      6138.5000         0.8766        13.9697       1456.891        -999.25        -999.25         0.6332         0.6906          2.057       -37.6665     -0.7673302        -999.25              1
      6139.0000         0.8795        14.1414       1455.676        -999.25        -999.25         0.6295         0.6892         2.0809       -37.7875     -0.8852463        -999.25              1
      6139.5000         0.8793        14.2764       1453.855        -999.25        -999.25         0.6363         0.6877         2.0907       -37.9086      -1.003265        -999.25      0.9999334
      6140.0000         0.8738        14.4053       1452.033        -999.25        -999.25         0.6441         0.6902         2.1173       -38.1753      -1.266888        -999.25      0.9945533
      6140.5000         0.8684        14.5064       1449.525        -999.25        -999.25         0.6534          0.695          2.156       -38.5544      -1.642906        -999.25      0.9868795
      6141.0000         0.8629        14.5894        1442.08        -999.25        -999.25         0.6677         0.7013         2.1702       -38.9366      -2.022022        -999.25      0.9791424
      6141.5000         0.8574         14.652       1429.422        -999.25        -999.25          0.682         0.7119         2.1595       -40.1816      -3.263939        -999.25      0.9537972
      6142.0000           0.85        14.6917       1408.871        -999.25        -999.25         0.6963         0.7242         2.1201       -40.9019      -3.981163        -999.25      0.9391599
      6142.5000         0.8555        14.7178       1388.297        -999.25        -999.25         0.7149         0.7439         2.0642       -41.4748       -4.55098        -999.25       0.927531
      6143.0000         0.8804        14.7328       1339.223        -999.25        -999.25         0.7348         0.7688          2.027       -42.1841      -5.257198        -999.25      0.9131184
      6143.5000         0.9074        14.7351       1290.572        -999.25        -999.25         0.7547         0.7979         2.0972       -43.0985      -6.168514        -999.25      0.8945201
      6144.0000         0.9554        14.7324        1259.92        -999.25        -999.25         0.7747         0.8296         2.1693       -44.3581      -7.425034        -999.25      0.8688769
      6144.5000         0.9846         14.725       1229.268        -999.25        -999.25         0.7946          0.856         2.2078       -44.8652      -7.929054        -999.25      0.8585907
      6145.0000          0.991         14.711       1202.973        -999.25        -999.25         0.8146         0.8538         2.1668        -44.546      -7.606773        -999.25      0.8651679
      6145.5000          0.984        14.6889       1178.164        -999.25        -999.25         0.8226          0.833         2.0993       -44.2418      -7.299488        -999.25       0.871439
