#------------------------------------------------------------------------------
# Created by    : vladimir.rabinovich
# Created on    : 09/19/2023 17:20:01
#------------------------------------------------------------------------------
~Version Information Section
VERS.           2.0     :   CWLS log ASCII Standard - VERSION 2.0
WRAP.           NO      :   One line per depth step
~Well Information Section
#MNEM       .UNIT                                         VALUE :DESCRIPTION
#------------------------------------------------------------------------------
STRT        .FT                                            3470 :START DEPTH
STOP        .FT                                           12708 :STOP DEPTH
STEP        .FT                                             0.5 :STEP      
NULL        .                                           -999.25 :NULL      
COMP        .                                     INEXCO OIL CO :COMPANY   
WELL        .                                     ST TR 00794-L :WELL      
FLD         .                                       BLOCK 794-L :FIELD     
LOC         .                                                   :LOCATION  
CNTY        .                        MUSTANG ISLAND LARGE BLOCK :LOCATION  
STAT        .                                             TEXAS :STATE     
CTRY        .                                     UNITED STATES :COUNTRY   
SRVC        .                                                   :SERVICE COMPANY
DATE        .                             9/13/2023 11:18:55 AM :LOG DATE  
API         .                                    42702301710000 :API NUMBER
UWI         .                                    42702301710000 :UNIQUE WELL ID
XCOORD      .                                  319607.894357718 :SURFACE X 
YCOORD      .                                   10038241.944616 :SURFACE Y 
LAT         .                                        27.6026524 :LATITUDE  
LON         .                                       -97.0775955 :LONGITUDE 
ELEV        .FT                                               0 :ELEVATION VALUE
ELEV_TYPE   .                                                GL :ELEVATION REFERENCE TYPE
~Curve Information Section
#MNEM       .UNIT                                      API CODE :CURVE DESCRIPTION
#------------------------------------------------------------------------------
DEPT        .FT                                                 :DEPTH     
ASFL        .OHMM                                               :          
CILD        .MMHO                                               :          
DT          .US/F                                               :          
GR          .GAPI                                               :          
GR_NORM     .GAPI                                               :GammaRay Normalized
ILD         .OHMM                                               :          
ILM         .OHMM                                               :          
SP          .MV                                                 :          
SP_NORM     .MV                                                 :SP Normalized
VSH_GR      .V/V                                                :Volume of Shale from GR
VSH_SP      .V/V                                                :Volume of Shale from SP
~A        DEPTH           ASFL           CILD             DT             GR        GR_NORM            ILD            ILM             SP        SP_NORM         VSH_GR         VSH_SP
# ...
      5967.5000         1.1122       1632.189        90.0549        38.5272       37.31194         0.6041         0.8039       -94.3431      -45.80656     0.09174339      0.3506296
      5968.0000         1.1461       1658.037        90.0887        37.5597       35.47974         0.5798          0.812       -95.5961      -47.06118     0.05276051      0.3324467
      5968.5000         1.2158       1683.887        90.5784        36.5933       33.64963         0.5557         0.8042       -96.9277      -48.39439     0.01382195      0.3131247
      5969.0000         1.3379       1702.873        91.4619        35.9832       32.49537         0.5315         0.7768       -99.0648      -50.53312              0      0.2821288
      5969.5000         1.3369        1718.25        93.0781        35.3942       31.38115         0.5073         0.7463      -108.2518      -59.72174              0      0.1489603
      5970.0000         1.3207       1733.627        97.3774        34.8052       30.26693         0.4833         0.6986      -110.9126      -62.38416              0      0.1103745
      5970.5000         1.2823       1749.207       100.7366        34.5034       29.69749         0.4594         0.6553      -114.6473      -66.12048              0     0.05622488
      5971.0000         1.1348       1851.152       101.6531        34.9149       30.48114         0.4354         0.6161      -116.2982      -67.77301              0     0.03227521
      5971.5000         1.1228       1985.371       101.7667        35.3267       31.26533         0.4114         0.5803      -116.9813      -68.45773              0     0.02235169
      5972.0000         1.1173       2041.416       101.4503        35.7385       32.04951         0.3874         0.5441      -117.3867      -68.86475              0     0.01645285
      5972.5000         1.1118       2140.074       100.9467        36.1761       32.88267         0.3644         0.5087      -117.7922      -69.27187              0     0.01055267
      5973.0000         1.0834       2606.602       100.4778        36.6738       33.82981         0.3507         0.4827      -117.9546      -69.43589     0.01765564    0.008175504
      5973.5000              1       2841.895       100.0801        37.1714       34.77675          0.337         0.4625      -118.1125      -69.59541     0.03780316    0.005863577
      5974.0000          0.944       2931.227        99.8688        37.6685       35.72276         0.3233         0.4507      -118.2705      -69.75504     0.05793105    0.003550212
      5974.5000         0.9114       2977.465       100.9729        38.1662        36.6699         0.3096         0.4463      -118.5696      -70.05576     0.07808304              0
      5975.0000         0.8805       3002.781       104.2076        37.9633       36.28808         0.3077          0.446        -119.08      -70.56778     0.06995911              0
      5975.5000          0.895       2878.324       110.9795        37.6123       35.62533         0.3223         0.4517       -119.597       -71.0864     0.05585804              0
      5976.0000          0.919       2733.379       117.5173        37.2612       34.96236         0.3368         0.4636      -120.2084      -71.69942     0.04175243              0
      5976.5000         0.9305       2686.418       118.7749        36.9366       34.34968         0.3522         0.4789      -120.2773      -71.76994     0.02871663              0
      5977.0000         0.9393       2639.453        117.605        36.8104       34.11335          0.368         0.5024       -119.913      -71.40726     0.02368822              0
      5977.5000         0.9608       2591.527        113.844        36.6842       33.87702         0.3837         0.5316      -119.5486      -71.04448     0.01865996              0
      5978.0000         0.9899       2541.664       105.2015        36.5578        33.6403         0.3995         0.5536      -119.1843      -70.68181     0.01362342              0
      5978.5000          1.019       2394.789        89.0565        36.7469       34.00206         0.4153         0.5705      -118.9434      -70.44252     0.02132051              0
      5979.0000         1.0648       2130.605         86.287        37.1908       34.84715         0.4242         0.5699      -118.7159      -70.21664     0.03930096              0
      5979.5000         1.2271       2045.039        86.7571        37.6353       35.69337          0.408         0.5507       -119.213      -70.71536     0.05730584              0
      5980.0000         1.0152       2009.094          89.97        38.0792       36.53847         0.3917         0.5151      -120.9631      -72.46709     0.07528654              0
      5980.5000         0.9228        1991.65        94.2499        38.3319       37.02087         0.3754         0.4734      -122.6624      -74.16801     0.08555051              0
      5981.0000         0.8835       2088.668        98.5345         38.116       36.61438         0.3592         0.4296      -123.8477      -75.35493     0.07690162              0
      5981.5000         0.8549       2693.375        99.9619         37.645       35.72399         0.3429           0.39      -124.6809      -76.18976     0.05795718              0
      5982.0000         0.8341       2905.574       101.3187        37.1624        34.8116         0.3265         0.3558      -125.2869      -76.79738      0.0385446              0
      5982.5000         0.8168       3682.473       102.5099        36.5861       33.72147         0.3101         0.3281      -125.6299        -77.142      0.0153505              0
      5983.0000         0.8168        3777.75       103.3575        36.0104       32.63247         0.2937         0.3119      -125.6543      -77.16801              0              0
      5983.5000         0.8239       3839.738       103.6813        35.4631       31.59734         0.2773         0.3031      -125.6786      -77.19394              0              0
      5984.0000         0.8309       3902.789       103.7362        35.1478       31.00231         0.2647         0.2975      -125.6289      -77.14586              0              0
      5984.5000          0.838       3943.035       103.4702        34.8327       30.40764         0.2653         0.2947      -125.5511      -77.06969              0              0
      5985.0000         0.8457       3974.973       102.9955        34.5173       29.81241         0.2658         0.2942      -125.4735      -76.99371              0              0
      5985.5000         0.8539       3775.816       102.6016        34.4487       29.68534         0.2664         0.2968      -125.3959      -76.91772              0              0
      5986.0000         0.8589       3680.926       102.2961        34.4279       29.64894         0.2669         0.3033      -125.1423      -76.66576              0              0
      5986.5000         0.8521       3632.324       102.9447        34.4071       29.61255         0.2675         0.3128      -124.7241      -76.24917              0              0
      5987.0000         0.8472        3595.41       104.2223        34.4468        29.6909         0.2666         0.3221       -124.306      -75.83269              0              0
      5987.5000         0.8453       3511.535       105.7703        34.5095       29.81289         0.2656         0.3286      -123.8688      -75.39711              0              0
      5988.0000         0.8534        3459.84       106.6326        34.5721       29.93469         0.2646         0.3304      -123.4194      -74.94934              0              0
      5988.5000         0.8733       3437.543       105.4792        34.6348       30.05668         0.2635         0.3279      -123.0145      -74.54606              0              0
      5989.0000         0.8826       3444.332       103.8789        34.6974       30.17847         0.2625         0.3227      -123.0286      -74.56178              0              0
      5989.5000         0.8804        3487.09       102.7668        34.7601       30.30047         0.2653         0.3189      -123.0426       -74.5774              0              0
