#------------------------------------------------------------------------------
# Created by    : vladimir.rabinovich
# Created on    : 09/19/2023 17:22:17
#------------------------------------------------------------------------------
~Version Information Section
VERS.           2.0     :   CWLS log ASCII Standard - VERSION 2.0
WRAP.           NO      :   One line per depth step
~Well Information Section
#MNEM       .UNIT                                         VALUE :DESCRIPTION
#------------------------------------------------------------------------------
STRT        .FT                                             996 :START DEPTH
STOP        .FT                                            8436 :STOP DEPTH
STEP        .FT                                             0.5 :STEP      
NULL        .                                           -999.25 :NULL      
COMP        .                                    TDC ENERGY LLC :COMPANY   
WELL        .                               OCS G03738 ST00BP00 :WELL      
FLD         .                              GALVESTON BLOCK 0255 :FIELD     
LOC         .                                                   :LOCATION  
CNTY        .                             GALVESTON LARGE BLOCK :LOCATION  
STAT        .                                             TEXAS :STATE     
CTRY        .                                     UNITED STATES :COUNTRY   
SRVC        .                                                   :SERVICE COMPANY
DATE        .                             9/13/2023 11:18:53 AM :LOG DATE  
API         .                                    42706400460000 :API NUMBER
UWI         .                                    42706400460000 :UNIQUE WELL ID
XCOORD      .                                   1080542.6436948 :SURFACE X 
YCOORD      .                                  10548065.2081286 :SURFACE Y 
LAT         .                                        29.0539695 :LATITUDE  
LON         .                                       -94.7527854 :LONGITUDE 
ELEV        .FT                                              94 :ELEVATION VALUE
ELEV_TYPE   .                                                KB :ELEVATION REFERENCE TYPE
~Curve Information Section
#MNEM       .UNIT                                      API CODE :CURVE DESCRIPTION
#------------------------------------------------------------------------------
DEPT        .FT                                                 :DEPTH     
CALI        .IN                                                 :          
CILD        .MMHO                                               :          
DT          .US/F                                               :          
GR          .GAPI                                               :          
GR_NORM     .GAPI                                               :GammaRay Normalized
ILD         .OHMM                                               :          
ILM         .OHMM                                               :          
RHOB        .G/C3                                               :          
SFL         .OHMM                                               :          
SP          .MV                                                 :          
SP_NORM     .MV                                                 :SP Normalized
VSH_GR      .V/V                                                :Volume of Shale from GR
VSH_SP      .V/V                                                :Volume of Shale from SP
~A        DEPTH           CALI           CILD             DT             GR        GR_NORM            ILD            ILM           RHOB            SFL             SP        SP_NORM         VSH_GR         VSH_SP
# ...
      1490.0000        13.6135       737.3535       175.4272        43.1976       54.81887         1.3447        -999.25         1.8705         1.4888       -73.0917      -16.11192      0.4642312       0.462936
      1490.5000        13.7994       737.8975       175.8064         43.584       55.38572         1.3414        -999.25         1.8888         1.5088       -73.4585      -16.48136       0.476292      0.4506213
      1491.0000        13.6104       737.7852       176.2546         43.955       55.92988          1.338        -999.25         1.9012         1.5321       -73.4272       -16.4527      0.4878697      0.4515767
      1491.5000        13.3121       736.4521       175.2034         44.616       56.90139         1.3347        -999.25         1.8867         1.5514       -73.4614      -16.48954      0.5085402      0.4503488
      1492.0000        13.2318       735.1191       174.2732        45.3506       57.98136         1.3291        -999.25         1.8687         1.5464       -73.7134      -16.74417      0.5315183       0.441861
      1492.5000        13.1028       736.3496       173.8567        45.0515       57.53804         1.3211        -999.25         1.8641         1.5414       -74.2814      -17.31481      0.5220859      0.4228396
      1493.0000        12.7612       738.2012       174.9302        44.6473       56.93985         1.3133        -999.25         1.8842         1.5364       -75.4041      -18.44014      0.5093585      0.3853286
      1493.5000        12.5002       740.7852       175.9819        44.7553       57.09645         1.3058        -999.25         1.9041         1.5369       -76.0276      -19.06629      0.5126905      0.3644571
      1494.0000        12.4625        744.584       176.5601        45.0179       57.48088         1.3008        -999.25         1.8677         1.5383       -76.3663      -19.40762      0.5208697      0.3530792
      1494.5000        12.7754       746.6973       175.4683        44.7347         57.061         1.2983        -999.25          1.841         1.5309       -76.6171      -19.66106      0.5119362      0.3446313
      1495.0000        14.1304       748.2715       174.3518        44.2678       56.37041         1.2938        -999.25         1.8206         1.4979       -76.6857       -19.7323      0.4972429      0.3422568
      1495.5000        15.9421       753.9609        173.949        43.7175       55.55693         1.2882        -999.25         1.8105         1.4803       -76.5715      -19.62074      0.4799348      0.3459755
      1496.0000        16.1384       760.2773       174.3008        42.9771       54.46333          1.276        -999.25         1.8091         1.5016       -76.0208      -19.07267      0.4566666      0.3642445
      1496.5000        13.0249       767.7051       174.7297        42.2148       53.33744         1.2586        -999.25         1.8307         1.5409       -75.1248      -18.17931      0.4327115       0.394023
      1497.0000        12.5933        775.252       173.7368        41.3882        52.1168         1.2453        -999.25         1.9192         1.5054       -74.7693      -17.82645      0.4067404      0.4057851
      1497.5000        12.4736       782.7969       170.8823        40.2261       50.40177         1.2337        -999.25         1.9353         1.4148         -74.78      -17.83978      0.3702504      0.4053407
      1498.0000        12.5201       790.3437       168.3325        39.3125       49.05293         1.2279        -999.25         1.9339         1.3361       -74.9948      -18.05722      0.3415516      0.3980928
      1498.5000        12.6074       799.3906       165.9187        38.8314       48.34143         1.2238        -999.25         1.9222         1.3177       -75.4005      -18.46555      0.3264133      0.3844815
      1499.0000        12.6946       808.8633       165.1262        38.9564       48.52307          1.214        -999.25          1.908         1.3483        -76.009      -19.07669      0.3302781      0.3641102
      1499.5000        12.5132        820.707       165.2671        39.3994       49.17332         1.2015        -999.25         1.8945         1.4407        -76.787      -19.85733      0.3441133      0.3380889
      1500.0000        12.3104       831.4844       166.7163        40.1968       50.34583         1.1887        -999.25         1.9117         1.5294       -77.2441      -20.31707      0.3690603      0.3227643
      1500.5000        12.1075       841.6504       167.7009         41.312       51.98666         1.1753        -999.25         1.9331         1.5319       -77.4072      -20.48281      0.4039715      0.3172396
      1501.0000        11.9065       847.3105        168.103        42.5786       53.85059         1.1623        -999.25          1.958         1.4868       -77.0177      -20.09594      0.4436295      0.3301352
      1501.5000        11.8368       851.8691        167.877        43.8076        55.6591         1.1498        -999.25         1.9759         1.4241       -76.9147      -19.99558      0.4821085      0.3334806
      1502.0000        11.7834       859.1523       166.1914        44.9272       57.30641         1.1397        -999.25          1.983         1.3849       -76.9658      -20.04932      0.5171577      0.3316894
      1502.5000        11.8032       869.5742       160.3428        44.9609       57.35352         1.1322        -999.25         1.9756         1.4063       -77.0562      -20.14235        0.51816      0.3285882
      1503.0000         11.823       882.0508        157.417        43.5845       55.32269         1.1242        -999.25         1.9687         1.4503       -77.2609      -20.34969      0.4749508      0.3216769
      1503.5000        11.8526        893.707       159.3437        42.0322       53.03265         1.1158        -999.25         1.9631         1.4828       -77.5149      -20.60633      0.4262265      0.3131223
      1504.0000        11.8858       905.3594       164.1133          40.75       51.14063         1.1079        -999.25         1.9659         1.4893       -77.6284      -20.72247      0.3859708       0.309251
      1504.5000        11.9189       915.5176       165.5391        39.8036       49.74345         1.1003        -999.25         1.9703         1.4677       -77.6929       -20.7896      0.3562437      0.3070132
      1505.0000        11.9521       925.4277       166.1304        39.3612       49.08897         1.0927        -999.25         1.9746         1.4357       -77.7913      -20.89064      0.3423186      0.3036453
      1505.5000        11.9736       934.3193       166.3447        39.0825       48.67573         1.0851        -999.25         1.9783         1.3984       -77.8685      -20.97048      0.3335262      0.3009841
      1506.0000        11.9916       937.1357       166.6677        39.0864       48.67892         1.0775        -999.25         1.9821         1.4091       -77.8788      -20.98342      0.3335941      0.3005528
      1506.5000        12.0096       939.0596        167.114        39.3723       49.09768           1.07        -999.25         1.9905          1.427       -77.8547      -20.96195      0.3425039      0.3012682
      1507.0000        12.0187       939.8311       167.6755         39.628       49.47193          1.064        -999.25         1.9981         1.4381       -77.8004      -20.91029      0.3504666      0.3029903
      1507.5000        12.0133       941.2188       168.5168        40.0726       50.12455         1.0614        -999.25         1.9992         1.4301       -77.6444      -20.75693      0.3643522      0.3081023
      1508.0000         12.008       944.3311        168.947        40.6863       51.02636         1.0593        -999.25         1.9959         1.4094       -77.3011      -20.41627      0.3835395      0.3194577
      1508.5000         12.024       946.2285       168.5303        41.6982       52.51495         1.0573        -999.25         1.9859         1.3651       -76.5115       -19.6293      0.4152117        0.34569
