#------------------------------------------------------------------------------
# Created by    : vladimir.rabinovich
# Created on    : 09/19/2023 17:20:04
#------------------------------------------------------------------------------
~Version Information Section
VERS.           2.0     :   CWLS log ASCII Standard - VERSION 2.0
WRAP.           NO      :   One line per depth step
~Well Information Section
#MNEM       .UNIT                                         VALUE :DESCRIPTION
#------------------------------------------------------------------------------
STRT        .FT                                             900 :START DEPTH
STOP        .FT                                            8286 :STOP DEPTH
STEP        .FT                                             0.5 :STEP      
NULL        .                                           -999.25 :NULL      
COMP        .                                       ALLIED CORP :COMPANY   
WELL        .                               OCS G04069 ST00BP00 :WELL      
FLD         .                                           WILDCAT :FIELD     
LOC         .                                                   :LOCATION  
CNTY        .                             GALVESTON LARGE BLOCK :LOCATION  
STAT        .                                             TEXAS :STATE     
CTRY        .                                     UNITED STATES :COUNTRY   
SRVC        .                                                   :SERVICE COMPANY
DATE        .                             9/13/2023 11:18:53 AM :LOG DATE  
API         .                                    42706400840000 :API NUMBER
UWI         .                                    42706400840000 :UNIQUE WELL ID
XCOORD      .                                  987200.391396966 :SURFACE X 
YCOORD      .                                   10401886.486665 :SURFACE Y 
LAT         .                                         28.647914 :LATITUDE  
LON         .                                        -95.037018 :LONGITUDE 
ELEV        .FT                                              83 :ELEVATION VALUE
ELEV_TYPE   .                                                KB :ELEVATION REFERENCE TYPE
~Curve Information Section
#MNEM       .UNIT                                      API CODE :CURVE DESCRIPTION
#------------------------------------------------------------------------------
DEPT        .FT                                                 :DEPTH     
ASFL        .OHMM                                               :          
CILD        .MMHO                                               :          
DPHI        .%                                                  :          
DT          .US/F                                               :          
GR          .GAPI                                               :          
GR_NORM     .GAPI                                               :GammaRay Normalized
ILD         .OHMM                                               :          
SP          .MV                                                 :          
SP_NORM     .MV                                                 :SP Normalized
VSH_GR      .V/V                                                :Volume of Shale from GR
VSH_SP      .V/V                                                :Volume of Shale from SP
~A        DEPTH           ASFL           CILD           DPHI             DT             GR        GR_NORM            ILD             SP        SP_NORM         VSH_GR         VSH_SP
# ...
      1890.0000         0.9075       1127.189        -999.25       155.7029        46.3339       52.31499         0.8245       -66.3931      -3.011459      0.4109573      0.9536698
      1890.5000         0.9036       1116.158        -999.25       156.1409        46.7367       52.71414         0.8244       -66.9037      -3.527519      0.4194498      0.9457304
      1891.0000         0.8998       1105.195        -999.25       156.6946        47.1396        53.1134         0.8249       -67.1813      -3.810566      0.4279447      0.9413759
      1891.5000         0.9066        1094.23        -999.25       156.8044        47.5424       53.51255         0.8255       -67.4121      -4.046825      0.4364372      0.9377412
      1892.0000         0.9137       1083.268        -999.25       156.0649        47.9453        53.9118          0.826       -67.6428      -4.282974       0.444932      0.9341081
      1892.5000         0.9208       1072.309        -999.25       155.0916        48.3481       54.31096         0.8265       -67.9001      -4.545731      0.4534246      0.9300657
      1893.0000         0.9302       1061.344        -999.25       154.0349         48.751       54.71021          0.827       -68.1825      -4.833584      0.4619192      0.9256372
      1893.5000         0.9479       1050.381        -999.25       151.9463        49.0432       54.99976         0.8254       -68.4648      -5.121334      0.4680801      0.9212102
      1894.0000         0.9656       1050.275        -999.25       148.5508        49.1167        55.0726         0.8197       -68.7469       -5.40889      0.4696298      0.9167863
      1894.5000         0.9711       1055.053        -999.25       148.2407        49.1902       55.14544          0.814       -69.0848      -5.752239      0.4711795       0.911504
      1895.0000         0.9589        1059.83        -999.25       147.9363        49.2636       55.21817         0.8083       -69.4567      -6.129597       0.472727      0.9056985
      1895.5000         0.9356       1064.432        -999.25       149.5488        49.3042        55.2584         0.8026       -69.8284      -6.506744      0.4735831      0.8998963
      1896.0000         0.9105        1067.76        -999.25       155.6543        49.2106       55.16565          0.797        -69.743      -6.426796      0.4716097      0.9011262
      1896.5000         0.8853        1071.09        -999.25       159.9155         49.117        55.0729         0.8026       -69.4056      -6.094852      0.4696361       0.906233
      1897.0000          0.867       1074.418        -999.25        160.647        49.0234       54.98014         0.8141       -68.9276      -5.622303      0.4676627      0.9135031
      1897.5000         0.8704       1077.748        -999.25       158.5161        48.9298       54.88739         0.8255       -68.4496      -5.149757      0.4656892       0.920773
      1898.0000         0.8873       1081.078        -999.25       155.8352        48.8362       54.79464          0.837       -67.9896      -4.695213      0.4637157       0.927766
      1898.5000         0.9064       1084.406        -999.25       153.8657        49.0469       55.00343         0.8485       -67.6813      -4.392361      0.4681582      0.9324252
      1899.0000         0.9249       1087.736        -999.25       153.3699        49.5669       55.51872         0.8654       -67.3395      -4.056015      0.4791217      0.9375998
      1899.5000         0.9328       1091.064        -999.25       154.0244         50.087       56.03412          0.887       -66.9247      -3.646667      0.4900876      0.9438974
      1900.0000         0.9407       1094.395        -999.25       155.1433         50.607       56.54941         0.9086       -66.1436      -2.871021      0.5010512      0.9558305
      1900.5000         0.9493       1081.072        -999.25       156.5486        54.3687       60.27705         0.9342       -65.2153      -1.948177      0.5803627       0.970028
      1901.0000         0.9724       1044.352        -999.25       158.1101        56.6353       62.52313         0.9605       -64.3168       -1.05513      0.6281518      0.9837672
      1901.5000         0.9954       1007.631        -999.25        157.134        58.3443       64.21666         0.9706       -63.8584     -0.6021805      0.6641843      0.9907357
      1902.0000         1.0184       989.7383        -999.25       155.7837        60.0651       65.92188         0.9707          -63.4     -0.1492348      0.7004654      0.9977041
      1902.5000         1.0319       993.6523        -999.25       154.8928        61.6525        67.4949         0.9565       -62.9416      0.3037109      0.7339341              1
      1903.0000         1.0148        1004.31        -999.25       154.1897         61.124        66.9712         0.9424       -62.4576      0.7822609      0.7227915              1
      1903.5000         0.9737       1014.973        -999.25       152.9414        59.5161       65.37785         0.9283       -61.8779       1.356506      0.6888903              1
      1904.0000         0.9365       1032.471        -999.25       152.7058        57.9075       63.78381         0.9141       -61.7111       1.517853      0.6549748              1
      1904.5000         0.9003       1050.246        -999.25       154.1704        56.1631       62.05521            0.9       -61.6568       1.566704      0.6181959              1
      1905.0000         0.8718       1068.021        -999.25       155.1914        53.1938       59.11279         0.8858       -61.6361       1.581947      0.5555912              1
      1905.5000         0.8477       1085.797        -999.25       155.5159        50.3664       56.31098         0.8715       -61.6675       1.545097      0.4959783              1
      1906.0000         0.8449       1103.572        -999.25       155.0413        47.6611       53.63018         0.8567       -61.6989       1.508244        0.43894              1
      1906.5000         0.8421       1115.576        -999.25       154.0422        45.2872       51.27777         0.8418       -61.7302       1.471489      0.3888887              1
      1907.0000         0.8392       1125.674        -999.25       153.6189        44.7896       50.78468          0.827        -61.759       1.437237      0.3783974              1
      1907.5000         0.8364       1135.771        -999.25       153.7529        45.6605       51.64769         0.8121       -61.6531       1.537685      0.3967594              1
      1908.0000         0.8335       1131.326        -999.25        154.248        46.5296       52.50892         0.7972       -61.5473       1.638031      0.4150834              1
      1908.5000         0.8396       1126.332        -999.25       154.0066        47.3779       53.34954         0.7892       -61.4414        1.73848      0.4329689              1
      1909.0000          0.859       1121.338        -999.25       152.5508        48.1318       54.09662         0.7887       -61.3355       1.838924      0.4488642              1
      1909.5000         0.8785       1116.342        -999.25       150.6462        47.3971       53.36857         0.7882       -61.3054       1.863571      0.4333738              1
      1910.0000         0.8922        1111.35        -999.25       147.8887        45.8182       51.80396         0.7877       -61.3212       1.842319      0.4000843              1
      1910.5000         0.8769       1106.354        -999.25       146.4336        44.2388       50.23886         0.7872        -61.337       1.821064      0.3667843              1
      1911.0000         0.8616       1112.457        -999.25       146.7393        42.6085       48.62332         0.7868       -61.0009       2.151714      0.3324111              1
      1911.5000         0.8463       1120.307        -999.25       149.8057        40.7397       46.77144         0.7842       -60.5964       2.550758      0.2930093              1
      1912.0000          0.831       1128.156        -999.25       154.2388        40.4512       46.48555         0.7806       -60.1919        2.94981      0.2869267              1
