#------------------------------------------------------------------------------
# Created by    : vladimir.rabinovich
# Created on    : 09/19/2023 17:20:24
#------------------------------------------------------------------------------
~Version Information Section
VERS.           2.0     :   CWLS log ASCII Standard - VERSION 2.0
WRAP.           NO      :   One line per depth step
~Well Information Section
#MNEM       .UNIT                                         VALUE :DESCRIPTION
#------------------------------------------------------------------------------
STRT        .FT                                            3071 :START DEPTH
STOP        .FT                                           14991 :STOP DEPTH
STEP        .FT                                             0.5 :STEP      
NULL        .                                           -999.25 :NULL      
COMP        .                                        TEXACO USA :COMPANY   
WELL        .                                     ST TR 00012-L :WELL      
FLD         .                                           WILDCAT :FIELD     
LOC         .                                                   :LOCATION  
CNTY        .                           HIGH ISLAND LARGE BLOCK :LOCATION  
STAT        .                                             TEXAS :STATE     
CTRY        .                                     UNITED STATES :COUNTRY   
SRVC        .                                                   :SERVICE COMPANY
DATE        .                             9/13/2023 11:19:15 AM :LOG DATE  
API         .                                    42708000680000 :API NUMBER
UWI         .                                    42708000680000 :UNIQUE WELL ID
XCOORD      .                                  1354682.00685938 :SURFACE X 
YCOORD      .                                  10733491.7088446 :SURFACE Y 
LAT         .                                        29.5724948 :LATITUDE  
LON         .                                       -93.8991324 :LONGITUDE 
ELEV        .FT                                              44 :ELEVATION VALUE
ELEV_TYPE   .                                                KB :ELEVATION REFERENCE TYPE
~Curve Information Section
#MNEM       .UNIT                                      API CODE :CURVE DESCRIPTION
#------------------------------------------------------------------------------
DEPT        .FT                                                 :DEPTH     
ASN         .OHMM                                               :          
CILD        .MMHO                                               :          
ILD         .OHMM                                               :          
SP          .MV                                                 :          
SP_NORM     .MV                                                 :SP Normalized
VSH_SP      .V/V                                                :Volume of Shale from SP
~A        DEPTH            ASN           CILD            ILD             SP        SP_NORM         VSH_SP
# ...
     12571.0000         0.6739       1734.996         0.6468        -46.638      -2.649933      0.9742198
     12571.5000         0.6709       1721.289         0.6448        -46.602      -2.607372      0.9748848
     12572.0000         0.6679       1726.508         0.6422       -46.5659      -2.564705      0.9755515
     12572.5000         0.6649       1764.309         0.6397       -46.5298      -2.522045       0.976218
     12573.0000         0.6619       1802.209         0.6371       -46.4938      -2.479481      0.9768831
     12573.5000         0.6589       1855.801         0.6346       -46.4578       -2.43692      0.9775481
     12574.0000         0.6559       1920.152          0.632       -46.4217      -2.399601      0.9781312
     12574.5000         0.6529       1951.686         0.6294       -46.3568      -2.343472      0.9790083
     12575.0000         0.6499       1980.629         0.6269       -46.2732      -2.268646      0.9801774
     12575.5000         0.6469       1995.162         0.6243       -46.1896      -2.193821      0.9813465
     12576.0000         0.6439       1999.906         0.6217       -46.1063      -2.119293       0.982511
     12576.5000         0.6409       2019.674         0.6192       -46.0227      -2.044464      0.9836802
     12577.0000         0.6379       2071.242         0.6166       -45.9391      -1.969635      0.9848495
     12577.5000         0.6349       2125.328         0.6141       -45.8556      -1.894909       0.986017
     12578.0000         0.6319       2107.961         0.6115        -45.772      -1.820084      0.9871862
     12578.5000         0.6289       2091.328          0.609       -45.6887      -1.745556      0.9883507
     12579.0000         0.6259       2074.699         0.6064       -45.6051      -1.670727      0.9895199
     12579.5000         0.6229       2058.066          0.604       -45.5215      -1.595901       0.990689
     12580.0000         0.6199       2054.934         0.6017       -45.4344      -1.517574      0.9919129
     12580.5000         0.6169       2068.703         0.5995       -45.2642      -1.356144      0.9944353
     12581.0000         0.6139       2082.445         0.5972       -45.0941       -1.19482      0.9969559
     12581.5000         0.6114       2096.215          0.595       -44.9241      -1.033592      0.9994751
     12582.0000         0.6101       2106.109         0.5928        -44.754     -0.8722687              1
     12582.5000         0.6088       2115.781         0.5905        -44.584     -0.7110367              1
     12583.0000         0.6075        2125.43         0.5883       -44.4138     -0.5496101              1
     12583.5000         0.6062       2129.086          0.586       -44.2437     -0.3882828              1
     12584.0000         0.6049       2125.078         0.5838       -44.5034     -0.6567574              1
     12584.5000         0.6036       2121.074         0.5816        -44.767     -0.9291267              1
     12585.0000         0.6023        2117.07         0.5793       -45.0298      -1.200703       0.996864
     12585.5000          0.601       2128.934         0.5779       -45.2934      -1.473076      0.9926082
     12586.0000         0.5997       2143.047          0.577       -45.5563      -1.744751      0.9883633
     12586.5000         0.5984        2157.16         0.5761       -45.8192      -2.016418      0.9841185
     12587.0000         0.5971       2172.656         0.5751       -46.0343      -2.240295      0.9806204
     12587.5000         0.5958       2194.023         0.5742       -45.7448      -1.959568      0.9850067
     12588.0000         0.5945       2215.441         0.5733       -45.4558       -1.67934      0.9893853
     12588.5000         0.5932       2236.809         0.5724       -45.1663      -1.398613      0.9937717
     12589.0000         0.5907       2260.301         0.5714       -44.8767      -1.117786      0.9981596
     12589.5000         0.5883       2284.629         0.5705       -44.5872      -0.837059              1
     12590.0000         0.5858       2307.328         0.5696       -44.2994      -0.558033              1
     12590.5000         0.5834       2327.809         0.5687       -44.0663     -0.3337021              1
     12591.0000         0.5809       2348.238         0.5678       -43.8332      -0.109375              1
     12591.5000         0.5784       2368.719         0.5668          -43.6      0.1150513              1
     12592.0000          0.576       2364.574         0.5659       -43.3669      0.3393745              1
     12592.5000         0.5735       2359.047          0.565       -43.1338      0.5637054              1
     12593.0000         0.5711       2350.238         0.5642       -42.9006      0.7881317              1
     12593.5000         0.5686       2335.828         0.5637       -42.6675       1.012459              1
     12594.0000         0.5669       2321.441         0.5632       -42.4344       1.236786              1
     12594.5000         0.5653       2307.031         0.5627       -42.2012       1.461216              1
     12595.0000         0.5638       2292.648         0.5622       -41.9681       1.685539              1
     12595.5000         0.5623       2278.238         0.5617       -41.7653       1.879566              1
     12596.0000         0.5607       2263.852         0.5612       -41.9126       1.723492              1
     12596.5000         0.5612       2249.441         0.5607       -42.0596       1.567722              1
     12597.0000         0.5627       2235.059         0.5602       -42.2065       1.412048              1
     12597.5000         0.5642       2220.648         0.5597       -42.3538       1.255974              1
     12598.0000         0.5658           2211         0.5592       -42.5007         1.1003              1
     12598.5000         0.5673        2202.82         0.5587       -42.6479      0.9443321              1
     12599.0000         0.5689       2194.641         0.5582       -42.7949       0.788559              1
     12599.5000         0.5704       2191.605         0.5577       -42.9422      0.6324844              1
     12600.0000         0.5719       2211.543         0.5572       -43.0891      0.4768105              1
     12600.5000         0.5735        2231.48         0.5567       -43.2361      0.3210411              1
     12601.0000          0.575       2247.566         0.5562       -43.3834      0.1649666              1
     12601.5000         0.5766       2227.828         0.5557       -43.5303    0.009292603              1
     12602.0000         0.5781        2208.09         0.5552       -43.6776     -0.1467819              1
     12602.5000         0.5796       2188.398         0.5547       -43.8571     -0.3350525              1
     12603.0000         0.5812       2177.715         0.5548        -44.048     -0.5347252              1
     12603.5000         0.5827       2167.719         0.5551        -44.239     -0.7344971              1
     12604.0000         0.5843       2157.703         0.5554       -44.4297     -0.9339714              1
     12604.5000          0.584       2147.684         0.5557       -44.6206      -1.133644      0.9979118
     12605.0000         0.5838       2137.668          0.556       -44.8116      -1.333416      0.9947904
     12605.5000         0.5836       2130.707         0.5563       -45.0026      -1.533192      0.9916689
     12606.0000         0.5833       2156.566         0.5566       -45.1932      -1.732563      0.9885537
     12606.5000         0.5831       2181.883         0.5568       -45.3392      -1.887333      0.9861354
     12607.0000         0.5828       2203.648         0.5571       -45.1907      -1.747608      0.9883186
     12607.5000         0.5826        2225.41         0.5574       -45.0425      -1.608181      0.9904972
     12608.0000         0.5823       2247.125         0.5577       -44.8944      -1.468857      0.9926741
     12608.5000         0.5821       2268.887          0.558       -44.7462      -1.329426      0.9948527
