#------------------------------------------------------------------------------
# Created by    : vladimir.rabinovich
# Created on    : 09/19/2023 17:19:48
#------------------------------------------------------------------------------
~Version Information Section
VERS.           2.0     :   CWLS log ASCII Standard - VERSION 2.0
WRAP.           NO      :   One line per depth step
~Well Information Section
#MNEM       .UNIT                                         VALUE :DESCRIPTION
#------------------------------------------------------------------------------
STRT        .FT                                            3926 :START DEPTH
STOP        .FT                                            8446 :STOP DEPTH
STEP        .FT                                             0.5 :STEP      
NULL        .                                           -999.25 :NULL      
COMP        .                             WALTER OIL & GAS CORP :COMPANY   
WELL        .                               OCS G06101 ST00BP00 :WELL      
FLD         .                                           WILDCAT :FIELD     
LOC         .                                                   :LOCATION  
CNTY        .                             GALVESTON LARGE BLOCK :LOCATION  
STAT        .                                             TEXAS :STATE     
CTRY        .                                     UNITED STATES :COUNTRY   
SRVC        .                                                   :SERVICE COMPANY
DATE        .                             9/13/2023 11:19:36 AM :LOG DATE  
API         .                                    42706402050000 :API NUMBER
UWI         .                                    42706402050000 :UNIQUE WELL ID
XCOORD      .                                  1036351.71170487 :SURFACE X 
YCOORD      .                                  10440832.2127806 :SURFACE Y 
LAT         .                                         28.757227 :LATITUDE  
LON         .                                        -94.885733 :LONGITUDE 
ELEV        .FT                                              88 :ELEVATION VALUE
ELEV_TYPE   .                                                KB :ELEVATION REFERENCE TYPE
~Curve Information Section
#MNEM       .UNIT                                      API CODE :CURVE DESCRIPTION
#------------------------------------------------------------------------------
DEPT        .FT                                                 :DEPTH     
ASFL        .OHMM                                               :          
CALI        .IN                                                 :          
CILD        .MMHO                                               :          
GR          .GAPI                                               :          
GR_1        .GAPI                                               :          
GR_NORM     .GAPI                                               :GammaRay Normalized
ILD         .OHMM                                               :          
ILM         .OHMM                                               :          
NPHI        .%                                                  :          
RFOC        .OHMM                                               :          
RHOB        .G/C3                                               :          
SP          .MV                                                 :          
SP_NORM     .MV                                                 :SP Normalized
VSH_GR      .V/V                                                :Volume of Shale from GR
VSH_SP      .V/V                                                :Volume of Shale from SP
~A        DEPTH           ASFL           CALI           CILD             GR           GR_1        GR_NORM            ILD            ILM           NPHI           RFOC           RHOB             SP        SP_NORM         VSH_GR         VSH_SP
# ...
      3977.0000        -999.25        -999.25        -999.25        30.8516        32.9524       60.91906        -999.25        -999.25        65.8301        -999.25        -999.25        -999.25        -999.25      0.5940226        -999.25
      3977.5000        -999.25        -999.25        -999.25        31.2963        32.0637       60.87852        -999.25        -999.25        64.1498        -999.25        -999.25        -999.25        -999.25      0.5931599        -999.25
      3978.0000        -999.25        -999.25        -999.25        31.8793        31.6508       61.01949        -999.25        -999.25        58.5363        -999.25        -999.25        -999.25        -999.25      0.5961594        -999.25
      3978.5000        -999.25        -999.25        -999.25        33.1877        32.4351       62.11256        -999.25        -999.25        56.6237        -999.25        -999.25        -999.25        -999.25      0.6194161        -999.25
      3979.0000        -999.25        -999.25        -999.25        35.5836         34.478       64.63297        -999.25        -999.25        61.2136        -999.25        -999.25        -999.25        -999.25      0.6730418        -999.25
      3979.5000        -999.25        -999.25        -999.25        38.5491        37.3703       67.90097        -999.25        -999.25        71.7252        -999.25        -999.25        -999.25        -999.25      0.7425739        -999.25
      3980.0000        -999.25        -999.25        -999.25        41.9368        40.2463       71.72311        -999.25        -999.25        78.9216        -999.25        -999.25        -999.25        -999.25      0.8238961        -999.25
      3980.5000        -999.25        -999.25        -999.25        45.5892        44.4526       75.89268        -999.25        -999.25        80.7019        -999.25        -999.25        -999.25        -999.25      0.9126103        -999.25
      3981.0000        -999.25        -999.25        -999.25        47.7604        47.0561       78.11817        -999.25        -999.25          79.23        -999.25        -999.25        -999.25        -999.25      0.9599611        -999.25
      3981.5000        -999.25        -999.25        -999.25        47.4762        47.6562       77.12096        -999.25        -999.25        75.0647        -999.25        -999.25        -999.25        -999.25      0.9387438        -999.25
      3982.0000         0.7912        -999.25       1377.342        47.2947        46.7486       76.25853         0.5236         0.5608        69.1079         0.7983        -999.25       -68.9745      -1.013336      0.9203942      0.9855238
      3982.5000         0.8141        -999.25       1932.635        47.1133        45.3607       75.39621           0.54         0.5749        68.3486         0.8099        -999.25       -66.8058       1.155365       0.902047              1
      3983.0000         0.8333        -999.25       1959.059        46.9318        44.2496       74.53378         0.5527         0.5916        68.9886         0.8217        -999.25       -66.9821      0.9790649      0.8836975              1
      3983.5000         0.8535        -999.25       1882.961        46.7503        44.1425       73.67136         0.5697          0.609        69.5328         0.8321        -999.25       -67.5797      0.3814697       0.865348              1
      3984.0000         0.8708        -999.25       1833.973        46.5687        44.3008        72.8088         0.5876         0.6266        69.5128         0.8426         1.6559       -68.3013     -0.3401337      0.8469957       0.995141
      3984.5000         0.8844        -999.25       1803.617        46.4658        44.7607       72.11372         0.6058         0.6472        68.3843         0.8582          1.666       -68.9534     -0.9922333      0.8322067      0.9858252
      3985.0000         0.8965        -999.25       1770.281        46.4222        45.9206       71.74985         0.6213         0.6688        66.4108         0.8776          1.683       -69.4081       -1.44693      0.8244649      0.9793296
      3985.5000         0.9084        -999.25       1720.535        46.3787         47.762       71.38614         0.6385         0.6865        63.6956         0.8971         1.6959       -69.1539      -1.192734      0.8167264      0.9829609
      3986.0000         0.9188        -999.25         1675.6        46.5148        49.7699       71.25815         0.6602         0.7042        59.0703         0.9109          1.709       -69.0159      -1.054733      0.8140032      0.9849324
      3986.5000         0.9288        -999.25       1628.881         47.308        51.8843       71.99258         0.6788         0.7217        56.0498          0.925         1.7205       -70.1371      -2.175934      0.8296293      0.9689152
      3987.0000          0.939        -999.25       1573.592        50.0087        53.4219       75.23062          0.696         0.7377        57.1719         0.9392          1.704       -72.1621      -4.200935      0.8985239      0.9399866
      3987.5000         0.9501        -999.25       1517.617        51.9798        54.0745       77.51106          0.715         0.7522        58.4182         0.9534         1.6776       -74.3535      -6.392334      0.9470439      0.9086809
      3988.0000         0.9596        -999.25       1456.662        53.4988        53.4814       79.19811          0.734         0.7655        59.4742         0.9679         1.6658       -75.6125      -7.651337      0.9829386      0.8906952
      3988.5000         0.9682        -999.25       1402.324        54.3507        52.3296       80.00961         0.7528         0.7777        61.9717         0.9817         1.6677       -75.7026      -7.741432              1      0.8894081
      3989.0000         0.9755        -999.25        1355.68        54.7404        51.2041       80.21445          0.766         0.7872         63.321         0.9953         1.6659       -74.8263      -6.865135              1      0.9019266
      3989.5000         0.9819        -999.25        1316.24        54.1265          50.42       79.10208         0.7751         0.7935        64.5499         1.0024          1.656       -75.2966      -7.335434      0.9808953      0.8952081
      3990.0000         0.9868        -999.25       1298.156        53.2652        49.7307       77.66499         0.7735         0.7953        65.6804         1.0004          1.653        -76.405      -8.443832       0.950319      0.8793738
      3990.5000         0.9881        -999.25       1272.135        52.5522         49.106       76.42255         0.7725         0.7909        65.7823         0.9981        -999.25       -77.3311      -9.369934       0.923884      0.8661438
      3991.0000         0.9893        -999.25       1254.246        51.9283        48.7205       75.29705         0.7743         0.7851        64.6703         0.9953        -999.25       -77.9749      -10.01373      0.8999373      0.8569466
      3991.5000         0.9906        -999.25       1242.402        51.1273        48.5917       73.93912         0.7761         0.7784        63.6384         0.9942        -999.25       -78.8429      -10.88174      0.8710451      0.8445466
      3992.0000         0.9918        -999.25       1234.465        50.5574        49.1505       72.88449         0.7747         0.7699        70.8528         0.9972        -999.25       -79.7697      -11.80853      0.8486062      0.8313067
      3992.5000         0.9922        -999.25       1236.828        49.7601        50.2559        71.5314         0.7732         0.7615        78.3169         1.0024         1.6543       -80.5325      -12.57133      0.8198171      0.8204095
      3993.0000         0.9925        -999.25       1240.414        49.2629          51.61        70.5722         0.7709         0.7578        82.9741         1.0095         1.6804       -80.5211      -12.55994      0.7994084      0.8205723
      3993.5000         0.9928        -999.25       1244.002        50.1692        52.7467       71.45509         0.7684         0.7541         85.936         1.0142         1.6999       -79.7924      -11.83123      0.8181933      0.8309824
