#------------------------------------------------------------------------------
# Created by    : vladimir.rabinovich
# Created on    : 09/19/2023 17:19:40
#------------------------------------------------------------------------------
~Version Information Section
VERS.           2.0     :   CWLS log ASCII Standard - VERSION 2.0
WRAP.           NO      :   One line per depth step
~Well Information Section
#MNEM       .UNIT                                         VALUE :DESCRIPTION
#------------------------------------------------------------------------------
STRT        .FT                                             305 :START DEPTH
STOP        .FT                                          9892.5 :STOP DEPTH
STEP        .FT                                             0.5 :STEP      
NULL        .                                           -999.25 :NULL      
COMP        .                         ATLANTIC RICHFIELD CO THE :COMPANY   
WELL        .                               OCS G07247 ST00BP00 :WELL      
FLD         .                                           WILDCAT :FIELD     
LOC         .                                                   :LOCATION  
CNTY        .                             GALVESTON LARGE BLOCK :LOCATION  
STAT        .                                             TEXAS :STATE     
CTRY        .                                     UNITED STATES :COUNTRY   
SRVC        .                                                   :SERVICE COMPANY
DATE        .                             9/13/2023 11:19:27 AM :LOG DATE  
API         .                                    42706401220000 :API NUMBER
UWI         .                                    42706401220000 :UNIQUE WELL ID
XCOORD      .                                  995038.545578968 :SURFACE X 
YCOORD      .                                  10445559.0196594 :SURFACE Y 
LAT         .                                         28.768363 :LATITUDE  
LON         .                                        -95.014888 :LONGITUDE 
ELEV        .FT                                              98 :ELEVATION VALUE
ELEV_TYPE   .                                                KB :ELEVATION REFERENCE TYPE
~Curve Information Section
#MNEM       .UNIT                                      API CODE :CURVE DESCRIPTION
#------------------------------------------------------------------------------
DEPT        .FT                                                 :DEPTH     
ALL         .OHMM                                               :          
CILD        .MMHO                                               :          
GR          .GAPI                                               :          
GR_NORM     .GAPI                                               :GammaRay Normalized
ILD         .OHMM                                               :          
SP          .MV                                                 :          
VSH_GR      .V/V                                                :Volume of Shale from GR
~A        DEPTH            ALL           CILD             GR        GR_NORM            ILD             SP         VSH_GR
# ...
      4794.0000         0.7235       1797.061        54.2211       83.15919         0.5685       109.2971              1
      4794.5000         0.7245       1814.373        54.7799       84.95171         0.5593       110.1648              1
      4795.0000         0.7254       1827.506        55.2382        86.4219         0.5583       111.0325              1
      4795.5000         0.7264       1832.379         55.573        87.4959         0.5572       110.2046              1
      4796.0000         0.7274       1832.279        55.9082       88.57115          0.556       109.2948              1
      4796.5000         0.7254        1832.18        56.2433       89.64613          0.554       108.3849              1
      4797.0000         0.7228       1827.289        56.3689       90.04903         0.5519       107.6312              1
      4797.5000         0.7201       1821.539        56.4452       90.29382         0.5499       107.1591              1
      4798.0000         0.7175       1815.787         54.156       82.95033         0.5346       106.6869              1
      4798.5000         0.7148       1810.037        50.1375       70.05957         0.4996       106.2148      0.7885015
      4799.0000          0.712       1827.422        46.7875        59.3132         0.4645       105.7427      0.5598553
      4799.5000         0.7093       1921.475        44.5683       52.19433         0.4384       105.2705        0.40839
      4800.0000         0.7065       2021.926        42.9199       46.90648         0.4123       108.2793      0.2958825
      4800.5000         0.7038       2122.473        44.9171       53.31323         0.3863        111.704      0.4321963
      4801.0000         0.7074       2222.926         47.152       60.48248         0.3602       126.1754      0.5847336
      4801.5000         0.7131       2323.473        49.3893       67.65945         0.3438        124.165       0.737435
      4802.0000          0.731        2424.02        48.2526       64.01304         0.3339       122.1859      0.6598519
      4802.5000         0.7641       2524.473        46.9408       59.80498          0.324       120.2092      0.5703186
      4803.0000         0.8194        2625.02        46.2674       57.64479         0.3141         119.63      0.5243573
      4803.5000         0.8639       2787.293        45.8629       56.34725         0.3042       125.9824        0.49675
      4804.0000         0.8998       2877.777         45.534       55.29216         0.2987       146.3875      0.4743014
      4804.5000         0.9604        2995.77        45.2106       54.25476         0.2952       148.2349       0.452229
      4805.0000         1.0079       3088.504         45.045       53.72352         0.2917       149.6208       0.440926
      4805.5000          1.052       3160.441        44.9543       53.43258         0.2882       150.5344      0.4347357
      4806.0000         1.0959       3257.441        44.8635       53.14128         0.2872       151.4119      0.4285379
      4806.5000         1.1827       3407.066        44.7728       52.85033         0.2881       151.5513      0.4223474
      4807.0000         1.1786       3641.516        44.9019        53.2645         0.2891       151.6904      0.4311596
      4807.5000         1.1389       3794.781        45.0632       53.78193         0.2901       150.9531      0.4421686
      4808.0000         1.1011        3835.59        45.2246       54.29967         0.2911        150.054      0.4531844
      4808.5000         1.0633       3832.836        45.9428       56.60354         0.2968       149.1558       0.502203
      4809.0000         1.0155       3769.859        47.1978        60.6294         0.3081       145.0828      0.5878596
      4809.5000         0.9624       3635.191        49.0925       66.70735         0.3194       131.8713      0.7171777
      4810.0000         0.7538       3363.355        50.7807       72.12289         0.3328       118.4329      0.8324019
      4810.5000         0.6526       3091.715        51.6478        74.9044         0.3506       115.2905      0.8915831
      4811.0000         0.6293       2819.883        51.3618       73.98696         0.3684       112.8107       0.872063
      4811.5000         0.6566       2327.832         51.076       73.07014         0.3861       111.6123      0.8525563
      4812.0000         0.6731       2198.867          50.79       72.15268         0.4039       111.7535      0.8330357
      4812.5000         0.6854       2126.043        50.5013       71.22659          0.421       113.5408      0.8133318
      4813.0000         0.6977       2095.898           50.2       70.26004         0.4311       116.0797      0.7927668
      4813.5000         0.7099       2092.594        49.8986        69.2932         0.4411       118.6188      0.7721957
      4814.0000         0.7178       2090.563        49.5969       68.32539         0.4512       121.1602       0.751604
      4814.5000         0.7238       2090.672        49.2955       67.35855         0.4612       123.7474       0.731033
      4815.0000         0.7298        2092.25        49.1697       66.95498         0.4713       114.8477      0.7224464
      4815.5000         0.7343       2093.828        49.3878       67.65462         0.4799       113.2874      0.7373323
      4816.0000         0.7338       2095.406        49.9142       69.34325         0.4832       111.7281      0.7732605
      4816.5000         0.7334       2096.988        50.6812       71.80367         0.4865       110.5636      0.8256099
      4817.0000         0.7329       2098.484        51.4486       74.26537         0.4898       113.1063      0.8779865
      4817.5000         0.7324       2098.754        52.1666       76.56865         0.4843       116.6686      0.9269925
      4818.0000         0.7339       2099.023         52.834       78.70956         0.4699       120.2189      0.9725438
      4818.5000         0.7361       2099.293        53.5013       80.85017         0.4556       123.6558              1
      4819.0000         0.7384       2099.563        54.1602        82.9638         0.4412       127.0902              1
      4819.5000         0.7423       2117.969        54.2039         83.104         0.4268       130.6523              1
      4820.0000         0.7532       2143.418         54.016       82.50122         0.4074       135.5881              1
      4820.5000         0.8856       2168.891         53.027       79.32865         0.3865       144.7112       0.985716
      4821.0000         0.9302       2269.125        52.0375       76.15445         0.3656       148.5149      0.9181798
      4821.5000         0.9759       2451.242        51.0486       72.98226         0.3447       150.3926      0.8506864
      4822.0000          1.008       2633.168        47.8181       62.61924         0.3278       151.2446      0.6301967
      4822.5000         1.0253        2815.09        43.1287       47.57628         0.3168       152.0105      0.3101336
      4823.0000         1.0409        2943.82        40.8768       40.35252         0.3058       152.2019      0.1564367
      4823.5000         1.0361       3036.219        38.6251       33.12936         0.2948       152.3936    0.002752345
      4824.0000         1.0188       3128.523        38.4979       32.72132         0.2838       152.5852              0
      4824.5000         0.9996       3220.922         38.738       33.49152         0.2769       152.6589     0.01045795
      4825.0000          0.971       3327.508         38.978       34.26141         0.2801       151.8889     0.02683859
      4825.5000         0.9424       3466.086        42.1271        44.3633         0.2833       151.1191      0.2417724
      4826.0000         0.9136       3386.555        45.8776       56.39438         0.2864       150.3491      0.4977528
      4826.5000         0.8803       3067.371         46.936       59.78959         0.3015       146.4297      0.5699912
      4827.0000         0.7965        2863.59        47.9931       63.18062         0.3365       134.6807      0.6421408
