#------------------------------------------------------------------------------
# Created by    : vladimir.rabinovich
# Created on    : 09/19/2023 17:19:58
#------------------------------------------------------------------------------
~Version Information Section
VERS.           2.0     :   CWLS log ASCII Standard - VERSION 2.0
WRAP.           NO      :   One line per depth step
~Well Information Section
#MNEM       .UNIT                                         VALUE :DESCRIPTION
#------------------------------------------------------------------------------
STRT        .FT                                             782 :START DEPTH
STOP        .FT                                            8251 :STOP DEPTH
STEP        .FT                                             0.5 :STEP      
NULL        .                                           -999.25 :NULL      
COMP        .                                     TALOS ERT LLC :COMPANY   
WELL        .                               OCS G06037 ST00BP00 :WELL      
FLD         .                       MATAGORDA ISLAND BLOCK 0619 :FIELD     
LOC         .                                                   :LOCATION  
CNTY        .                      MATAGORDA ISLAND LARGE BLOCK :LOCATION  
STAT        .                                             TEXAS :STATE     
CTRY        .                                     UNITED STATES :COUNTRY   
SRVC        .                                                   :SERVICE COMPANY
DATE        .                             9/13/2023 11:18:52 AM :LOG DATE  
API         .                                    42703402240000 :API NUMBER
UWI         .                                    42703402240000 :UNIQUE WELL ID
XCOORD      .                                  606760.800591327 :SURFACE X 
YCOORD      .                                  10227689.0556145 :SURFACE Y 
LAT         .                                        28.1463556 :LATITUDE  
LON         .                                       -96.2076889 :LONGITUDE 
ELEV        .FT                                              77 :ELEVATION VALUE
ELEV_TYPE   .                                                KB :ELEVATION REFERENCE TYPE
~Curve Information Section
#MNEM       .UNIT                                      API CODE :CURVE DESCRIPTION
#------------------------------------------------------------------------------
DEPT        .FT                                                 :DEPTH     
ASFL        .OHMM                                               :          
CALI        .IN                                                 :          
CILD        .MMHO                                               :          
DRHO        .G/C3                                               :          
DT          .US/F                                               :          
GR          .GAPI                                               :          
GR_NORM     .GAPI                                               :GammaRay Normalized
ILD         .OHMM                                               :          
ILM         .OHMM                                               :          
NPHI        .%                                                  :          
RHOB        .G/C3                                               :          
SFL         .OHMM                                               :          
SP          .MV                                                 :          
SP_NORM     .MV                                                 :SP Normalized
VSH_GR      .V/V                                                :Volume of Shale from GR
VSH_SP      .V/V                                                :Volume of Shale from SP
~A        DEPTH           ASFL           CALI           CILD           DRHO             DT             GR        GR_NORM            ILD            ILM           NPHI           RHOB            SFL             SP        SP_NORM         VSH_GR         VSH_SP
# ...
      7246.0000         1.2466         10.279       1019.235        -0.0239        84.2367        48.2632       43.94273         0.9349         1.0847        26.5505         2.2933         1.4242       -62.5516       -19.7441       0.232824      0.3662822
      7246.5000         1.2807        10.2547       994.1768        -0.0112         82.311        46.8084       41.07083         0.9847         1.0884        22.2636         2.3548         1.5216       -62.8164      -20.00996      0.1717197      0.3567871
      7247.0000         1.2714         10.249       979.3154         -0.004        83.7074        46.8084       41.07235         1.0269         1.0809        21.9059         2.3615         1.4243       -63.0306      -20.22523       0.171752       0.349099
      7247.5000         1.2562        10.2532       968.0635        -0.0036        87.6825        48.0408       43.50798         1.0551         1.0738        23.9229         2.3338         1.2714       -63.1683      -20.36399      0.2235741      0.3441433
      7248.0000         1.2296         10.276       983.5332        -0.0059        92.1674         50.128       47.63197         1.0551         1.0777        26.1491         2.3083         1.1836       -63.0488      -20.24555      0.3113184      0.3483731
      7248.5000         1.1921        10.3041       1006.606        -0.0071        94.3118        52.9677       53.24224         1.0213          1.089        26.8829         2.2944         1.1807       -62.7303      -19.92811      0.4306859      0.3597103
      7249.0000         1.1571        10.3312       1029.531        -0.0061        94.6604        53.8926       55.07052          0.986         1.0905        26.5744         2.3051         1.1929       -62.5878      -19.78667      0.4695855      0.3647616
      7249.5000         1.1349        10.3278       1052.332        -0.0061        95.2026        54.1948       55.66891         0.9589         1.0629        26.8957         2.3016          1.168       -63.2877      -20.48764      0.4823173      0.3397273
      7250.0000         1.1128        10.3238       1063.232        -0.0076        96.2563        55.9449       59.12706         0.9415         1.0374        28.0622         2.2656         1.0979       -64.1964       -21.3974       0.555895      0.3072356
      7250.5000         1.1135        10.3217       1063.889        -0.0129        97.3114        59.5845       66.31722         0.9285         1.0214        29.1368          2.241         1.0174       -64.4825      -21.68456      0.7088771      0.2969801
      7251.0000         1.1245        10.3217       1064.545        -0.0161        97.9768         61.968       71.02642         0.9181         1.0096         29.772         2.2353         1.0582       -64.3972      -21.60033      0.8090728      0.2999883
      7251.5000         1.1355        10.3364       1053.273        -0.0197        98.2424        62.0942       71.27719         0.9148         1.0012        29.9131         2.2504         1.1112       -64.5052      -21.70939      0.8144083      0.2960933
      7252.0000         1.1464        10.3552       1035.883        -0.0167         97.963        61.1268       69.36797         0.9204         0.9956        29.8136         2.2701         1.1568       -64.5698      -21.77505      0.7737865      0.2937482
      7252.5000         1.1561        10.3533       1020.364        -0.0095        97.6539        57.7797       62.75853         0.9364         0.9923        29.5835         2.2798         1.1885        -64.522      -21.72832      0.6331603      0.2954172
      7253.0000         1.1659        10.3488       1006.854         0.0022         97.325          55.23       57.72408         0.9595         0.9951        29.3616         2.2748          1.168       -64.4181      -21.62547      0.5260443      0.2990902
      7253.5000         1.1756        10.3575        993.333         0.0065        97.5186        53.7351       54.77299         0.9836          1.016        29.1768         2.2572         1.1227       -64.2528      -21.46124       0.463255      0.3049558
      7254.0000         1.1854        10.4076       981.6348         0.0034        97.7893        53.2971       53.90939          0.997         1.0443        29.3242         2.2413          1.094       -63.9856       -21.1951      0.4448805      0.3144608
      7254.5000         1.1951        10.5226        973.584        -0.0049        97.6322        53.8395       54.98221         0.9924         1.0656        29.6629         2.2388         1.1515       -63.4449      -20.65546      0.4677067      0.3337334
      7255.0000         1.2066        10.5457       965.5332        -0.0108        96.6743          54.29        55.8735         0.9916         1.0709         29.611         2.2551         1.2254        -62.723      -19.93462      0.4866702      0.3594777
      7255.5000         1.2213        10.5329        957.209        -0.0138        95.8466        55.1662       57.60561         1.0242         1.0705        29.0091         2.2701         1.3092       -61.8463      -19.05899      0.5235235      0.3907505
      7256.0000          1.236         10.507       936.5674        -0.0137        95.2595        57.0997       61.42603         1.0644         1.0711        28.3529         2.2741         1.2977       -61.0134      -18.22715       0.604809      0.4204589
      7256.5000         1.2507        10.4987       915.4287        -0.0115        94.5942         59.187       65.55018         1.1055         1.0907        28.2003         2.2777         1.2041       -61.3099      -18.52471       0.692557      0.4098317
      7257.0000         1.2813        10.5305       880.2969        -0.0102        93.8093        60.5394       68.22285         1.1553          1.118        28.0353         2.2882          1.158       -62.4523      -19.66817      0.7494224      0.3689938
      7257.5000         1.3092        10.5155       845.1162        -0.0078         92.791        61.3322       69.79023         1.2056         1.1563        27.7962         2.3099         1.2449       -62.9301      -20.14704      0.7827709      0.3518915
      7258.0000         1.3299         10.404       814.2021        -0.0026        91.6907        61.1555       69.44274         1.2359         1.2129        27.2177         2.3292         1.3412       -62.7282       -19.9462      0.7753775      0.3590643
      7258.5000         1.5587          10.28       784.3799        -0.0011        90.5658        60.5406       68.22975         1.2541         1.2769        26.6779         2.3328         1.4609       -62.4924      -19.71146      0.7495692      0.3674477
      7259.0000           1.62        10.3395       756.5684         -0.004        89.3502        60.3954       67.94447         1.2925         1.3389        26.2798         2.3376          1.587       -62.3053      -19.52543      0.7434993      0.3740918
      7259.5000         1.6813        10.4466       730.3682        -0.0081        87.3148         60.565       68.28094         1.3462         1.4285        25.9614         2.3607         1.7293       -62.3235      -19.54469      0.7506584       0.373404
      7260.0000         1.7158        10.5571       705.2354        -0.0125        84.8029        60.2856       67.73058         1.4039         1.4857        24.4513         2.4117         1.8825       -61.4135      -18.63575      0.7389486      0.4058659
      7260.5000         1.7309        10.5646       687.0498        -0.0167        83.8409        58.7071        64.6144         1.4589          1.483        20.6429           2.41         2.0333       -60.2039      -17.42721      0.6726469      0.4490282
      7261.0000         1.7467        10.4465       668.8633        -0.0198        84.8936        56.1898        59.6439         1.5048          1.461        19.6604         2.3973         1.8718       -59.9763      -17.20068      0.5668914      0.4571187
      7261.5000         1.7634        10.3943       652.0176        -0.0211        86.7145        53.4739       54.28117         1.5495         1.4876        21.8777         2.3887         1.6258       -60.1682      -17.39364      0.4527908      0.4502272
