#------------------------------------------------------------------------------
# Created by    : vladimir.rabinovich
# Created on    : 09/19/2023 17:20:37
#------------------------------------------------------------------------------
~Version Information Section
VERS.           2.0     :   CWLS log ASCII Standard - VERSION 2.0
WRAP.           NO      :   One line per depth step
~Well Information Section
#MNEM       .UNIT                                         VALUE :DESCRIPTION
#------------------------------------------------------------------------------
STRT        .FT                                             495 :START DEPTH
STOP        .FT                                            7007 :STOP DEPTH
STEP        .FT                                             0.5 :STEP      
NULL        .                                           -999.25 :NULL      
COMP        .                                      SHELL OIL CO :COMPANY   
WELL        .                                OCS 00718 ST00BP00 :WELL      
FLD         .                                           WILDCAT :FIELD     
LOC         .                                                   :LOCATION  
CNTY        .                             GALVESTON LARGE BLOCK :LOCATION  
STAT        .                                             TEXAS :STATE     
CTRY        .                                     UNITED STATES :COUNTRY   
SRVC        .                                                   :SERVICE COMPANY
DATE        .                             9/13/2023 11:19:25 AM :LOG DATE  
API         .                                    42706000330000 :API NUMBER
UWI         .                                    42706000330000 :UNIQUE WELL ID
XCOORD      .                                  1012682.17104467 :SURFACE X 
YCOORD      .                                  10442833.5651685 :SURFACE Y 
LAT         .                                         28.761679 :LATITUDE  
LON         .                                        -94.959691 :LONGITUDE 
ELEV        .FT                                              75 :ELEVATION VALUE
ELEV_TYPE   .                                                KB :ELEVATION REFERENCE TYPE
~Curve Information Section
#MNEM       .UNIT                                      API CODE :CURVE DESCRIPTION
#------------------------------------------------------------------------------
DEPT        .FT                                                 :DEPTH     
ASN         .OHMM                                               :          
CILD        .MMHO                                               :          
DT          .US/F                                               :          
ILD         .OHMM                                               :          
LAT         .OHMM                                               :          
LN          .OHMM                                               :          
SP          .MV                                                 :          
SP_NORM     .MV                                                 :SP Normalized
VSH_SP      .V/V                                                :Volume of Shale from SP
~A        DEPTH            ASN           CILD             DT            ILD            LAT             LN             SP        SP_NORM         VSH_SP
# ...
      3966.5000         1.0256       3325.688         89.115         0.5151        -999.25        -999.25      -102.9674      -58.37822      0.1018735
      3967.0000         1.0189       3289.004        89.0825         0.5189        -999.25        -999.25      -101.8872      -57.12723      0.1211196
      3967.5000          1.011       3252.879        89.5796          0.525        -999.25        -999.25      -100.4027      -55.40735      0.1475793
      3968.0000         0.9588       3215.254        90.2152         0.5288        -999.25        -999.25       -98.2206       -52.8784      0.1864861
      3968.5000         0.8916       3161.023        90.6805         0.5423        -999.25        -999.25       -95.2177      -49.39754      0.2400378
      3969.0000          0.812        2958.98        90.3516          0.561        -999.25        -999.25       -91.6335       -45.2425      0.3039615
      3969.5000         0.7515       2694.188        90.8209         0.5737        -999.25        -999.25       -86.5571      -39.35686      0.3945098
      3970.0000          0.762       2702.656        91.9843         0.5779        -999.25        -999.25       -84.4191      -36.87907      0.4326296
      3970.5000         0.7995       2711.121        92.4409         0.5689        -999.25        -999.25         -86.08      -38.80712      0.4029674
      3971.0000         0.8609       2727.563         91.795         0.5473        -999.25        -999.25       -91.7648      -45.40192      0.3015089
      3971.5000         0.9516       2752.645         91.082         0.5269        -999.25        -999.25      -100.5745      -55.62088      0.1442942
      3972.0000         1.0143       2777.707        91.3029         0.5114        -999.25        -999.25      -106.5951      -62.60513     0.03684411
      3972.5000         1.0313       2810.902        90.9711         0.4993        -999.25        -999.25      -107.9043      -64.12527     0.01345731
      3973.0000         1.0263       2862.051        89.9817         0.4903        -999.25        -999.25      -108.6198      -64.95687   0.0006635226
      3973.5000         1.0028        3269.98        89.7113         0.4828        -999.25        -999.25      -108.8674      -65.24582              0
      3974.0000         0.9861       3422.273        90.3312         0.4756        -999.25        -999.25      -108.5929      -64.92925    0.001088421
      3974.5000         0.9726       3410.109         91.014         0.4744        -999.25        -999.25      -107.5397      -63.70957     0.01985274
      3975.0000         0.9592       3391.926         91.428          0.481        -999.25        -999.25      -106.5311      -62.54161     0.03782132
      3975.5000         0.9454        3362.82        91.4495         0.4884        -999.25        -999.25      -105.6991      -61.57848     0.05263883
      3976.0000         0.9421       3333.734        90.4335         0.4923        -999.25        -999.25      -105.0184      -60.79082     0.06475665
      3976.5000         0.9138        3311.09        89.1017         0.4937        -999.25        -999.25      -104.3975       -60.0725     0.07580766
      3977.0000         0.8887       3290.871        87.7678         0.4949        -999.25        -999.25      -104.0645      -59.68809     0.08172173
      3977.5000         0.8678        3270.66        86.6992         0.4959        -999.25        -999.25       -103.902      -59.50141     0.08459367
      3978.0000         0.8476       3250.441        85.8296         0.4969        -999.25        -999.25       -103.569      -59.11699      0.0905078
      3978.5000         0.8223       3227.082        84.9502         0.4973        -999.25        -999.25      -101.9991      -57.29807      0.1184912
      3979.0000         0.7826       3202.289        83.1108         0.4935        -999.25        -999.25      -100.3314      -55.36571      0.1482198
      3979.5000         0.7332       3257.641         81.098         0.4879        -999.25        -999.25       -99.0437      -53.87408       0.171168
      3980.0000          0.706       3437.262        79.7776         0.4823        -999.25        -999.25       -96.8977        -51.387      0.2094307
      3980.5000         0.7521       3463.953        79.2959         0.4792        -999.25        -999.25       -97.6969      -52.31568      0.1951434
      3981.0000         0.8185       3490.668        79.7629         0.4806        -999.25        -999.25       -99.0272      -53.86029      0.1713801
      3981.5000          0.889       3526.859        80.4028          0.476        -999.25        -999.25      -100.3513      -55.39773      0.1477273
      3982.0000         0.9227       3563.141        81.3917         0.4694        -999.25        -999.25      -101.3927      -56.60728      0.1291187
      3982.5000         0.9432       3591.262        83.4734         0.4668        -999.25        -999.25      -102.4821      -57.87252      0.1096536
      3983.0000         0.9502       3611.141        85.0468         0.4666        -999.25        -999.25      -103.6931      -59.27877     0.08801886
      3983.5000         0.9323       3606.879        86.3672         0.4726        -999.25        -999.25      -104.4866      -60.20084     0.07383329
      3984.0000         0.9484       3585.609        87.7136         0.4791        -999.25        -999.25      -104.1683      -59.83347     0.07948515
      3984.5000         0.9538       3541.098        88.9634         0.4859        -999.25        -999.25       -103.662      -59.24807     0.08849129
      3985.0000         0.9865       3478.102        89.7936         0.4925        -999.25        -999.25         -103.3      -58.83002     0.09492276
      3985.5000         0.9992       3388.102        90.1575         0.5019        -999.25        -999.25      -103.0873      -58.58512      0.0986905
      3986.0000         0.9739       3322.246        89.9884         0.5125        -999.25        -999.25      -103.1527      -58.66275     0.09749609
      3986.5000         0.9724       3276.621        89.7272         0.5247        -999.25        -999.25      -103.2877       -58.8211     0.09506003
      3987.0000         0.9663           2775        90.1239          0.538        -999.25        -999.25      -102.2021      -57.56386      0.1144022
      3987.5000         0.9117       2746.723        90.6663         0.5503        -999.25        -999.25       -99.9812      -54.98992      0.1540013
      3988.0000         0.8268       2733.715        90.0697         0.5512        -999.25        -999.25       -95.0618      -49.28636      0.2417483
      3988.5000         0.7416        2739.59        88.7131         0.5354        -999.25        -999.25       -89.4226      -42.74801      0.3423383
      3989.0000         0.7076       2774.262        87.1918         0.5194        -999.25        -999.25        -86.386      -39.22806      0.3964913
      3989.5000         0.7367       2812.086        86.1825         0.5071        -999.25        -999.25       -85.3418      -38.01882      0.4150951
      3990.0000         0.8526        2856.84        85.7998         0.5068        -999.25        -999.25       -90.0853      -43.52194      0.3304317
      3990.5000         0.9313       2911.098        86.1943         0.5167        -999.25        -999.25      -101.3772      -56.61966      0.1289283
      3991.0000         1.0644       2669.172        88.8126         0.5392        -999.25        -999.25      -103.7239      -59.34306     0.08702985
      3991.5000         1.2095        2516.98        91.4274         0.5662        -999.25        -999.25      -104.6323      -60.39838     0.07079415
      3992.0000         1.4691       2372.434         92.113         0.5959        -999.25        -999.25      -105.2032      -61.06227     0.06058044
      3992.5000         1.7046       2313.105         87.238         0.6248        -999.25        -999.25      -103.7753      -59.40803     0.08603034
