#------------------------------------------------------------------------------
# Created by    : vladimir.rabinovich
# Created on    : 09/19/2023 17:21:51
#------------------------------------------------------------------------------
~Version Information Section
VERS.           2.0     :   CWLS log ASCII Standard - VERSION 2.0
WRAP.           NO      :   One line per depth step
~Well Information Section
#MNEM       .UNIT                                         VALUE :DESCRIPTION
#------------------------------------------------------------------------------
STRT        .FT                                             692 :START DEPTH
STOP        .FT                                            6716 :STOP DEPTH
STEP        .FT                                             0.5 :STEP      
NULL        .                                           -999.25 :NULL      
COMP        .                                  FMP OPERATING CO :COMPANY   
WELL        .                                          SL 89457 :WELL      
FLD         .                                           WILDCAT :FIELD     
LOC         .                                                   :LOCATION  
CNTY        .                      MATAGORDA ISLAND LARGE BLOCK :LOCATION  
STAT        .                                             TEXAS :STATE     
CTRY        .                                     UNITED STATES :COUNTRY   
SRVC        .                                                   :SERVICE COMPANY
DATE        .                             9/13/2023 11:12:01 AM :LOG DATE  
API         .                                    42703303600000 :API NUMBER
UWI         .                                    42703303600000 :UNIQUE WELL ID
XCOORD      .                                  499223.886875127 :SURFACE X 
YCOORD      .                                  10221285.9321665 :SURFACE Y 
LAT         .                                        28.1205561 :LATITUDE  
LON         .                                       -96.5403272 :LONGITUDE 
ELEV        .FT                                              81 :ELEVATION VALUE
ELEV_TYPE   .                                                KB :ELEVATION REFERENCE TYPE
~Curve Information Section
#MNEM       .UNIT                                      API CODE :CURVE DESCRIPTION
#------------------------------------------------------------------------------
DEPT        .FT                                                 :DEPTH     
CALI        .IN                                                 :          
CILD        .MMHO                                               :          
DT          .US/F                                               :          
DTL         .US/F                                               :          
GR          .GAPI                                               :          
GR_NORM     .GAPI                                               :GammaRay Normalized
ILD         .OHMM                                               :          
ILM         .OHMM                                               :          
SFLU        .OHMM                                               :          
SP          .MV                                                 :          
SP_NORM     .MV                                                 :SP Normalized
TENS        .LBS                                                :          
VSH_GR      .V/V                                                :Volume of Shale from GR
VSH_SP      .V/V                                                :Volume of Shale from SP
~A        DEPTH           CALI           CILD             DT            DTL             GR        GR_NORM            ILD            ILM           SFLU             SP        SP_NORM           TENS         VSH_GR         VSH_SP
# ...
      6704.0000        -999.25       1052.152        -999.25        -999.25        79.7331       81.37012         0.8704         0.8987         0.9323        69.6216         1.6971        3540.76              1              1
      6704.5000        -999.25       1069.989        -999.25        -999.25        79.1372       80.50632         0.9238          0.907         0.9667        69.1263         1.2018        3531.24              1              1
      6705.0000        -999.25       1087.826        -999.25        -999.25        79.5364       81.08498         0.9408         0.9194         1.0217         68.631         0.7065       3531.668              1              1
      6705.5000        -999.25       1076.504        -999.25        -999.25        83.7194       87.14846         0.9208         0.9237         1.1248         68.534         0.6095       3551.822              1              1
      6706.0000        -999.25       1092.556        -999.25        -999.25        86.4089       91.04702         0.9069         0.9581         1.0893        69.1345           1.21       3554.061              1              1
      6706.5000        -999.25       1093.894        -999.25        -999.25        -999.25        -999.25         0.9066         0.9848         1.0646        69.2358         1.3113       3556.301        -999.25              1
      6707.0000        -999.25       1095.231        -999.25        -999.25        -999.25        -999.25         0.9068         1.0122         1.0791        68.5418         0.6173       3558.541        -999.25              1
      6707.5000        -999.25       1096.569        -999.25        -999.25        -999.25        -999.25         0.9068         1.0499         1.0938        67.7481        -0.1764        3560.78        -999.25              1
      6708.0000        -999.25       1097.907        -999.25        -999.25        -999.25        -999.25         0.9035         1.0891         1.1088        66.7555         -1.169        3563.02        -999.25              1
      6708.5000        -999.25       1099.245        -999.25        -999.25        -999.25        -999.25         0.8984          1.099         1.1245         66.161        -1.7635        3565.26        -999.25              1
      6709.0000        -999.25       1100.583        -999.25        -999.25        -999.25        -999.25         0.8984         1.1193         1.1296        65.9646        -1.9599         3567.5        -999.25              1
      6709.5000        -999.25       1101.921        -999.25        -999.25        -999.25        -999.25         0.8984         1.1183         1.0989        66.0668        -1.8577       3569.739        -999.25              1
      6710.0000        -999.25       1103.259        -999.25        -999.25        -999.25        -999.25         0.8984         1.1172         1.1192        66.6664        -1.2581       3571.979        -999.25              1
      6710.5000        -999.25       1104.597        -999.25        -999.25        -999.25        -999.25         0.8983         1.1161         1.1192        67.3658        -0.5587       3574.219        -999.25              1
      6711.0000        -999.25       1105.935        -999.25        -999.25        -999.25        -999.25         0.8983          1.115         1.1191        68.1643         0.2398       3576.758        -999.25              1
      6711.5000        -999.25       1107.273        -999.25        -999.25        -999.25        -999.25         0.8983          1.114         1.1191        68.6643         0.7398       3566.736        -999.25              1
      6712.0000        -999.25       1108.611        -999.25        -999.25        -999.25        -999.25         0.8982         1.1129          1.119        68.8658         0.9413       3557.637        -999.25              1
      6712.5000        -999.25       1109.949        -999.25        -999.25        -999.25        -999.25         0.8982         1.1118          1.119        68.9677         1.0432       3478.425        -999.25              1
      6713.0000        -999.25        1110.87        -999.25        -999.25        -999.25        -999.25         0.8981         1.1108         1.1189        69.5671         1.6426       3339.724        -999.25              1
      6713.5000        -999.25       1110.668        -999.25        -999.25        -999.25        -999.25         0.8981         1.1097         1.1189        69.4716         1.5471       3221.094        -999.25              1
      6714.0000        -999.25       1110.466        -999.25        -999.25        -999.25        -999.25         0.8981         1.1086         1.1188        69.2741         1.3496       3145.122        -999.25              1
      6714.5000        -999.25        -999.25        -999.25        -999.25        -999.25        -999.25        -999.25        -999.25        -999.25        69.3466         1.4221       3016.169        -999.25              1
      6715.0000        -999.25        -999.25        -999.25        -999.25        -999.25        -999.25        -999.25        -999.25        -999.25        69.4192         1.4947       2917.803        -999.25              1
      6715.5000        -999.25        -999.25        -999.25        -999.25        -999.25        -999.25        -999.25        -999.25        -999.25        -999.25        -999.25       2819.437        -999.25        -999.25
      6716.0000        -999.25        -999.25        -999.25        -999.25        -999.25        -999.25        -999.25        -999.25        -999.25        -999.25        -999.25       2721.071        -999.25        -999.25
