#------------------------------------------------------------------------------
# Created by    : vladimir.rabinovich
# Created on    : 09/19/2023 17:20:57
#------------------------------------------------------------------------------
~Version Information Section
VERS.           2.0     :   CWLS log ASCII Standard - VERSION 2.0
WRAP.           NO      :   One line per depth step
~Well Information Section
#MNEM       .UNIT                                         VALUE :DESCRIPTION
#------------------------------------------------------------------------------
STRT        .FT                                             601 :START DEPTH
STOP        .FT                                            9006 :STOP DEPTH
STEP        .FT                                             0.5 :STEP      
NULL        .                                           -999.25 :NULL      
COMP        .                                        SUN OIL CO :COMPANY   
WELL        .                               OCS G01715 ST00BP00 :WELL      
FLD         .                                           WILDCAT :FIELD     
LOC         .                                                   :LOCATION  
CNTY        .                                BRAZOS LARGE BLOCK :LOCATION  
STAT        .                                             TEXAS :STATE     
CTRY        .                                     UNITED STATES :COUNTRY   
SRVC        .                                                   :SERVICE COMPANY
DATE        .                             9/13/2023 11:18:52 AM :LOG DATE  
API         .                                    42704000710000 :API NUMBER
UWI         .                                    42704000710000 :UNIQUE WELL ID
XCOORD      .                                  842225.693118258 :SURFACE X 
YCOORD      .                                  10368215.6352389 :SURFACE Y 
LAT         .                                          28.54781 :LATITUDE  
LON         .                                        -95.486614 :LONGITUDE 
ELEV        .FT                                              79 :ELEVATION VALUE
ELEV_TYPE   .                                                KB :ELEVATION REFERENCE TYPE
~Curve Information Section
#MNEM       .UNIT                                      API CODE :CURVE DESCRIPTION
#------------------------------------------------------------------------------
DEPT        .FT                                                 :DEPTH     
ASN         .OHMM                                               :          
CALI        .IN                                                 :          
CILD        .MMHO                                               :          
DT          .US/F                                               :          
ILD         .OHMM                                               :          
SP          .MV                                                 :          
SP_NORM     .MV                                                 :SP Normalized
VSH_SP      .V/V                                                :Volume of Shale from SP
~A        DEPTH            ASN           CALI           CILD             DT            ILD             SP        SP_NORM         VSH_SP
# ...
      5055.5000         0.7476        12.2298       2586.855       139.7993         0.4508       -76.6952       -31.4571      0.3784265
      5056.0000         0.7696        12.2404       2686.883       138.7954         0.4846       -73.9236       -28.6855      0.4349898
      5056.5000         0.7819        12.2504       2498.695       140.6797         0.5212       -72.6406       -27.4025      0.4611734
      5057.0000         0.7979        12.2604       2379.836       139.7158         0.5651       -68.8815       -23.6434      0.5378898
      5057.5000         0.8249        12.2763       2243.426       142.7036          0.616       -63.9773       -18.7392      0.6379755
      5058.0000         0.8707        12.2925       2002.932        143.731         0.6764       -60.3101        -15.072      0.7128163
      5058.5000         0.9218        12.3168       2002.564       140.1646         0.7383       -56.2772       -11.0391      0.7951204
      5059.0000         0.9884        12.3385       1933.314       136.2952         0.7901       -54.6306      -9.392502      0.8287244
      5059.5000         1.0416        12.3563       1718.352       134.6885         0.8278       -53.6908      -8.452702       0.847904
      5060.0000         1.0694        12.3723       1607.193       133.6592           0.85       -51.5522      -6.314102      0.8915489
      5060.5000         1.0754        12.3858        1551.98       132.4944         0.8563       -49.2345      -3.996403      0.9388489
      5061.0000         1.0692        12.3938       1444.941       132.3286         0.8628       -48.4551      -3.217003      0.9547551
      5061.5000         1.0744        12.3934       1264.375       132.5798           0.87       -48.8235      -3.585403      0.9472367
      5062.0000         1.0741         12.368       1230.592       132.0942         0.8783       -49.2619      -4.023804      0.9382897
      5062.5000         1.0691        12.3441       1198.033       136.2466         0.8818       -49.0294      -3.791302      0.9430346
      5063.0000         1.0631        12.3546       1180.381       137.5598         0.8794       -47.7204      -2.482304      0.9697489
      5063.5000         1.0582        12.3864       1162.742       138.8079         0.8734       -47.0971      -1.859001      0.9824694
      5064.0000         1.0567        12.4306       1149.943       138.7649          0.868       -46.5873      -1.349201      0.9928734
      5064.5000         1.0541        12.4863       1147.871       138.0598         0.8627       -46.0593     -0.8212013              1
      5065.0000         1.0317        12.5307        1151.82       135.4958         0.8562       -45.4535     -0.2154007              1
      5065.5000         0.9884        12.5975       1166.357       135.0164         0.8423       -44.9028      0.3352966              1
      5066.0000         0.9947        12.5978       1180.908       135.8184         0.8251       -44.4807      0.7573967              1
      5066.5000         1.0101        12.6451       1196.832       137.8577          0.798        -44.299      0.9390984              1
      5067.0000         0.9588        12.7129       1216.936       145.1152         0.7646       -44.4008      0.8372993              1
      5067.5000         0.9331        12.7545       1237.053       146.2754         0.7436       -44.7031      0.5349998              1
      5068.0000         0.9232        12.7146       1255.328       146.6082         0.7284       -45.1273      0.1107979              1
      5068.5000         0.9192        12.6228       1271.645       146.8743         0.7192       -45.4238     -0.1857033              1
      5069.0000         0.9167        12.6323       1287.973       148.3699         0.7159       -45.7761      -0.538002              1
      5069.5000         0.9151        12.7216       1304.289       149.2878         0.7237       -46.2112     -0.9731026              1
      5070.0000         0.9177        12.7666       1328.805       149.0818         0.7329        -46.491      -1.252903      0.9948387
      5070.5000          0.921        12.8399       1361.217       149.0842         0.7419       -46.4051      -1.167004      0.9965917
      5071.0000         0.9282        12.8597       1377.826       148.4172         0.7508       -46.1484     -0.9103012              1
      5071.5000         0.9368        12.7754       1387.082       146.2649         0.7591       -45.9329     -0.6948013              1
      5072.0000          0.947        12.7296       1382.969       144.6121         0.7659       -45.7564     -0.5183029              1
      5072.5000         0.9549        12.7349       1378.855       143.7024          0.769        -45.547     -0.3089027              1
      5073.0000         0.9525        12.7632       1374.744       143.2122         0.7708       -45.3971     -0.1590004              1
      5073.5000         0.9435        12.7758         1370.6       144.7437           0.77       -45.3406     -0.1025009              1
      5074.0000         0.9367         12.791       1364.869       146.8721         0.7702       -45.2835    -0.04540253              1
      5074.5000         0.9381        12.8033       1359.145        148.356         0.7728       -45.2437   -0.005599976              1
      5075.0000         0.9484        12.7335       1353.414       149.3687         0.7752       -45.2526    -0.01450348              1
      5075.5000           0.96        12.6532       1347.684       149.2202         0.7743       -45.4626     -0.2245026              1
      5076.0000          0.963        12.5967       1341.953       147.4731         0.7733       -45.5898     -0.3517036              1
      5076.5000         0.9621        12.7068       1336.223       145.7261         0.7702       -45.5239     -0.2858009              1
      5077.0000         0.9608        12.7629       1330.498       144.5527         0.7679       -45.2505    -0.01240158              1
      5077.5000         0.9625        12.6916       1324.189       145.1309          0.767       -44.9838      0.2542992              1
      5078.0000         0.9641        12.6143       1314.188       145.8347         0.7713       -44.7777      0.4603996              1
      5078.5000         0.9639        12.5349       1304.186       146.5679         0.7796       -44.6979      0.5401993              1
      5079.0000         0.9616        12.5853       1294.188       147.0286         0.7866        -44.598      0.6400986              1
      5079.5000         0.9591        12.6004       1284.186        146.031         0.7917       -44.4871      0.7509995              1
      5080.0000         0.9549        12.5236       1279.965       145.3042         0.7914       -44.4509      0.7871971              1
      5080.5000         0.9497        12.5057       1284.461       148.1653         0.7859       -44.5287      0.7093964              1
      5081.0000         0.9614        12.5444       1288.957       150.8489         0.7772       -44.7022      0.5358963              1
      5081.5000         0.9793        12.4614       1293.453       152.7517          0.768       -44.8846      0.3534966              1
      5082.0000         0.9941        12.3668       1297.947       152.7217         0.7712       -44.9943      0.2437973              1
      5082.5000         1.0071        12.3663        1294.74       149.3049         0.7763       -44.9177      0.3203964              1
      5083.0000          1.013        12.4387       1280.092       145.5317         0.7972       -44.7437         0.4944              1
      5083.5000         1.0076        12.4303        1265.43        141.656         0.8111       -44.6406      0.5974998              1
      5084.0000         1.0071        12.3782       1249.764       140.7319         0.8216       -44.6052      0.6328964              1
      5084.5000         1.0263        12.3344       1233.473       141.5469         0.8248       -44.8795      0.3580017              1
