#------------------------------------------------------------------------------
# Created by    : vladimir.rabinovich
# Created on    : 09/19/2023 17:19:48
#------------------------------------------------------------------------------
~Version Information Section
VERS.           2.0     :   CWLS log ASCII Standard - VERSION 2.0
WRAP.           NO      :   One line per depth step
~Well Information Section
#MNEM       .UNIT                                         VALUE :DESCRIPTION
#------------------------------------------------------------------------------
STRT        .FT                                            3926 :START DEPTH
STOP        .FT                                            8446 :STOP DEPTH
STEP        .FT                                             0.5 :STEP      
NULL        .                                           -999.25 :NULL      
COMP        .                             WALTER OIL & GAS CORP :COMPANY   
WELL        .                               OCS G06101 ST00BP00 :WELL      
FLD         .                                           WILDCAT :FIELD     
LOC         .                                                   :LOCATION  
CNTY        .                             GALVESTON LARGE BLOCK :LOCATION  
STAT        .                                             TEXAS :STATE     
CTRY        .                                     UNITED STATES :COUNTRY   
SRVC        .                                                   :SERVICE COMPANY
DATE        .                             9/13/2023 11:19:36 AM :LOG DATE  
API         .                                    42706402050000 :API NUMBER
UWI         .                                    42706402050000 :UNIQUE WELL ID
XCOORD      .                                  1036351.71170487 :SURFACE X 
YCOORD      .                                  10440832.2127806 :SURFACE Y 
LAT         .                                         28.757227 :LATITUDE  
LON         .                                        -94.885733 :LONGITUDE 
ELEV        .FT                                              88 :ELEVATION VALUE
ELEV_TYPE   .                                                KB :ELEVATION REFERENCE TYPE
~Curve Information Section
#MNEM       .UNIT                                      API CODE :CURVE DESCRIPTION
#------------------------------------------------------------------------------
DEPT        .FT                                                 :DEPTH     
ASFL        .OHMM                                               :          
CALI        .IN                                                 :          
CILD        .MMHO                                               :          
GR          .GAPI                                               :          
GR_1        .GAPI                                               :          
GR_NORM     .GAPI                                               :GammaRay Normalized
ILD         .OHMM                                               :          
ILM         .OHMM                                               :          
NPHI        .%                                                  :          
RFOC        .OHMM                                               :          
RHOB        .G/C3                                               :          
SP          .MV                                                 :          
SP_NORM     .MV                                                 :SP Normalized
VSH_GR      .V/V                                                :Volume of Shale from GR
VSH_SP      .V/V                                                :Volume of Shale from SP
~A        DEPTH           ASFL           CALI           CILD             GR           GR_1        GR_NORM            ILD            ILM           NPHI           RFOC           RHOB             SP        SP_NORM         VSH_GR         VSH_SP
# ...
      6051.0000         0.9051         9.6272       1650.266        63.4961        62.1778       60.94667         0.5816         0.6342        33.5185         0.9673         2.3453       -60.6198      -15.72099        0.59461      0.7754145
      6051.5000         0.8963         9.6126       1630.279        66.0647        65.5782       64.31686         0.5937         0.6405        34.7344         0.9226         2.3529       -58.0783      -13.17796      0.6663161      0.8117435
      6052.0000         0.8876         9.6026        1610.27        67.9304        69.8553        66.7645         0.6069         0.6471        35.6934         0.9013         2.3455       -56.1912      -11.28933      0.7183935      0.8387238
      6052.5000         0.8843         9.5918       1590.285        69.3064        72.6494       68.56941         0.6189         0.6559        36.4636         0.8909         2.3333       -54.3115        -9.4081       0.756796      0.8655986
      6053.0000         0.8833          9.573       1573.594        70.6825        72.3842       70.37446         0.6302         0.6641        37.1287         0.8849         2.3215        -52.826       -7.92107      0.7952012      0.8868418
      6053.5000         0.8844         9.5542       1562.342        71.6903        70.8658        71.6961         0.6378         0.6678        37.5486         0.8775         2.3152       -53.3162       -8.40974      0.8233212      0.8798609
      6054.0000         0.8855         9.5409        1551.09        72.2023        70.4629       72.36701         0.6445         0.6715        37.4763         0.8698         2.3102       -54.8206      -9.912613       0.837596      0.8583912
      6054.5000         0.8866         9.5279       1539.824        72.7144        71.8081       73.03803         0.6501         0.6735        37.6938           0.86         2.3053       -55.4787      -10.56918       0.851873      0.8490117
      6055.0000         0.8884         9.5158       1528.572        73.2263        73.9681       73.70882         0.6544         0.6754        38.8467         0.8517         2.3001       -52.7326      -7.821556       0.866145      0.8882635
      6055.5000         0.8904         9.5045        1517.32        73.7383        75.4146       74.37972         0.6587         0.6772        39.6516         0.8556         2.2962       -49.7919       -4.87933      0.8804196      0.9302953
      6056.0000         0.8923         9.4931       1507.854        74.2502        75.2743        75.0505         0.6617         0.6782        39.9536         0.8635         2.2957       -49.3953      -4.481201      0.8946915      0.9359828
      6056.5000         0.8942         9.4851       1499.436        74.7616        74.9048       75.72061         0.6643         0.6792        39.8853         0.8773         2.2982       -51.9924      -7.076771      0.9089492      0.8989033
      6057.0000         0.8959         9.4785       1491.018        75.2723        76.6587       76.38983         0.6667         0.6802        39.5944         0.8872         2.3003       -53.1188      -8.201641      0.9231879      0.8828337
      6057.5000         0.8957         9.4738       1482.611        75.7794        77.9636       77.05431         0.6684         0.6812        39.0759         0.8947         2.2997       -53.5593      -8.640614      0.9373257      0.8765627
      6058.0000         0.8954         9.4739       1476.404        76.2858         78.532       77.71786         0.6701         0.6822        39.3577         0.8978         2.2979       -54.0955      -9.175285      0.9514438      0.8689245
      6058.5000         0.8952          9.472       1473.213        76.7928        78.1145        78.3822          0.672         0.6836        40.4384         0.8938         2.2925       -53.8214      -8.899654      0.9655788      0.8728621
      6059.0000         0.8947          9.464       1470.021        77.2999        77.5947       79.04668         0.6738          0.686        40.8621         0.8925         2.2871       -52.1237      -7.200424      0.9797165      0.8971368
      6059.5000         0.8934         9.4609       1472.141        77.7725        77.6238       79.66588         0.6757         0.6885        40.8771         0.8946          2.282       -50.8372      -5.912399       0.992891      0.9155372
      6060.0000         0.8921         9.4708       1478.258        78.1853        78.3955        80.2066         0.6761         0.6899        40.4647         0.8985         2.2811       -51.7701      -6.843769              1      0.9022319
      6060.5000         0.8907         9.4807       1484.375        78.5978        79.4567        80.7469         0.6762         0.6925        39.9123         0.9032         2.2814       -53.2871      -8.359241              1      0.8805823
      6061.0000         0.8894         9.4912       1490.496          78.76        80.2347        80.9587         0.6764         0.6918        39.4916         0.9087         2.2828        -52.389      -7.459614              1      0.8934341
      6061.5000         0.8871          9.502       1496.613        78.5879         80.061       80.73173         0.6778         0.6911        39.5591         0.9143         2.2866       -50.7065      -5.775585              1      0.9174916
      6062.0000         0.8846         9.5145        1502.73         77.903        78.4814        79.8317         0.6799         0.6907        39.5621         0.9165         2.2918       -50.6187      -5.686253      0.9964192      0.9187678
      6062.5000         0.8821          9.529       1509.174         77.218        76.9695       78.93155         0.6819         0.6913        39.8488         0.9167          2.296       -50.8931      -5.959126       0.977267      0.9148696
      6063.0000         0.8796          9.542       1517.289        77.8832        76.5112       79.80354         0.6805         0.6919        40.3309         0.9092         2.2958       -50.1349      -5.199398      0.9958199      0.9257229
      6063.5000         0.8771         9.5501       1525.398        78.5712        77.1482       80.70543          0.675         0.6924        40.9456         0.8995         2.2916       -49.3618       -4.42477              1       0.936789
      6064.0000         0.8746         9.5567       1533.508        79.1249        78.0103       81.43108         0.6694         0.6934        41.2224         0.8899         2.2859       -49.2955      -4.356941              1       0.937758
      6064.5000         0.8716         9.5569       1541.617        79.3427        78.9393       81.71585         0.6674         0.6944         41.364         0.8806         2.2827       -49.7793      -4.839211              1      0.9308684
      6065.0000         0.8686         9.5569       1549.727        79.5605        79.5577       82.00063         0.6658         0.6954         41.548         0.8748         2.2801       -50.0641      -5.122482              1      0.9268217
      6065.5000         0.8656         9.5533       1557.842        79.7784        79.8798       82.28552          0.664          0.695        41.7435          0.872         2.2803       -49.5166      -4.573456              1      0.9346649
      6066.0000         0.8626         9.5497       1565.951        79.7914        79.8483       82.30149         0.6613         0.6943        41.7021         0.8711         2.2804       -49.0273      -4.082626              1      0.9416768
      6066.5000         0.8596         9.5466       1576.877         79.775        79.5251       82.27888         0.6586         0.6935        41.5464         0.8732         2.2802       -49.0729      -4.126698              1      0.9410472
      6067.0000         0.8566         9.5436       1591.266        79.7587        79.3112       82.25639         0.6555         0.6864         41.206         0.8792         2.2806       -49.6385      -4.690769              1       0.932989
      6067.5000         0.8536         9.5427       1605.656        79.7423        79.4563       82.23378         0.6491         0.6794        40.7097         0.8877         2.2832       -50.3843       -5.43504              1      0.9223566
