#------------------------------------------------------------------------------
# Created by    : vladimir.rabinovich
# Created on    : 09/19/2023 17:20:49
#------------------------------------------------------------------------------
~Version Information Section
VERS.           2.0     :   CWLS log ASCII Standard - VERSION 2.0
WRAP.           NO      :   One line per depth step
~Well Information Section
#MNEM       .UNIT                                         VALUE :DESCRIPTION
#------------------------------------------------------------------------------
STRT        .FT                                             507 :START DEPTH
STOP        .FT                                            6530 :STOP DEPTH
STEP        .FT                                             0.5 :STEP      
NULL        .                                           -999.25 :NULL      
COMP        .                                      SHELL OIL CO :COMPANY   
WELL        .                                ST TR 00692-L SE/4 :WELL      
FLD         .                                           WILDCAT :FIELD     
LOC         .                                                   :LOCATION  
CNTY        .                      MATAGORDA ISLAND LARGE BLOCK :LOCATION  
STAT        .                                             TEXAS :STATE     
CTRY        .                                     UNITED STATES :COUNTRY   
SRVC        .                                                   :SERVICE COMPANY
DATE        .                             9/13/2023 11:12:05 AM :LOG DATE  
API         .                                    42703000180000 :API NUMBER
UWI         .                                    42703000180000 :UNIQUE WELL ID
XCOORD      .                                  399042.886430441 :SURFACE X 
YCOORD      .                                  10159669.4462586 :SURFACE Y 
LAT         .                                        27.9430215 :LATITUDE  
LON         .                                       -96.8445442 :LONGITUDE 
ELEV        .FT                                              84 :ELEVATION VALUE
ELEV_TYPE   .                                                DF :ELEVATION REFERENCE TYPE
~Curve Information Section
#MNEM       .UNIT                                      API CODE :CURVE DESCRIPTION
#------------------------------------------------------------------------------
DEPT        .FT                                                 :DEPTH     
ASN         .OHMM                                               :          
CILD        .MMHO                                               :          
ILD         .OHMM                                               :          
SP          .MV                                                 :          
SP_NORM     .MV                                                 :SP Normalized
VSH_SP      .V/V                                                :Volume of Shale from SP
~A        DEPTH            ASN           CILD            ILD             SP        SP_NORM         VSH_SP
       507.0000         0.8482       855.0459         0.3459       -32.2622        -3.7736      0.7789714
       507.5000         0.7755       807.3467         0.4844        -30.755        -2.5157              1
       508.0000         0.7247       714.2578         0.5966       -29.7197        -1.2579              1
       508.5000         0.6814       695.3994          0.708       -28.9333              0              1
       509.0000         0.6289       667.0947         0.8967       -29.2463              0              1
       509.5000         0.5326       651.4277         1.0632       -31.7453              0              1
       510.0000         0.5177       632.3535         1.3703       -34.2452              0              1
       510.5000         0.5782       608.2988         1.4883       -36.9618              0              1
       511.0000         0.6487       588.6504         1.4705       -43.9006              0              1
       511.5000         0.6939       635.2949         1.4526       -44.8262              0              1
       512.0000         0.7369       661.3799         1.4364       -45.5679              0              1
       512.5000         0.7799        680.667         1.4266       -46.3098              0              1
       513.0000         0.8229       705.1426         1.4169       -47.0179              0              1
       513.5000         0.8658       707.3096         1.4346       -47.7202              0              1
       514.0000         0.9028       694.3701         1.6728       -48.2379              0              1
       514.5000         0.9354       681.4287         1.7745       -48.7461              0              1
       515.0000         0.9751       637.9326         1.8879       -49.2106              0              1
       515.5000         1.0232       588.5137         2.0141       -49.5955              0              1
       516.0000         1.0714       551.8242         2.0663       -49.8804        -0.8238              1
       516.5000         1.0958       499.0889         2.0357       -50.1652        -1.1086              1
       517.0000         1.1266       446.3472         1.9599       -50.4501        -1.3935              1
       517.5000         1.1864       432.1401          1.884       -50.7076         -1.651              1
       518.0000         1.2153       442.5054         1.8082         -50.91        -1.8534              1
       518.5000         1.2278       473.2954         1.6866       -51.1125        -2.0559              1
       519.0000         1.2125       609.1553         1.5765       -51.3212        -2.2646              1
       519.5000         1.1964       659.8594         1.4768       -51.5457        -2.4891              1
       520.0000         1.1818       712.3848         1.3783       -51.7634        -2.7068              1
       520.5000         1.1686       770.9326         1.3288       -51.8393        -2.7827              1
       521.0000         1.1554       797.2168         1.2793       -51.9152        -2.8586              1
       521.5000         1.1422       826.0557         1.2298       -51.9911        -2.9345              1
       522.0000          1.129       866.9043         1.1803       -52.1269        -3.0703      0.9799142
       522.5000         1.1158       880.0703         1.1555       -52.2991        -3.2425      0.9307142
       523.0000         1.1053       853.5937         1.1308       -52.4562        -3.3996      0.8858286
       523.5000         1.0983       840.3838          1.106       -52.5897        -3.5331      0.8476858
       524.0000         1.0977        857.623         1.0793       -52.7232        -3.6666      0.8095428
       524.5000         1.1056       877.7705          1.055       -52.8568        -3.8002      0.7713714
       525.0000         1.1136       896.4629         1.0496       -52.9902        -3.9336      0.7332572
       525.5000         1.1215       873.6836         1.0441       -53.1332        -4.0766         0.6924
       526.0000         1.1294       843.0254         1.0728       -53.2845        -4.2279      0.6491714
       526.5000         1.1391       812.8135         1.1147       -53.4554        -4.3988      0.6003429
       527.0000         1.1534       782.6035         1.1565       -53.6167        -4.5601      0.5542571
       527.5000         1.1676       752.3906         1.2003       -53.7098        -4.6532      0.5276571
       528.0000         1.1819       722.1777         1.2592       -53.7573        -4.7007      0.5140858
       528.5000         1.1961        698.582         1.3262       -53.6865        -4.6299      0.5343143
       529.0000         1.2109       675.2666         1.3988       -53.6156         -4.559      0.5545714
       529.5000         1.2259       646.8018         1.4241        -53.506        -4.4494      0.5858857
       530.0000         1.2409       624.2871         1.4392       -53.3011        -4.2445      0.6444286
       530.5000          1.257       622.4258         1.4418       -53.0961        -4.0395      0.7029999
       531.0000         1.2737       638.4326         1.4347       -52.7277        -3.6711      0.8082572
       531.5000         1.2905       654.4395         1.4147       -52.3504        -3.2938      0.9160571
       532.0000         1.3072       670.4463          1.391       -52.2537        -3.1971      0.9436857
       532.5000          1.324       687.2187         1.3833       -52.3468        -3.2902      0.9170857
       533.0000         1.3381       718.3623         1.4288       -52.4399        -3.3833      0.8904857
       533.5000         1.3466       727.8623         1.3884       -52.5737        -3.5171      0.8522571
       534.0000         1.3551       737.0937         1.3515       -52.7207        -3.6641      0.8102571
       534.5000         1.3557        746.292         1.3193       -52.9255        -3.8689      0.7517428
       535.0000         1.3499       775.0684         1.2871       -53.1343        -4.0777      0.6920857
       535.5000         1.3378       803.9648         1.2549       -53.2873        -4.2307      0.6483714
       536.0000         1.3253       823.7305         1.2227       -53.4398        -4.3832      0.6047999
       536.5000         1.3129       824.4961         1.2044       -53.6569        -4.6003      0.5427715
       537.0000         1.3004       800.8633         1.1899       -53.7364        -4.6798      0.5200571
       537.5000         1.2879       744.0273         1.2004       -53.7439        -4.6873      0.5179142
       538.0000         1.2755       669.0674         1.2168       -53.7514        -4.6948      0.5157714
       538.5000         1.2639       647.3203         1.2332       -53.7266          -4.67      0.5228571
       539.0000         1.2688       625.5742         1.2531       -53.6624        -4.6058         0.5412
       539.5000         1.2738       585.0234         1.3015       -53.5981        -4.5415      0.5595714
       540.0000         1.2787       561.1064         1.3498       -53.5338        -4.4772      0.5779428
       540.5000         1.2836       547.3232         1.3883       -53.4888        -4.4322         0.5908
       541.0000          1.292        533.542         1.4184        -53.466        -4.4094      0.5973143
       541.5000         1.3092       519.7588         1.4485       -53.4553        -4.3987      0.6003714
       542.0000         1.3263       507.2837         1.4786       -53.4786         -4.422      0.5937143
       542.5000         1.3435       519.4717         1.5428        -53.502        -4.4454      0.5870285
       543.0000         1.3606       570.0273         1.6332       -53.5093        -4.4527      0.5849428
       543.5000         1.3778        620.582         1.7147       -53.4974        -4.4408      0.5883428
       544.0000         1.3949       665.1553         1.7933       -53.4855        -4.4289      0.5917429
       544.5000         1.4109       715.7451         1.8719       -53.4736         -4.417      0.5951429
