#------------------------------------------------------------------------------
# Created by    : vladimir.rabinovich
# Created on    : 09/19/2023 17:22:42
#------------------------------------------------------------------------------
~Version Information Section
VERS.           2.0     :   CWLS log ASCII Standard - VERSION 2.0
WRAP.           NO      :   One line per depth step
~Well Information Section
#MNEM       .UNIT                                         VALUE :DESCRIPTION
#------------------------------------------------------------------------------
STRT        .FT                                              96 :START DEPTH
STOP        .FT                                            7107 :STOP DEPTH
STEP        .FT                                             0.5 :STEP      
NULL        .                                           -999.25 :NULL      
COMP        .                                  XTO OFFSHORE INC :COMPANY   
WELL        .                               OCS G23162 ST00BP00 :WELL      
FLD         .                                 BRAZOS BLOCK 0398 :FIELD     
LOC         .                                                   :LOCATION  
CNTY        .                                BRAZOS LARGE BLOCK :LOCATION  
STAT        .                                             TEXAS :STATE     
CTRY        .                                     UNITED STATES :COUNTRY   
SRVC        .                                                   :SERVICE COMPANY
DATE        .                             9/13/2023 11:18:28 AM :LOG DATE  
API         .                                    42704403370000 :API NUMBER
UWI         .                                    42704403370000 :UNIQUE WELL ID
XCOORD      .                                  864551.184430364 :SURFACE X 
YCOORD      .                                  10381025.1526549 :SURFACE Y 
LAT         .                                        28.5842785 :LATITUDE  
LON         .                                       -95.4179199 :LONGITUDE 
ELEV        .FT                                             100 :ELEVATION VALUE
ELEV_TYPE   .                                                KB :ELEVATION REFERENCE TYPE
~Curve Information Section
#MNEM       .UNIT                                      API CODE :CURVE DESCRIPTION
#------------------------------------------------------------------------------
DEPT        .FT                                                 :DEPTH     
DCAL        .IN                                                 :          
DPHI        .FRAC                                               :          
DT          .US/F                                               :          
GR          .GAPI                                               :          
GR_NORM     .GAPI                                               :GammaRay Normalized
HT01        .OHMM                                               :          
HT02        .OHMM                                               :          
HT03        .OHMM                                               :          
HT06        .OHMM                                               :          
HT09        .OHMM                                               :          
HT12        .OHMM                                               :          
NPHI        .FRAC                                               :          
RWA         .OHMM                                               :          
SP          .MV                                                 :          
TENS        .LB                                                 :          
VSH_GR      .V/V                                                :Volume of Shale from GR
~A        DEPTH           DCAL           DPHI             DT             GR        GR_NORM           HT01           HT02           HT03           HT06           HT09           HT12           NPHI            RWA             SP           TENS         VSH_GR
# ...
      4752.0000         0.8619         0.0137         72.525         37.208       28.56987         0.6893         0.5375         0.4768          0.415         0.3892         0.3746         0.1074         0.0019        -999.25       2790.478              0
      4752.5000         0.9372         0.0849        53.3562        38.9398       30.49292         0.7665         0.5874         0.5215         0.4488         0.4205         0.4047         0.1289         0.0162        -999.25       2777.434              0
      4753.0000         0.8157         0.2087        49.7344        47.2136       39.68486         0.7839         0.6029         0.5396         0.4622         0.4333         0.4177         0.2197         0.0495        -999.25       2777.434      0.1422312
      4753.5000         0.6511         0.3042        69.3938        48.6086       41.23369         0.7125         0.5655         0.5141         0.4426         0.4165          0.403         0.3194          0.064        -999.25       2786.661      0.1751849
      4754.0000         0.4256         0.3356       103.6625        41.7298       33.58941         0.6039         0.5002         0.4634         0.4034         0.3818         0.3713         0.3581         0.0619        -999.25       2787.297     0.01254053
      4754.5000          0.311         0.3436       122.4891          39.06       30.62179         0.5167         0.4435         0.4181         0.3679         0.3503         0.3426         0.3607         0.0601        -999.25       2772.343              0
      4755.0000         0.2453         0.3424       122.2312        41.7057       33.56029         0.4632         0.4077         0.3899         0.3458         0.3311         0.3254         0.3548         0.0542        -999.25       2754.209     0.01192101
      4755.5000         0.2934          0.335       118.0891        43.0045       35.00223          0.436         0.3904         0.3778         0.3369         0.3241         0.3199         0.3557         0.0505        -999.25       2756.436     0.04260067
      4756.0000         0.3424           0.33       115.6172         41.393       33.21051         0.4242         0.3848         0.3761         0.3366         0.3253         0.3224         0.3635         0.0476        -999.25       2784.115     0.00447886
      4756.5000         0.3634         0.3225       113.7047        41.1044       32.88866         0.4178         0.3834         0.3782         0.3397         0.3297          0.328         0.3716         0.0443        -999.25       2816.567              0
      4757.0000         0.3251         0.3192       117.1469        40.7837       32.53115         0.4083          0.379         0.3768         0.3399         0.3315         0.3311         0.3716         0.0449        -999.25        2826.43              0
      4757.5000          0.286         0.3272       121.4312        40.5673       32.28954         0.3904         0.3666          0.367         0.3332         0.3266         0.3279         0.3769         0.0479        -999.25       2803.841              0
      4758.0000         0.2646         0.3389       117.5953        38.6271        30.1326          0.365         0.3464         0.3485         0.3192         0.3147         0.3172         0.3765         0.0483        -999.25       2769.162              0
      4758.5000         0.2385         0.3488       117.4688        38.6271       30.13143         0.3376         0.3233         0.3263         0.3019         0.2992         0.3024         0.3805         0.0502        -999.25       2751.982              0
      4759.0000         0.1555         0.3496       119.9937        38.2904       29.75615         0.3143          0.303         0.3064         0.2862          0.285         0.2886         0.3874         0.0461        -999.25       2766.935              0
      4759.5000         0.1273          0.339       119.0578        37.8815       29.30063         0.2982         0.2887         0.2926         0.2754         0.2752         0.2793         0.3894         0.0402        -999.25       2808.295              0
      4760.0000         0.1843         0.3345       116.3625        39.5892        31.1969         0.2894          0.281         0.2853         0.2702         0.2708         0.2755         0.3815         0.0411        -999.25       2853.473              0
      4760.5000         0.2729         0.3441       115.5734        40.5512       32.26463         0.2862         0.2784         0.2832         0.2695         0.2709         0.2762         0.3734         0.0445        -999.25       2877.652              0
      4761.0000         0.3089         0.3499       116.9797        41.8901       33.75112         0.2858         0.2781         0.2834         0.2709         0.2729         0.2789         0.3651          0.043        -999.25       2873.198     0.01598131
      4761.5000         0.2909         0.3432       118.0938        39.8938       31.53184         0.2853         0.2775          0.283         0.2716         0.2742         0.2808         0.3742         0.0402        -999.25       2849.973              0
      4762.0000         0.2357         0.3404          116.7        37.3203       28.67123         0.2829         0.2749         0.2804         0.2702         0.2732         0.2801         0.3852         0.0413        -999.25       2827.066              0
      4762.5000         0.2221           0.34       115.1906        37.6089       28.99071          0.278         0.2699         0.2752         0.2661         0.2695         0.2764         0.3824         0.0395        -999.25       2814.021              0
      4763.0000         0.2696         0.3353       115.6312        35.8692       27.05655         0.2712          0.263         0.2679           0.26         0.2634         0.2702          0.398         0.0376        -999.25       2806.704              0
      4763.5000         0.2795         0.3373       117.3266        36.1658       27.38493         0.2647         0.2565         0.2608         0.2537         0.2572         0.2638         0.4001         0.0389        -999.25       2799.068              0
      4764.0000         0.3234         0.3397       117.6453        41.4893       33.29876         0.2641         0.2554         0.2593         0.2527         0.2561         0.2626         0.3843         0.0383        -999.25        2793.66    0.006356584
      4764.5000         0.4323         0.3356       115.1812        45.1692       37.38637         0.2758         0.2658         0.2694         0.2624          0.266         0.2728         0.3798         0.0378        -999.25       2793.978     0.09332697
      4765.0000         0.5852         0.3299       115.6453        46.1072       38.42742         0.3056         0.2928         0.2963         0.2878         0.2919         0.2999         0.3877         0.0398        -999.25        2798.75      0.1154771
      4765.5000         0.7245         0.3283       114.5391        44.6641        36.8228         0.3588         0.3405         0.3442         0.3327         0.3376         0.3477         0.3881         0.0444        -999.25       2801.614     0.08133608
      4766.0000         0.8008         0.3348       112.1797        44.2953       36.41185         0.4328         0.4054         0.4099         0.3931         0.3992         0.4124         0.3795         0.0519        -999.25       2799.386     0.07259255
      4766.5000         0.7874          0.346       112.9516        45.2814       37.50635         0.4969         0.4602          0.466         0.4439         0.4507         0.4665         0.3825         0.0603        -999.25       2792.705     0.09587974
      4767.0000         0.6259         0.3583       115.6312        43.5737       35.60773         0.4993         0.4619         0.4688         0.4465         0.4527         0.4679         0.3813         0.0643        -999.25       2784.751     0.05548372
      4767.5000         0.4932         0.3626       115.3172        42.9083       34.86723         0.4407         0.4115         0.4182         0.4007         0.4055         0.4172         0.3824         0.0599        -999.25       2778.707     0.03972829
