#------------------------------------------------------------------------------
# Created by    : vladimir.rabinovich
# Created on    : 09/19/2023 17:22:42
#------------------------------------------------------------------------------
~Version Information Section
VERS.           2.0     :   CWLS log ASCII Standard - VERSION 2.0
WRAP.           NO      :   One line per depth step
~Well Information Section
#MNEM       .UNIT                                         VALUE :DESCRIPTION
#------------------------------------------------------------------------------
STRT        .FT                                              96 :START DEPTH
STOP        .FT                                            7107 :STOP DEPTH
STEP        .FT                                             0.5 :STEP      
NULL        .                                           -999.25 :NULL      
COMP        .                                  XTO OFFSHORE INC :COMPANY   
WELL        .                               OCS G23162 ST00BP00 :WELL      
FLD         .                                 BRAZOS BLOCK 0398 :FIELD     
LOC         .                                                   :LOCATION  
CNTY        .                                BRAZOS LARGE BLOCK :LOCATION  
STAT        .                                             TEXAS :STATE     
CTRY        .                                     UNITED STATES :COUNTRY   
SRVC        .                                                   :SERVICE COMPANY
DATE        .                             9/13/2023 11:18:28 AM :LOG DATE  
API         .                                    42704403370000 :API NUMBER
UWI         .                                    42704403370000 :UNIQUE WELL ID
XCOORD      .                                  864551.184430364 :SURFACE X 
YCOORD      .                                  10381025.1526549 :SURFACE Y 
LAT         .                                        28.5842785 :LATITUDE  
LON         .                                       -95.4179199 :LONGITUDE 
ELEV        .FT                                             100 :ELEVATION VALUE
ELEV_TYPE   .                                                KB :ELEVATION REFERENCE TYPE
~Curve Information Section
#MNEM       .UNIT                                      API CODE :CURVE DESCRIPTION
#------------------------------------------------------------------------------
DEPT        .FT                                                 :DEPTH     
DCAL        .IN                                                 :          
DPHI        .FRAC                                               :          
DT          .US/F                                               :          
GR          .GAPI                                               :          
GR_NORM     .GAPI                                               :GammaRay Normalized
HT01        .OHMM                                               :          
HT02        .OHMM                                               :          
HT03        .OHMM                                               :          
HT06        .OHMM                                               :          
HT09        .OHMM                                               :          
HT12        .OHMM                                               :          
NPHI        .FRAC                                               :          
RWA         .OHMM                                               :          
SP          .MV                                                 :          
TENS        .LB                                                 :          
VSH_GR      .V/V                                                :Volume of Shale from GR
~A        DEPTH           DCAL           DPHI             DT             GR        GR_NORM           HT01           HT02           HT03           HT06           HT09           HT12           NPHI            RWA             SP           TENS         VSH_GR
# ...
       560.0000        -999.25        -999.25        -999.25        84.9311       96.97899         2.6848         2.3565          2.206         2.2395          2.243         2.2479        -999.25        -999.25        94.7055       707.0376              1
       560.5000        -999.25        -999.25        -999.25        83.8911       95.78251         2.4919          2.225         2.1033         2.1279         2.1291         2.1327        -999.25        -999.25        95.6931       707.0376              1
       561.0000        -999.25        -999.25        -999.25        85.2041        97.2005          2.409         2.1775         2.0727         2.0896         2.0892         2.0919        -999.25        -999.25        96.2135       707.0376              1
       561.5000        -999.25        -999.25        -999.25        83.2671       95.00736         2.4344         2.2184         2.1215         2.1316           2.13         2.1321        -999.25        -999.25        96.4086       707.0376              1
       562.0000        -999.25        -999.25        -999.25         78.782       89.98299         2.5587         2.3438          2.249         2.2525           2.25         2.2519        -999.25        -999.25        96.5269       707.0376              1
       562.5000        -999.25        -999.25        -999.25        74.4269       85.10309         2.7429         2.5232         2.4296         2.4265         2.4233         2.4251        -999.25        -999.25        97.0177       707.0376              1
       563.0000        -999.25        -999.25        -999.25        75.0379       85.74106         2.9545         2.7304         2.6397           2.63         2.6263         2.6281        -999.25        -999.25        98.4429       708.5963              1
       563.5000        -999.25        -999.25        -999.25         78.652       89.71581         3.1546         2.9324         2.8489         2.8335         2.8297         2.8316        -999.25        -999.25       100.3058       711.4019              1
       564.0000        -999.25        -999.25        -999.25        76.9749       87.81145          3.323         3.1114         3.0396          3.021         3.0175         3.0195        -999.25        -999.25       101.7132       712.9607              1
       564.5000        -999.25        -999.25        -999.25        70.2668       80.31709         3.4325         3.2419         3.1864         3.1682         3.1658         3.1675        -999.25        -999.25       102.3933       714.2075              1
       565.0000        -999.25        -999.25        -999.25        65.8727       75.39384         3.4466         3.2885         3.2525         3.2391         3.2381         3.2392        -999.25        -999.25       102.5826       713.2726      0.9019966
       565.5000        -999.25        -999.25        -999.25        65.3916       74.81838         3.4407         3.3164         3.2992          3.294         3.2947         3.2948        -999.25        -999.25       102.3105        712.649      0.8897528
       566.0000        -999.25        -999.25        -999.25        65.4046       74.79191          3.457         3.3655         3.3658         3.3709         3.3732         3.3719        -999.25        -999.25       101.8552       712.9607      0.8891895
       566.5000        -999.25        -999.25        -999.25        64.6636       73.92765         3.4985         3.4409         3.4591         3.4764         3.4805         3.4775        -999.25        -999.25       101.3111       712.9607      0.8708011
       567.0000        -999.25        -999.25        -999.25        60.2435       68.97552         3.5614         3.5419         3.5807         3.6123         3.6182         3.6129        -999.25        -999.25       100.9918       713.5842      0.7654365
       567.5000        -999.25        -999.25        -999.25        54.5624       62.62226         3.6127         3.6381         3.7014         3.7489         3.7567         3.7486        -999.25        -999.25       101.1219       715.4546      0.6302609
       568.0000        -999.25        -999.25        -999.25        49.0242       56.42779         3.6139         3.6908         3.7814         3.8454         3.8548         3.8437        -999.25        -999.25       101.5181       714.8313      0.4984636
       568.5000        -999.25        -999.25        -999.25        47.6332       54.84133         3.5701         3.7025         3.8214         3.9022          3.913         3.8987        -999.25        -999.25       101.5299       712.9607      0.4647091
       569.0000        -999.25        -999.25        -999.25        56.5644       64.72396         3.4455         3.6302         3.7751         3.8712         3.8829         3.8658        -999.25        -999.25       101.0864        710.155      0.6749779
       569.5000        -999.25        -999.25        -999.25        69.1227       78.63671         3.2302         3.4538         3.6192         3.7275         3.7396         3.7204        -999.25        -999.25       100.3472       707.0376      0.9709939
       570.0000        -999.25        -999.25        -999.25        73.0488       82.95813         2.9659         3.2124         3.3913         3.5082         3.5202         3.4997        -999.25        -999.25        99.3537       707.0376              1
       570.5000        -999.25        -999.25        -999.25        68.1607         77.486         2.7071          2.966         3.1526         3.2755         3.2873         3.2663        -999.25        -999.25         97.958       707.0376      0.9465106
       571.0000        -999.25        -999.25        -999.25        64.5466       73.42941          2.484         2.7515         2.9424         3.0702         3.0819         3.0605        -999.25        -999.25        96.7812       707.0376      0.8602003
       571.5000        -999.25        -999.25        -999.25        65.9247       74.91972         2.3027         2.5788         2.7726         2.9049         2.9167         2.8951        -999.25        -999.25        96.5506       707.0376       0.891909
       572.0000        -999.25        -999.25        -999.25        67.8097       76.97325          2.172         2.4621         2.6601         2.7976         2.8098          2.788        -999.25        -999.25        97.1478       707.0376      0.9356011
       572.5000        -999.25        -999.25        -999.25        67.2897       76.35456         2.0891         2.4017         2.6064         2.7507         2.7637         2.7414        -999.25        -999.25        98.1473       707.0376      0.9224375
       573.0000        -999.25        -999.25        -999.25        65.1056       73.88686         2.0348          2.376         2.5895         2.7415         2.7554         2.7326        -999.25        -999.25        99.4542       708.5963      0.8699332
       573.5000        -999.25        -999.25        -999.25        62.1936       70.61039         1.9928          2.365         2.5886         2.7484         2.7635         2.7403        -999.25        -999.25       100.4122       709.8431      0.8002211
       574.0000        -999.25        -999.25        -999.25        63.7406       72.28836         1.9408         2.3373         2.5697         2.7354         2.7518         2.7286        -999.25        -999.25       100.1757       709.8431      0.8359225
       574.5000        -999.25        -999.25        -999.25        68.3557       77.37534          1.869         2.2768         2.5148         2.6835          2.701         2.6784        -999.25        -999.25        99.3714        710.155      0.9441561
       575.0000        -999.25        -999.25        -999.25        70.3058        79.5012         1.7923         2.2038         2.4465         2.6168         2.6352         2.6137        -999.25        -999.25        98.4843        710.155      0.9893872
       575.5000        -999.25        -999.25        -999.25        67.1077       75.90684         1.7373         2.1588         2.4101         2.5838         2.6036         2.5832        -999.25        -999.25        97.9876       711.0902      0.9129114
