#------------------------------------------------------------------------------
# Created by    : vladimir.rabinovich
# Created on    : 09/19/2023 17:20:28
#------------------------------------------------------------------------------
~Version Information Section
VERS.           2.0     :   CWLS log ASCII Standard - VERSION 2.0
WRAP.           NO      :   One line per depth step
~Well Information Section
#MNEM       .UNIT                                         VALUE :DESCRIPTION
#------------------------------------------------------------------------------
STRT        .FT                                            2653 :START DEPTH
STOP        .FT                                           10423 :STOP DEPTH
STEP        .FT                                             0.5 :STEP      
NULL        .                                           -999.25 :NULL      
COMP        .                                       MONSANTO CO :COMPANY   
WELL        .                                     ST TR 00150-L :WELL      
FLD         .                                           WILDCAT :FIELD     
LOC         .                                                   :LOCATION  
CNTY        .                             GALVESTON LARGE BLOCK :LOCATION  
STAT        .                                             TEXAS :STATE     
CTRY        .                                     UNITED STATES :COUNTRY   
SRVC        .                                                   :SERVICE COMPANY
DATE        .                             9/13/2023 11:19:24 AM :LOG DATE  
API         .                                    42706300340000 :API NUMBER
UWI         .                                    42706300340000 :UNIQUE WELL ID
XCOORD      .                                  1113316.22146511 :SURFACE X 
YCOORD      .                                  10612518.3672968 :SURFACE Y 
LAT         .                                         29.232517 :LATITUDE  
LON         .                                       -94.6530532 :LONGITUDE 
ELEV        .FT                                              81 :ELEVATION VALUE
ELEV_TYPE   .                                                KB :ELEVATION REFERENCE TYPE
~Curve Information Section
#MNEM       .UNIT                                      API CODE :CURVE DESCRIPTION
#------------------------------------------------------------------------------
DEPT        .FT                                                 :DEPTH     
ASN         .OHMM                                               :          
CILD        .MMHO                                               :          
ILD         .OHMM                                               :          
SP          .MV                                                 :          
SP_NORM     .MV                                                 :SP Normalized
VSH_SP      .V/V                                                :Volume of Shale from SP
~A        DEPTH            ASN           CILD            ILD             SP        SP_NORM         VSH_SP
# ...
      4705.0000         0.7467        2751.25         0.4141        -83.287      -26.31731      0.4112254
      4705.5000          0.773         3029.5         0.3633       -87.4698      -30.50011       0.313951
      4706.0000         0.7993         3307.5         0.3295       -90.3093      -33.33961      0.2479161
      4706.5000         0.8256        3585.75         0.3046       -93.9092      -36.93951      0.1641975
      4707.0000         0.8468       3979.602         0.2798       -96.7979       -39.8282     0.09701858
      4707.5000         0.8489       4194.711         0.2549      -100.3748      -43.40511     0.01383475
      4708.0000         0.8176       4250.242         0.2461      -100.0175      -43.04781     0.02214405
      4708.5000         0.7723       4276.125         0.2442        -99.347       -42.3773     0.03773712
      4709.0000          0.716       4284.227         0.2423       -98.6765       -41.7068     0.05333018
      4709.5000         0.6657       4292.328         0.2404       -97.9661      -40.99641     0.06985101
      4710.0000         0.6264       4321.563           0.24       -98.5818      -41.61211     0.05553241
      4710.5000         0.6322       4363.234         0.2409       -99.8772       -42.9075     0.02540695
      4711.0000         0.7452       4401.531         0.2418      -100.8553       -43.8856    0.002660352
      4711.5000         0.8471       4430.023         0.2427       -101.391       -44.4213              0
      4712.0000         0.8916       4463.758         0.2436      -101.6481      -44.67841              0
      4712.5000         0.9168       4508.773         0.2445       -101.905       -44.9353              0
      4713.0000         0.9003       4560.453         0.2454      -101.9813       -45.0116              0
      4713.5000         0.8837        4643.07         0.2463       -102.026       -45.0563              0
      4714.0000         0.8716       4738.641         0.2472      -102.0708       -45.1011              0
      4714.5000         0.8683       4788.039           0.25       -102.006       -45.0363              0
      4715.0000         0.8665       4754.969         0.2528      -101.6624       -44.6927              0
      4715.5000         0.8601       4721.922         0.2556      -101.3185       -44.3488              0
      4716.0000          0.853       4684.164         0.2584       -100.975       -44.0053              0
      4716.5000         0.8222       4639.688         0.2612      -100.5471       -43.5774    0.009827903
      4717.0000         0.7659       4595.164          0.264          -99.9      -42.93031     0.02487662
      4717.5000         0.6599       4519.359         0.2669       -99.2529       -42.2832     0.03992551
      4718.0000         0.6052       4403.938         0.2697       -98.6057        -41.636     0.05497671
      4718.5000         0.5726       4338.523         0.2726       -98.0537      -41.08401     0.06781378
      4719.0000         0.5956       4262.523         0.2756       -97.6182      -40.64851     0.07794172
      4719.5000         0.6202       4158.766         0.2785       -97.5997         -40.63     0.07837198
      4720.0000         0.6386        4074.09         0.2815       -97.8121      -40.84241     0.07343239
      4720.5000         0.6529       3945.277         0.2845       -98.0244       -41.0547     0.06849528
      4721.0000         0.6508       3850.102         0.2874        -98.077      -41.10731     0.06727192
      4721.5000         0.6487       3735.094         0.2904        -97.959       -40.9893      0.0700162
      4722.0000         0.6417       3756.313         0.2934       -97.8409       -40.8712     0.07276278
      4722.5000         0.6319       3773.535         0.2963       -97.7229       -40.7532     0.07550687
      4723.0000         0.6221       3757.219         0.2993       -97.6047        -40.635     0.07825577
      4723.5000         0.6176       3740.902         0.3018       -97.4867      -40.51701     0.08099986
      4724.0000         0.6159        3724.59         0.3012       -97.3688       -40.3991     0.08374183
      4724.5000         0.6142       3708.273         0.3007       -97.1537      -40.18401     0.08874405
      4725.0000         0.6125       3693.219         0.3001        -96.848       -39.8783      0.0958534
      4725.5000         0.6108       3694.715         0.2996       -96.5422       -39.5725      0.1029651
      4726.0000         0.6097        3759.93          0.299       -96.2366      -39.26691      0.1100719
      4726.5000          0.613       3886.633         0.2984       -95.9308      -38.96111      0.1171836
      4727.0000         0.6164       3991.223         0.2979       -95.6316       -38.6619      0.1241418
      4727.5000         0.6197        4129.75         0.2932       -95.3789       -38.4092      0.1300185
      4728.0000         0.6237         4243.5         0.2874       -95.1261       -38.1564      0.1358976
      4728.5000         0.6312        4357.25         0.2816       -95.1183      -38.14861      0.1360789
      4729.0000         0.6387           4471         0.2759       -95.6298       -38.6601      0.1241837
      4729.5000         0.6068       4577.336         0.2701       -95.9939       -39.0242      0.1157163
      4730.0000         0.5725       4767.094         0.2644       -95.6014      -38.63171       0.124844
      4730.5000         0.5382       4838.953         0.2586        -95.209       -38.2393      0.1339697
      4731.0000         0.5124       4821.273         0.2542       -94.8165       -37.8468      0.1430976
      4731.5000         0.4883       4765.523         0.2533       -94.5356       -37.5659      0.1496302
      4732.0000         0.4668       4708.992         0.2525       -94.8593       -37.8896      0.1421023
      4732.5000         0.4539       4652.453         0.2516       -95.1825      -38.21281      0.1345859
      4733.0000         0.4552       4595.914         0.2508       -95.6122       -38.6425       0.124593
      4733.5000         0.4565       4537.273           0.25       -95.4926       -38.5229      0.1273743
      4734.0000         0.4567       4478.281         0.2492       -94.5052      -37.53551       0.150337
      4734.5000         0.4543         4548.5         0.2485       -93.4675       -36.4978      0.1744697
      4735.0000         0.4495       4623.867         0.2477       -92.3479       -35.3782      0.2005069
      4735.5000         0.4397       4688.391          0.247       -91.2296       -34.2599      0.2265139
      4736.0000         0.4299       4752.922         0.2461       -90.2208      -33.25111      0.2499743
      4736.5000         0.4388       4834.219         0.2443       -90.0399      -33.07021      0.2541813
      4737.0000         0.4534       4887.547         0.2425       -91.2395      -34.26981      0.2262836
      4737.5000         0.4681       4884.969         0.2407       -92.4464      -35.47671      0.1982161
      4738.0000         0.4905       4807.594          0.239        -93.251       -36.2813      0.1795046
      4738.5000         0.5151       4718.063         0.2372       -93.9572       -36.9875      0.1630813
      4739.0000         0.5398        4628.43         0.2354       -94.7384      -37.76871      0.1449138
      4739.5000         0.5644       4553.648         0.2352       -96.4681      -39.49841      0.1046882
      4740.0000         0.5865       4481.766         0.2371       -97.9777        -41.008     0.06958132
      4740.5000         0.6077       4431.383         0.2391       -99.3076      -42.33791     0.03865335
      4741.0000         0.6335       4390.516         0.2411      -100.2463       -43.2766     0.01682317
      4741.5000         0.6472       4368.828          0.243      -100.9464      -43.97671    0.000541687
      4742.0000         0.6422        4354.68          0.245      -101.6458       -44.6761              0
      4742.5000         0.6363       4423.664          0.247      -101.7714       -44.8017              0
