#------------------------------------------------------------------------------
# Created by    : vladimir.rabinovich
# Created on    : 09/19/2023 17:22:47
#------------------------------------------------------------------------------
~Version Information Section
VERS.           2.0     :   CWLS log ASCII Standard - VERSION 2.0
WRAP.           NO      :   One line per depth step
~Well Information Section
#MNEM       .UNIT                                         VALUE :DESCRIPTION
#------------------------------------------------------------------------------
STRT        .FT                                            4658 :START DEPTH
STOP        .FT                                           10852 :STOP DEPTH
STEP        .FT                                             0.5 :STEP      
NULL        .                                           -999.25 :NULL      
COMP        .                             WALTER OIL & GAS CORP :COMPANY   
WELL        .                               OCS G04721 ST00BP00 :WELL      
FLD         .                              GALVESTON BLOCK 0350 :FIELD     
LOC         .                                                   :LOCATION  
CNTY        .                             GALVESTON LARGE BLOCK :LOCATION  
STAT        .                                             TEXAS :STATE     
CTRY        .                                     UNITED STATES :COUNTRY   
SRVC        .                                                   :SERVICE COMPANY
DATE        .                             9/13/2023 11:19:36 AM :LOG DATE  
API         .                                    42706401870000 :API NUMBER
UWI         .                                    42706401870000 :UNIQUE WELL ID
XCOORD      .                                  1032064.33467067 :SURFACE X 
YCOORD      .                                   10428906.138822 :SURFACE Y 
LAT         .                                        28.7242451 :LATITUDE  
LON         .                                       -94.8985179 :LONGITUDE 
ELEV        .FT                                              92 :ELEVATION VALUE
ELEV_TYPE   .                                                KB :ELEVATION REFERENCE TYPE
~Curve Information Section
#MNEM       .UNIT                                      API CODE :CURVE DESCRIPTION
#------------------------------------------------------------------------------
DEPT        .FT                                                 :DEPTH     
DT          .US/F                                               :          
GR          .GAPI                                               :          
GR_1        .GAPI                                               :          
GR_NORM     .GAPI                                               :GammaRay Normalized
ILD         .OHMM                                               :          
ILM         .OHMM                                               :          
NPHI        .%                                                  :          
RFOC        .OHMM                                               :          
RHOB        .G/C3                                               :          
SP          .MV                                                 :          
SP_NORM     .MV                                                 :SP Normalized
VSH_GR      .V/V                                                :Volume of Shale from GR
VSH_SP      .V/V                                                :Volume of Shale from SP
~A        DEPTH             DT             GR           GR_1        GR_NORM            ILD            ILM           NPHI           RFOC           RHOB             SP        SP_NORM         VSH_GR         VSH_SP
# ...
      8382.0000        -999.25        59.8788        -999.25       59.77166         1.3936         1.3875        31.4216         1.3566         2.3577       -69.9614       -26.8374      0.5696099      0.5871169
      8382.5000        -999.25         60.004        -999.25       59.93915          1.398         1.3825        30.8673         1.3452         2.3684       -71.4227      -28.54387      0.5731733      0.5608636
      8383.0000        -999.25        59.6919        -999.25       59.52163         1.4025         1.3775        30.1793         1.3394         2.3812       -72.4089      -29.69605        0.56429      0.5431377
      8383.5000        -999.25        55.2426        -999.25        53.5696         1.3936         1.3686        29.5219         1.3616         2.3778       -73.1155      -30.52204      0.4376511      0.5304302
      8384.0000        -999.25        54.8063        -999.25       52.98594         1.3818          1.357        30.0441           1.33         2.3473       -73.5892      -31.07631      0.4252328      0.5219029
      8384.5000        -999.25        55.3857        -999.25       53.76103         1.3663         1.3454        30.7291         1.3236         2.3078       -73.6818      -31.18596      0.4417241       0.520216
      8385.0000        -999.25        56.7545        -999.25       55.59214         1.3466         1.3405        31.5672         1.3761         2.2807       -73.9838      -31.53991      0.4806839      0.5147706
      8385.5000        -999.25        57.5444        -999.25       56.64882         1.3292         1.3372        31.5497         1.3808         2.2708       -74.7107      -32.38958      0.5031664      0.5016989
      8386.0000        -999.25        56.6064        -999.25       55.39402         1.3409          1.334        30.9778         1.3596         2.2629       -75.2494      -33.01968      0.4764685       0.492005
      8386.5000        -999.25         56.757        -999.25       55.59548         1.3527         1.3634          30.81         1.3499         2.2569       -75.7012       -33.5484      0.4807549      0.4838707
      8387.0000        -999.25         58.001        -999.25       57.25964         1.3997         1.4004        30.8667         1.4162          2.253       -75.9908      -33.88788      0.5161626       0.478648
      8387.5000        -999.25        59.2797        -999.25       58.97022         1.4497         1.4385        30.7013         1.4849         2.2376       -78.1221      -36.37602      0.5525578       0.440369
      8388.0000        -999.25        56.9371        -999.25       55.83641         1.5027         1.4921        29.9866         1.5506         2.2034       -80.7422      -39.43442      0.4858811      0.3933167
      8388.5000        -999.25         50.549        -999.25       47.29075          1.552         1.5401        29.2298         1.5615         2.2107       -81.3711      -40.16975      0.3040586      0.3820038
      8389.0000        -999.25         48.278        -999.25       44.25273         1.5904         1.5661         28.915         1.5185         2.2271       -81.6367      -40.48124      0.2394197      0.3772116
      8389.5000        -999.25        46.2934        -999.25       41.59784         1.5905         1.5925        28.6948         1.4358         2.2577       -81.1421      -39.90582      0.1829327      0.3860643
      8390.0000        -999.25        48.6236        -999.25       44.71506          1.571         1.5537        28.7645         1.3725         2.2938       -80.2275      -38.84041      0.2492565      0.4024553
      8390.5000        -999.25        52.9211        -999.25       50.46402         1.5302         1.5135         29.746         1.3084         2.3017       -79.5339      -38.03282      0.3715749      0.4148797
      8391.0000        -999.25        54.7897        -999.25       52.96373         1.4527         1.4429        30.4662         1.2746         2.2996       -78.2776      -36.56876      0.4247603      0.4374036
      8391.5000        -999.25        56.0485        -999.25       54.64769         1.3641         1.3645        30.9964         1.2914         2.2974       -76.6707      -34.69566      0.4605892      0.4662206
      8392.0000        -999.25         56.926        -999.25       55.82156         1.2834         1.2989        31.0692          1.307         2.2996       -75.1748      -32.95206      0.4855652      0.4930453
      8392.5000        -999.25        56.4299        -999.25       55.15791         1.2229         1.2399         30.824         1.3017          2.312       -73.7085        -31.243       0.471445      0.5193384
      8393.0000        -999.25         55.793        -999.25        54.3059         1.1969          1.191        30.4999         1.2964         2.3265       -72.2078       -29.4938       0.453317      0.5462493
      8393.5000        -999.25        55.5206        -999.25       53.94149         1.1731         1.1587        32.3187         1.2733         2.3379       -70.5958      -27.61475      0.4455636      0.5751576
      8394.0000        -999.25        56.6533        -999.25       55.45676         1.1482         1.1274        34.1041         1.2472         2.3193       -68.5126      -25.18597      0.4778034      0.6125236
      8394.5000        -999.25        60.4028        -999.25       60.47264         1.1249         1.1136        35.1469         1.2077         2.3044        -65.037      -21.13272      0.5845243      0.6748812
      8395.0000        -999.25        63.9968        -999.25       65.28049         1.0971         1.1013        36.2122         1.1408          2.296       -62.9512       -18.7009       0.686819      0.7122937
      8395.5000        -999.25        66.0085        -999.25       67.97165         1.0898         1.0938        36.8968         1.0734         2.3022       -61.9108      -17.48872      0.7440776      0.7309427
      8396.0000        -999.25        65.5024        -999.25       67.29462         1.0888         1.0983        35.8894         1.0797         2.3141       -62.1996      -17.82727      0.7296727      0.7257342
      8396.5000        -999.25        63.8339        -999.25       65.06258         1.0996         1.1029        34.4163         1.2209         2.3245       -63.1857      -18.97934      0.6821826      0.7080101
      8397.0000        -999.25        61.9208        -999.25       62.50333         1.1129         1.1146        33.7515          1.284         2.3287       -63.2505      -19.05656      0.6277305      0.7068222
      8397.5000        -999.25        61.2485        -999.25       61.60398         1.1257         1.1314        33.3257         1.2985         2.3127       -62.8525      -18.59384      0.6085953      0.7139409
      8398.0000        -999.25        62.1158        -999.25        62.7642         1.1362         1.1483        33.0762          1.276         2.3043       -61.6454      -17.18718      0.6332808      0.7355819
      8398.5000        -999.25        63.8265        -999.25       65.05269         1.1468         1.1667        32.9373         1.2165         2.3131       -59.5818      -14.78126      0.6819721      0.7725959
      8399.0000        -999.25        65.0446        -999.25       66.68221         1.1584         1.1887         32.991         1.1687         2.3312       -57.7849       -12.6865      0.7166427      0.8048231
      8399.5000        -999.25        65.5736        -999.25       67.38986         1.1824         1.2112        33.8725         1.1816         2.3627       -56.9036      -11.65993      0.7316992      0.8206164
      8400.0000        -999.25        65.2544        -999.25       66.96285         1.2071         1.2352        36.0015         1.1979         2.3627        -56.905      -11.66318      0.7226139      0.8205664
      8400.5000        -999.25        64.5448        -999.25       66.01359         1.2333          1.264        35.0737          1.217         2.3556       -56.5704      -11.27444      0.7024168      0.8265471
