#------------------------------------------------------------------------------
# Created by    : vladimir.rabinovich
# Created on    : 09/19/2023 17:22:43
#------------------------------------------------------------------------------
~Version Information Section
VERS.           2.0     :   CWLS log ASCII Standard - VERSION 2.0
WRAP.           NO      :   One line per depth step
~Well Information Section
#MNEM       .UNIT                                         VALUE :DESCRIPTION
#------------------------------------------------------------------------------
STRT        .FT                                            3600 :START DEPTH
STOP        .FT                                            7940 :STOP DEPTH
STEP        .FT                                             0.5 :STEP      
NULL        .                                           -999.25 :NULL      
COMP        .                          SEAGULL ENERGY E & P INC :COMPANY   
WELL        .                               OCS G09015 ST00BP00 :WELL      
FLD         .                                 BRAZOS BLOCK 0431 :FIELD     
LOC         .                                                   :LOCATION  
CNTY        .                                BRAZOS LARGE BLOCK :LOCATION  
STAT        .                                             TEXAS :STATE     
CTRY        .                                     UNITED STATES :COUNTRY   
SRVC        .                                                   :SERVICE COMPANY
DATE        .                             9/13/2023 11:09:51 AM :LOG DATE  
API         .                                    42704402370000 :API NUMBER
UWI         .                                    42704402370000 :UNIQUE WELL ID
XCOORD      .                                  876086.487249857 :SURFACE X 
YCOORD      .                                  10366258.6106956 :SURFACE Y 
LAT         .                                        28.5443209 :LATITUDE  
LON         .                                       -95.3810825 :LONGITUDE 
ELEV        .FT                                              90 :ELEVATION VALUE
ELEV_TYPE   .                                                KB :ELEVATION REFERENCE TYPE
~Curve Information Section
#MNEM       .UNIT                                      API CODE :CURVE DESCRIPTION
#------------------------------------------------------------------------------
DEPT        .FT                                                 :DEPTH     
DCAL        .IN                                                 :          
DPHI        .%                                                  :          
GR          .GAPI                                               :          
GR_NORM     .GAPI                                               :GammaRay Normalized
ILD         .OHMM                                               :          
ILM         .OHMM                                               :          
NPHI        .%                                                  :          
SGRD        .OHMM                                               :          
SP          .MV                                                 :          
SP_NORM     .MV                                                 :SP Normalized
VSH_GR      .V/V                                                :Volume of Shale from GR
VSH_SP      .V/V                                                :Volume of Shale from SP
~A        DEPTH           DCAL           DPHI             GR        GR_NORM            ILD            ILM           NPHI           SGRD             SP        SP_NORM         VSH_GR         VSH_SP
# ...
      7064.5000         1.9901        22.8309        71.2532       74.98071         1.0054         0.9953        44.4604          1.089       -46.6832      -1.596497      0.8932065              1
      7065.0000         2.0149        24.4473        72.2275       76.08621         1.0003         0.9797        44.6082         1.0361       -46.6914      -1.604694      0.9167279              1
      7065.5000         2.0421        25.3805        72.8784       76.82571          1.005         0.9621        44.8206         0.9668       -46.9238      -1.837097       0.932462              1
      7066.0000         2.0107        25.7611        73.1185       77.10031         1.0139         0.9468        45.0439         0.9189       -47.3888      -2.302097      0.9383045      0.9848951
      7066.5000         1.8529        25.3476        73.4707       77.50177         1.0264         0.9333         45.444         0.9819       -47.3912      -2.304497      0.9468462      0.9847752
      7067.0000         1.7016        24.3528        72.9674       76.93503         1.0389         0.9299        45.8036         1.0473       -47.2958      -2.209095      0.9347878      0.9895452
      7067.5000         1.7041        23.2619        72.7467       76.68811         1.0556         0.9436        45.7528         1.0544       -47.4514      -2.364697      0.9295343      0.9817652
      7068.0000         1.8973        22.2815        73.7633       77.84149         1.0767         0.9662        46.1268         1.0436       -47.7493      -2.662594      0.9540743      0.9668703
      7068.5000          2.095        21.0768        74.0161       78.13046         1.1004         1.0045        46.2158         1.0414       -47.9866      -2.899895      0.9602226      0.9550053
      7069.0000         2.3044         19.659        73.4602       77.50419         1.1256           1.05         45.405         1.0753       -48.0807      -2.993996      0.9468976      0.9503002
      7069.5000         2.3931        18.4792        73.2987       77.32428         1.1514          1.094        45.2269         1.0968       -48.1749      -3.088196      0.9430698      0.9455902
      7070.0000         2.4363        18.2453        73.1373       77.14448         1.1681         1.1092        44.9758         1.0883       -48.0401      -2.953396      0.9392442      0.9523302
      7070.5000         2.5205        19.1159        71.7013       75.52217           1.17         1.1202        44.3823         1.0779       -47.6692      -2.582497       0.904727      0.9708751
      7071.0000         2.6532         20.279        70.0314       73.63515          1.166         1.1272        43.0679         1.1089       -47.6145      -2.527794      0.8645778      0.9736103
      7071.5000         2.8251        20.7588        69.7266       73.29305          1.164         1.1392        42.2501         1.1367       -47.7606      -2.673897       0.857299      0.9663051
      7072.0000          2.992        20.5806        69.7389       73.30983         1.1637         1.1482        41.7942         1.1364       -47.8112      -2.724495      0.8576559      0.9637753
      7072.5000         3.0215        20.1989        69.6666       73.23089         1.1621          1.159        42.4023         1.1143       -47.7368      -2.650097      0.8559763      0.9674951
      7073.0000         2.8078        19.1608        71.0454       74.79417         1.1595         1.1653        42.5124         1.0835       -47.4578      -2.371098      0.8892378      0.9814451
      7073.5000          2.651        18.0362          71.67       75.50391         1.1658         1.1704        42.2509         1.0734       -46.9765      -1.889797      0.9043386              1
      7074.0000         2.5696        17.0752        73.1107       77.13727          1.174         1.1723        42.1069         1.0896        -46.618      -1.531296      0.9390908              1
      7074.5000         2.3853        16.8967        76.2318       80.67237         1.1737          1.173        41.7931         1.1342       -46.4483      -1.361595              1              1
      7075.0000         2.5178        16.8448        77.7673       82.41302         1.1734         1.1723        41.3289         1.1665       -46.6416      -1.554897              1              1
      7075.5000         2.5506         17.007        77.3391       81.93127         1.1731          1.167        40.8355         1.1662        -46.725      -1.638294              1              1
      7076.0000         2.5444        17.2817        76.1002       80.53203         1.1685         1.1646        40.6152         1.1659       -46.6162      -1.529495              1              1
      7076.5000         2.5394        17.3873        75.1936       79.50887         1.1564         1.1612        41.3466         1.1596       -46.5668      -1.480095      0.9895504              1
      7077.0000          2.612         17.388        75.0477        79.3466         1.1461         1.1547         41.888         1.1457        -46.901      -1.814297      0.9860978              1
      7077.5000         2.8632         17.518        76.8805       81.42371         1.1341         1.1473        42.7627         1.1312       -47.1585      -2.071796              1      0.9964102
      7078.0000         3.0324        17.8656        77.8313       82.50261         1.1258         1.1392        44.5537          1.121       -46.9687      -1.881996              1              1
      7078.5000         2.8684        18.1315        77.0812       81.65656         1.1164         1.1334        45.6242         1.1122       -46.5441      -1.457397              1              1
      7079.0000         2.7484        18.2439        76.7672       81.30406         1.1082         1.1256        45.5788         1.1008       -46.3146      -1.227898              1              1
      7079.5000         2.6284        18.1165        77.4615       82.09269         1.0995         1.1158        45.4145         1.0818       -46.5571      -1.470394              1              1
      7080.0000         2.5627        18.1576        78.1619       82.88822         1.0918         1.1071        44.9094         1.0856       -47.1524      -2.065697              1      0.9967152
      7080.5000         2.5548        18.5969        76.9639       81.53526         1.0845         1.0986        44.0844         1.0971       -47.1835      -2.096794              1      0.9951603
      7081.0000         2.5455        18.9954        74.9995       79.31493         1.0773         1.0944        43.0158          1.111       -46.9752      -1.888496      0.9854241              1
      7081.5000         2.6101        19.3078        71.6882        75.5703         1.0701         1.0944        41.6397         1.0998       -46.5463      -1.459595       0.905751              1
      7082.0000         2.6278        19.7719        70.4869        74.2136          1.067         1.0955        40.5128          1.058       -46.7355      -1.648796      0.8768851              1
      7082.5000         2.6128        20.0211        70.7031       74.46115          1.065         1.0965         39.437         1.0351       -46.9467      -1.859997      0.8821521              1
      7083.0000         2.5096        19.2317        72.3527       76.33091         1.0643         1.0976        38.5479         1.0241       -46.7888      -1.702095      0.9219342              1
      7083.5000         2.2414        18.8824        75.1461       79.49516         1.0644         1.0988        38.3247         1.0315       -46.6755      -1.588795      0.9892588              1
      7084.0000         1.9476        17.6517        74.5332       78.80438         1.0594         1.0982        38.3171         1.0788        -47.282      -2.195297      0.9745613      0.9902351
      7084.5000         1.6477        15.4266        71.5997        75.4873         1.0503         1.0957        37.4986         1.1426        -47.889      -2.802296      0.9039852      0.9598852
