#------------------------------------------------------------------------------
# Created by    : vladimir.rabinovich
# Created on    : 09/19/2023 17:22:54
#------------------------------------------------------------------------------
~Version Information Section
VERS.           2.0     :   CWLS log ASCII Standard - VERSION 2.0
WRAP.           NO      :   One line per depth step
~Well Information Section
#MNEM       .UNIT                                         VALUE :DESCRIPTION
#------------------------------------------------------------------------------
STRT        .FT                                             494 :START DEPTH
STOP        .FT                                            6854 :STOP DEPTH
STEP        .FT                                             0.5 :STEP      
NULL        .                                           -999.25 :NULL      
COMP        .                          HUMBLE OIL & REFINING CO :COMPANY   
WELL        .                                     ST TR 00247-L :WELL      
FLD         .                                           WILDCAT :FIELD     
LOC         .                                                   :LOCATION  
CNTY        .                             GALVESTON LARGE BLOCK :LOCATION  
STAT        .                                             TEXAS :STATE     
CTRY        .                                     UNITED STATES :COUNTRY   
SRVC        .                                                   :SERVICE COMPANY
DATE        .                             9/13/2023 11:19:42 AM :LOG DATE  
API         .                                    42706000180000 :API NUMBER
UWI         .                                    42706000180000 :UNIQUE WELL ID
XCOORD      .                                  979775.061814126 :SURFACE X 
YCOORD      .                                  10543201.0009156 :SURFACE Y 
LAT         .                                        29.0361078 :LATITUDE  
LON         .                                       -95.0678326 :LONGITUDE 
ELEV        .FT                                              11 :ELEVATION VALUE
ELEV_TYPE   .                                                KB :ELEVATION REFERENCE TYPE
~Curve Information Section
#MNEM       .UNIT                                      API CODE :CURVE DESCRIPTION
#------------------------------------------------------------------------------
DEPT        .FT                                                 :DEPTH     
LAT         .OHMM                                               :          
LN          .OHMM                                               :          
SN          .OHMM                                               :          
SP          .MV                                                 :          
SP_NORM     .MV                                                 :SP Normalized
VSH_SP      .V/V                                                :Volume of Shale from SP
~A        DEPTH            LAT             LN             SN             SP        SP_NORM         VSH_SP
# ...
      3002.0000          0.226         0.4191         0.5916        -101.63      -34.20603      0.3850735
      3002.5000         0.2277         0.4293         0.5702       -98.4987      -31.08079      0.4429484
      3003.0000         0.2335         0.4396         0.5488       -96.7958      -29.38393      0.4743716
      3003.5000         0.2505         0.4498         0.5274       -95.3921      -27.98628       0.500254
      3004.0000         0.2676           0.46         0.6039       -94.0378      -26.63804      0.5252215
      3004.5000         0.2846         0.4703         0.7263       -90.5376      -23.14388      0.5899281
      3005.0000         0.3017         0.4805         0.9982       -94.7285      -27.34084      0.5122067
      3005.5000         0.3188          0.509         1.2702      -101.2162      -33.83459      0.3919519
      3006.0000         0.3358          0.538         1.3662      -103.1484      -35.77284      0.3560585
      3006.5000         0.3543         0.5669         1.4541       -94.1189      -26.74939      0.5231594
      3007.0000          0.373         0.5959         1.5553       -90.8885      -23.52504      0.5828696
      3007.5000         0.3918         0.6248         1.5525       -87.7156      -20.35819       0.641515
      3008.0000         0.4106         0.6538         1.4623       -85.1669      -17.81554       0.688601
      3008.5000         0.4178         0.6818          1.372       -81.7419       -14.3966      0.7519149
      3009.0000         0.4238         0.7077         1.2817       -77.7603      -10.42105      0.8255361
      3009.5000         0.4298         0.7337         1.1915       -74.9191      -7.585899      0.8780389
      3010.0000         0.4341         0.7597         1.1195       -72.6234      -5.296249      0.9204398
      3010.5000         0.4288         0.7865         1.0672       -71.7474        -4.4263        0.93655
      3011.0000         0.4234         0.8143         1.0149       -71.1761      -3.861053      0.9470176
      3011.5000          0.418         0.8422         0.9626       -70.9233      -3.614304       0.951587
      3012.0000         0.4127         0.8592         0.9104       -70.8295      -3.526558      0.9532119
      3012.5000         0.4073         0.8498         0.8581       -70.7355      -3.438606      0.9548406
      3013.0000         0.4019         0.8401         0.8058       -70.6415      -3.350662      0.9564692
      3013.5000         0.3965          0.828         0.7818       -70.3319      -3.047112      0.9620906
      3014.0000         0.3911          0.816         0.7628       -69.9222      -2.643463      0.9695655
      3014.5000         0.3856         0.8039         0.7438       -69.5128      -2.240112       0.977035
      3015.0000         0.3802         0.7919         0.7248       -69.1034      -1.836769      0.9845043
      3015.5000         0.3747         0.7798         0.7058        -68.694      -1.433418      0.9919738
      3016.0000         0.3693         0.7678         0.6868        -68.996       -1.74147      0.9862691
      3016.5000         0.3664         0.7558         0.6678       -70.5476      -3.299118      0.9574237
      3017.0000         0.3677         0.7437         0.6538       -71.2795      -4.037071       0.943758
      3017.5000          0.369         0.7348         0.6412       -70.9913      -3.754921       0.948983
      3018.0000         0.3703         0.7277         0.6287       -69.7592      -2.528877      0.9716874
      3018.5000         0.3716         0.7206         0.6161        -68.527      -1.302727      0.9943939
      3019.0000         0.3729         0.7128         0.6036       -69.2426      -2.024376        0.98103
      3019.5000         0.3742         0.7023          0.591       -69.9738      -2.761627      0.9673772
      3020.0000         0.3821         0.6919         0.5813       -70.7048       -3.49868      0.9537281
      3020.5000         0.3987         0.6814         0.5773       -71.4359      -4.235825      0.9400773
      3021.0000         0.4153         0.6708         0.5733       -72.1667      -4.972679      0.9264319
      3021.5000         0.4319         0.6591         0.5692       -72.8717      -5.683731      0.9132642
      3022.0000         0.4485         0.6475         0.5652       -73.5719      -6.389984      0.9001855
      3022.5000         0.4688         0.6359         0.5611       -74.1171      -6.941238       0.889977
      3023.0000         0.4962         0.6243         0.5662       -73.9642      -6.794388      0.8926965
      3023.5000         0.5236         0.6126         0.5792       -73.8115      -6.647736      0.8954123
      3024.0000          0.551         0.5932         0.5922       -73.6588      -6.501083      0.8981281
      3024.5000         0.5772         0.5715         0.6052       -74.3269       -7.17524      0.8856437
      3025.0000         0.5913         0.5498         0.6411       -75.1969      -8.051292      0.8694205
      3025.5000         0.6054         0.5281         0.6935       -79.1616      -12.02204      0.7958881
      3026.0000         0.6195         0.5064         0.7459       -84.1984       -17.0649       0.702502
      3026.5000         0.6396         0.4958         0.7983       -87.8088      -20.68134      0.6355307
      3027.0000         0.6601         0.4898         0.8506       -91.0933      -23.97189      0.5745946
      3027.5000         0.6792         0.4839         0.9031       -95.9163      -28.80094      0.4851677
      3028.0000          0.698         0.4779         0.9557      -102.7144       -35.6051      0.3591648
      3028.5000         0.7152         0.4749         0.9857      -106.5138      -39.41055      0.2886935
      3029.0000         0.7251         0.4733         0.9573      -109.4742        -42.377      0.2337593
      3029.5000         0.6763         0.4716         0.9289      -111.2592      -44.16805      0.2005916
      3030.0000         0.6268           0.47         0.9005      -113.0442       -45.9591      0.1674241
      3030.5000         0.5772         0.4683         0.8721      -114.7516      -47.67255      0.1356934
      3031.0000         0.5276         0.4666         0.8438      -116.3612      -49.28821      0.1057739
      3031.5000         0.4872          0.465         0.8154      -117.9696      -50.90266     0.07587673
      3032.0000         0.4555          0.462         0.7906      -119.4419      -52.38101     0.04849978
      3032.5000         0.4238         0.4564          0.767      -120.5476      -53.49276     0.02791186
      3033.0000         0.3954         0.4507         0.7434      -121.2947      -54.24591     0.01396462
      3033.5000         0.3778          0.445         0.7197      -120.5524      -53.50966     0.02759891
      3034.0000         0.3602         0.4393         0.6862      -119.8099      -52.77321     0.04123688
      3034.5000         0.3425         0.4336         0.6485      -119.0676      -52.03696     0.05487103
      3035.0000         0.3793         0.4279         0.6108      -118.3256      -51.30102     0.06849967
      3035.5000         0.4295         0.4222         0.5731      -111.6899      -44.67137      0.1912709
      3036.0000         0.4796         0.4206         0.5354      -104.8694      -37.85692      0.3174645
      3036.5000         0.5298          0.423         0.4977       -94.3685      -27.36207      0.5118136
      3037.0000         0.5901         0.4254         0.4927       -86.7719      -19.77151      0.6523793
      3037.5000         0.6526         0.4278         0.5135       -82.8037      -15.80938      0.7257522
      3038.0000         0.7051         0.4301         0.5344       -79.9535      -12.96523      0.7784218
      3038.5000         0.7414         0.4325         0.5632       -77.5983      -10.61607      0.8219246
      3039.0000         0.7758         0.4349         0.6034       -76.7275      -9.751328      0.8379384
      3039.5000         0.7883         0.4373         0.6436       -76.3961       -9.42598      0.8439633
