#------------------------------------------------------------------------------
# Created by    : vladimir.rabinovich
# Created on    : 09/19/2023 17:21:52
#------------------------------------------------------------------------------
~Version Information Section
VERS.           2.0     :   CWLS log ASCII Standard - VERSION 2.0
WRAP.           NO      :   One line per depth step
~Well Information Section
#MNEM       .UNIT                                         VALUE :DESCRIPTION
#------------------------------------------------------------------------------
STRT        .FT                                            2690 :START DEPTH
STOP        .FT                                            8272 :STOP DEPTH
STEP        .FT                                             0.5 :STEP      
NULL        .                                           -999.25 :NULL      
COMP        .                        PG&E RESOURCES OFFSHORE CO :COMPANY   
WELL        .                               OCS G09053 ST00BP00 :WELL      
FLD         .                              GALVESTON BLOCK 0427 :FIELD     
LOC         .                                                   :LOCATION  
CNTY        .                             GALVESTON LARGE BLOCK :LOCATION  
STAT        .                                             TEXAS :STATE     
CTRY        .                                     UNITED STATES :COUNTRY   
SRVC        .                                                   :SERVICE COMPANY
DATE        .                             9/13/2023 11:11:09 AM :LOG DATE  
API         .                                    42706402380000 :API NUMBER
UWI         .                                    42706402380000 :UNIQUE WELL ID
XCOORD      .                                  948581.259723803 :SURFACE X 
YCOORD      .                                  10360666.4777899 :SURFACE Y 
LAT         .                                         28.532718 :LATITUDE  
LON         .                                        -95.155068 :LONGITUDE 
ELEV        .FT                                             119 :ELEVATION VALUE
ELEV_TYPE   .                                                KB :ELEVATION REFERENCE TYPE
~Curve Information Section
#MNEM       .UNIT                                      API CODE :CURVE DESCRIPTION
#------------------------------------------------------------------------------
DEPT        .FT                                                 :DEPTH     
CALI        .IN                                                 :          
DRHO        .G/C3                                               :          
DT          .US/F                                               :          
GR          .GAPI                                               :          
GR_1        .GAPI                                               :          
GR_NORM     .GAPI                                               :GammaRay Normalized
ILD         .OHMM                                               :          
ILM         .OHMM                                               :          
NPHI        .%                                                  :          
RFOC        .OHMM                                               :          
RHOB        .G/C3                                               :          
SP          .MV                                                 :          
SP_NORM     .MV                                                 :SP Normalized
VSH_GR      .V/V                                                :Volume of Shale from GR
VSH_SP      .V/V                                                :Volume of Shale from SP
~A        DEPTH           CALI           DRHO             DT             GR           GR_1        GR_NORM            ILD            ILM           NPHI           RFOC           RHOB             SP        SP_NORM         VSH_GR         VSH_SP
# ...
      4220.0000        -999.25        -999.25       133.5698        90.7323        -999.25       79.23703         0.8178         0.8342        -999.25         1.0434        -999.25       -45.1091      -1.300335      0.9837666      0.9922991
      4220.5000        -999.25        -999.25       133.6067        90.8846        -999.25       79.40724         0.8173         0.8266        -999.25         1.0342        -999.25       -45.1494      -1.346947      0.9873881      0.9911039
      4221.0000        -999.25        -999.25       134.2476        90.1407        -999.25       78.56322         0.8168         0.8219        -999.25         1.0246        -999.25       -45.1896      -1.393463      0.9694301      0.9899112
      4221.5000        -999.25        -999.25       135.3726        90.7372        -999.25       79.23614         0.8146         0.8187        -999.25         1.0148        -999.25        -45.244      -1.454174      0.9837476      0.9883545
      4222.0000        -999.25        -999.25       136.8821        93.0609        -999.25       81.86381         0.8116         0.8171        -999.25         1.0065        -999.25       -45.2986      -1.515087              1      0.9867926
      4222.5000        -999.25        -999.25       139.5442        95.1836        -999.25       84.26399         0.8096         0.8164        -999.25          1.009        -999.25       -45.5527      -1.775501              1      0.9801154
      4223.0000        -999.25        -999.25       142.0454        95.1581        -999.25       84.23299         0.8029         0.8169        -999.25         1.0115        -999.25       -45.8971      -2.126217              1      0.9711226
      4223.5000        -999.25        -999.25       142.0061        93.0267        -999.25       81.81869         0.8057         0.8173        -999.25         1.0148        -999.25       -46.1486      -2.384033              1       0.964512
      4224.0000        -999.25        -999.25       142.9714        91.1573        -999.25       79.70088         0.8086         0.8161        -999.25         1.0196        -999.25       -45.9686      -2.210346      0.9936358      0.9689655
      4224.5000        -999.25        -999.25       143.7803        91.0746        -999.25       79.60514          0.805         0.8148        -999.25         1.0232        -999.25       -45.3481      -1.596157      0.9915987      0.9847139
      4225.0000        -999.25        -999.25       143.6301        92.3508        -999.25       81.04731         0.8014         0.8121        -999.25         1.0145        -999.25       -44.5535     -0.8078728              1              1
      4225.5000        -999.25        -999.25       143.3716        93.7521        -999.25       82.63107         0.7978         0.8069        -999.25         1.0058        -999.25       -44.4008     -0.6614838              1              1
      4226.0000        -999.25        -999.25       143.0781        94.9924        -999.25       84.03262         0.7942         0.7996        -999.25         1.0019        -999.25       -44.5029     -0.7698975              1              1
      4226.5000        -999.25        -999.25       143.4277        97.3478        -999.25       86.69617         0.7903          0.788        -999.25         0.9977        -999.25       -45.0135      -1.286812              1      0.9926459
      4227.0000        -999.25        -999.25       143.9082         96.991        -999.25       86.29021         0.7864         0.7764        -999.25         0.9934        -999.25       -45.8767      -2.156326              1      0.9703506
      4227.5000        -999.25        -999.25       144.4858        95.3273        -999.25        84.4052         0.7825         0.7678        -999.25         0.9887        -999.25       -46.3897       -2.67564              1      0.9570349
      4228.0000        -999.25        -999.25       144.8335        93.1595        -999.25       81.94969         0.7768         0.7607        -999.25         0.9835        -999.25       -46.5938      -2.886055              1      0.9516396
      4228.5000        -999.25        -999.25       145.1414        92.0781        -999.25       80.72369         0.7711         0.7536        -999.25         0.9775        -999.25       -46.4699      -2.768467              1      0.9546547
      4229.0000        -999.25        -999.25       145.3521        93.6144        -999.25       82.46024         0.7654         0.7535        -999.25         0.9714        -999.25       -46.3459      -2.650784              1      0.9576722
      4229.5000        -999.25        -999.25       145.3804        94.0808        -999.25       82.98593         0.7622         0.7547        -999.25         0.9671        -999.25       -46.2669      -2.578094              1       0.959536
      4230.0000        -999.25        -999.25       145.2544        93.0682        -999.25        81.8378         0.7602         0.7558        -999.25         0.9664        -999.25       -46.0363      -2.353809              1      0.9652869
      4230.5000        -999.25        -999.25        144.575        90.2927        -999.25       78.69453         0.7583         0.7572        -999.25         0.9656        -999.25       -45.6276      -1.951424       0.972224      0.9756045
      4231.0000        -999.25        -999.25       143.6753        89.3766        -999.25       77.65561         0.7563         0.7587        -999.25         0.9654        -999.25       -45.1658      -1.495934      0.9501193      0.9872838
      4231.5000        -999.25        -999.25       143.2917        89.2896        -999.25         77.555         0.7554         0.7602        -999.25         0.9675        -999.25       -44.7822      -1.118649      0.9479787      0.9969577
      4232.0000        -999.25        -999.25       143.4026        89.3749        -999.25        77.6494         0.7547         0.7626        -999.25         0.9696        -999.25       -44.6652      -1.007961      0.9499872      0.9997959
      4232.5000        -999.25        -999.25       143.8347         89.205        -999.25       77.45498         0.7551          0.765        -999.25         0.9714        -999.25       -45.1978      -1.546875      0.9458506      0.9859776
      4233.0000        -999.25        -999.25       145.1653        89.1831        -999.25       77.42805         0.7574         0.7675        -999.25         0.9689        -999.25       -46.4716      -2.826992      0.9452776       0.953154
      4233.5000        -999.25        -999.25       146.5745        89.6362        -999.25       77.93869         0.7597         0.7703        -999.25         0.9663        -999.25       -47.2812      -3.642906      0.9561424      0.9322332
      4234.0000        -999.25        -999.25       148.0271        90.8882        -999.25       79.35349         0.7619         0.7731        -999.25         0.9639        -999.25       -47.5648      -3.932819      0.9862444      0.9247995
      4234.5000        -999.25        -999.25       148.8701        92.0403        -999.25       80.65521          0.764         0.7751        -999.25         0.9637        -999.25       -47.4044      -3.778732              1      0.9287505
      4235.0000        -999.25        -999.25       149.1772        93.1266        -999.25       81.88247         0.7661         0.7759        -999.25         0.9636        -999.25       -46.8486      -3.229244              1      0.9428399
      4235.5000        -999.25        -999.25       148.1458         94.437        -999.25       83.36334         0.7628         0.7767        -999.25         0.9746        -999.25       -46.1002       -2.48716              1      0.9618677
      4236.0000        -999.25        -999.25       146.2163         95.963        -999.25       85.08824         0.7596         0.7738        -999.25          0.989        -999.25       -45.5354      -1.928673              1      0.9761879
      4236.5000        -999.25        -999.25       144.3105        98.3951        -999.25       87.83858          0.755          0.766        -999.25         0.9979        -999.25       -45.1965      -1.596085              1      0.9847158
