#------------------------------------------------------------------------------
# Created by    : vladimir.rabinovich
# Created on    : 09/19/2023 17:22:39
#------------------------------------------------------------------------------
~Version Information Section
VERS.           2.0     :   CWLS log ASCII Standard - VERSION 2.0
WRAP.           NO      :   One line per depth step
~Well Information Section
#MNEM       .UNIT                                         VALUE :DESCRIPTION
#------------------------------------------------------------------------------
STRT        .FT                                            3496 :START DEPTH
STOP        .FT                                          7091.5 :STOP DEPTH
STEP        .FT                                             0.5 :STEP      
NULL        .                                           -999.25 :NULL      
COMP        .                          SEAGULL ENERGY E & P INC :COMPANY   
WELL        .                               OCS G07251 ST00BP00 :WELL      
FLD         .                              GALVESTON BLOCK 0349 :FIELD     
LOC         .                                                   :LOCATION  
CNTY        .                             GALVESTON LARGE BLOCK :LOCATION  
STAT        .                                             TEXAS :STATE     
CTRY        .                                     UNITED STATES :COUNTRY   
SRVC        .                                                   :SERVICE COMPANY
DATE        .                             9/13/2023 11:19:36 AM :LOG DATE  
API         .                                    42706402300000 :API NUMBER
UWI         .                                    42706402300000 :UNIQUE WELL ID
XCOORD      .                                  1015542.86720011 :SURFACE X 
YCOORD      .                                  10434819.2372955 :SURFACE Y 
LAT         .                                         28.739771 :LATITUDE  
LON         .                                        -94.950355 :LONGITUDE 
ELEV        .FT                                              93 :ELEVATION VALUE
ELEV_TYPE   .                                                KB :ELEVATION REFERENCE TYPE
~Curve Information Section
#MNEM       .UNIT                                      API CODE :CURVE DESCRIPTION
#------------------------------------------------------------------------------
DEPT        .FT                                                 :DEPTH     
DCAL        .IN                                                 :          
DPHI        .%                                                  :          
DRHO        .G/C3                                               :          
GR          .GAPI                                               :          
GR_NORM     .GAPI                                               :GammaRay Normalized
ILD         .OHMM                                               :          
ILM         .OHMM                                               :          
NPHI        .%                                                  :          
SGRD        .OHMM                                               :          
SP          .MV                                                 :          
SP_NORM     .MV                                                 :SP Normalized
VSH_GR      .V/V                                                :Volume of Shale from GR
VSH_SP      .V/V                                                :Volume of Shale from SP
~A        DEPTH           DCAL           DPHI           DRHO             GR        GR_NORM            ILD            ILM           NPHI           SGRD             SP        SP_NORM         VSH_GR         VSH_SP
# ...
      7068.0000        -999.25        45.8676        -0.1877        -999.25       83.66478         0.5141           0.55        -999.25         0.6866       -41.6957        7.28389              1              1
      7068.5000        -999.25        45.6506        -0.1889        -999.25       83.66478         0.5193         0.5569        -999.25         0.6815       -41.3414       7.638191              1              1
      7069.0000        -999.25        46.5879        -0.1892        -999.25       83.66478         0.5217         0.5649        -999.25         0.6744       -41.4819       7.497692              1              1
      7069.5000        -999.25        47.9654        -0.1907        -999.25       83.66478         0.5256         0.5702        -999.25         0.6674       -42.0548       6.924793              1              1
      7070.0000        -999.25        52.8333         -0.191        -999.25       83.66478         0.5267         0.5734        -999.25         0.6623        -42.736       6.243591              1              1
      7070.5000        -999.25        59.9847        -999.25        -999.25       83.66478         0.5258          0.574        -999.25           0.67       -43.3771       5.602489              1              1
      7071.0000        -999.25        59.9338        -999.25        -999.25       83.66478         0.5269         0.5709        -999.25         0.6821        -44.087        4.89259              1              1
      7071.5000        -999.25        59.8778        -999.25        -999.25       83.66478         0.5303         0.5663        -999.25         0.6863        -44.715       4.264591              1              1
      7072.0000        -999.25        59.8497        -999.25        -999.25       83.66478         0.5328         0.5627        -999.25         0.6765       -44.9935       3.986092              1              1
      7072.5000        -999.25        -999.25        -999.25        -999.25       83.66478         0.5331         0.5581        -999.25         0.6625       -44.6096       4.369991              1              1
      7073.0000        -999.25        -999.25        -999.25        -999.25       83.66478         0.5338         0.5525        -999.25         0.6611       -44.7026       4.276993              1              1
      7073.5000        -999.25        -999.25        -999.25        -999.25       83.66478          0.535         0.5495        -999.25         0.6671         -44.67       4.309593              1              1
      7074.0000        -999.25        -999.25        -999.25        -999.25       83.66478         0.5406         0.5554        -999.25         0.6793       -44.4207       4.558891              1              1
      7074.5000        -999.25        -999.25        -999.25        -999.25       83.66478         0.5418         0.5448        -999.25         0.6807       -44.2208       4.758793              1              1
      7075.0000        -999.25        -999.25        -999.25        -999.25       83.66478         0.5435         0.5444        -999.25         0.6684        -44.007       4.972591              1              1
      7075.5000        -999.25        -999.25        -999.25        -999.25       83.66478         0.5453         0.5443        -999.25         0.6512       -44.0679        4.91169              1              1
      7076.0000        -999.25        -999.25        -999.25        -999.25       83.66478         0.5445         0.5428        -999.25         0.6326        -44.219        4.76059              1              1
      7076.5000        -999.25        -999.25        -999.25        -999.25       83.66478         0.5441         0.5365        -999.25         0.6309       -44.5107       4.468891              1              1
      7077.0000        -999.25        -999.25        -999.25        -999.25       83.66478         0.5439         0.5307        -999.25         0.6317        -44.781       4.198593              1              1
      7077.5000        -999.25        -999.25        -999.25        -999.25       83.66478         0.5426         0.5251        -999.25         0.6327       -44.9147       4.064892              1              1
      7078.0000        -999.25        -999.25        -999.25        -999.25       83.66478         0.5426         0.5197        -999.25          0.636       -44.8665       4.113091              1              1
      7078.5000        -999.25        -999.25        -999.25        -999.25       83.66478         0.5443         0.5164        -999.25         0.6395       -44.8641        4.11549              1              1
      7079.0000        -999.25        -999.25        -999.25        -999.25       83.66478         0.5453         0.5163        -999.25         0.6339       -44.7987       4.180893              1              1
      7079.5000        -999.25        -999.25        -999.25        -999.25       83.66478         0.5436         0.5167        -999.25         0.6281       -44.7941        4.18549              1              1
      7080.0000        -999.25        -999.25        -999.25        -999.25       83.66478          0.544         0.5174        -999.25         0.6416       -44.6208       4.358791              1              1
      7080.5000        -999.25        -999.25        -999.25        -999.25       83.66478         0.5423         0.5184        -999.25         0.6499        -44.479       4.500591              1              1
      7081.0000        -999.25        -999.25        -999.25        -999.25       83.66478         0.5391         0.5202        -999.25         0.6531       -44.3028       4.676792              1              1
      7081.5000        -999.25        -999.25        -999.25        -999.25       83.66478         0.5344         0.5225        -999.25         0.6548       -44.2102        4.76939              1              1
      7082.0000        -999.25        -999.25        -999.25        -999.25       83.66478         0.5312         0.5253        -999.25         0.6486       -44.1661       4.813492              1              1
      7082.5000        -999.25        -999.25        -999.25        -999.25       83.66478         0.5319         0.5283        -999.25         0.6379       -44.1113        4.86829              1              1
      7083.0000        -999.25        -999.25        -999.25        -999.25       83.66478         0.5312         0.5301        -999.25         0.6328       -44.1064       4.873192              1              1
      7083.5000        -999.25        -999.25        -999.25        -999.25       83.66478         0.5287         0.5309        -999.25         0.6343         -44.05       4.929592              1              1
      7084.0000        -999.25        -999.25        -999.25        -999.25       83.66478         0.5241         0.5315        -999.25         0.6441       -44.0228       4.956791              1              1
      7084.5000        -999.25        -999.25        -999.25        -999.25       83.66478         0.5205         0.5326        -999.25         0.6544       -43.9315       5.048092              1              1
      7085.0000        -999.25        -999.25        -999.25        -999.25       83.66478         0.5173         0.5325        -999.25          0.661       -43.9552       5.024391              1              1
      7085.5000        -999.25        -999.25        -999.25        -999.25       83.66478         0.5151         0.5316        -999.25         0.6536       -43.9697       5.009892              1              1
      7086.0000        -999.25        -999.25        -999.25        -999.25       83.66478         0.5159         0.5313        -999.25         0.6338       -43.9688       5.010792              1              1
      7086.5000        -999.25        -999.25        -999.25        -999.25       83.66478         0.5177           0.53        -999.25         0.6139        -44.058       4.921593              1              1
