#------------------------------------------------------------------------------
# Created by    : vladimir.rabinovich
# Created on    : 09/19/2023 17:22:39
#------------------------------------------------------------------------------
~Version Information Section
VERS.           2.0     :   CWLS log ASCII Standard - VERSION 2.0
WRAP.           NO      :   One line per depth step
~Well Information Section
#MNEM       .UNIT                                         VALUE :DESCRIPTION
#------------------------------------------------------------------------------
STRT        .FT                                            2600 :START DEPTH
STOP        .FT                                            8208 :STOP DEPTH
STEP        .FT                                             0.5 :STEP      
NULL        .                                           -999.25 :NULL      
COMP        .                          SEAGULL ENERGY E & P INC :COMPANY   
WELL        .                               OCS G09039 ST00BP00 :WELL      
FLD         .                              GALVESTON BLOCK 0273 :FIELD     
LOC         .                                                   :LOCATION  
CNTY        .                             GALVESTON LARGE BLOCK :LOCATION  
STAT        .                                             TEXAS :STATE     
CTRY        .                                     UNITED STATES :COUNTRY   
SRVC        .                                                   :SERVICE COMPANY
DATE        .                             9/13/2023 11:19:54 AM :LOG DATE  
API         .                                    42706403220000 :API NUMBER
UWI         .                                    42706403220000 :UNIQUE WELL ID
XCOORD      .                                  1018306.80056624 :SURFACE X 
YCOORD      .                                  10490966.5196098 :SURFACE Y 
LAT         .                                         28.894284 :LATITUDE  
LON         .                                        -94.944599 :LONGITUDE 
ELEV        .FT                                             103 :ELEVATION VALUE
ELEV_TYPE   .                                                KB :ELEVATION REFERENCE TYPE
~Curve Information Section
#MNEM       .UNIT                                      API CODE :CURVE DESCRIPTION
#------------------------------------------------------------------------------
DEPT        .FT                                                 :DEPTH     
DCAL        .IN                                                 :          
DPHI        .%                                                  :          
DTL         .US/F                                               :          
GR          .GAPI                                               :          
GR_1        .GAPI                                               :          
GR_NORM     .GAPI                                               :GammaRay Normalized
ILD         .OHMM                                               :          
ILM         .OHMM                                               :          
NPHI        .%                                                  :          
SFL         .OHMM                                               :          
SP          .MV                                                 :          
SP_NORM     .MV                                                 :SP Normalized
VSH_GR      .V/V                                                :Volume of Shale from GR
VSH_SP      .V/V                                                :Volume of Shale from SP
~A        DEPTH           DCAL           DPHI            DTL             GR           GR_1        GR_NORM            ILD            ILM           NPHI            SFL             SP        SP_NORM         VSH_GR         VSH_SP
# ...
      5606.0000        -999.25        -999.25        -999.25        21.5926        -999.25        36.5115         0.2149         0.2508        -999.25         0.2928       -90.7155      -55.43775     0.07471272     0.07603747
      5606.5000        -999.25        -999.25        -999.25        21.8813        -999.25       36.84565         0.2319         0.2754        -999.25         0.2911       -90.1957      -54.87755     0.08182225     0.08537413
      5607.0000        -999.25        -999.25        -999.25        20.1396        -999.25       34.82979         0.2507         0.2957        -999.25          0.336       -89.7047      -54.34836     0.03893166     0.09419403
      5607.5000        -999.25        -999.25        -999.25        18.1308        -999.25       32.50479         0.2611           0.31        -999.25         0.3952       -89.3632      -53.98017              0      0.1003305
      5608.0000        -999.25        -999.25        -999.25        17.2375        -999.25       31.47087         0.2563         0.3057        -999.25         0.4189       -90.0383      -54.70678              0     0.08822034
      5608.5000        -999.25        -999.25        -999.25        18.4663        -999.25        32.8931         0.2451         0.2932        -999.25         0.4377       -91.3588      -56.12844              0     0.06452598
      5609.0000        -999.25        -999.25        -999.25        20.3418        -999.25       35.06382          0.233          0.278        -999.25         0.4483       -92.1293      -56.95779     0.04391098     0.05070349
      5609.5000        -999.25        -999.25        -999.25        22.0116        -999.25       36.99645         0.2245          0.267        -999.25          0.444       -92.4296      -57.28077      0.0850309     0.04532045
      5610.0000        -999.25        -999.25        -999.25        21.5287        -999.25       36.43755         0.2202         0.2606        -999.25         0.4448       -92.5425      -57.40194     0.07313927     0.04330101
      5610.5000        -999.25        -999.25        -999.25        20.7914        -999.25       35.58418         0.2203         0.2596        -999.25          0.449       -92.5424       -57.4014     0.05498261     0.04330998
      5611.0000        -999.25        -999.25        -999.25        20.2765        -999.25       34.98824          0.221         0.2615        -999.25         0.4691       -92.5421      -57.40066     0.04230288     0.04332231
      5611.5000        -999.25        -999.25        -999.25        19.9493        -999.25       34.60954         0.2234          0.265        -999.25         0.4859       -92.6268      -57.49146     0.03424543     0.04180902
      5612.0000        -999.25        -999.25        -999.25        19.7332        -999.25       34.35942         0.2277         0.2705        -999.25         0.4888       -92.7128      -57.58365     0.02892376     0.04027246
      5612.5000        -999.25        -999.25        -999.25        20.2691        -999.25       34.97967         0.2342         0.2775        -999.25         0.4697       -92.4503      -57.30054     0.04212067     0.04499092
      5613.0000        -999.25        -999.25        -999.25        21.4205        -999.25       36.31231         0.2435         0.2906        -999.25         0.4349       -92.0404      -56.85869     0.07047466     0.05235513
      5613.5000        -999.25        -999.25        -999.25        23.1127        -999.25       38.27087         0.2521         0.3038        -999.25         0.3803       -91.3711      -56.13749      0.1121463     0.06437524
      5614.0000        -999.25        -999.25        -999.25        23.6091        -999.25       38.84541         0.2696         0.3216        -999.25         0.3647       -90.4414      -55.13585      0.1243705     0.08106919
      5614.5000        -999.25        -999.25        -999.25        22.3889        -999.25       37.43314         0.2834         0.3327        -999.25         0.4085       -89.2064      -53.80543      0.0943222      0.1032428
      5615.0000        -999.25        -999.25        -999.25        20.9966        -999.25       35.82168         0.2882         0.3349        -999.25         0.4954       -88.7161        -53.277     0.06003579        0.11205
      5615.5000        -999.25        -999.25        -999.25        20.8491        -999.25       35.65097         0.2757         0.3317        -999.25         0.5292       -89.5094       -54.1309     0.05640354     0.09781831
      5616.0000        -999.25        -999.25        -999.25        22.0743        -999.25       37.06903         0.2537         0.2993        -999.25         0.4759       -91.2844      -56.04202     0.08657504     0.06596635
      5616.5000        -999.25        -999.25        -999.25        23.2858        -999.25       38.47122         0.2399         0.2607        -999.25         0.3932        -92.345      -57.18378       0.116409     0.04693693
      5617.0000        -999.25        -999.25        -999.25        23.2325        -999.25       38.40953         0.2299         0.2504        -999.25         0.3265       -93.0116      -57.90124      0.1150964     0.03497938
      5617.5000        -999.25        -999.25        -999.25        23.7086        -999.25       38.96057         0.2295         0.2523        -999.25         0.3019        -92.995      -57.88295      0.1268207     0.03528423
      5618.0000        -999.25        -999.25        -999.25        24.8355        -999.25       40.26486         0.2496         0.2725        -999.25         0.3855       -91.5289      -56.30365      0.1545715     0.06160583
      5618.5000        -999.25        -999.25        -999.25        27.1912        -999.25       42.99136         0.2699         0.3056        -999.25         0.4411       -89.4153      -54.02704      0.2125821     0.09954929
      5619.0000        -999.25        -999.25        -999.25         29.494        -999.25       45.65664         0.2936         0.3304        -999.25         0.4493       -86.8618       -51.2767      0.2692902      0.1453883
      5619.5000        -999.25        -999.25        -999.25        29.6295        -999.25       45.81347         0.3128         0.3558        -999.25         0.4499       -84.3033      -48.52097       0.272627      0.1913172
      5620.0000        -999.25        -999.25        -999.25        27.1371        -999.25       42.92875         0.3201         0.3724        -999.25         0.4751       -82.4576      -46.53288      0.2112499       0.224452
      5620.5000        -999.25        -999.25        -999.25         24.935        -999.25       40.38001          0.318         0.3715        -999.25         0.4987       -81.3484      -45.33793      0.1570215      0.2443679
      5621.0000        -999.25        -999.25        -999.25        24.8917        -999.25        40.3299         0.3129         0.3686        -999.25         0.4976       -81.1814      -45.15767      0.1559554      0.2473722
      5621.5000        -999.25        -999.25        -999.25        26.1086        -999.25       41.73835         0.3115         0.3691        -999.25         0.4819       -81.3412      -45.32934      0.1859224       0.244511
      5622.0000        -999.25        -999.25        -999.25        26.8345        -999.25       42.57851         0.3138         0.3737        -999.25         0.4884       -81.8524      -45.87944      0.2037981      0.2353426
      5622.5000        -999.25        -999.25        -999.25        26.4932        -999.25       42.18349         0.3125         0.3727        -999.25         0.5111       -83.6299      -47.79325      0.1953934      0.2034458
      5623.0000        -999.25        -999.25        -999.25        24.6856        -999.25       40.09136          0.303         0.3655        -999.25         0.5133       -85.5481      -49.85859        0.15088      0.1690235
      5623.5000        -999.25        -999.25        -999.25        23.8334        -999.25       39.10502         0.2828         0.3368        -999.25          0.494        -87.228      -51.66729       0.129894      0.1388785
