#------------------------------------------------------------------------------
# Created by    : vladimir.rabinovich
# Created on    : 09/19/2023 17:22:44
#------------------------------------------------------------------------------
~Version Information Section
VERS.           2.0     :   CWLS log ASCII Standard - VERSION 2.0
WRAP.           NO      :   One line per depth step
~Well Information Section
#MNEM       .UNIT                                         VALUE :DESCRIPTION
#------------------------------------------------------------------------------
STRT        .FT                                            3420 :START DEPTH
STOP        .FT                                           11707 :STOP DEPTH
STEP        .FT                                             0.5 :STEP      
NULL        .                                           -999.25 :NULL      
COMP        .                        TRI-UNION DEVELOPMENT CORP :COMPANY   
WELL        .                               OCS G08154 ST00BP00 :WELL      
FLD         .                                           WILDCAT :FIELD     
LOC         .                                                   :LOCATION  
CNTY        .                           HIGH ISLAND LARGE BLOCK :LOCATION  
STAT        .                                             TEXAS :STATE     
CTRY        .                                     UNITED STATES :COUNTRY   
SRVC        .                                                   :SERVICE COMPANY
DATE        .                             9/13/2023 11:19:57 AM :LOG DATE  
API         .                                    42708403520000 :API NUMBER
UWI         .                                    42708403520000 :UNIQUE WELL ID
XCOORD      .                                  1180527.91159004 :SURFACE X 
YCOORD      .                                  10524923.1623167 :SURFACE Y 
LAT         .                                        28.9940426 :LATITUDE  
LON         .                                       -94.4389714 :LONGITUDE 
ELEV        .FT                                             100 :ELEVATION VALUE
ELEV_TYPE   .                                                KB :ELEVATION REFERENCE TYPE
~Curve Information Section
#MNEM       .UNIT                                      API CODE :CURVE DESCRIPTION
#------------------------------------------------------------------------------
DEPT        .FT                                                 :DEPTH     
DCAL        .IN                                                 :          
DPHI        .%                                                  :          
DRHO        .G/C3                                               :          
GR          .GAPI                                               :          
GR_NORM     .GAPI                                               :GammaRay Normalized
ILD         .OHMM                                               :          
ILM         .OHMM                                               :          
NPHI        .%                                                  :          
SFL         .OHMM                                               :          
SP          .MV                                                 :          
SP_NORM     .MV                                                 :SP Normalized
VSH_GR      .V/V                                                :Volume of Shale from GR
VSH_SP      .V/V                                                :Volume of Shale from SP
~A        DEPTH           DCAL           DPHI           DRHO             GR        GR_NORM            ILD            ILM           NPHI            SFL             SP        SP_NORM         VSH_GR         VSH_SP
# ...
      4047.0000         6.1732        30.9065        -0.0023        64.9735        65.3116         0.8809         0.7935          45.85         0.7273       -35.9648        -2.0025      0.6874809      0.9999242
      4047.5000         6.4824         29.984        -0.0017        64.2367       64.47227         0.8682         0.7957        44.1531         0.7472       -35.8652        -1.9029      0.6696227              1
      4048.0000         6.8318        29.5591        -0.0012        65.6251       66.04451          0.864          0.798        42.6044         0.7509       -35.7877        -1.8254      0.7030747              1
      4048.5000         7.1573        30.3091        -0.0007        66.3363        66.8483         0.8649         0.7947        42.4376         0.7422       -35.7985        -1.8362      0.7201765              1
      4049.0000         7.4379        31.0591        -0.0003        66.5804       67.12205         0.8647         0.7736         43.441         0.7307       -35.7872        -1.8249       0.726001              1
      4049.5000         7.2742        31.8088        -0.0004        68.5398       69.34224         0.8538         0.7614        44.2641         0.7208       -35.7527        -1.7904      0.7732391              1
      4050.0000         6.7421        32.1924        -0.0007        71.1177       72.26425         0.8418         0.7591        44.2909         0.7128       -35.7177        -1.7554      0.8354096              1
      4050.5000          6.284        31.2508        -0.0011        72.9775       74.37143         0.8322         0.7576        43.5162         0.7108       -35.6824        -1.7201      0.8802432              1
      4051.0000          6.198          30.29        -0.0014        72.6842       74.03535         0.8247         0.7512        42.9057          0.709       -35.6563         -1.694      0.8730927              1
      4051.5000         6.3051        30.0376        -0.0014        72.1387        73.4131         0.8202         0.7468        42.3754         0.7088       -35.6096        -1.6473      0.8598532              1
      4052.0000         6.5883        30.5334        -0.0012        72.2307       73.51425         0.8156         0.7442        41.7243         0.7085       -35.5204        -1.5581      0.8620054              1
      4052.5000         6.2817        31.0111        -0.0008        74.1725       75.71447         0.8099         0.7278        41.4438         0.7069       -35.4366        -1.4743      0.9088185              1
      4053.0000         5.6366         31.322        -0.0005        76.4636       78.31105         0.8051         0.7107        42.4376         0.7059       -35.3577        -1.3954      0.9640649              1
      4053.5000         5.2945        31.5255        -0.0005        78.7548       80.90775         0.8007         0.7076        43.0521         0.7069       -35.2654        -1.3031              1              1
      4054.0000         5.6155        31.5875        -0.0009        81.0209       83.47596         0.7993         0.7107        42.6342         0.7079       -35.1032        -1.1409              1              1
      4054.5000         5.8872         31.588        -0.0012         79.655       81.92275         0.7994          0.715        42.2446         0.7121       -34.9902        -1.0279              1              1
      4055.0000         5.9086        31.7003        -0.0008        77.3713       79.32809         0.8022         0.7183        43.8179         0.7168       -35.1246        -1.1623      0.9857041              1
      4055.5000         5.9652        31.5767        -0.0005        75.0878       76.73363         0.8074         0.7185        45.5759         0.7231       -35.1816        -1.2193      0.9305029              1
      4056.0000         6.1668        31.2888        -0.0003        74.3096       75.84732         0.8205         0.7161        46.3964         0.7241        -35.165        -1.2027      0.9116451              1
      4056.5000         6.4426         30.932        -0.0002         75.109        76.7512         0.8434         0.7148        46.4564         0.7257       -35.2285        -1.2662      0.9308766              1
      4057.0000         6.7493        30.7365        -0.0002         74.374       75.91391         0.8557         0.7249         44.831         0.7348       -35.3604        -1.3981      0.9130619              1
      4057.5000         7.0064        30.4059        -0.0009        72.7452       74.06238         0.8515         0.7488        42.3832         0.7645       -35.5055        -1.5432      0.8736676              1
      4058.0000         7.1908        29.9495        -0.0019        71.4185       72.55367         0.8373         0.7718        40.4471         0.7959       -35.6133         -1.651      0.8415673              1
      4058.5000         6.7282        29.8113        -0.0027         72.754       74.06587         0.8127         0.7883        41.4728         0.8148       -35.6711        -1.7088       0.873742              1
      4059.0000         5.9545        31.0183        -0.0041        75.5084       77.18819         0.7803         0.7768        44.6254         0.7665       -35.6828        -1.7205      0.9401742              1
      4059.5000         5.1807        32.2625        -0.0026        78.2628        80.3105          0.741         0.7153        47.1164         0.7028       -35.6329        -1.6706              1              1
      4060.0000          4.407        33.5068         0.0026        81.0172       83.43281         0.7056         0.6423        47.4894         0.6443       -35.5704        -1.6081              1              1
      4060.5000         4.0208        33.6669         0.0067        83.7715       86.55502         0.6763         0.5965         47.292         0.6044       -35.5032        -1.5409              1              1
      4061.0000         3.9889        33.4724         0.0084        85.8248       88.88175         0.6557         0.5922        47.2654         0.5975       -35.4282        -1.4659              1              1
      4061.5000         4.1669        33.3425         0.0075        86.5409       89.69111         0.6393         0.5953        48.8149         0.5982       -35.3533         -1.391              1              1
      4062.0000         4.7522        33.5825          0.005        86.6918       89.85909         0.6288         0.5998        50.3188          0.601       -35.2726        -1.3103              1              1
      4062.5000         5.0886        34.1539         0.0022        86.6647        89.8251          0.621         0.6009        48.3441         0.6064       -35.1917        -1.2294              1              1
      4063.0000         5.2122        34.4768         0.0002        87.0474       90.25611         0.6247         0.6008        47.5729         0.6098        -35.129        -1.1667              1              1
      4063.5000         5.2581        34.5468        -0.0017        87.7216       91.01791         0.6342         0.6062        48.4923         0.6116       -35.0771        -1.1148              1              1
      4064.0000         5.2825        34.0603        -0.0029        86.6185       89.76292         0.6538          0.614        50.0187         0.6131       -35.0596        -1.0973              1              1
      4064.5000         5.3112        32.4117        -0.0031        82.8051       85.43241          0.686         0.6242        51.3293         0.6616       -35.0817        -1.1194              1              1
      4065.0000         5.3674         31.034        -0.0021        78.9915       81.10168         0.7256         0.6356        50.1289         0.7248       -35.1141        -1.1518              1              1
      4065.5000         7.1935        30.6469         0.0021        75.4432         77.072         0.7576         0.6519        47.9671         0.7623       -35.1703         -1.208      0.9377021              1
