#------------------------------------------------------------------------------
# Created by    : vladimir.rabinovich
# Created on    : 09/19/2023 17:22:38
#------------------------------------------------------------------------------
~Version Information Section
VERS.           2.0     :   CWLS log ASCII Standard - VERSION 2.0
WRAP.           NO      :   One line per depth step
~Well Information Section
#MNEM       .UNIT                                         VALUE :DESCRIPTION
#------------------------------------------------------------------------------
STRT        .FT                                             890 :START DEPTH
STOP        .FT                                            9058 :STOP DEPTH
STEP        .FT                                             0.5 :STEP      
NULL        .                                           -999.25 :NULL      
COMP        .                            COASTAL OIL & GAS CORP :COMPANY   
WELL        .                               OCS G01773 ST00BP00 :WELL      
FLD         .                                           WILDCAT :FIELD     
LOC         .                                                   :LOCATION  
CNTY        .                             GALVESTON LARGE BLOCK :LOCATION  
STAT        .                                             TEXAS :STATE     
CTRY        .                                     UNITED STATES :COUNTRY   
SRVC        .                                                   :SERVICE COMPANY
DATE        .                             9/13/2023 11:19:54 AM :LOG DATE  
API         .                                    42706403500000 :API NUMBER
UWI         .                                    42706403500000 :UNIQUE WELL ID
XCOORD      .                                  1074939.13305719 :SURFACE X 
YCOORD      .                                   10531967.363633 :SURFACE Y 
LAT         .                                         29.009472 :LATITUDE  
LON         .                                        -94.769566 :LONGITUDE 
ELEV        .FT                                              83 :ELEVATION VALUE
ELEV_TYPE   .                                                KB :ELEVATION REFERENCE TYPE
~Curve Information Section
#MNEM       .UNIT                                      API CODE :CURVE DESCRIPTION
#------------------------------------------------------------------------------
DEPT        .FT                                                 :DEPTH     
DCAL        .IN                                                 :          
DPSS        .V/V                                                :          
DRHO        .G/CM3                                              :          
DTLF        .US/FT                                              :          
DTLN        .US/FT                                              :          
GR          .GAPI                                               :          
GRS         .GAPI                                               :          
NPSS        .V/V                                                :Neutron Porosity Sandstone
SFL         .OHMM                                               :          
SP          .MV                                                 :          
SP_NORM     .MV                                                 :SP Normalized
SPHI_SAN    .V/V                                                :          
TENS        .LB                                                 :          
VSH_SP      .V/V                                                :Volume of Shale from SP
~A        DEPTH           DCAL           DPSS           DRHO           DTLF           DTLN             GR            GRS           NPSS            SFL             SP        SP_NORM       SPHI_SAN           TENS         VSH_SP
# ...
      5804.0000           2.52        -999.25        -999.25        -999.25        -999.25        40.0764        -999.25        -999.25          0.611       -33.5294      -34.65934         0.2976       2506.155      0.5378754
      5804.5000           2.52        -999.25        -999.25        -999.25        -999.25        40.6947        -999.25        -999.25         0.5681       -29.4118      -30.54174          0.306       2505.683      0.5927767
      5805.0000           2.52        -999.25        -999.25        -999.25        -999.25        41.5119        -999.25        -999.25         0.5785       -26.1765      -27.30644          0.312       2505.116      0.6359141
      5805.5000           2.52        -999.25        -999.25        -999.25        -999.25        42.1257        -999.25        -999.25         0.6335       -25.5882      -26.71814         0.3168       2504.642      0.6437581
      5806.0000           2.52        -999.25        -999.25        -999.25        -999.25        42.5366        -999.25        -999.25         0.6874       -27.6471      -28.77704         0.3144       2504.167      0.6163061
      5806.5000           2.48        -999.25        -999.25        -999.25        -999.25        42.7466        -999.25        -999.25         0.7342       -30.5882      -31.71814         0.3096       2503.692      0.5770914
      5807.0000           2.48        -999.25        -999.25        -999.25        -999.25        42.5522        -999.25        -999.25         0.7555       -34.1176      -35.24754         0.3048       2503.216      0.5300328
      5807.5000           2.48        -999.25        -999.25        -999.25        -999.25        41.7549        -999.25        -999.25         0.7135       -36.7647      -37.89465         0.3024       2502.643      0.4947381
      5808.0000           2.52        -999.25        -999.25        -999.25        -999.25        39.9564        -999.25        -999.25            0.7       -38.8235      -39.95345         0.3048       2502.164      0.4672874
      5808.5000           2.52        -999.25        -999.25        -999.25        -999.25        38.3387        -999.25        -999.25         0.7067       -40.5882      -41.71814         0.3084       2501.685      0.4437581
      5809.0000           2.52        -999.25        -999.25        -999.25        -999.25        37.5325        -999.25        -999.25         0.7483       -42.9412      -44.07114          0.312       2501.205      0.4123847
      5809.5000           2.48        -999.25        -999.25        -999.25        -999.25        37.1322        -999.25        -999.25         0.7924          -45.3      -46.42994         0.3144       2500.723      0.3809341
      5810.0000           2.48        -999.25        -999.25        -999.25        -999.25        36.9365        -999.25        -999.25         0.7924          -46.5      -47.62994         0.3156       2500.241      0.3649341
      5810.5000           2.48        -999.25        -999.25        -999.25        -999.25        36.7347        -999.25        -999.25         0.7924          -48.6      -49.72994         0.3168           2480      0.3369341
      5811.0000           2.52        -999.25        -999.25        -999.25        -999.25        36.9388        -999.25        -999.25         0.7924          -49.2      -50.32994         0.3204           2480      0.3289341
      5811.5000           2.52        -999.25        -999.25        -999.25        -999.25        38.1633        -999.25        -999.25         0.7627          -47.4      -48.52995         0.3228           2500      0.3529341
      5812.0000           2.52        -999.25        -999.25        -999.25        -999.25        39.7959        -999.25        -999.25         0.7135            -45      -46.12994          0.324           2500      0.3849341
      5812.5000           2.52        -999.25        -999.25        -999.25        -999.25           41.6        -999.25        -999.25          0.651       -40.2941      -41.42405         0.3252           2500      0.4476794
      5813.0000           2.52        -999.25        -999.25        -999.25        -999.25           43.6        -999.25        -999.25         0.6055       -33.8235      -34.95345         0.3264           2500      0.5339541
      5813.5000           2.52        -999.25        -999.25        -999.25        -999.25             46        -999.25        -999.25         0.5892       -26.4706      -27.60054         0.3288           2500      0.6319928
      5814.0000           2.48        -999.25        -999.25        -999.25        -999.25           47.2        -999.25        -999.25         0.5892       -20.2941      -21.42404           0.33           2500      0.7143461
      5814.5000           2.56        -999.25        -999.25        -999.25        -999.25           47.8        -999.25        -999.25         0.5838       -16.4706      -17.60054         0.3324           2500      0.7653261
      5815.0000           2.56        -999.25        -999.25        -999.25        -999.25           47.4        -999.25        -999.25         0.5838       -14.0625      -15.19244         0.3336           2500      0.7974341
      5815.5000           2.48        -999.25        -999.25        -999.25        -999.25           46.6        -999.25        -999.25         0.5838       -14.0625      -15.19244         0.3324           2500      0.7974341
      5816.0000           2.48        -999.25        -999.25        -999.25        -999.25           44.8        -999.25        -999.25         0.5785            -15      -16.12994           0.33           2500      0.7849341
      5816.5000           2.52        -999.25        -999.25        -999.25        -999.25           43.2        -999.25        -999.25         0.5838       -16.1765      -17.30644         0.3276           2500      0.7692474
      5817.0000           2.48        -999.25        -999.25        -999.25        -999.25             41        -999.25        -999.25         0.6278       -19.7059      -20.83584         0.3276           2500      0.7221888
      5817.5000           2.48        -999.25        -999.25        -999.25        -999.25        39.3878        -999.25        -999.25         0.6751       -25.2941      -26.42404         0.3276           2500      0.6476794
      5818.0000           2.44        -999.25        -999.25        -999.25        -999.25        38.7755        -999.25        -999.25            0.7       -31.4706      -32.60054         0.3276           2500      0.5653261
      5818.5000            2.4        -999.25        -999.25        -999.25        -999.25        39.3878        -999.25        -999.25         0.7067       -37.6471      -38.77704         0.3252           2500      0.4829728
      5819.0000           2.36        -999.25        -999.25        -999.25        -999.25           41.8        -999.25        -999.25         0.6751       -42.0588      -43.18874         0.3204           2500      0.4241501
      5819.5000           2.36        -999.25        -999.25        -999.25        -999.25           44.4        -999.25        -999.25         0.6278       -44.7059      -45.83584          0.318           2500      0.3888554
      5820.0000           2.36        -999.25        -999.25        -999.25        -999.25             46        -999.25        -999.25         0.6055          -45.3      -46.42994          0.318           2520      0.3809341
      5820.5000           2.36        -999.25        -999.25        -999.25        -999.25           45.4        -999.25        -999.25            0.7          -46.5      -47.62994         0.3192           2500      0.3649341
      5821.0000           2.28        -999.25        -999.25        -999.25        -999.25           43.8        -999.25        -999.25          0.822          -49.8      -50.92994         0.3204           2500      0.3209341
      5821.5000           2.24        -999.25        -999.25        -999.25        -999.25             41        -999.25        -999.25         0.9624          -55.5      -56.62994         0.3216           2500      0.2449341
