#------------------------------------------------------------------------------
# Created by    : vladimir.rabinovich
# Created on    : 09/19/2023 17:19:46
#------------------------------------------------------------------------------
~Version Information Section
VERS.           2.0     :   CWLS log ASCII Standard - VERSION 2.0
WRAP.           NO      :   One line per depth step
~Well Information Section
#MNEM       .UNIT                                         VALUE :DESCRIPTION
#------------------------------------------------------------------------------
STRT        .FT                                             290 :START DEPTH
STOP        .FT                                         11377.5 :STOP DEPTH
STEP        .FT                                             0.5 :STEP      
NULL        .                                           -999.25 :NULL      
COMP        .                         SONAT EXPLORATION GOM INC :COMPANY   
WELL        .                               OCS G04571 ST00BP00 :WELL      
FLD         .                                           WILDCAT :FIELD     
LOC         .                                                   :LOCATION  
CNTY        .                           HIGH ISLAND LARGE BLOCK :LOCATION  
STAT        .                                             TEXAS :STATE     
CTRY        .                                     UNITED STATES :COUNTRY   
SRVC        .                                                   :SERVICE COMPANY
DATE        .                             9/13/2023 11:19:19 AM :LOG DATE  
API         .                                    42708401190000 :API NUMBER
UWI         .                                    42708401190000 :UNIQUE WELL ID
XCOORD      .                                  1324427.25220013 :SURFACE X 
YCOORD      .                                  10679041.7751219 :SURFACE Y 
LAT         .                                         29.422046 :LATITUDE  
LON         .                                        -93.992863 :LONGITUDE 
ELEV        .FT                                             116 :ELEVATION VALUE
ELEV_TYPE   .                                                KB :ELEVATION REFERENCE TYPE
~Curve Information Section
#MNEM       .UNIT                                      API CODE :CURVE DESCRIPTION
#------------------------------------------------------------------------------
DEPT        .FT                                                 :DEPTH     
ASFL        .OHMM                                               :          
CALI        .IN                                                 :          
CILD        .MMHO                                               :          
GR          .GAPI                                               :          
GR_NORM     .GAPI                                               :GammaRay Normalized
ILD         .OHMM                                               :          
RHOB        .G/C3                                               :          
SP          .MV                                                 :          
SP_NORM     .GAPI                                               :SP Normalized
VSH_GR      .V/V                                                :Volume of Shale from GR
VSH_SP      .V/V                                                :Volume of Shale from SP
~A        DEPTH           ASFL           CALI           CILD             GR        GR_NORM            ILD           RHOB             SP        SP_NORM         VSH_GR         VSH_SP
# ...
      8412.5000         0.3643          12.25           3824        62.2612       71.32501         0.3561         2.2864       -56.2105       -14.2302      0.8154258      0.7967114
      8413.0000         0.3695        12.5771           3455        63.1135       72.55907         0.4033          2.271       -44.4149      -3.220976      0.8416823       0.953986
      8413.5000         0.3795        13.6525         3086.5        63.9659       73.79324          0.443         2.2194       -43.3387      -2.216521      0.8679413      0.9683354
      8414.0000         0.4033        13.9781         2717.5        64.5015       74.56874         0.4823         2.1989       -41.6352     -0.6265885      0.8844413      0.9910488
      8414.5000         0.4431        13.3579         2348.5        64.8695       75.10155         0.5215         2.2058       -39.9083      0.9851868      0.8957778              1
      8415.0000         0.5146        12.7355       2002.129        65.2375       75.63438         0.5608          2.248       -41.0983     -0.1254822      0.9071146      0.9982074
      8415.5000         0.6137        12.4061       1775.594        67.1254       78.36785         0.5911         2.3273       -44.9271      -3.699029      0.9652734      0.9471567
      8416.0000         0.6463        12.3226       1682.795        69.0428       81.14406         0.6109          2.357       -45.9427      -4.646921              1      0.9336154
      8416.5000         0.6502        12.3255       1642.059        70.6461       83.46546         0.6307         2.3604       -46.9027       -5.54292              1      0.9208154
      8417.0000         0.6455         12.346       1616.971        71.9994       85.42487         0.6506         2.3546       -47.7427       -6.32692              1      0.9096155
      8417.5000         0.6408        12.3673       1592.803        72.1182       85.59689         0.6469         2.3369       -48.4602      -6.996589              1      0.9000487
      8418.0000         0.6361        12.3896       1582.369        70.3715       83.06786          0.638         2.3463       -49.1777      -7.666255              1      0.8904821
      8418.5000         0.6312        12.4658       1579.109        68.6246       80.53855         0.6291         2.3585       -49.8952       -8.33592              1      0.8809154
      8419.0000         0.6131         12.664        1575.85        66.8779        78.0095         0.6188         2.3204       -49.0825      -7.577402      0.9576489      0.8917514
      8419.5000         0.5951        13.3122       1586.369        65.7843       76.42609         0.6035         2.2661       -47.7464      -6.330374      0.9239594      0.9095661
      8420.0000          0.577        13.5139       1599.633        65.1212         75.466         0.5883         2.1209       -46.4103      -5.083349      0.9035318      0.9273807
      8420.5000         0.5462        13.3281       1612.896        64.7678        74.9543          0.573         2.0981       -43.3004      -2.180774      0.8926447      0.9688461
      8421.0000         0.5015        13.3664       1653.088        64.7894       74.98558         0.5578         2.1389       -40.3453      0.5773199      0.8933102              1
      8421.5000         0.4579        13.8258       1706.045         64.811       75.01685         0.5427         2.2039        -40.512      0.4217311      0.8939756              1
      8422.0000         0.4353        14.8001       1812.357        64.8312       75.04609         0.5281         2.2225       -41.1453     -0.1693497      0.8945976      0.9975807
      8422.5000         0.4236        14.8122       1954.834        64.5537       74.64432         0.5136         2.2068         -41.78     -0.7617335      0.8860493      0.9891181
      8423.0000         0.4167        14.6402       2112.813        64.2764        74.2428          0.499         2.1908       -42.4133      -1.352814      0.8775063      0.9806741
      8423.5000          0.414        14.4209       2226.875         63.999       73.84117         0.4845         2.1964        -43.048      -1.945202      0.8689611      0.9722114
      8424.0000         0.4189        13.9043       2304.473        63.7216       73.43951         0.4699         2.2234       -43.6813      -2.536282      0.8604152      0.9637674
      8424.5000         0.4306        13.3677       2348.535        63.0257       72.43195         0.4554          2.245        -44.316       -3.12867      0.8389776      0.9553047
      8425.0000         0.4485        13.2469       2379.758        61.7317       70.55836         0.4408         2.2255       -46.8483      -5.492149       0.799114      0.9215407
      8425.5000         0.4697        13.1118       2401.691        60.4402        68.6884         0.4303         2.1192       -49.5154      -7.981441      0.7593277      0.8859794
      8426.0000          0.491        12.8701       2414.746        58.9755       66.56767         0.4296         2.0458        -51.428      -9.766536      0.7142058       0.860478
      8426.5000         0.5057        12.5324       2426.145        56.8106       63.43313         0.4289         2.0708       -53.3306       -11.5423      0.6475134      0.8351101
      8427.0000          0.518        12.4246       2437.547        55.0366       60.86457         0.4281         2.1171       -67.5719      -24.83417      0.5928631      0.6452261
      8427.5000         0.5133        12.8175       2487.488        53.8936       59.20963         0.4274         2.0083       -72.3816      -29.32323      0.5576517      0.5810968
      8428.0000         0.4962        13.7593       2545.215        52.7505       57.55454         0.4274         1.9958       -74.9795      -31.74793      0.5224371      0.5464581
      8428.5000          0.479        14.5257       2611.582        51.9674        56.4207         0.4345         1.9469       -77.5526      -34.14949      0.4983128      0.5121501
      8429.0000         0.4631        13.8526        2952.18        51.3278       55.49462         0.4416         1.9741       -79.1367      -35.62799       0.478609      0.4910287
      8429.5000         0.4476        13.0142       2883.621        58.1615       65.38909         0.4488         2.0708       -78.4124      -34.95197      0.6891296      0.5006861
      8430.0000         0.4321        12.3282       2730.215        67.8601       79.43161          0.456         2.2097       -77.5625      -34.15873      0.9879066      0.5120181
      8430.5000         0.4271        12.4107       2576.809        70.6807       83.51555         0.4631         2.3138       -57.2991      -15.24623              1      0.7821968
      8431.0000         0.4424        12.9029       2423.402        71.4304       84.60102          0.474         2.3377       -44.1168      -2.942746              1      0.9579608
      8431.5000         0.4759        13.3269       2269.992        72.2593       85.80118         0.4894         2.3512       -42.6533      -1.576816              1       0.977474
      8432.0000         0.5093        13.2896       2116.586         73.479       87.56718         0.5048         2.3684        -42.126      -1.084667              1      0.9845048
      8432.5000         0.5735        13.1816        1963.18        74.6987       89.33319         0.5202         2.4123       -42.1425       -1.10007              1      0.9842847
      8433.0000          0.624        13.2501       1809.973        75.8715       91.03127         0.5356         2.4253       -42.1589      -1.115376              1      0.9840661
      8433.5000         0.6541        13.4322       1644.643        77.3684       93.19862          0.551         2.4105       -42.1753      -1.130682              1      0.9838474
      8434.0000         0.6501        13.4727       1616.475        76.5791        92.0558         0.5648         2.3487       -42.1918       -1.14608              1      0.9836274
      8434.5000         0.6419        13.2948       1623.877         74.204       88.61691         0.5721         2.3221       -42.2082      -1.161387              1      0.9834087
