#------------------------------------------------------------------------------
# Created by    : vladimir.rabinovich
# Created on    : 09/19/2023 17:20:12
#------------------------------------------------------------------------------
~Version Information Section
VERS.           2.0     :   CWLS log ASCII Standard - VERSION 2.0
WRAP.           NO      :   One line per depth step
~Well Information Section
#MNEM       .UNIT                                         VALUE :DESCRIPTION
#------------------------------------------------------------------------------
STRT        .FT                                             970 :START DEPTH
STOP        .FT                                            6500 :STOP DEPTH
STEP        .FT                                             0.5 :STEP      
NULL        .                                           -999.25 :NULL      
COMP        .                                CONTINENTAL OIL CO :COMPANY   
WELL        .                               OCS G03106 ST00BP00 :WELL      
FLD         .                       MATAGORDA ISLAND BLOCK 0687 :FIELD     
LOC         .                                                   :LOCATION  
CNTY        .                      MATAGORDA ISLAND LARGE BLOCK :LOCATION  
STAT        .                                             TEXAS :STATE     
CTRY        .                                     UNITED STATES :COUNTRY   
SRVC        .                                                   :SERVICE COMPANY
DATE        .                             9/13/2023 11:12:09 AM :LOG DATE  
API         .                                    42703400330000 :API NUMBER
UWI         .                                    42703400330000 :UNIQUE WELL ID
XCOORD      .                                  468864.661343862 :SURFACE X 
YCOORD      .                                  10154488.9405743 :SURFACE Y 
LAT         .                                         27.934663 :LATITUDE  
LON         .                                        -96.628194 :LONGITUDE 
ELEV        .FT                                              96 :ELEVATION VALUE
ELEV_TYPE   .                                                KB :ELEVATION REFERENCE TYPE
~Curve Information Section
#MNEM       .UNIT                                      API CODE :CURVE DESCRIPTION
#------------------------------------------------------------------------------
DEPT        .FT                                                 :DEPTH     
ASFL        .OHMM                                               :          
CALI        .IN                                                 :          
CILD        .MMHO                                               :          
DRHO        .G/C3                                               :          
DT          .US/F                                               :          
DTL         .US/F                                               :          
GR          .GAPI                                               :          
GR_1        .GAPI                                               :          
GR_NORM     .GAPI                                               :GammaRay Normalized
ILD         .OHMM                                               :          
ILM         .OHMM                                               :          
NPHI        .%                                                  :          
RHOB        .G/C3                                               :          
SFL         .OHMM                                               :          
SP          .MV                                                 :          
SP_NORM     .MV                                                 :SP Normalized
VSH_GR      .V/V                                                :Volume of Shale from GR
VSH_SP      .V/V                                                :Volume of Shale from SP
~A        DEPTH           ASFL           CALI           CILD           DRHO             DT            DTL             GR           GR_1        GR_NORM            ILD            ILM           NPHI           RHOB            SFL             SP        SP_NORM         VSH_GR         VSH_SP
# ...
       998.0000         0.1814        -999.25              0        -999.25        -999.25        -999.25        17.2653        -999.25        53.5417         0.4247        -999.25        -999.25        -999.25        -999.25      -102.9635       2.440494      0.4370574              1
       998.5000         0.1916        -999.25         59.667        -999.25        -999.25        -999.25        19.4423        -999.25       58.13012         0.4467        -999.25        -999.25        -999.25        -999.25       -95.6417      0.9771519      0.5346835              1
       999.0000         0.2017        -999.25       212.5886        -999.25        -999.25        -999.25        20.0152        -999.25       59.21002         0.4687        -999.25        -999.25        -999.25        -999.25       -89.5509       2.612899        0.55766              1
       999.5000         0.4197        -999.25       446.3179        -999.25        -999.25        -999.25        20.3188        -999.25       59.70086         0.4864        -999.25        -999.25        -999.25        -999.25       -86.9747     -0.1321144      0.5681033              1
      1000.0000         0.6718        -999.25       1060.348        -999.25       155.8193        -999.25         21.427        -999.25       61.95168         0.5001         4.4791        -999.25        -999.25          0.688       -84.6494       2.841783      0.6159931              1
      1000.5000         0.8745        -999.25       1674.379        -999.25       152.7393        -999.25        23.2438        -999.25        65.7522         0.5138         0.5689        -999.25        -999.25         0.7085       -80.4224       1.082257      0.6968554              1
      1001.0000         0.8881        -999.25       2007.818        -999.25       151.4263        -999.25        23.5508        -999.25       66.25047         0.5275         0.5205        -999.25        -999.25         0.7594       -77.9897       2.179093      0.7074567              1
      1001.5000         0.8942        -999.25       1866.973        -999.25       153.5266        -999.25        23.4472        -999.25       65.85065         0.5402         0.5416        -999.25        -999.25         0.8739       -77.6375        3.54419      0.6989501              1
      1002.0000         0.8796        -999.25       1814.822        -999.25        157.551        -999.25         23.634        -999.25       66.08576         0.5525         0.5959        -999.25        -999.25         1.0033        -76.701     -0.7795082      0.7039524              1
      1002.5000         0.8618        -999.25        1770.02        -999.25       163.5828        -999.25        24.8854        -999.25       68.64981         0.5648         0.6544        -999.25        -999.25         1.1169       -74.6597       3.328196      0.7585066              1
      1003.0000         0.8006        -999.25       1750.443        -999.25        167.282        -999.25        26.4854        -999.25        71.9763         0.5772         0.6961        -999.25        -999.25         1.1178       -72.1874      0.1250899      0.8292831              1
      1003.5000         0.7654        -999.25       1730.869        -999.25       166.7966        -999.25        27.3547        -999.25       73.70456         0.5895         0.7244        -999.25        -999.25          1.031       -70.7893       3.379464      0.8660545              1
      1004.0000         0.7397        -999.25       1711.293        -999.25       168.4207        -999.25        27.3323        -999.25       73.48209         0.6018         0.7264        -999.25        -999.25         0.8584        -71.957      -1.232971      0.8613212              1
      1004.5000         0.7231        -999.25        1720.18        -999.25       181.9277        -999.25         27.128        -999.25       72.86199         0.6114         0.7054        -999.25        -999.25          0.705       -73.5476       3.138961      0.8481275              1
      1005.0000         0.7065        -999.25       1740.535        -999.25       188.1738        -999.25        27.4957        -999.25       73.49303         0.6198         0.6565        -999.25        -999.25         0.6342       -74.5795     -0.1727695      0.8615539              1
      1005.5000         0.6959        -999.25       1763.373        -999.25       191.8262        -999.25        28.8672        -999.25       76.31955         0.6282         0.6322        -999.25        -999.25         0.6181       -74.3788       2.540373      0.9216926              1
      1006.0000         0.6877        -999.25       1788.154        -999.25       188.9971        -999.25        29.5856        -999.25       77.71769         0.6366         0.6621        -999.25        -999.25         0.6544       -73.0284       1.478571      0.9514402              1
      1006.5000         0.6795        -999.25       1787.574        -999.25         173.78        -999.25         28.552        -999.25       75.28358          0.645         0.6891        -999.25        -999.25         0.6745       -70.5348       3.458205      0.8996508              1
      1007.0000         0.6746        -999.25       1770.559        -999.25       171.7739        -999.25         28.421        -999.25       74.82383         0.6533         0.6753        -999.25        -999.25         0.6688       -69.1155       1.395041      0.8898687              1
      1007.5000         0.6724        -999.25       1753.545        -999.25        170.042        -999.25        30.1761        -999.25        78.4894         0.6554         0.6515        -999.25        -999.25         0.6487       -69.7428       3.287095      0.9678594              1
      1008.0000         0.6705        -999.25       1747.572        -999.25       167.3999        -999.25        30.9055        -999.25       79.91162         0.6547         0.6238        -999.25        -999.25         0.6309       -70.9131     0.02383681      0.9981196              1
      1008.5000         0.6911        -999.25       1753.354        -999.25       164.6023        -999.25        30.1339        -999.25       78.05064         0.6539         0.6085        -999.25        -999.25         0.6361       -72.2009      -1.049116      0.9585243              1
      1009.0000         0.7117        -999.25       1759.135        -999.25       160.3015        -999.25        28.6632        -999.25       74.66043         0.6531         0.6045        -999.25        -999.25          0.664       -73.7014      0.9687251      0.8863922              1
      1009.5000         0.7283        -999.25       1764.916        -999.25       157.5583        -999.25        27.7092        -999.25       72.40025         0.6524         0.6163        -999.25        -999.25          0.697       -75.2058     0.03923919      0.8383033              1
      1010.0000         0.7422        -999.25       1749.012        -999.25       155.8406        -999.25        28.3895        -999.25       73.71507         0.6516         0.6279        -999.25        -999.25         0.7227       -76.1051      0.3093385       0.866278              1
      1010.5000          0.756        -999.25       1732.381        -999.25       155.0586        -999.25        30.6748        -999.25        78.5406         0.6459          0.641        -999.25        -999.25         0.7275       -75.8302        2.25304      0.9689488              1
      1011.0000         0.7699        -999.25       1711.266        -999.25       153.6946        -999.25        33.1072        -999.25       83.68764         0.6394         0.6588        -999.25        -999.25         0.7387       -74.6578       2.912056              1              1
      1011.5000         0.7839        -999.25       1684.227        -999.25       150.1594        -999.25        33.7476        -999.25       84.91521         0.6329         0.6859        -999.25        -999.25         0.7669       -74.0696     -0.5705406              1              1
