#------------------------------------------------------------------------------
# Created by    : vladimir.rabinovich
# Created on    : 09/19/2023 17:19:47
#------------------------------------------------------------------------------
~Version Information Section
VERS.           2.0     :   CWLS log ASCII Standard - VERSION 2.0
WRAP.           NO      :   One line per depth step
~Well Information Section
#MNEM       .UNIT                                         VALUE :DESCRIPTION
#------------------------------------------------------------------------------
STRT        .FT                                             380 :START DEPTH
STOP        .FT                                            8002 :STOP DEPTH
STEP        .FT                                             0.5 :STEP      
NULL        .                                           -999.25 :NULL      
COMP        .                               AMOCO PRODUCTION CO :COMPANY   
WELL        .                               OCS G07253 ST00BP00 :WELL      
FLD         .                                           WILDCAT :FIELD     
LOC         .                                                   :LOCATION  
CNTY        .                             GALVESTON LARGE BLOCK :LOCATION  
STAT        .                                             TEXAS :STATE     
CTRY        .                                     UNITED STATES :COUNTRY   
SRVC        .                                                   :SERVICE COMPANY
DATE        .                             9/13/2023 11:19:27 AM :LOG DATE  
API         .                                    42706401230000 :API NUMBER
UWI         .                                    42706401230000 :UNIQUE WELL ID
XCOORD      .                                  925879.569593371 :SURFACE X 
YCOORD      .                                  10358786.1357032 :SURFACE Y 
LAT         .                                         28.526408 :LATITUDE  
LON         .                                        -95.225632 :LONGITUDE 
ELEV        .FT                                             100 :ELEVATION VALUE
ELEV_TYPE   .                                                KB :ELEVATION REFERENCE TYPE
~Curve Information Section
#MNEM       .UNIT                                      API CODE :CURVE DESCRIPTION
#------------------------------------------------------------------------------
DEPT        .FT                                                 :DEPTH     
ASFL        .OHMM                                               :          
CILD        .MMHO                                               :          
GR          .GAPI                                               :          
GR_NORM     .GAPI                                               :GammaRay Normalized
ILD         .OHMM                                               :          
SP          .MV                                                 :          
SP_NORM     .MV                                                 :SP Normalized
VSH_GR      .V/V                                                :Volume of Shale from GR
VSH_SP      .V/V                                                :Volume of Shale from SP
~A        DEPTH           ASFL           CILD             GR        GR_NORM            ILD             SP        SP_NORM         VSH_GR         VSH_SP
# ...
      6978.5000         0.9778        1016.24        54.9129       69.75227         0.9804       -40.7959      -0.319706      0.7819633              1
      6979.0000         0.9764       1016.999        54.9777       69.85131         0.9836        -41.036     -0.5598068      0.7840704              1
      6979.5000         0.9749       1017.758        54.5973       69.29128         0.9867       -40.9121     -0.4359093      0.7721548              1
      6980.0000          0.964       1036.494         54.217       68.73139          0.975       -40.7881     -0.3119087      0.7602424              1
      6980.5000         0.9513       1056.695        54.3284       68.89942         0.9602       -40.6642     -0.1880074      0.7638175              1
      6981.0000         0.9386       1074.895        56.2108        71.6892         0.9454       -40.5402    -0.06400681      0.8231745              1
      6981.5000         0.9284       1089.844        57.7969       74.04038         0.9306       -40.4155     0.06069183      0.8731996              1
      6982.0000         0.9207       1104.656        58.9771       75.79063         0.9158       -40.2787      0.1974907       0.910439              1
      6982.5000         0.9131       1114.807        59.4352       76.47191         0.9062        -40.142      0.3341942      0.9249342              1
      6983.0000         0.9054       1108.119        57.8977       74.19892         0.9037       -40.0053      0.4708939      0.8765728              1
      6983.5000         0.8936       1080.596        56.7935       72.56738         0.9012       -39.8685      0.6076927      0.8418592              1
      6984.0000         0.9248        1053.07        55.6891       70.93555         0.9036       -39.7318      0.7443924      0.8071395              1
      6984.5000         0.9574       1033.207        54.5861       69.30579         0.9241        -39.595      0.8811913      0.7724637              1
      6985.0000         0.9834       1019.771        53.4818        67.6741         0.9447       -39.5406      0.9355927      0.7377469              1
      6985.5000          0.997        1006.32        55.4738       70.62614         0.9652       -39.9453      0.5308914      0.8005562              1
      6986.0000         1.0105       993.6455        55.0343       69.97864         0.9858       -40.1638      0.3123932      0.7867795              1
      6986.5000          1.021       986.1084        53.5391       67.76826         0.9847        -40.376       0.100193      0.7397503              1
      6987.0000         0.9985        991.502        52.0451       65.55968         0.9822       -40.5883     -0.1121063      0.6927591              1
      6987.5000         0.9759       996.8955        50.5511       63.35108         0.9797       -40.8005     -0.3243065      0.6457676              1
      6988.0000         0.9533        998.501        49.8344       62.29318         0.9772       -41.0128     -0.5366058      0.6232591              1
      6988.5000         0.9342       999.5986        49.6946       62.08932         0.9742       -41.2251      -0.748909      0.6189217              1
      6989.0000         0.9162       1000.697        51.5845       64.89024         0.9676       -41.4374     -0.9612083      0.6785158              1
      6989.5000         0.9073        1031.07        53.4768        67.6947         0.9609       -41.5569      -1.080708      0.7381852              1
      6990.0000         0.9097        1065.27        53.4532       67.66286         0.9543       -41.6741      -1.197906      0.7375078              1
      6990.5000         0.9198        1095.82        53.0716       67.10106         0.9476       -41.5513      -1.075108      0.7255545              1
      6991.0000           0.93        1086.02        52.6851       66.53199          0.941       -41.2456     -0.7694092      0.7134466              1
      6991.5000         0.9379       1065.221        52.2985       65.96278         0.9434       -40.9517     -0.4755058      0.7013358              1
      6992.0000          0.933       1043.494        51.9119       65.39359           0.95       -40.7643     -0.2881088      0.6892252              1
      6992.5000         0.9316       1032.559        51.5247       64.82348         0.9566       -40.5769      -0.100708      0.6770953              1
      6993.0000         0.9366        1031.65        51.2479       64.41682         0.9631       -40.3892     0.08699417      0.6684429              1
      6993.5000         0.9415       1030.744        51.2073       64.35982         0.9697       -40.2019       0.274292      0.6672302              1
      6994.0000         0.9471       1028.945        52.2505       65.90726         0.9763       -40.0145      0.4616928      0.7001545              1
      6994.5000         0.9542       1020.083        53.2938       67.45487         0.9828       -39.8268      0.6493912      0.7330824              1
      6995.0000         0.9612       1011.221        54.2157       68.82276         0.9894        -39.772      0.7041931      0.7621864              1
      6995.5000         0.9682       1002.371        54.8849       69.81654         0.9903       -39.7555      0.7206917      0.7833307              1
      6996.0000          0.971       993.5088        55.5535       70.80944         0.9899       -39.4784      0.9977913      0.8044562              1
      6996.5000         0.9723       985.7959         56.222       71.80221         0.9895       -38.9897       1.486492      0.8255789              1
      6997.0000         0.9726        981.458        55.8248       71.21729         0.9891       -38.5391       1.937092      0.8131337              1
      6997.5000          0.973       977.1211        54.8152        69.7258         0.9886       -38.9337       1.542492         0.7814              1
      6998.0000         0.9733       972.7773        54.1553         68.752         0.9882       -39.4678       1.008392      0.7606809              1
      6998.5000         0.9736       969.3594        53.4955       67.77835         0.9878       -40.0019      0.4742928      0.7399649              1
      6999.0000         0.9773       969.0889        53.4208       67.67088         0.9874       -40.4265     0.04969406      0.7376782              1
      6999.5000          0.982       968.8184        54.7318       69.61477          0.987       -40.8074     -0.3312073      0.7790377              1
      7000.0000         0.9799       968.5469        56.3353       71.99169         0.9865       -41.1877     -0.7115059      0.8296105              1
      7000.5000         0.9752       968.2764        57.2404       73.33471         0.9863       -41.5687      -1.092506      0.8581853              1
      7001.0000         0.9759       968.0059        55.8336        71.2552          0.986       -41.9496      -1.473408      0.8139405              1
      7001.5000         0.9793       967.4658        54.4268       69.17569         0.9858       -42.3191      -1.842907      0.7696955              1
      7002.0000         0.9827       966.9082        53.1569       67.29886         0.9856       -42.3593      -1.883106       0.729763              1
      7002.5000         0.9861       966.3525        51.9144       65.46259         0.9854       -41.9391      -1.462906      0.6906933              1
      7003.0000         0.9895       965.7959        52.6838        66.6047         0.9852       -41.5195      -1.043308      0.7149936              1
      7003.5000         0.9929       965.2393        54.3732       69.10878         0.9849       -41.0994     -0.6232071      0.7682719              1
      7004.0000         0.9963       963.4492        56.3826        72.0866         0.9847       -40.6798     -0.2036057      0.8316298              1
      7004.5000         1.0012       961.3184        57.1035       73.15689         0.9845       -40.2596      0.2165909      0.8544019              1
