#------------------------------------------------------------------------------
# Created by    : vladimir.rabinovich
# Created on    : 09/19/2023 17:19:48
#------------------------------------------------------------------------------
~Version Information Section
VERS.           2.0     :   CWLS log ASCII Standard - VERSION 2.0
WRAP.           NO      :   One line per depth step
~Well Information Section
#MNEM       .UNIT                                         VALUE :DESCRIPTION
#------------------------------------------------------------------------------
STRT        .FT                                             130 :START DEPTH
STOP        .FT                                            9502 :STOP DEPTH
STEP        .FT                                             0.5 :STEP      
NULL        .                                           -999.25 :NULL      
COMP        .            MOBIL PRODUCING TEXAS & NEW MEXICO INC :COMPANY   
WELL        .                               OCS G07243 ST00BP00 :WELL      
FLD         .                                           WILDCAT :FIELD     
LOC         .                                                   :LOCATION  
CNTY        .                             GALVESTON LARGE BLOCK :LOCATION  
STAT        .                                             TEXAS :STATE     
CTRY        .                                     UNITED STATES :COUNTRY   
SRVC        .                                                   :SERVICE COMPANY
DATE        .                             9/13/2023 11:19:36 AM :LOG DATE  
API         .                                    42706401330000 :API NUMBER
UWI         .                                    42706401330000 :UNIQUE WELL ID
XCOORD      .                                  993943.906145108 :SURFACE X 
YCOORD      .                                  10496155.9223708 :SURFACE Y 
LAT         .                                         28.907432 :LATITUDE  
LON         .                                        -95.020991 :LONGITUDE 
ELEV        .FT                                              92 :ELEVATION VALUE
ELEV_TYPE   .                                                KB :ELEVATION REFERENCE TYPE
~Curve Information Section
#MNEM       .UNIT                                      API CODE :CURVE DESCRIPTION
#------------------------------------------------------------------------------
DEPT        .FT                                                 :DEPTH     
ASFL        .OHMM                                               :          
CILD        .MMHO                                               :          
DT          .US/F                                               :          
GR          .GAPI                                               :          
GR_NORM     .GAPI                                               :GammaRay Normalized
ILD         .OHMM                                               :          
SP          .MV                                                 :          
SP_NORM     .GAPI                                               :SP Normalized
VSH_GR      .V/V                                                :Volume of Shale from GR
VSH_SP      .V/V                                                :Volume of Shale from SP
~A        DEPTH           ASFL           CILD             DT             GR        GR_NORM            ILD             SP        SP_NORM         VSH_GR         VSH_SP
# ...
      8239.5000         1.0616       1095.783        97.2499        72.9442       65.79639         0.9218        83.4435      -5.488666      0.6977956      0.9085222
      8240.0000         1.0428       1088.109        97.0312        73.8845       67.19405         0.9266        83.1077      -5.849418       0.727533      0.9025097
      8240.5000         1.0193       1080.852        89.5918        74.7328       68.45495         0.9315        82.7717      -6.210392      0.7543606      0.8964935
      8241.0000         0.9958       1069.715        90.4829         75.241       69.21033         0.9214        82.4358       -6.57125      0.7704325      0.8904791
      8241.5000         1.0142        1058.59        92.9413        75.8171       70.06664         0.9084        82.4674      -6.536339      0.7886518       0.891061
      8242.0000         1.0724       1062.176        97.4978        76.4031       70.93766         0.8953        82.6044      -6.387929      0.8071843      0.8935345
      8242.5000         1.0459       1080.656       104.6115        77.0449       71.89162         0.8823        82.7549      -6.224976      0.8274812      0.8962504
      8243.0000         1.0213       1099.111       103.1552        77.2373       72.17759         0.8693        82.9148      -6.051892      0.8335657      0.8991351
      8243.5000         0.9975       1117.568       100.0402        76.2651       70.73254          0.857        83.0751      -5.878388      0.8028201      0.9020268
      8244.0000         0.9746       1136.047        93.4448        75.2625       69.24229         0.8473        82.5492      -6.443865      0.7711125      0.8926023
      8244.5000         0.9625       1165.861        90.9111        74.4153       67.98302         0.8377        82.0037      -7.030449      0.7443197      0.8828259
      8245.0000         0.9503       1202.822        92.2329        75.0527       68.93044         0.8281        81.4557      -7.619728      0.7644775      0.8730046
      8245.5000         0.9382       1238.902        99.1121         75.689       69.87623         0.8184        81.7892        -7.2597      0.7846006       0.879005
      8246.0000         0.9324       1267.148       102.9083        76.3253       70.82201         0.8109        82.1262      -6.895908      0.8047237      0.8850682
      8246.5000         0.9288       1295.396       102.7405        76.9628       71.76959         0.8035        82.4983      -6.494305       0.824885      0.8917616
      8247.0000         0.9352       1302.445       100.1849        77.5923       72.70527         0.7961        83.0844      -5.862244       0.844793      0.9022959
      8247.5000         0.9612       1291.014       102.1752        78.0275       73.35213         0.7887        83.6703      -5.230396       0.858556      0.9128267
      8248.0000          0.992       1279.596        103.666         78.462       73.99796         0.7813        84.2562      -4.598548      0.8722971      0.9233575
      8248.5000         1.0013       1268.164       104.9668        78.8972       74.64484          0.772        84.5236      -4.309705      0.8860604      0.9281716
      8249.0000         0.9729       1264.492       107.7252        79.3324       75.29173         0.7584        84.2164      -4.639663       0.899824      0.9226723
      8249.5000         0.9543       1269.199       102.8738        79.7676       75.93861         0.7447        83.9097      -4.969078      0.9135874       0.917182
      8250.0000         0.9358       1273.904         98.142        80.0873        76.4138         0.7311        83.6025      -5.299035      0.9236979      0.9116828
      8250.5000         0.9176       1283.549        97.3411         79.686       75.81731         0.7174        83.2958      -5.628449      0.9110067      0.9061925
      8251.0000         0.9098       1301.588        97.6273        79.1699       75.05019         0.7038        82.9915      -5.955276      0.8946848      0.9007454
      8251.5000         0.9021       1319.629       102.3159        78.6434       74.26762         0.6901         82.834      -6.124022      0.8780344      0.8979329
      8252.0000         0.8944       1337.668       106.0381        78.0869       73.44043         0.6765        82.8557      -6.099776      0.8604347      0.8983371
      8252.5000         0.8902       1363.246       108.4558        77.5297       72.61222         0.6649        83.0819      -5.855293      0.8428132      0.9024118
      8253.0000         0.8876       1399.082       108.5804        76.9731        71.7849          0.655        83.3081      -5.610826      0.8252106      0.9064862
      8253.5000         0.8798       1430.561       107.9387         77.512       72.58591          0.645        83.5342      -5.366449      0.8422535      0.9105592
      8254.0000          0.872       1459.541       107.3821        78.1727       73.56796          0.635        83.7604      -5.121982       0.863148      0.9146336
      8254.5000         0.8642       1484.215       106.8137        78.8347       74.55196         0.6251        84.0093      -4.853055      0.8840842      0.9191157
      8255.0000         0.8576       1506.121       105.5024        79.7725       75.94588         0.6151         84.342      -4.493881      0.9137421       0.925102
      8255.5000         0.8536       1528.053       105.9443        80.8158       77.49664         0.6051        84.6749       -4.13451      0.9467369      0.9310915
      8256.0000         0.8496       1549.961       107.6449         81.859       79.04723         0.6027        85.0072      -3.775763      0.9797284      0.9370706
      8256.5000         0.8457       1571.867       109.1345        82.8704       80.55056         0.6005          85.34       -3.41649              1      0.9430585
      8257.0000          0.843       1593.775       110.2341        83.8781       82.04839         0.5983        85.6442      -3.088012              1      0.9485331
      8257.5000         0.8439       1615.682       110.3337        84.8845       83.54428         0.5962        85.7329       -2.99161              1      0.9501398
      8258.0000         0.8495       1634.971       110.6982        85.7942       84.89645         0.5984        85.8217       -2.89511              1      0.9517482
      8258.5000         0.8571       1653.939        111.261        86.7001       86.24297         0.6058        85.9102      -2.798922              1      0.9533513
      8259.0000         0.8651       1639.842       112.1842        87.6061       87.58964         0.6131        85.9989      -2.702521              1       0.954958
      8259.5000          0.874        1606.16       114.2477        88.6088       89.08003         0.6205        85.9366      -2.768744              1      0.9538543
      8260.0000          0.883       1572.529       114.6971        89.7158       90.72546         0.6278        85.7482      -2.970757              1      0.9504874
      8260.5000         0.8913       1538.896        113.095         90.021       91.17912         0.6368        85.5597      -3.172877              1      0.9471187
      8261.0000         0.8986       1505.264       111.2856        88.9644       89.60859         0.6458         85.371       -3.37522              1      0.9437463
      8261.5000         0.9058       1471.633        109.922        87.8672       87.97775         0.6549        85.1825       -3.57734              1      0.9403777
      8262.0000         0.9131           1438       109.3431         86.705       86.25025          0.664         84.994      -3.779468              1      0.9370089
      8262.5000         0.9204       1404.369       108.6174        85.5428       84.52277         0.6731        84.9072      -3.872066              1      0.9354656
      8263.0000         0.9283       1382.977        107.761        84.2936       82.66599         0.6823        84.8545      -3.927944              1      0.9345343
      8263.5000         0.9362       1367.064       106.7675        83.1842       81.01698         0.6914        84.8016      -3.984045              1      0.9335992
