#------------------------------------------------------------------------------
# Created by    : vladimir.rabinovich
# Created on    : 09/19/2023 17:19:46
#------------------------------------------------------------------------------
~Version Information Section
VERS.           2.0     :   CWLS log ASCII Standard - VERSION 2.0
WRAP.           NO      :   One line per depth step
~Well Information Section
#MNEM       .UNIT                                         VALUE :DESCRIPTION
#------------------------------------------------------------------------------
STRT        .FT                                            3460 :START DEPTH
STOP        .FT                                           13634 :STOP DEPTH
STEP        .FT                                             0.5 :STEP      
NULL        .                                           -999.25 :NULL      
COMP        .                                SHELL OFFSHORE INC :COMPANY   
WELL        .                               OCS G06107 ST00BP00 :WELL      
FLD         .                                           WILDCAT :FIELD     
LOC         .                                                   :LOCATION  
CNTY        .                             GALVESTON LARGE BLOCK :LOCATION  
STAT        .                                             TEXAS :STATE     
CTRY        .                                     UNITED STATES :COUNTRY   
SRVC        .                                                   :SERVICE COMPANY
DATE        .                             9/13/2023 11:19:27 AM :LOG DATE  
API         .                                    42706401270000 :API NUMBER
UWI         .                                    42706401270000 :UNIQUE WELL ID
XCOORD      .                                  941908.785460496 :SURFACE X 
YCOORD      .                                  10441108.8632451 :SURFACE Y 
LAT         .                                         28.753553 :LATITUDE  
LON         .                                        -95.180411 :LONGITUDE 
ELEV        .FT                                              90 :ELEVATION VALUE
ELEV_TYPE   .                                                KB :ELEVATION REFERENCE TYPE
~Curve Information Section
#MNEM       .UNIT                                      API CODE :CURVE DESCRIPTION
#------------------------------------------------------------------------------
DEPT        .FT                                                 :DEPTH     
ASFL        .OHMM                                               :          
CALI        .IN                                                 :          
CILD        .MMHO                                               :          
DT          .US/F                                               :          
GR          .GAPI                                               :          
GR_1        .GAPI                                               :          
GR_NORM     .GAPI                                               :GammaRay Normalized
ILD         .OHMM                                               :          
ILM         .OHMM                                               :          
RHOB        .G/C3                                               :          
SP          .MV                                                 :          
VSH_GR      .V/V                                                :Volume of Shale from GR
~A        DEPTH           ASFL           CALI           CILD             DT             GR           GR_1        GR_NORM            ILD            ILM           RHOB             SP         VSH_GR
# ...
     13607.5000        -999.25         6.5208       2582.957       107.3405        -999.25        56.2616       74.99907         0.3684         0.3765         2.4431        -999.25      0.8935972
     13608.0000        -999.25         6.5168       2485.691       106.1936        -999.25         56.593       75.48355         0.3875         0.3901         2.4499        -999.25      0.9039053
     13608.5000        -999.25         6.5115        2404.84        105.556        -999.25        57.3507       76.59132         0.4137         0.4006         2.4576        -999.25      0.9274748
     13609.0000        -999.25         6.5074       2349.621       105.2126        -999.25        58.5736       81.87863         0.4275         0.4072         2.4651        -999.25              1
     13609.5000        -999.25         6.5016       2315.223       105.0021        -999.25        60.9894       87.73428         0.4377         0.4119           2.46        -999.25              1
     13610.0000        -999.25          6.493       2315.273       104.8165        -999.25        64.0903       78.80164         0.4426         0.4137         2.4456        -999.25       0.974503
     13610.5000        -999.25         6.4906       2369.785       104.6716        -999.25        65.5308       87.47133         0.4391          0.411         2.4299        -999.25              1
     13611.0000        -999.25         6.4929       2430.574       104.6191        63.1838         1.7606       83.71858         0.4281         0.4052         2.4164        -999.25              1
     13611.5000        -999.25         6.4942       2512.238       104.7267        64.0286        -999.25       82.35819         0.4131         0.3966         2.4062        -999.25              1
     13612.0000        -999.25         6.4946       2603.223       104.8125         65.801        -999.25       78.55521         0.3971          0.387         2.4058        -999.25      0.9692599
     13612.5000        -999.25          6.495       2693.801       104.7534        68.8456        -999.25       82.04072          0.382          0.377         2.4103        -999.25              1
     13613.0000        -999.25         6.4953       2782.758       104.7067        71.6864        -999.25       87.76907         0.3675         0.3683         2.4158        -999.25              1
     13613.5000        -999.25         6.4957       2862.598       104.7147        71.8096        -999.25       86.45684         0.3483         0.3632          2.419        -999.25              1
     13614.0000        -999.25         6.4974       2922.883       104.6437        70.1604        -999.25       81.61318         0.3401         0.3506         2.4204        -999.25              1
     13614.5000        -999.25         6.5027        2975.77         90.042        68.8229        -999.25       83.52753         0.3357         0.3474          2.422        -999.25              1
     13615.0000        -999.25          6.508       3010.777        59.3968        67.9027        -999.25       78.11221          0.331         0.3458         2.4245        -999.25      0.9598342
     13615.5000        -999.25         6.5105       3010.422        50.6299        67.6667        -999.25       79.15044         0.3315          0.347         2.4278        -999.25      0.9819244
     13616.0000        -999.25         6.5125       2981.746        50.4196        67.5304        -999.25       80.38945         0.3353         0.3493         2.4315        -999.25              1
     13616.5000        -999.25         6.5124       2948.719        50.3698        67.2949        -999.25        79.8786         0.3403          0.352         2.4348        -999.25       0.997417
     13617.0000        -999.25         6.5058       2916.195        50.3063        66.9097        -999.25       81.37037         0.3447         0.3552         2.4377        -999.25              1
     13617.5000        -999.25         6.4992       2883.773        50.3447        65.2102        -999.25       83.11561          0.347         0.3575         2.4369        -999.25              1
     13618.0000        -999.25         6.4956       2851.352        50.3423        63.2291        -999.25       85.61088         0.3476         0.3582         2.4321        -999.25              1
     13618.5000        -999.25         6.4924       2826.273        50.2832        62.0751        -999.25       80.64179         0.3467         0.3567         2.4264        -999.25              1
     13619.0000        -999.25          6.496       2849.375        50.1961        61.3888        -999.25       78.62032         0.3439         0.3549         2.4201        -999.25      0.9706452
     13619.5000        -999.25         6.5033       2867.055        50.1444        62.2637        -999.25       80.74225         0.3417         0.3513         2.4144        -999.25              1
     13620.0000        -999.25         6.5119       2902.012        50.1373        64.9336        -999.25       82.66668         0.3397         0.3477         2.4103        -999.25              1
     13620.5000        -999.25         6.5236       2943.449        50.0793        69.3081        -999.25       86.45015         0.3365         0.3442         2.4058        -999.25              1
     13621.0000        -999.25         6.5334       2976.328        50.0425        74.6481        -999.25       87.11583         0.3345         0.3428         2.4012        -999.25              1
     13621.5000        -999.25         6.5338       2999.176        50.0527        82.2205        -999.25       81.66032         0.3329         0.3416         2.3975        -999.25              1
     13622.0000        -999.25         6.5341       3021.973        50.1204        90.1951        -999.25       84.34257         0.3314         0.3407         2.3966        -999.25              1
     13622.5000        -999.25         6.5345       3031.098        50.1418        92.3925        -999.25       79.79806         0.3303           0.34         2.4027        -999.25      0.9957033
     13623.0000        -999.25         6.5287       3032.363        50.0374         92.845        -999.25       84.96297         0.3294         0.3395         2.4097        -999.25              1
     13623.5000        -999.25         6.5106       3032.836        45.2321        92.9059        -999.25       81.83995         0.3282         0.3387         2.4165        -999.25              1
     13624.0000        -999.25         6.4934       3033.074        28.2505        92.3873        -999.25       81.48318         0.3266         0.3378         2.4122        -999.25              1
     13624.5000        -999.25         6.4637        3033.18         9.6191        91.4647        -999.25       87.35571         0.3261         0.3373         2.4061        -999.25              1
     13625.0000        -999.25         6.4572        3036.84         0.8366        90.8739        -999.25       81.38983         0.3276         0.3369         2.4028        -999.25              1
     13625.5000        -999.25         6.4601       3036.516         0.1783        90.7485        -999.25       83.34637         0.3283         0.3371         2.4019        -999.25              1
     13626.0000        -999.25         6.4627       3030.113              0        89.4711        -999.25        84.5662         0.3289         0.3374         2.4044        -999.25              1
     13626.5000        -999.25          6.467       3023.148              0        88.2869        -999.25       85.59901         0.3296         0.3376         2.4104        -999.25              1
     13627.0000        -999.25         6.4738       3016.172              0         88.385        -999.25       87.93065         0.3305         0.3375         2.4171        -999.25              1
     13627.5000        -999.25         6.4781       3009.207              0        90.4063        -999.25       86.68597         0.3318         0.3374         2.4238        -999.25              1
