#------------------------------------------------------------------------------
# Created by    : vladimir.rabinovich
# Created on    : 09/19/2023 17:19:50
#------------------------------------------------------------------------------
~Version Information Section
VERS.           2.0     :   CWLS log ASCII Standard - VERSION 2.0
WRAP.           NO      :   One line per depth step
~Well Information Section
#MNEM       .UNIT                                         VALUE :DESCRIPTION
#------------------------------------------------------------------------------
STRT        .FT                                             880 :START DEPTH
STOP        .FT                                            8374 :STOP DEPTH
STEP        .FT                                             0.5 :STEP      
NULL        .                                           -999.25 :NULL      
COMP        .                                        EXXON CORP :COMPANY   
WELL        .                               OCS G04552 ST00BP00 :WELL      
FLD         .                                 BRAZOS BLOCK 0451 :FIELD     
LOC         .                                                   :LOCATION  
CNTY        .                                BRAZOS LARGE BLOCK :LOCATION  
STAT        .                                             TEXAS :STATE     
CTRY        .                                     UNITED STATES :COUNTRY   
SRVC        .                                                   :SERVICE COMPANY
DATE        .                             9/13/2023 11:19:08 AM :LOG DATE  
API         .                                    42704401130000 :API NUMBER
UWI         .                                    42704401130000 :UNIQUE WELL ID
XCOORD      .                                  760277.642000753 :SURFACE X 
YCOORD      .                                  10343629.6463693 :SURFACE Y 
LAT         .                                         28.475327 :LATITUDE  
LON         .                                        -95.739931 :LONGITUDE 
ELEV        .FT                                              95 :ELEVATION VALUE
ELEV_TYPE   .                                                KB :ELEVATION REFERENCE TYPE
~Curve Information Section
#MNEM       .UNIT                                      API CODE :CURVE DESCRIPTION
#------------------------------------------------------------------------------
DEPT        .FT                                                 :DEPTH     
ASFL        .OHMM                                               :          
CALI        .IN                                                 :          
CILD        .MMHO                                               :          
DT          .US/F                                               :          
GR          .GAPI                                               :          
GR_NORM     .GAPI                                               :GammaRay Normalized
ILD         .OHMM                                               :          
ILM         .OHMM                                               :          
RHOB        .G/C3                                               :          
SP          .MV                                                 :          
SP_NORM     .MV                                                 :SP Normalized
VSH_GR      .V/V                                                :Volume of Shale from GR
VSH_SP      .V/V                                                :Volume of Shale from SP
~A        DEPTH           ASFL           CALI           CILD             DT             GR        GR_NORM            ILD            ILM           RHOB             SP        SP_NORM         VSH_GR         VSH_SP
# ...
      2970.0000         1.0003        -999.25       1378.314       141.3665        62.1797       90.69965         0.7384         0.7196        -999.25        -36.891         0.6428              1              1
      2970.5000         1.0013        -999.25       1362.506       140.8269        62.0429       90.51093         0.7447          0.726        -999.25       -37.0332         0.4922              1              1
      2971.0000         1.0057        -999.25       1341.443       140.1467        61.9006       90.31456         0.7516         0.7333        -999.25       -37.1755         0.3416              1              1
      2971.5000         1.0118        -999.25       1319.486       139.3923        61.7568        90.1161         0.7666          0.742        -999.25       -37.3178         0.1909              1              1
      2972.0000         1.0185        -999.25       1289.508       138.5579        61.6129       89.91747         0.7817         0.7573        -999.25       -37.5917        -0.0913              1        0.99834
      2972.5000         1.0249        -999.25       1259.529       137.7087        61.4509       89.69376          0.799         0.7804        -999.25       -37.8904        -0.3984              1      0.9927564
      2973.0000           1.03        -999.25       1229.551       136.8459        61.2054       89.35354         0.8165         0.8055        -999.25       -38.1835        -0.6998              1      0.9872764
      2973.5000         1.0351        -999.25       1190.541         136.02        60.9601       89.01361         0.8356         0.8303        -999.25       -38.2749        -0.7996              1      0.9854618
      2974.0000         1.0415        -999.25       1151.584       135.1108        60.5725       88.47533          0.858         0.8544        -999.25       -38.3663        -0.8993              1      0.9836491
      2974.5000         1.0492        -999.25       1118.084       133.6277        60.0789       87.78931         0.8805         0.8783        -999.25       -38.4255        -0.9669              1        0.98242
      2975.0000         1.0664        -999.25       1093.738       131.7437        58.9405       86.20458         0.9029         0.9031        -999.25       -38.4437        -0.9934              1      0.9819382
      2975.5000          1.079        -999.25       1072.512       129.8435        57.6648       84.42863         0.9253         0.9292        -999.25        -38.462        -1.0201              1      0.9814527
      2976.0000         1.0942        -999.25       1053.146       128.1213        56.2896       82.51387         0.9478           0.95        -999.25       -38.4802        -1.0466              1      0.9809709
      2976.5000         1.1154        -999.25       1044.982       126.5856        52.2948       76.94796         0.9703         0.9591        -999.25       -38.5469        -1.1217       0.935063      0.9796054
      2977.0000         1.1004        -999.25       1039.191       125.8672        52.9786       77.90295         0.9896         0.9584        -999.25       -38.6662        -1.2493       0.955382      0.9772854
      2977.5000         1.0854        -999.25       1049.268       126.0898        53.7951       79.04294         1.0051         0.9508        -999.25       -38.7855         -1.377       0.979637      0.9749637
      2978.0000         1.0785        -999.25       1062.063         126.79        54.4347       79.93635           1.02         0.9372        -999.25       -38.9268        -1.5266      0.9986457      0.9722436
      2978.5000         1.0718        -999.25       1081.932       127.9969        54.5506       80.09998         1.0292         0.9179        -999.25       -39.0909        -1.6991              1      0.9691073
      2979.0000         1.0651        -999.25       1103.006       129.2654        54.7141       80.32981         1.0265         0.8967        -999.25       -39.2551        -1.8716              1      0.9659709
      2979.5000         1.0589        -999.25       1124.096       130.4377        54.9686       80.68649         0.9954         0.8734        -999.25       -39.4167        -2.0416              1        0.96288
      2980.0000         1.0527        -999.25       1145.184       131.4409        55.4882       81.41264         0.9359         0.8508        -999.25       -39.5536        -2.1869              1      0.9602382
      2980.5000         1.0465        -999.25       1161.418       132.2842        56.1947       82.39929         0.8891         0.8288        -999.25       -39.6906        -2.3322              1      0.9575964
      2981.0000           1.04        -999.25        1176.59       132.6782         57.334       83.98917         0.8729         0.8192        -999.25       -39.8275        -2.4775              1      0.9549546
      2981.5000         1.0332        -999.25       1183.119       132.6277         57.381       84.05678         0.8667         0.8134        -999.25       -39.9562        -2.6145              1      0.9524636
      2982.0000         1.0247        -999.25       1184.131       132.2358        57.0627       83.61508         0.8652          0.821        -999.25       -40.0842        -2.7509              1      0.9499837
      2982.5000         1.0239        -999.25       1180.297       132.0349         56.754       83.18678         0.8637         0.8348        -999.25       -40.2414        -2.9164              1      0.9469746
      2983.0000          1.025        -999.25       1176.461       131.8484        56.4489       82.76347         0.8667         0.8459        -999.25       -40.6218        -3.3052              1      0.9399055
      2983.5000         1.0296        -999.25        1168.84       131.2024        56.1437       82.34007           0.87         0.8565        -999.25       -41.0021        -3.6938              1        0.93284
      2984.0000         1.0342        -999.25       1160.582       130.6365        55.8669       81.95621         0.8733         0.8658        -999.25       -41.4608        -4.1609              1      0.9243473
      2984.5000         1.0388        -999.25        1152.32       130.1462        55.6014       81.58825         0.8763         0.8746        -999.25       -41.9543        -4.6627              1      0.9152237
      2985.0000         1.0421        -999.25       1133.689        130.283         55.305       81.17709         0.8794         0.8829        -999.25       -42.4482         -5.165              1      0.9060909
      2985.5000         1.0452        -999.25       1114.682       130.9497        55.0831       80.86977         0.8799         0.8902        -999.25       -43.2505        -5.9756              1      0.8913527
      2986.0000         1.0496        -999.25       1096.926       131.2383        56.1396       82.34425         0.8786         0.8959        -999.25       -44.0314        -6.7649              1      0.8770018
      2986.5000         1.0555        -999.25       1124.586       130.1436        57.4745       84.20674         0.8773         0.8916        -999.25       -44.6923        -7.4341              1      0.8648345
      2987.0000         1.0624        -999.25        1168.51       128.7812        59.7626        87.3978         0.8671         0.8808        -999.25        -45.372        -8.1222              1      0.8523237
      2987.5000         1.0768        -999.25       1212.926       126.8048        60.6676       88.66126         0.8551         0.8642        -999.25       -46.1127        -8.8712              1      0.8387055
      2988.0000         1.0924        -999.25       1257.342       126.0166        60.3135       88.16969         0.8432         0.8225        -999.25       -45.7999        -8.5668              1        0.84424
      2988.5000         1.0987        -999.25       1298.234       127.5829        59.8004       87.45648         0.8187         0.7845        -999.25       -45.4161        -8.1913              1      0.8510672
