#------------------------------------------------------------------------------
# Created by    : vladimir.rabinovich
# Created on    : 09/19/2023 17:20:49
#------------------------------------------------------------------------------
~Version Information Section
VERS.           2.0     :   CWLS log ASCII Standard - VERSION 2.0
WRAP.           NO      :   One line per depth step
~Well Information Section
#MNEM       .UNIT                                         VALUE :DESCRIPTION
#------------------------------------------------------------------------------
STRT        .FT                                             507 :START DEPTH
STOP        .FT                                            6530 :STOP DEPTH
STEP        .FT                                             0.5 :STEP      
NULL        .                                           -999.25 :NULL      
COMP        .                                      SHELL OIL CO :COMPANY   
WELL        .                                ST TR 00692-L SE/4 :WELL      
FLD         .                                           WILDCAT :FIELD     
LOC         .                                                   :LOCATION  
CNTY        .                      MATAGORDA ISLAND LARGE BLOCK :LOCATION  
STAT        .                                             TEXAS :STATE     
CTRY        .                                     UNITED STATES :COUNTRY   
SRVC        .                                                   :SERVICE COMPANY
DATE        .                             9/13/2023 11:12:05 AM :LOG DATE  
API         .                                    42703000180000 :API NUMBER
UWI         .                                    42703000180000 :UNIQUE WELL ID
XCOORD      .                                  399042.886430441 :SURFACE X 
YCOORD      .                                  10159669.4462586 :SURFACE Y 
LAT         .                                        27.9430215 :LATITUDE  
LON         .                                       -96.8445442 :LONGITUDE 
ELEV        .FT                                              84 :ELEVATION VALUE
ELEV_TYPE   .                                                DF :ELEVATION REFERENCE TYPE
~Curve Information Section
#MNEM       .UNIT                                      API CODE :CURVE DESCRIPTION
#------------------------------------------------------------------------------
DEPT        .FT                                                 :DEPTH     
ASN         .OHMM                                               :          
CILD        .MMHO                                               :          
ILD         .OHMM                                               :          
SP          .MV                                                 :          
SP_NORM     .MV                                                 :SP Normalized
VSH_SP      .V/V                                                :Volume of Shale from SP
~A        DEPTH            ASN           CILD            ILD             SP        SP_NORM         VSH_SP
# ...
      5713.0000         0.6007       3197.316         0.2692        -87.179       -45.6696      0.3068317
      5713.5000         0.6057        3254.91         0.2588        -92.578       -51.0686      0.2211333
      5714.0000         0.6113       3301.137         0.2484       -95.6222       -54.1128      0.1728127
      5714.5000         0.6179       3354.184          0.238       -97.5966       -56.0872       0.141473
      5715.0000         0.6245        3414.25         0.2293       -98.6774        -57.168      0.1243175
      5715.5000         0.6311       3483.563         0.2389        -99.757       -58.2476      0.1071809
      5716.0000         0.6378       3584.121         0.2485      -101.0969       -59.5875     0.08591267
      5716.5000         0.6601       3664.508         0.2581        -102.49       -60.9806     0.06380002
      5717.0000         0.6832       3349.781         0.2677      -103.8844        -62.375     0.04166667
      5717.5000         0.7017       2733.582          0.281      -104.6473       -63.1379     0.02955712
      5718.0000         0.7396        2116.59         0.3193      -105.3376       -63.8282     0.01859998
      5718.5000         0.7844        2018.59         0.3576      -104.8574        -63.348     0.02622223
      5719.0000         0.8291       2013.578         0.3959      -103.7692       -62.2598     0.04349524
      5719.5000         0.8738       2008.566         0.4342      -102.7057       -61.1963     0.06037618
      5720.0000         0.9185       2144.078         0.4726      -101.7562       -60.2468     0.07544763
      5720.5000         0.9633        2348.16         0.5109      -100.8055       -59.2961     0.09053808
      5721.0000          1.008       2552.242         0.4985       -99.8549       -58.3455       0.105627
      5721.5000         0.9591       2756.324         0.4568       -98.9055       -57.3961      0.1206968
      5722.0000         0.9009       2960.602         0.4134       -98.6042       -57.0948      0.1254794
      5722.5000         0.8451       3164.684         0.3701       -99.5612       -58.0518      0.1102889
      5723.0000         0.8243        3323.48         0.3267      -100.5825       -59.0731     0.09407776
      5723.5000         0.8035       3377.668         0.2906      -101.6051       -60.0957     0.07784604
      5724.0000         0.7827       3408.391         0.2805      -102.6276       -61.1182      0.0616159
      5724.5000         0.7684       3508.977         0.2704      -103.6501       -62.1407     0.04538569
      5725.0000         0.7559       3332.578         0.2604      -103.4431       -61.9337     0.04867142
      5725.5000         0.7554       3156.184         0.2503      -101.6608       -60.1514     0.07696188
      5726.0000         0.8202       2979.586         0.2402       -99.8784        -58.369       0.105254
      5726.5000         0.8773       2803.191         0.2325       -98.0515       -56.5421      0.1342524
      5727.0000         0.9114       2626.793         0.2801       -96.2096       -54.7002      0.1634889
      5727.5000         0.9256       2450.398         0.3278       -94.3702       -52.8608      0.1926857
      5728.0000         0.9336           2274         0.3754       -92.2161       -50.7067      0.2268778
      5728.5000         0.9413       2097.605         0.4231       -88.1506       -46.6412      0.2914095
      5729.0000         0.9507       1920.375         0.4708       -83.9352       -42.4258      0.3583206
      5729.5000         1.0483        1742.75         0.5322       -81.8591       -40.3497      0.3912746
      5730.0000         1.1797       1565.125          0.598       -82.9647       -41.4553      0.3737254
      5730.5000         1.3112        1459.24         0.6664       -83.1476       -41.6382      0.3708223
      5731.0000         1.4427       1387.951         0.7359       -82.3022       -40.7928      0.3842413
      5731.5000         1.4738       1342.912         0.7648       -81.7129       -40.2035      0.3935952
      5732.0000         1.3843       1367.631         0.7782       -81.2096       -39.7002      0.4015841
      5732.5000         1.2947       1399.965          0.754       -80.7064        -39.197      0.4095714
      5733.0000         1.2052       1462.898         0.7298       -80.3716       -38.8622      0.4148857
      5733.5000         1.1644       1530.531         0.7057       -80.2511       -38.7417      0.4167984
      5734.0000         1.1056       1563.939         0.6468       -80.4907       -38.9813      0.4129952
      5734.5000         1.0944         1680.5         0.5837       -81.1489       -39.6395      0.4025476
      5735.0000         1.0847       2014.746         0.5206       -83.2374        -41.728      0.3693968
      5735.5000         1.0769       2248.492         0.4575       -86.1626       -44.6532      0.3229651
      5736.0000         1.0621       2482.039         0.3991       -92.4255       -50.9161       0.223554
      5736.5000         0.9729       2715.586         0.3562       -93.4854        -51.976      0.2067301
      5737.0000          0.909       2949.133         0.3134       -94.5463       -53.0369      0.1898905
      5737.5000         0.8552        3182.68         0.2706       -95.6061       -54.0967      0.1730683
      5738.0000         0.8132       3416.426         0.2318        -96.667       -55.1576      0.1562286
      5738.5000         0.7616         3734.5          0.209       -99.2648       -57.7554      0.1149936
      5739.0000         0.6886       4431.414         0.1993       -99.3312       -57.8218      0.1139397
      5739.5000         0.6311       4691.555         0.1925       -99.3976       -57.8882      0.1128857
      5740.0000         0.5881       4764.086         0.1901       -99.6848       -58.1754       0.108327
      5740.5000         0.5531       4803.977         0.1878         -100.1       -58.5906      0.1017365
      5741.0000         0.5452       4784.008         0.1857      -100.5153       -59.0059     0.09514442
      5741.5000         0.5422       4655.766         0.1847      -100.9344        -59.425     0.08849207
      5742.0000         0.5393       4588.367         0.1837      -102.1616       -60.6522     0.06901272
      5742.5000         0.5364       4602.914         0.1827      -103.7047       -62.1953     0.04451903
      5743.0000         0.5336        4655.07         0.1843      -106.9955       -65.4861              0
      5743.5000         0.5308       4678.727         0.1874      -106.1185       -64.6091    0.006204756
      5744.0000         0.5256       4702.406         0.1904       -105.241       -63.7316     0.02013331
      5744.5000         0.5192       4748.805         0.1935       -105.163       -63.6536     0.02137145
      5745.0000         0.5128       4797.555         0.1952      -105.4349       -63.9255     0.01705557
      5745.5000         0.5002       4846.297         0.1962       -105.707       -64.1976     0.01273649
      5746.0000         0.4865       4892.328         0.1972      -105.3309       -63.8215     0.01870637
      5746.5000         0.4728       4836.805         0.1982      -104.2749       -62.7655     0.03546827
      5747.0000         0.4591       4605.234         0.1988      -103.1593       -61.6499     0.05317621
      5747.5000         0.4672        4381.18         0.1989      -101.8158       -60.3064     0.07450158
      5748.0000         0.5113       4157.328          0.199      -100.6283       -59.1189     0.09335079
      5748.5000         0.5762           3361         0.2555       -99.7861       -58.2767      0.1067191
      5749.0000         0.7004       2270.441          0.316       -98.9446       -57.4352      0.1200762
      5749.5000         0.8246       2125.883         0.3765       -99.7905       -58.2811      0.1066492
      5750.0000         0.9488        2178.09         0.4268      -100.5874        -59.078     0.09400001
      5750.5000          1.073        2428.75         0.4724      -101.2958       -59.7864     0.08275556
