#------------------------------------------------------------------------------
# Created by    : vladimir.rabinovich
# Created on    : 09/19/2023 17:19:43
#------------------------------------------------------------------------------
~Version Information Section
VERS.           2.0     :   CWLS log ASCII Standard - VERSION 2.0
WRAP.           NO      :   One line per depth step
~Well Information Section
#MNEM       .UNIT                                         VALUE :DESCRIPTION
#------------------------------------------------------------------------------
STRT        .FT                                            1054 :START DEPTH
STOP        .FT                                           13910 :STOP DEPTH
STEP        .FT                                             0.5 :STEP      
NULL        .                                           -999.25 :NULL      
COMP        .                                            MTS LP :COMPANY   
WELL        .                                ST TR 00061-L SW/4 :WELL      
FLD         .                                           WILDCAT :FIELD     
LOC         .                                                   :LOCATION  
CNTY        .                           HIGH ISLAND LARGE BLOCK :LOCATION  
STAT        .                                             TEXAS :STATE     
CTRY        .                                     UNITED STATES :COUNTRY   
SRVC        .                                                   :SERVICE COMPANY
DATE        .                             9/13/2023 11:19:15 AM :LOG DATE  
API         .                                    42708302730000 :API NUMBER
UWI         .                                    42708302730000 :UNIQUE WELL ID
XCOORD      .                                  1164861.29381137 :SURFACE X 
YCOORD      .                                   10674042.082625 :SURFACE Y 
LAT         .                                        29.4036169 :LATITUDE  
LON         .                                       -94.4939126 :LONGITUDE 
ELEV        .FT                                              78 :ELEVATION VALUE
ELEV_TYPE   .                                                KB :ELEVATION REFERENCE TYPE
~Curve Information Section
#MNEM       .UNIT                                      API CODE :CURVE DESCRIPTION
#------------------------------------------------------------------------------
DEPT        .FT                                                 :DEPTH     
ASFL        .OHMM                                               :          
CILD        .MMHO                                               :          
ILD         .OHMM                                               :          
SP          .MV                                                 :          
SP_NORM     .MV                                                 :SP Normalized
VSH_SP      .V/V                                                :Volume of Shale from SP
~A        DEPTH           ASFL           CILD            ILD             SP        SP_NORM         VSH_SP
# ...
     10440.0000         0.6094        1907.41         0.5591       -39.9492     0.05080032              1
     10440.5000          0.601       1905.666          0.557       -40.1671      -0.167099              1
     10441.0000         0.5917       1911.254         0.5549       -40.3951     -0.3950996              1
     10441.5000         0.5814       1928.313         0.5499       -40.6494     -0.6493988              1
     10442.0000         0.5737       1958.623         0.5431       -40.9037     -0.9037018              1
     10442.5000          0.569       1988.982         0.5363       -41.1574      -1.157398      0.9977189
     10443.0000         0.5644       2032.852         0.5295       -41.4117      -1.411701      0.9940333
     10443.5000         0.5597       2078.734         0.5227       -41.6856        -1.6856      0.9900638
     10444.0000         0.5533       2144.367         0.5159       -41.8713        -1.8713      0.9873725
     10444.5000         0.5469       2223.063         0.5091       -41.9338        -1.9338      0.9864666
     10445.0000         0.5406       2302.844         0.5023       -41.9963        -1.9963      0.9855609
     10445.5000         0.5342       2367.395         0.4957       -42.0588        -2.0588      0.9846551
     10446.0000         0.5278        2410.82         0.4901       -42.1204      -2.120399      0.9837623
     10446.5000         0.5165        2460.93         0.4844       -42.1818      -2.181801      0.9828724
     10447.0000         0.5087       2516.637         0.4787       -42.2431      -2.243099      0.9819841
     10447.5000         0.5021       2578.043          0.473       -42.3046        -2.3046      0.9810928
     10448.0000         0.4955       2606.289         0.4674        -42.366      -2.366001      0.9802029
     10448.5000         0.4927       2599.953         0.4617       -42.4153      -2.415298      0.9794884
     10449.0000         0.4951       2572.785          0.456       -42.4019      -2.401901      0.9796826
     10449.5000         0.4975       2481.465         0.4509       -42.3883      -2.388302      0.9798797
     10450.0000         0.5124       2402.273          0.452       -42.3748      -2.374802      0.9800754
     10450.5000         0.5317       2334.086         0.4531       -42.2388        -2.2388      0.9820464
     10451.0000         0.5533       2252.145         0.4542       -42.0881        -2.0881      0.9842304
     10451.5000         0.5723       2185.434         0.4553       -41.8654      -1.865398       0.987458
     10452.0000         0.5846       2123.832         0.4641       -41.6235      -1.623501      0.9909638
     10452.5000         0.5949        2084.09         0.4741       -41.3818      -1.381802      0.9944667
     10453.0000         0.5991        2047.59          0.484       -41.1927      -1.192699      0.9972073
     10453.5000         0.6032       2027.645          0.494       -41.0927      -1.092701      0.9986565
     10454.0000          0.606       2008.215         0.5039       -40.9924     -0.9924011              1
     10454.5000         0.6079       1998.244         0.5135       -40.8921     -0.8921013              1
     10455.0000         0.6097       1988.295         0.5232       -40.7919     -0.7919006              1
     10455.5000          0.608       1978.465         0.5328       -40.6916     -0.6916008              1
     10456.0000          0.603       1976.291         0.5424       -40.6672     -0.6671982              1
     10456.5000         0.5981       1985.545         0.5458       -40.6595     -0.6595001              1
     10457.0000         0.5913       2006.816         0.5433       -40.6517     -0.6516991              1
     10457.5000         0.5846       2036.389         0.5408        -40.644      -0.644001              1
     10458.0000         0.5778       2069.156         0.5383       -40.6362        -0.6362              1
     10458.5000          0.572       2100.645         0.5356       -40.6285     -0.6285019              1
     10459.0000         0.5662       2129.578         0.5312       -40.6257     -0.6257019              1
     10459.5000         0.5605       2158.563         0.5268       -40.6284     -0.6283989              1
     10460.0000         0.5548       2183.664         0.5224       -40.6311     -0.6310997              1
     10460.5000         0.5514       2208.621         0.5181       -40.6338     -0.6338005              1
     10461.0000         0.5487       2232.031         0.5137       -40.6364     -0.6363983              1
     10461.5000          0.546       2248.977         0.5093       -40.6391     -0.6390991              1
     10462.0000         0.5432       2257.469         0.5052       -40.6418     -0.6417999              1
     10462.5000         0.5405       2260.926         0.5022       -40.6445     -0.6445007              1
     10463.0000         0.5409       2264.379         0.4993       -40.6472     -0.6472015              1
     10463.5000         0.5414       2269.266         0.4963        -40.652     -0.6520004              1
     10464.0000         0.5419       2275.332         0.4934       -40.6635     -0.6635017              1
     10464.5000         0.5424       2281.414         0.4904        -40.675     -0.6749992              1
     10465.0000         0.5429        2287.48         0.4875       -40.6866     -0.6865997              1
     10465.5000         0.5434       2293.559         0.4845       -40.6982     -0.6982002              1
     10466.0000         0.5432       2301.355         0.4816       -40.7098     -0.7098007              1
     10466.5000         0.5409       2309.809         0.4792       -40.7274     -0.7274017              1
     10467.0000         0.5387       2318.258          0.478       -40.7608     -0.7607994              1
     10467.5000         0.5364       2325.848         0.4767       -40.7943     -0.7943001              1
     10468.0000         0.5343       2330.617         0.4755       -40.8278     -0.8278008              1
     10468.5000         0.5322       2331.816         0.4742       -40.8613     -0.8613014              1
     10469.0000         0.5301       2325.086          0.473       -40.8947     -0.8946991              1
     10469.5000         0.5316       2310.754         0.4768       -40.9794     -0.9794006              1
     10470.0000         0.5336       2285.305         0.4821       -41.0868        -1.0868       0.998742
     10470.5000         0.5357       2236.621         0.4874       -41.1927      -1.192699      0.9972073
     10471.0000         0.5418       2202.629         0.4927       -41.2925        -1.2925      0.9957609
     10471.5000         0.5478        2172.07          0.498       -41.3545        -1.3545      0.9948623
     10472.0000         0.5598       2136.898          0.502       -41.3019      -1.301899      0.9956247
     10472.5000         0.5714       2098.727         0.5044       -41.2493      -1.249298       0.996387
     10473.0000         0.5815       2070.039         0.5067        -41.174         -1.174      0.9974782
     10473.5000         0.5891       2068.879         0.5091       -40.9927     -0.9926987              1
     10474.0000         0.5933       2072.844         0.5115       -40.8117     -0.8116989              1
     10474.5000         0.5909       2076.805         0.5138       -40.6487     -0.6487007              1
     10475.0000         0.5825        2082.43         0.5162       -40.6102      -0.610199              1
     10475.5000         0.5741       2090.832         0.5171       -40.5715     -0.5714989              1
     10476.0000         0.5657       2099.219          0.515       -40.5329     -0.5329018              1
     10476.5000         0.5608       2107.605         0.5129       -40.4943     -0.4943008              1
     10477.0000         0.5568        2121.57         0.5109       -40.4557     -0.4556999              1
     10477.5000         0.5577           2148         0.5088       -40.4171      -0.417099              1
