#------------------------------------------------------------------------------
# Created by    : vladimir.rabinovich
# Created on    : 09/19/2023 17:21:25
#------------------------------------------------------------------------------
~Version Information Section
VERS.           2.0     :   CWLS log ASCII Standard - VERSION 2.0
WRAP.           NO      :   One line per depth step
~Well Information Section
#MNEM       .UNIT                                         VALUE :DESCRIPTION
#------------------------------------------------------------------------------
STRT        .FT                                            2957 :START DEPTH
STOP        .FT                                            7390 :STOP DEPTH
STEP        .FT                                             0.5 :STEP      
NULL        .                                           -999.25 :NULL      
COMP        .                              DEVON LOUISIANA CORP :COMPANY   
WELL        .                               OCS G09039 ST00BP00 :WELL      
FLD         .                              GALVESTON BLOCK 0273 :FIELD     
LOC         .                                                   :LOCATION  
CNTY        .                             GALVESTON LARGE BLOCK :LOCATION  
STAT        .                                             TEXAS :STATE     
CTRY        .                                     UNITED STATES :COUNTRY   
SRVC        .                                                   :SERVICE COMPANY
DATE        .                             9/13/2023 11:19:54 AM :LOG DATE  
API         .                                    42706403330000 :API NUMBER
UWI         .                                    42706403330000 :UNIQUE WELL ID
XCOORD      .                                  1020560.14583294 :SURFACE X 
YCOORD      .                                  10500181.0477632 :SURFACE Y 
LAT         .                                        28.9197225 :LATITUDE  
LON         .                                       -94.9380297 :LONGITUDE 
ELEV        .FT                                              98 :ELEVATION VALUE
ELEV_TYPE   .                                                KB :ELEVATION REFERENCE TYPE
~Curve Information Section
#MNEM       .UNIT                                      API CODE :CURVE DESCRIPTION
#------------------------------------------------------------------------------
DEPT        .FT                                                 :DEPTH     
CALI        .IN                                                 :          
DCAL        .IN                                                 :          
DPHI        .%                                                  :          
DRHO        .G/C3                                               :          
GR          .GAPI                                               :          
GR_NORM     .GAPI                                               :GammaRay Normalized
ILD         .OHMM                                               :          
ILM         .OHMM                                               :          
LL3         .OHMM                                               :          
NPHI        .%                                                  :          
SP          .MV                                                 :          
SP_NORM     .MV                                                 :SP Normalized
VSH_GR      .V/V                                                :Volume of Shale from GR
VSH_SP      .V/V                                                :Volume of Shale from SP
~A        DEPTH           CALI           DCAL           DPHI           DRHO             GR        GR_NORM            ILD            ILM            LL3           NPHI             SP        SP_NORM         VSH_GR         VSH_SP
# ...
      2975.0000        14.3646         5.1657        31.0753         0.1011        67.9319       78.83029         0.9236         0.6143         0.6772        46.2163        -34.351      0.6303978      0.9751126              1
      2975.5000        14.9227          5.254        31.8854         0.0952        69.0823       78.61991         0.8614         0.6397          0.688        46.2652       -33.4409       1.518364      0.9706364              1
      2976.0000        15.1796         4.6641        32.9904         0.0888          69.99       80.38804         0.7714         0.6668          0.662        46.3629       -32.9352        2.00193              1              1
      2976.5000        15.0288         4.1117        34.3046         0.0862        70.2245       80.00374         0.6951         0.6893         0.6482        46.4819       -32.7659       2.149094              1              1
      2977.0000        14.4418         3.6054        35.1589         0.0883        70.3043       81.27909         0.6487         0.6983         0.6816        46.8448       -32.8784       2.014458              1              1
      2977.5000        13.8548         3.0609        35.7824         0.0863        71.9945       83.54028         0.6367         0.6916         0.6787        47.4914        -33.332       1.538723              1              1
      2978.0000        13.3508         2.5731        35.9132         0.0849        74.8138       84.69628         0.6296         0.6782          0.659        48.3577       -34.1505      0.6980858              1              1
      2978.5000        12.8205          2.601        35.9938         0.0823        77.6331       80.53474         0.6262          0.668         0.6352        49.5018       -35.0327     -0.2062454              1      0.9970536
      2979.0000        12.5492         2.6847        36.2542         0.0751        80.4622       82.57475         0.6278         0.6626         0.6376        51.4849       -35.8229      -1.018581              1      0.9854488
      2979.5000        12.5581         2.7839        37.0061         0.0754        82.4587       83.09807         0.6322          0.662         0.6447        54.3241       -36.3613      -1.579117              1      0.9774412
      2980.0000        12.6358         2.9069         37.909         0.0829        83.0665       80.15383         0.6358          0.664         0.6467        57.2684       -36.7343      -1.974251              1      0.9717964
      2980.5000        12.7108         3.0456         38.606         0.0885        82.8292       78.85983         0.6357         0.6655         0.6305        59.2379       -36.7043      -1.966389      0.9757411      0.9719087
      2981.0000        12.7882         3.1811        38.9631         0.0856        82.1292       78.05717         0.6313         0.6641         0.6322        59.6348       -36.7148      -1.999023      0.9586631      0.9714425
      2981.5000        12.8789         3.2223        39.0782         0.0772        80.9266       76.67818         0.6268         0.6598         0.6258        59.1177       -36.9144      -2.220757      0.9293231      0.9682749
      2982.0000        12.9809         3.2511        39.2025         0.0677        80.3259       75.98937         0.6223         0.6533         0.6215        58.4559       -36.8231      -2.151592      0.9146675       0.969263
      2982.5000        13.0682         3.2976        39.5629         0.0659        79.9551       75.56419         0.6175         0.6459         0.6352        58.4586       -36.8001      -2.150726      0.9056212      0.9692754
      2983.0000        13.1425         3.3417        40.0994         0.0633        80.1179       75.75087         0.6127         0.6395         0.6347        59.2345       -36.9516       -2.32436       0.909593      0.9667948
      2983.5000        13.2052          3.366        41.1091         0.0635        80.3781       76.04923         0.6092         0.6349         0.6312         60.356       -37.4227      -2.817596      0.9159411      0.9597486
      2984.0000        13.2464         3.3824        41.8369          0.063        79.8237       75.41353         0.6072         0.6323         0.6143         60.767       -37.8184      -3.235435      0.9024155      0.9537795
      2984.5000        13.2849          3.383        42.2272         0.0609        79.1709       74.66498         0.6068         0.6311         0.6204        59.8464       -37.9669      -3.406067      0.8864889      0.9513419
      2985.0000        13.3085         3.3678        42.3539         0.0582        79.2781        74.7879         0.6064         0.6303         0.6237        57.7847       -37.8762      -3.337505      0.8891043      0.9523214
      2985.5000        13.3008         3.3547         42.197         0.0538        80.7664       76.49449         0.6059         0.6302         0.6353        55.7704       -37.5905      -3.073936      0.9254147      0.9560866
      2986.0000        13.2737         3.3905        41.8869         0.0503        83.1364       79.21209         0.6059         0.6321         0.6207        54.7363       -37.2448      -2.750374       0.983236      0.9607089
      2986.5000        13.2365         3.5271        41.5363         0.0525        84.6272       80.92153         0.6073         0.6359         0.6233         54.755       -36.9225      -2.450211              1       0.964997
      2987.0000         13.282         3.6824        41.2533         0.0597        84.5508       80.83393         0.6102         0.6404         0.6231         54.951       -36.6761      -2.225945              1      0.9682008
      2987.5000        13.4283         3.8294        40.3677         0.0673        82.9587       79.00833         0.6138         0.6443         0.6157        54.3655       -36.5875      -2.159481      0.9789007      0.9691502
      2988.0000        13.5855         3.8915        38.9511         0.0788        82.0353       77.94949         0.6166         0.6469         0.6198        52.6528       -36.6219      -2.216011      0.9563722      0.9683427
      2988.5000        13.6868         3.8072        37.5345         0.0841         79.449       74.98387         0.6177         0.6475         0.6412        50.4913       -36.5878      -2.204048      0.8932739      0.9685136
      2989.0000        13.6722         3.7143        36.2436         0.0838        77.3276       72.55134         0.6171         0.6467         0.6845        48.6816       -36.5022      -2.140583      0.8415178      0.9694203
      2989.5000        13.6403         3.7112        35.8326         0.0752        76.3269       71.40385         0.6159         0.6439          0.679         47.866       -36.1887       -1.84922      0.8171033      0.9735826
      2990.0000        13.6341         3.8199        36.3076         0.0606        76.7358       71.87274         0.6145         0.6395         0.6371        48.1369       -35.6488      -1.331455      0.8270796      0.9809792
      2990.5000        13.6517         4.1274         37.618         0.0508        80.1782       75.82002         0.6119         0.6339         0.6209        49.2533       -35.7731       -1.47789      0.9110643      0.9788873
      2991.0000        13.7765         4.6066        38.8958         0.0521        83.4589       79.58189         0.6069         0.6279         0.6165        50.7101       -35.3497      -1.076626      0.9911039      0.9846196
      2991.5000        14.1477         5.0257        39.8864         0.0591        85.6045       82.04218         0.5993         0.6212         0.6144        51.8871       -34.9567     -0.7057571              1      0.9899178
      2992.0000        14.6813         5.3386        40.2012         0.0686        85.9932       82.48789         0.5913          0.615         0.6041        52.1734       -34.4603     -0.2314949              1       0.996693
      2992.5000        15.1413         5.5359        40.1174         0.0739        84.6548       80.95319         0.5859         0.6115         0.6014        51.4177       -33.8023      0.4043732              1              1
