#------------------------------------------------------------------------------
# Created by    : vladimir.rabinovich
# Created on    : 09/19/2023 17:20:36
#------------------------------------------------------------------------------
~Version Information Section
VERS.           2.0     :   CWLS log ASCII Standard - VERSION 2.0
WRAP.           NO      :   One line per depth step
~Well Information Section
#MNEM       .UNIT                                         VALUE :DESCRIPTION
#------------------------------------------------------------------------------
STRT        .FT                                             504 :START DEPTH
STOP        .FT                                            9762 :STOP DEPTH
STEP        .FT                                             0.5 :STEP      
NULL        .                                           -999.25 :NULL      
COMP        .                                      SHELL OIL CO :COMPANY   
WELL        .                                OCS 00703 ST00BP00 :WELL      
FLD         .                                           WILDCAT :FIELD     
LOC         .                                                   :LOCATION  
CNTY        .                             GALVESTON LARGE BLOCK :LOCATION  
STAT        .                                             TEXAS :STATE     
CTRY        .                                     UNITED STATES :COUNTRY   
SRVC        .                                                   :SERVICE COMPANY
DATE        .                             9/13/2023 11:19:25 AM :LOG DATE  
API         .                                    42706000420000 :API NUMBER
UWI         .                                    42706000420000 :UNIQUE WELL ID
XCOORD      .                                  1132503.99790541 :SURFACE X 
YCOORD      .                                  10523078.0194322 :SURFACE Y 
LAT         .                                         28.987276 :LATITUDE  
LON         .                                        -94.589113 :LONGITUDE 
ELEV        .FT                                              83 :ELEVATION VALUE
ELEV_TYPE   .                                                KB :ELEVATION REFERENCE TYPE
~Curve Information Section
#MNEM       .UNIT                                      API CODE :CURVE DESCRIPTION
#------------------------------------------------------------------------------
DEPT        .FT                                                 :DEPTH     
ASN         .OHMM                                               :          
CILD        .MMHO                                               :          
DT          .US/F                                               :          
ILD         .OHMM                                               :          
LAT         .OHMM                                               :          
LN          .OHMM                                               :          
SP          .MV                                                 :          
SP_NORM     .MV                                                 :SP Normalized
VSH_SP      .V/V                                                :Volume of Shale from SP
~A        DEPTH            ASN           CILD             DT            ILD            LAT             LN             SP        SP_NORM         VSH_SP
# ...
      9726.0000          1.683       1050.189         89.717         1.0957        -999.25         1.0957       -72.9435      -35.58086       0.491702
      9726.5000         1.7019       1020.731         89.342          1.124        -999.25          1.124       -72.0253      -34.66266      0.5048191
      9727.0000         1.7192       991.2246        89.0671         1.1383        -999.25         1.1383       -67.2823      -29.91967      0.5725762
      9727.5000         1.7357       945.0879        88.9599         1.1112        -999.25         1.1112        -63.254      -25.89137      0.6301234
      9728.0000         1.7458       922.9082        88.8366          1.084        -999.25          1.084       -58.0706      -20.70796       0.704172
      9728.5000         1.7522        928.459        88.8271         1.0569        -999.25         1.0569       -62.2173      -24.85466      0.6449334
      9729.0000         1.7549       1004.547        88.7504         1.0297        -999.25         1.0297       -69.5137      -32.15107      0.5406991
      9729.5000         1.7517       1028.281        88.7481         1.0026        -999.25         1.0026        -74.132      -36.76937      0.4747233
      9730.0000          1.748       1050.436        88.7457          0.985        -999.25          0.985       -75.0439      -37.68126      0.4616962
      9730.5000         1.7443       1064.967        88.6618         0.9752        -999.25         0.9752       -74.6947      -37.33207      0.4666848
      9731.0000         1.7403       1074.115        88.6595         0.9655        -999.25         0.9655       -73.8826      -36.51996      0.4782863
      9731.5000         1.7334       1077.205        88.6572         0.9557        -999.25         0.9557        -72.335      -34.97236      0.5003948
      9732.0000         1.7264       1069.186        88.6549         0.9708        -999.25         0.9708       -70.7874      -33.42476      0.5225034
      9732.5000         1.7195       1048.955        88.7347         1.0093        -999.25         1.0093       -68.8029      -31.44027      0.5508534
      9733.0000         1.7126        998.083        88.7321         1.0477        -999.25         1.0477       -65.8655      -28.50286      0.5928162
      9733.5000         1.7029       964.6279        88.7297         1.0862        -999.25         1.0862       -55.4641      -18.10146      0.7414077
      9734.0000         1.6908       934.3809        88.8092         1.1321        -999.25         1.1321       -54.1558      -16.79316      0.7600977
      9734.5000         1.6787       881.1885        88.9712          1.178        -999.25          1.178       -52.6428      -15.28016      0.7817119
      9735.0000         1.6651       848.6221        89.2946         1.2239        -999.25         1.2239       -51.0877      -13.72506      0.8039277
      9735.5000         1.6418       825.5537        89.6814         1.2587        -999.25         1.2587       -48.9625      -11.59986      0.8342876
      9736.0000         1.6156       806.0508        90.6269         1.2661        -999.25         1.2661       -46.4102      -9.047562      0.8707491
      9736.5000         1.5858       796.8604        90.7586         1.2735        -999.25         1.2735       -44.0875      -6.724865      0.9039305
      9737.0000         1.5549       787.6826        90.9139         1.2556        -999.25         1.2556       -42.5325      -5.169865      0.9261448
      9737.5000         1.5167       799.0068        91.0983         1.2198        -999.25         1.2198       -41.6118      -4.249165      0.9392977
      9738.0000         1.4452       822.8154        94.0691          1.184        -999.25          1.184       -41.0891      -3.726463      0.9467648
      9738.5000         1.3895       849.8555         96.458         1.1482        -999.25         1.1482       -40.5659      -3.203262      0.9542391
      9739.0000         1.3667       885.8271        96.1396         1.1124        -999.25         1.1124        -40.082      -2.719364       0.961152
      9739.5000         1.3585       929.8164        95.5663         1.0966        -999.25         1.0966       -39.6063      -2.243664      0.9679477
      9740.0000         1.3506        944.373        94.8539         1.0847        -999.25         1.0847       -39.5743      -2.211662      0.9684048
      9740.5000         1.3482       957.8926        94.6197         1.0728        -999.25         1.0728        -39.624      -2.261364      0.9676948
      9741.0000         1.3466       968.5508        94.4675          1.063        -999.25          1.063       -39.6735      -2.310863      0.9669877
      9741.5000          1.345       970.0869        94.3977         1.0623        -999.25         1.0623       -39.7231      -2.360462      0.9662791
      9742.0000          1.346       966.3428        94.3744         1.0616        -999.25         1.0616       -39.7728      -2.410164      0.9655691
      9742.5000          1.347       962.3584         94.476         1.0609        -999.25         1.0609       -39.8223      -2.459663      0.9648619
      9743.0000          1.348       957.6953        94.5562         1.0602        -999.25         1.0602       -39.8575      -2.494862      0.9643591
      9743.5000          1.349       953.0322        94.6806         1.0595        -999.25         1.0595       -39.8519      -2.489262      0.9644391
      9744.0000         1.3498       948.3691        94.8556         1.0572        -999.25         1.0572       -39.8462      -2.483562      0.9645205
      9744.5000         1.3498       944.4141        95.0463         1.0549        -999.25         1.0549       -39.8405      -2.477863      0.9646019
      9745.0000         1.3498       944.7832        95.2476         1.0525        -999.25         1.0525       -39.8348      -2.472164      0.9646834
      9745.5000         1.3498       945.1533        95.6743         1.0502        -999.25         1.0502       -39.8292      -2.466564      0.9647633
      9746.0000         1.3474       945.5234        96.0028         1.0479        -999.25         1.0479       -39.7959      -2.433262      0.9652391
      9746.5000         1.3428        950.084        96.3843         1.0374        -999.25         1.0374       -39.7568      -2.394165      0.9657977
      9747.0000         1.3381       957.8555        96.6512         1.0268        -999.25         1.0268       -39.7178      -2.355164      0.9663548
      9747.5000         1.3316       969.0195        97.2136         1.0162        -999.25         1.0162       -39.6788      -2.316162       0.966912
      9748.0000         1.3201       984.9326         97.776         1.0055        -999.25         1.0055       -39.6398      -2.277164      0.9674691
      9748.5000          1.307       1000.846         98.162         0.9949        -999.25         0.9949       -39.6007      -2.238064      0.9680277
      9749.0000         1.2874       1014.712        98.8379         0.9858        -999.25         0.9858       -39.5946      -2.231964      0.9681148
      9749.5000         1.2682       1032.918        98.8564         0.9788        -999.25         0.9788       -39.5886      -2.225964      0.9682005
      9750.0000         1.2493       1057.641         98.875         0.9717        -999.25         0.9717       -39.5827      -2.220062      0.9682848
      9750.5000         1.2285       1084.039        99.2257         0.9647        -999.25         0.9647       -39.5768      -2.214165      0.9683691
      9751.0000         1.2123       1105.676        -999.25         0.9576        -999.25         0.9576       -39.5708      -2.208164      0.9684548
      9751.5000         1.2025       1118.209        -999.25         0.9506        -999.25         0.9506       -39.6248      -2.262165      0.9676834
      9752.0000          1.201       1123.754        -999.25         0.9461        -999.25         0.9461       -39.6985      -2.335865      0.9666305
