#------------------------------------------------------------------------------
# Created by    : vladimir.rabinovich
# Created on    : 09/19/2023 17:20:37
#------------------------------------------------------------------------------
~Version Information Section
VERS.           2.0     :   CWLS log ASCII Standard - VERSION 2.0
WRAP.           NO      :   One line per depth step
~Well Information Section
#MNEM       .UNIT                                         VALUE :DESCRIPTION
#------------------------------------------------------------------------------
STRT        .FT                                             254 :START DEPTH
STOP        .FT                                            9030 :STOP DEPTH
STEP        .FT                                             0.5 :STEP      
NULL        .                                           -999.25 :NULL      
COMP        .                                    MOBIL OIL CORP :COMPANY   
WELL        .                                OCS 00724 ST00BP00 :WELL      
FLD         .                                           WILDCAT :FIELD     
LOC         .                                                   :LOCATION  
CNTY        .                             GALVESTON LARGE BLOCK :LOCATION  
STAT        .                                             TEXAS :STATE     
CTRY        .                                     UNITED STATES :COUNTRY   
SRVC        .                                                   :SERVICE COMPANY
DATE        .                             9/13/2023 11:19:25 AM :LOG DATE  
API         .                                    42706000340000 :API NUMBER
UWI         .                                    42706000340000 :UNIQUE WELL ID
XCOORD      .                                  1011870.95166473 :SURFACE X 
YCOORD      .                                   10400634.765487 :SURFACE Y 
LAT         .                                         28.645607 :LATITUDE  
LON         .                                        -94.960058 :LONGITUDE 
ELEV        .FT                                              34 :ELEVATION VALUE
ELEV_TYPE   .                                                KB :ELEVATION REFERENCE TYPE
~Curve Information Section
#MNEM       .UNIT                                      API CODE :CURVE DESCRIPTION
#------------------------------------------------------------------------------
DEPT        .FT                                                 :DEPTH     
ASN         .OHMM                                               :          
CALI        .IN                                                 :          
CILD        .MMHO                                               :          
DT          .US/F                                               :          
ILD         .OHMM                                               :          
SP          .MV                                                 :          
SP_NORM     .MV                                                 :SP Normalized
VSH_SP      .V/V                                                :Volume of Shale from SP
~A        DEPTH            ASN           CALI           CILD             DT            ILD             SP        SP_NORM         VSH_SP
# ...
      4354.5000         0.7785         9.8942       1607.107       151.5649         0.6835       -51.3319      0.9774246              1
      4355.0000         0.7866         9.8869       1590.414        151.248         0.6877       -51.1808       1.126553              1
      4355.5000         0.7946         9.8797       1573.744       150.5122         0.6918       -51.0295       1.275883              1
      4356.0000         0.8034         9.8684       1558.848       149.9885          0.696       -50.9905       1.312904              1
      4356.5000         0.8121         9.8523       1546.129       149.6223         0.7001       -51.1505       1.150932              1
      4357.0000         0.8206         9.8363       1533.422        149.147         0.7053       -51.7119      0.5875626              1
      4357.5000         0.8265         9.8202       1520.908       146.9641         0.7108       -52.3865    -0.08901596              1
      4358.0000         0.8231         9.8042       1508.566       146.0159         0.7164       -52.8234     -0.5278854              1
      4358.5000         0.8185         9.8402       1496.234       145.1069         0.7219       -52.9497     -0.6561584              1
      4359.0000         0.8127         9.8777       1481.053       144.2249         0.7274       -52.6903      -0.398735              1
      4359.5000         0.8056         9.8871       1462.031       139.8975          0.733       -52.3975     -0.1079063              1
      4360.0000          0.807         9.8742       1440.094       143.1482          0.736       -51.9949      0.2927208              1
      4360.5000         0.8176         9.8612       1414.703       140.4033         0.7387       -51.5919      0.6937485              1
      4361.0000         0.8337          9.839       1387.893       139.3967         0.7415       -51.3156       0.968071              1
      4361.5000         0.8467         9.8076       1370.701       137.8687         0.7443       -51.5696       0.712101              1
      4362.0000         0.8591         9.7761       1378.508       137.1211          0.747       -51.8237       0.456028              1
      4362.5000         0.8701         9.7446        1386.32       136.9551         0.7498       -52.0778      0.1999512              1
      4363.0000         0.8781         9.7132       1397.602       137.0342         0.7509        -52.158      0.1177788              1
      4363.5000          0.886         9.6857       1409.174       136.2568         0.7502       -52.1364      0.1374092              1
      4364.0000         0.8927         9.7137       1420.709       136.3711         0.7495       -52.1147       0.157135              1
      4364.5000         0.8995          9.743       1431.049       136.8389         0.7488       -52.0463      0.2235603              1
      4365.0000         0.8953         9.7722       1441.383       135.3713         0.7481       -51.9173      0.3505859              1
      4365.5000         0.8879         9.8031       1449.717       136.2942         0.7474       -51.7883      0.4776154              1
      4366.0000         0.8786         9.8346       1450.029       144.9849          0.742       -51.6594       0.604538              1
      4366.5000         0.8689         9.8472       1443.818        146.625         0.7359       -51.4986      0.7633667              1
      4367.0000         0.8592         9.8223       1439.971       146.5356         0.7298       -51.3311       0.928894              1
      4367.5000         0.8499         9.7974         1442.5       145.4282         0.7237       -51.1635       1.094517              1
      4368.0000         0.8487         9.7724       1447.875       145.2415         0.7176       -51.2357       1.020348              1
      4368.5000         0.8553         9.7431       1456.031       145.0476         0.7115       -51.4593      0.7947731              1
      4369.0000         0.8623          9.713       1464.445       144.1406         0.7087       -52.1143      0.1378021              1
      4369.5000         0.8604         9.6829       1472.865       141.4844         0.7064       -52.8203     -0.5701752              1
      4370.0000          0.854         9.6758        1481.23       141.1238          0.704       -53.1052      -0.857048              1
      4370.5000         0.8477         9.7058       1485.514       140.4565         0.7017       -53.3268       -1.08062      0.9976288
      4371.0000         0.8364         9.7358       1489.795       139.2883         0.6997       -53.4032      -1.158993      0.9953237
      4371.5000         0.8248          9.762       1491.205       138.8848         0.7013       -53.4797      -1.237465      0.9930158
      4372.0000         0.8129         9.7881       1489.016       140.1179         0.7028       -53.3774      -1.137138      0.9959665
      4372.5000         0.8137         9.8141       1486.828       143.0669         0.7044       -53.2584      -1.020111      0.9994085
      4373.0000         0.8212         9.8402       1480.336       144.9941          0.706       -53.1394     -0.9030876              1
      4373.5000         0.8287          9.835       1472.967       141.6545         0.7059       -52.6469     -0.4125595              1
      4374.0000         0.8369         9.8275       1470.301        140.761         0.7048        -52.116      0.1163673              1
      4374.5000         0.8437         9.8185       1475.447       138.3066         0.7038       -51.9826      0.2477913              1
      4375.0000         0.8394         9.7935       1480.594       137.3611         0.7027       -51.9077      0.3207207              1
      4375.5000         0.8351         9.7685       1487.633       134.7356         0.7016       -51.8326      0.3938484              1
      4376.0000         0.8308         9.7638       1495.098       141.9727         0.7006        -51.757      0.4674721              1
      4376.5000         0.8234          9.771       1489.762       142.5601         0.6995       -51.6738      0.5486984              1
      4377.0000         0.8212         9.7703       1470.809       143.1257         0.6989       -51.5906      0.6299286              1
      4377.5000         0.8192         9.7645       1453.129       142.4893         0.6989        -51.502      0.7165565              1
      4378.0000         0.8183         9.7586       1440.537       140.7261         0.6988       -51.3383      0.8782806              1
      4378.5000         0.8191         9.7713       1434.791       139.4714         0.6987       -51.1744       1.040207              1
      4379.0000         0.8225         9.7989       1446.498       138.8416         0.6987        -51.168       1.044636              1
      4379.5000         0.8298         9.8266       1457.559       138.4424         0.6986       -51.2435      0.9671593              1
      4380.0000         0.8407         9.8491       1467.408       137.9336         0.6974        -51.319      0.8896866              1
      4380.5000         0.8535         9.8713       1473.914        136.752         0.6944       -51.3557      0.8510132              1
      4381.0000         0.8647         9.8805       1485.811       135.3459         0.6914        -51.289       0.915741              1
      4381.5000         0.8492         9.8605       1518.854       134.1606         0.6884       -51.1611       1.041668              1
      4382.0000         0.8307         9.8406       1550.193        133.938         0.6855       -51.0035       1.197292              1
      4382.5000         0.8148         9.8207       1572.678        140.092         0.6825       -50.8459       1.352921              1
      4383.0000         0.8041         9.8007       1586.326       141.9546         0.6781       -50.7712       1.425648              1
      4383.5000         0.8015         9.7808       1599.107        140.791         0.6685       -50.9338       1.261074              1
