#------------------------------------------------------------------------------
# Created by    : vladimir.rabinovich
# Created on    : 09/19/2023 17:20:33
#------------------------------------------------------------------------------
~Version Information Section
VERS.           2.0     :   CWLS log ASCII Standard - VERSION 2.0
WRAP.           NO      :   One line per depth step
~Well Information Section
#MNEM       .UNIT                                         VALUE :DESCRIPTION
#------------------------------------------------------------------------------
STRT        .FT                                             510 :START DEPTH
STOP        .FT                                            9509 :STOP DEPTH
STEP        .FT                                             0.5 :STEP      
NULL        .                                           -999.25 :NULL      
COMP        .                       BLUE DOLPHIN EXPLORATION CO :COMPANY   
WELL        .                                OCS 00714 ST00BP00 :WELL      
FLD         .                              GALVESTON BLOCK 0288 :FIELD     
LOC         .                                                   :LOCATION  
CNTY        .                             GALVESTON LARGE BLOCK :LOCATION  
STAT        .                                             TEXAS :STATE     
CTRY        .                                     UNITED STATES :COUNTRY   
SRVC        .                                                   :SERVICE COMPANY
DATE        .                             9/13/2023 11:19:25 AM :LOG DATE  
API         .                                    42706000660000 :API NUMBER
UWI         .                                    42706000660000 :UNIQUE WELL ID
XCOORD      .                                  1093932.46617998 :SURFACE X 
YCOORD      .                                  10479390.8980397 :SURFACE Y 
LAT         .                                         28.865655 :LATITUDE  
LON         .                                       -94.7077791 :LONGITUDE 
ELEV        .FT                                              83 :ELEVATION VALUE
ELEV_TYPE   .                                                KB :ELEVATION REFERENCE TYPE
~Curve Information Section
#MNEM       .UNIT                                      API CODE :CURVE DESCRIPTION
#------------------------------------------------------------------------------
DEPT        .FT                                                 :DEPTH     
ASN         .OHMM                                               :          
CALI        .IN                                                 :          
DT          .US/F                                               :          
IL          .OHMM                                               :          
SP          .MV                                                 :          
SP_NORM     .MV                                                 :SP Normalized
VSH_SP      .V/V                                                :Volume of Shale from SP
~A        DEPTH            ASN           CALI             DT             IL             SP        SP_NORM         VSH_SP
# ...
      1716.0000         0.9176        -999.25        -999.25         0.5991       -69.4991       -15.1596      0.1226934
      1716.5000         0.9206        -999.25        -999.25         0.5967       -69.5544      -15.21852       0.118765
      1717.0000         0.9143        -999.25        -999.25         0.5945       -69.4907      -15.15845      0.1227697
      1717.5000           0.89        -999.25        -999.25         0.5924       -69.1504      -14.82178      0.1452143
      1718.0000         0.8696        -999.25        -999.25         0.5943       -68.6571      -14.33211      0.1778592
      1718.5000         0.8644        -999.25        -999.25         0.5974       -68.2775      -13.95614      0.2029241
      1719.0000         0.8697        -999.25        -999.25         0.6006       -68.1799      -13.86217      0.2091883
      1719.5000         0.8813        -999.25        -999.25          0.604       -68.3789       -14.0648        0.19568
      1720.0000         0.8898        -999.25        -999.25         0.6074       -68.5465      -14.23603      0.1842646
      1720.5000         0.8848        -999.25        -999.25         0.6106       -68.3352      -14.02835      0.1981097
      1721.0000         0.8677        -999.25        -999.25          0.613       -67.9227      -13.61949      0.2253675
      1721.5000         0.8545        -999.25        -999.25         0.6153       -67.5947      -13.29512       0.246992
      1722.0000         0.8366        -999.25        -999.25         0.6131       -67.6436      -13.34764      0.2434904
      1722.5000         0.8175        -999.25        -999.25          0.611       -67.8569      -13.56458      0.2290281
      1723.0000         0.8051        -999.25        -999.25         0.6064       -68.0313      -13.74261      0.2171595
      1723.5000            0.8        -999.25        -999.25         0.6004       -67.8668      -13.58173      0.2278847
      1724.0000         0.8043        -999.25        -999.25         0.5943       -67.6372      -13.35576      0.2429494
      1724.5000         0.8209        -999.25        -999.25         0.5906       -67.4645      -13.18669      0.2542206
      1725.0000         0.8403        -999.25        -999.25         0.5869       -67.5829      -13.30872      0.2460854
      1725.5000         0.8629        -999.25        -999.25         0.5859       -68.3181      -14.04755      0.1968302
      1726.0000           0.88        -999.25        -999.25         0.5879       -69.0457      -14.77878      0.1480815
      1726.5000         0.8984        -999.25        -999.25           0.59       -69.4664      -15.20311      0.1197929
      1727.0000          0.913        -999.25        -999.25         0.5919       -69.4929      -15.23323      0.1177846
      1727.5000         0.9225        -999.25        -999.25         0.5937       -69.7012      -15.44516      0.1036557
      1728.0000          0.914        -999.25        -999.25         0.5956       -69.7062      -15.45379      0.1030805
      1728.5000         0.8982        -999.25        -999.25         0.5993       -69.4938      -15.24502      0.1169988
      1729.0000         0.8853        -999.25        -999.25         0.6031       -69.1584      -14.91325      0.1391167
      1729.5000         0.8764        -999.25        -999.25         0.6017       -68.7646      -14.52308      0.1651278
      1730.0000         0.8737        -999.25        -999.25          0.602       -68.3053      -14.06741      0.1955063
      1730.5000         0.8767        -999.25        -999.25         0.6031       -68.2206      -13.98633      0.2009112
      1731.0000         0.8834        -999.25        -999.25         0.6024       -68.3593      -14.12866      0.1914225
      1731.5000         0.8889        -999.25        -999.25         0.5997       -68.5031      -14.27609      0.1815938
      1732.0000         0.8866        -999.25        -999.25         0.5946       -68.6089      -14.38552      0.1742983
      1732.5000         0.8831        -999.25        -999.25          0.597       -68.4486      -14.22885      0.1847432
      1733.0000         0.8904        -999.25        -999.25         0.6033       -67.9879      -13.77178      0.2152145
      1733.5000         0.8994        -999.25        -999.25         0.6148       -67.5255      -13.31301      0.2457995
      1734.0000         0.8989        -999.25        -999.25         0.6253       -66.9677      -12.75883      0.2827443
      1734.5000         0.8834        -999.25        -999.25         0.6328       -65.8541      -11.64887      0.3567421
      1735.0000         0.8644        -999.25        -999.25         0.6402       -64.5341       -10.3325         0.4445
      1735.5000         0.8454        -999.25        -999.25         0.6462       -63.2606      -9.062626      0.5291583
      1736.0000         0.8355        -999.25        -999.25         0.6512       -62.4327      -8.238354      0.5841097
      1736.5000         0.8354        -999.25        -999.25         0.6566       -63.7982      -9.607483      0.4928345
      1737.0000         0.8573        -999.25        -999.25         0.6622       -65.1648      -10.97771      0.4014857
      1737.5000         0.9027        -999.25        -999.25         0.6555       -66.7053      -12.52184       0.298544
      1738.0000         0.9493        -999.25        -999.25         0.6443       -67.7039      -13.52407      0.2317286
      1738.5000         0.9734        -999.25        -999.25         0.6221       -68.2417       -14.0655      0.1956334
      1739.0000         0.9814        -999.25        -999.25         0.6163       -68.7935      -14.62093      0.1586047
      1739.5000         0.9733        -999.25        -999.25         0.6052       -69.3068      -15.13786       0.124143
      1740.0000         0.9597        -999.25        -999.25         0.5966       -69.7325      -15.56718     0.09552104
      1740.5000         0.9478        -999.25        -999.25          0.592       -70.1135      -15.95182      0.0698789
      1741.0000         0.9446        -999.25        -999.25         0.5899        -70.361      -16.20294     0.05313721
      1741.5000          0.947        -999.25        -999.25         0.5884       -70.4177      -16.26327     0.04911524
      1742.0000         0.9516        -999.25        -999.25         0.5897       -70.2632       -16.1124     0.05917333
      1742.5000         0.9563        -999.25        -999.25         0.5923       -70.1957      -16.04853     0.06343129
      1743.0000         0.9594        -999.25        -999.25         0.5973       -70.2366      -16.09306      0.0604627
      1743.5000         0.9578        -999.25        -999.25         0.6013       -70.4968      -16.35689     0.04287389
      1744.0000         0.9514        -999.25        -999.25         0.6041       -70.8701      -16.73382     0.01774546
      1744.5000         0.9525        -999.25        -999.25         0.6048       -71.1017      -16.96904    0.002063751
      1745.0000         0.9635        -999.25        -999.25         0.6024       -71.2388      -17.10977              0
      1745.5000         0.9723        -999.25        -999.25         0.6005       -71.3855       -17.2601              0
      1746.0000         0.9659        -999.25        -999.25         0.5998       -71.5011      -17.37933              0
      1746.5000         0.9839        -999.25        -999.25         0.5992       -71.6771      -17.55896              0
      1747.0000         1.0202        -999.25        -999.25         0.6011       -71.7927      -17.67819              0
      1747.5000         1.0472        -999.25        -999.25         0.6034       -71.4524      -17.34152              0
      1748.0000          1.038        -999.25        -999.25         0.6043       -70.9762      -16.86894    0.008737182
      1748.5000          0.991        -999.25        -999.25         0.6036       -70.6799      -16.57627     0.02824834
      1749.0000         0.9537        -999.25        -999.25         0.6001       -70.5643      -16.46431     0.03571294
