#------------------------------------------------------------------------------
# Created by    : vladimir.rabinovich
# Created on    : 09/19/2023 17:21:34
#------------------------------------------------------------------------------
~Version Information Section
VERS.           2.0     :   CWLS log ASCII Standard - VERSION 2.0
WRAP.           NO      :   One line per depth step
~Well Information Section
#MNEM       .UNIT                                         VALUE :DESCRIPTION
#------------------------------------------------------------------------------
STRT        .FT                                            4500 :START DEPTH
STOP        .FT                                            8225 :STOP DEPTH
STEP        .FT                                             0.5 :STEP      
NULL        .                                           -999.25 :NULL      
COMP        .                             WALTER OIL & GAS CORP :COMPANY   
WELL        .                               OCS G08132 ST00BP00 :WELL      
FLD         .                              GALVESTON BLOCK 0385 :FIELD     
LOC         .                                                   :LOCATION  
CNTY        .                             GALVESTON LARGE BLOCK :LOCATION  
STAT        .                                             TEXAS :STATE     
CTRY        .                                     UNITED STATES :COUNTRY   
SRVC        .                                                   :SERVICE COMPANY
DATE        .                             9/13/2023 11:19:34 AM :LOG DATE  
API         .                                    42706402490000 :API NUMBER
UWI         .                                    42706402490000 :UNIQUE WELL ID
XCOORD      .                                  1009947.10754335 :SURFACE X 
YCOORD      .                                  10405011.8756564 :SURFACE Y 
LAT         .                                         28.657556 :LATITUDE  
LON         .                                        -94.966279 :LONGITUDE 
ELEV        .FT                                             101 :ELEVATION VALUE
ELEV_TYPE   .                                                KB :ELEVATION REFERENCE TYPE
~Curve Information Section
#MNEM       .UNIT                                      API CODE :CURVE DESCRIPTION
#------------------------------------------------------------------------------
DEPT        .FT                                                 :DEPTH     
CALI        .IN                                                 :          
DPHI        .%                                                  :          
DRHO        .G/C3                                               :          
GR          .GAPI                                               :          
GR_NORM     .GAPI                                               :GammaRay Normalized
ILD         .OHMM                                               :          
ILM         .OHMM                                               :          
NPHI        .%                                                  :          
SFL         .OHMM                                               :          
SP          .MV                                                 :          
SP_NORM     .MV                                                 :SP Normalized
VSH_GR      .V/V                                                :Volume of Shale from GR
VSH_SP      .V/V                                                :Volume of Shale from SP
~A        DEPTH           CALI           DPHI           DRHO             GR        GR_NORM            ILD            ILM           NPHI            SFL             SP        SP_NORM         VSH_GR         VSH_SP
# ...
      5089.0000        10.5012        24.7918         -0.004        89.4885       82.93941         0.7143         0.7034        40.5265          0.773       -82.6742      -1.211234              1      0.9798127
      5089.5000        10.5221        24.5003        -0.0054           89.5       82.95139         0.7324         0.7162        39.9606         0.8203       -82.7371      -1.291182              1      0.9784803
      5090.0000        10.5328        24.2985        -0.0076        87.0867       80.43754         0.7514         0.7331        40.3301         0.8696       -82.8456      -1.424332              1      0.9762611
      5090.5000        10.5435        24.0967        -0.0097        82.9595       76.13837         0.7709         0.7504         40.681         0.8872       -83.1172      -1.747766      0.9178377      0.9708706
      5091.0000        10.5668        23.9138        -0.0116        83.3553       76.55067         0.7895          0.768             41         0.8758       -82.9874      -1.602894      0.9266099      0.9732851
      5091.5000        10.5459        23.7741        -0.0135        84.4397       77.68024         0.8077         0.7853        40.9338         0.8526       -82.9662      -1.584736      0.9506435      0.9735878
      5092.0000        10.5351        23.4678        -0.0147        85.5239       78.80962         0.8264         0.8015        40.6795         0.8392       -83.0988      -1.746004      0.9746729      0.9708999
      5092.5000        10.5374        23.0915        -0.0146        86.1226       79.43327         0.8403          0.818        40.5817          0.852       -83.3518      -2.047737      0.9879418       0.965871
      5093.0000        10.5398        22.9276        -0.0145        86.4512       79.77556         0.8532         0.8347        40.5098         0.8696       -83.1449      -1.812921      0.9952247      0.9697847
      5093.5000        10.5602         22.857        -0.0141        85.9749       79.27941         0.8664         0.8507         40.562         0.8922       -82.9669       -1.61183      0.9846683      0.9731362
      5094.0000        10.5818        22.9543        -0.0131        84.0662       77.29118         0.8789         0.8671        40.6437         0.9153       -82.8765      -1.512932      0.9423656      0.9747845
      5094.5000        10.5917        22.9623        -0.0121        82.6384       75.80389          0.891         0.8837        39.6588         0.9371        -83.556      -2.312247       0.910721      0.9614626
      5095.0000        10.5905        22.7869        -0.0109        83.5353       76.73817         0.9033         0.8915        37.6614         0.9595       -84.1981       -3.06793      0.9305993      0.9488679
      5095.5000        10.5763        22.6113        -0.0094        85.3978       78.67826         0.9063         0.8985        36.2872         0.9713       -84.5054       -3.43302      0.9718779       0.942783
      5096.0000        10.5488        22.4802        -0.0079        86.7444       80.08098         0.9049         0.9078        36.4436         0.9803       -84.0186      -2.871655              1      0.9521391
      5096.5000        10.5122         22.377        -0.0058        86.4708       79.79597         0.9008         0.9113        37.4939         0.9843       -83.6212       -2.41459      0.9956591      0.9597569
      5097.0000        10.4868        22.2901        -0.0035        86.1819       79.49504         0.8875         0.8995         38.785         0.9844       -83.2446       -1.98179      0.9892562      0.9669701
      5097.5000        10.4716        22.4174        -0.0015        86.0448       79.35223         0.8744         0.8839         40.118         0.9767       -83.3058      -2.059762      0.9862176      0.9656706
      5098.0000        10.4692        22.5447         0.0002        87.7787       81.15837          0.856         0.8642        41.5798         0.9616       -83.1987       -1.94138              1      0.9676437
      5098.5000        10.4699        22.6756         0.0014        90.6543       84.15379         0.8361         0.8418        43.4484         0.9202       -82.8452      -1.535522              1       0.974408
      5099.0000        10.4713        23.0369         0.0018        92.3718       85.94286         0.8167         0.8164        45.4832         0.8769       -82.5306       -1.17506              1      0.9804156
      5099.5000        10.4729        23.3982         0.0023        93.0737         86.674         0.7935         0.7891        46.7818         0.8342       -82.3534     -0.9748955              1      0.9837517
      5100.0000        10.4745        23.7595         0.0026        92.9559       86.55129         0.7695         0.7624        46.6307         0.7953       -82.3765      -1.008417              1       0.983193
      5100.5000        10.4785        24.1511         0.0028        93.8883       87.52254         0.7462         0.7362        45.9342           0.76       -82.5746      -1.246099              1      0.9792317
      5101.0000        10.4827        24.5588          0.003        94.9258       88.60326         0.7233         0.7108        45.3376         0.7408       -82.4686      -1.128998              1      0.9811834
      5101.5000        10.4871        24.9662          0.003        95.5778       89.28243         0.7006         0.6864        44.8011         0.7272       -81.6873      -0.224055              1      0.9962658
      5102.0000        10.4962        25.3907         0.0029        91.5786        85.1166         0.6786          0.673        44.6104          0.721       -81.3829      0.1245155              1              1
      5102.5000        10.5054        25.5575         0.0027         89.425       82.87327         0.6573         0.6653        44.4044         0.7231       -81.2732      0.2459246              1              1
      5103.0000        10.5103        25.1285         0.0021        88.6056       82.01972         0.6421         0.6648        44.0947          0.724        -81.578     -0.1162465              1      0.9980626
      5103.5000        10.5136         24.763         0.0015         88.569        81.9816         0.6285         0.6672        44.1984         0.7226       -81.8057     -0.3884646              1      0.9935256
      5104.0000        10.5174        24.6877         0.0004        88.6665       82.08316         0.6209         0.6646        44.8406         0.7211       -81.5071    -0.04666774              1      0.9992222
      5104.5000        10.5259        24.8994        -0.0011        87.4601       80.82649          0.621         0.6621        45.7255         0.7158       -81.2089      0.2946663              1              1
      5105.0000        10.5345        25.1369        -0.0027        86.0411       79.34837         0.6211         0.6602        46.1063         0.7094       -81.0718      0.4480476      0.9861356              1
      5105.5000        10.5421        25.4019        -0.0057        84.9305       78.19149         0.6281         0.6598        45.5875         0.7064       -81.0005      0.5246582      0.9615211              1
      5106.0000        10.5464         25.593        -0.0088        85.1554       78.42577         0.6363         0.6616        45.3612         0.7096       -81.5055    -0.07107417      0.9665056      0.9988154
      5106.5000        10.5499        25.6791        -0.0097        86.5957       79.92608         0.6446         0.6665        45.7292         0.7161        -81.842     -0.4702199      0.9984272       0.992163
      5107.0000        10.5464        25.3787        -0.0103        88.1871       81.58379         0.6575         0.6753        45.7568          0.743       -82.0597     -0.7307689              1      0.9878205
      5107.5000        10.5394        24.7365        -0.0108        87.3053       80.66525         0.6716         0.6873        44.7231         0.7966       -82.0031     -0.6713015              1      0.9888116
