#------------------------------------------------------------------------------
# Created by    : vladimir.rabinovich
# Created on    : 09/19/2023 17:20:40
#------------------------------------------------------------------------------
~Version Information Section
VERS.           2.0     :   CWLS log ASCII Standard - VERSION 2.0
WRAP.           NO      :   One line per depth step
~Well Information Section
#MNEM       .UNIT                                         VALUE :DESCRIPTION
#------------------------------------------------------------------------------
STRT        .FT                                             400 :START DEPTH
STOP        .FT                                           11002 :STOP DEPTH
STEP        .FT                                             0.5 :STEP      
NULL        .                                           -999.25 :NULL      
COMP        .                            STANOLIND OIL & GAS CO :COMPANY   
WELL        .                                     ST TR 00245-L :WELL      
FLD         .                              GALVESTON BLOCK 0245 :FIELD     
LOC         .                                                   :LOCATION  
CNTY        .                             GALVESTON LARGE BLOCK :LOCATION  
STAT        .                                             TEXAS :STATE     
CTRY        .                                     UNITED STATES :COUNTRY   
SRVC        .                                                   :SERVICE COMPANY
DATE        .                             9/13/2023 11:19:42 AM :LOG DATE  
API         .                                    42706000160000 :API NUMBER
UWI         .                                    42706000160000 :UNIQUE WELL ID
XCOORD      .                                  1024804.26554262 :SURFACE X 
YCOORD      .                                  10549089.4715911 :SURFACE Y 
LAT         .                                        29.0543948 :LATITUDE  
LON         .                                       -94.9272588 :LONGITUDE 
ELEV        .FT                                              11 :ELEVATION VALUE
ELEV_TYPE   .                                                KB :ELEVATION REFERENCE TYPE
~Curve Information Section
#MNEM       .UNIT                                      API CODE :CURVE DESCRIPTION
#------------------------------------------------------------------------------
DEPT        .FT                                                 :DEPTH     
ASN         .OHMM                                               :          
LAT         .OHMM                                               :          
LN          .OHMM                                               :          
SP          .MV                                                 :          
SP_NORM     .MV                                                 :SP Normalized
VSH_SP      .V/V                                                :Volume of Shale from SP
~A        DEPTH            ASN            LAT             LN             SP        SP_NORM         VSH_SP
# ...
      8836.0000          0.917         0.0993         0.7946       -52.1745      -2.361557      0.9958914
      8836.5000         0.8982         0.0736         0.7912       -52.2879      -2.484871      0.9944901
      8837.0000         0.8854           0.07          0.787       -52.3738      -2.580681      0.9934013
      8837.5000         0.8771         0.0787         0.7828        -52.436      -2.652798      0.9925818
      8838.0000         0.8686          0.121         0.7787       -52.4993      -2.726006      0.9917499
      8838.5000         0.8597         0.1629         0.7745       -52.5671      -2.803722      0.9908668
      8839.0000         0.8483         0.1988         0.7703       -52.6348      -2.881332      0.9899849
      8839.5000         0.8318         0.2265         0.7662       -52.6375      -2.893944      0.9898415
      8840.0000          0.812         0.2463         0.7585       -52.6396      -2.905956       0.989705
      8840.5000          0.786          0.259          0.747       -52.6417      -2.917969      0.9895685
      8841.0000         0.7623         0.2714         0.7354       -52.6439      -2.930084      0.9894308
      8841.5000         0.7515         0.2818         0.7238       -52.2602      -2.556293      0.9936785
      8842.0000         0.7542         0.2923         0.7122       -51.6606      -1.966602              1
      8842.5000         0.7581         0.2989         0.7007       -51.0511       -1.36702              1
      8843.0000         0.7627         0.3055         0.6867       -50.1462     -0.4720268              1
      8843.5000         0.7672         0.3107         0.6667       -49.2402       0.424057              1
      8844.0000         0.7718         0.3151         0.6468       -48.3598       1.294548              1
      8844.5000         0.7732         0.3194         0.6353       -47.5764       2.068031              1
      8845.0000         0.7688         0.3238          0.626       -47.0762       2.558323              1
      8845.5000         0.7623         0.3282         0.6167       -47.0229       2.601711              1
      8846.0000         0.7532         0.3326         0.6074       -46.9697       2.644997              1
      8846.5000         0.7424          0.337         0.6022       -47.0201       2.584686              1
      8847.0000         0.7305         0.3414         0.5974       -47.0945        2.50037              1
      8847.5000         0.7164         0.3463         0.5925       -47.3518       2.233162              1
      8848.0000         0.7025         0.3511         0.5876       -47.6443       1.930748              1
      8848.5000         0.6896         0.3559         0.5836       -47.8098       1.755337              1
      8849.0000         0.6773         0.3642         0.5806       -47.9567       1.598526              1
      8849.5000         0.6678         0.3732         0.5775        -48.038       1.507313              1
      8850.0000         0.6658         0.3814         0.5745       -48.1124          1.423              1
      8850.5000         0.6713          0.348         0.5715       -47.7151       1.810387              1
      8851.0000         0.6652         0.3451         0.5681       -47.2816       2.233974              1
      8851.5000         0.6586         0.3422         0.5645       -46.8475       2.658161              1
      8852.0000         0.6473         0.3427         0.5609       -46.4786       3.017151              1
      8852.5000         0.6428         0.3445         0.5573       -46.2416        3.24424              1
      8853.0000         0.6423         0.3462         0.5556       -46.1592       3.316727              1
      8853.5000         0.6441         0.3479         0.5555       -46.2095       3.256516              1
      8854.0000         0.6456         0.3462         0.5554       -46.2598       3.196301              1
      8854.5000         0.6471         0.3443         0.5553       -46.3012       3.144989              1
      8855.0000         0.6478         0.3423         0.5552       -46.3362       3.100075              1
      8855.5000         0.6467         0.3404         0.5551        -46.371       3.055367              1
      8856.0000         0.6455         0.3402          0.555        -46.406       3.010456              1
      8856.5000          0.643           0.34         0.5549       -46.4529        2.95364              1
      8857.0000         0.6402         0.3399         0.5548       -46.5401       2.856529              1
      8857.5000         0.6376         0.3398          0.555       -46.6273       2.759415              1
      8858.0000         0.6358         0.3396         0.5566       -46.7144       2.662403              1
      8858.5000         0.6353         0.3395         0.5581       -46.8171       2.549793              1
      8859.0000         0.6353         0.3393         0.5597       -46.9226        2.43438              1
      8859.5000         0.6352         0.3382         0.5612       -47.0322       2.314869              1
      8860.0000         0.6349         0.3353         0.5612       -47.1791       2.158054              1
      8860.5000         0.6344         0.3324         0.5611       -47.3262       2.001045              1
      8861.0000          0.634          0.326          0.561       -47.4581        1.85923              1
      8861.5000         0.6344         0.3187         0.5604       -47.5054       1.802017              1
      8862.0000         0.6357         0.3114         0.5581       -47.5527       1.744808              1
      8862.5000         0.6371         0.3114         0.5559       -47.5999       1.687695              1
      8863.0000         0.6385         0.3131         0.5536       -47.6026       1.675083              1
      8863.5000         0.6383         0.3148         0.5498       -47.6047       1.663071              1
      8864.0000         0.6358         0.3166         0.5458       -47.6069       1.650959              1
      8864.5000         0.6228         0.3254         0.5419        -47.609       1.638943              1
      8865.0000         0.6052         0.3341         0.5382       -47.6111       1.626934              1
      8865.5000          0.593         0.3408         0.5355       -47.5524       1.675724              1
      8866.0000         0.5833         0.3461         0.5328       -47.4825        1.73571              1
      8866.5000         0.5773         0.3514          0.527       -47.3507       1.857597              1
      8867.0000         0.5745         0.3462         0.5184       -47.2089       1.989483              1
      8867.5000          0.573         0.3409           0.51       -47.0673       2.121174              1
      8868.0000         0.5717         0.3385         0.5077       -46.5143       2.664257              1
      8868.5000         0.5706         0.3462         0.5055       -45.6607       3.507946              1
      8869.0000         0.5702         0.3558         0.5032       -44.9714       4.187336              1
      8869.5000         0.5738         0.3683         0.5025       -44.7823       4.366524              1
      8870.0000         0.5741         0.3808         0.5024       -44.5928       4.546112              1
      8870.5000         0.5721         0.3859         0.5023       -44.4963       4.632698              1
      8871.0000         0.5695         0.3858         0.5045       -44.4985       4.620586              1
      8871.5000         0.5675         0.3856         0.5066       -44.5007       4.608475              1
      8872.0000         0.5754         0.3835         0.5088       -44.5028       4.596462              1
      8872.5000         0.5884         0.3809          0.509       -44.5049        4.58445              1
      8873.0000         0.5961         0.3782         0.5089       -44.5071       4.572338              1
      8873.5000         0.6017         0.3756           0.51       -44.5092       4.560326              1
