#------------------------------------------------------------------------------
# Created by    : vladimir.rabinovich
# Created on    : 09/19/2023 17:22:48
#------------------------------------------------------------------------------
~Version Information Section
VERS.           2.0     :   CWLS log ASCII Standard - VERSION 2.0
WRAP.           NO      :   One line per depth step
~Well Information Section
#MNEM       .UNIT                                         VALUE :DESCRIPTION
#------------------------------------------------------------------------------
STRT        .FT                                             306 :START DEPTH
STOP        .FT                                           13139 :STOP DEPTH
STEP        .FT                                             0.5 :STEP      
NULL        .                                           -999.25 :NULL      
COMP        .                                    CITIES SERVICE :COMPANY   
WELL        .                                          SL 77337 :WELL      
FLD         .                                           WILDCAT :FIELD     
LOC         .                                                   :LOCATION  
CNTY        .                                BRAZOS LARGE BLOCK :LOCATION  
STAT        .                                             TEXAS :STATE     
CTRY        .                                     UNITED STATES :COUNTRY   
SRVC        .                                                   :SERVICE COMPANY
DATE        .                             9/13/2023 11:18:52 AM :LOG DATE  
API         .                                    42704301950000 :API NUMBER
UWI         .                                    42704301950000 :UNIQUE WELL ID
XCOORD      .                                   673900.18951543 :SURFACE X 
YCOORD      .                                   10333530.060148 :SURFACE Y 
LAT         .                                        28.4418955 :LATITUDE  
LON         .                                       -96.0077528 :LONGITUDE 
ELEV        .FT                                              82 :ELEVATION VALUE
ELEV_TYPE   .                                                KB :ELEVATION REFERENCE TYPE
~Curve Information Section
#MNEM       .UNIT                                      API CODE :CURVE DESCRIPTION
#------------------------------------------------------------------------------
DEPT        .FT                                                 :DEPTH     
DT          .US/F                                               :          
SP          .MV                                                 :          
SP_NORM     .MV                                                 :SP Normalized
VSH_SP      .V/V                                                :Volume of Shale from SP
~A        DEPTH             DT             SP        SP_NORM         VSH_SP
# ...
      1154.0000       152.4573       -49.9026     -0.3393593              1
      1154.5000       151.1106       -49.5989    -0.02251434              1
      1155.0000       149.9143       -49.3024      0.2871323              1
      1155.5000       148.8057        -49.046      0.5566788              1
      1156.0000       148.9819       -48.8436      0.7722244              1
      1156.5000        149.564       -48.6524      0.9765739              1
      1157.0000        150.272       -48.4008       1.241322              1
      1157.5000       150.7822       -48.1039       1.551365              1
      1158.0000       151.0107       -47.8058       1.862614              1
      1158.5000       150.8137       -47.5199       2.161659              1
      1159.0000       150.3315       -47.2513       2.443409              1
      1159.5000       150.2881       -47.0539       2.653954              1
      1160.0000       150.6565       -46.9127         2.8083              1
      1160.5000       151.0088        -46.887       2.847149              1
      1161.0000       151.3005       -47.2048       2.542496              1
      1161.5000       151.2019       -47.6494       2.111046              1
      1162.0000       150.6177       -48.1027       1.670891              1
      1162.5000        150.022       -48.4642       1.322536              1
      1163.0000       150.1072       -48.6605       1.139385              1
      1163.5000       150.2803       -48.8412      0.9718285              1
      1164.0000       150.1062       -48.9877      0.8384781              1
      1164.5000       149.2932       -49.0737       0.765625              1
      1165.0000       148.2302       -49.0668      0.7856712              1
      1165.5000       148.6213       -49.0093      0.8563194              1
      1166.0000       150.0581       -48.8448       1.033966              1
      1166.5000       151.5203       -48.5349       1.357014              1
      1167.0000       151.9172       -48.1815        1.72356              1
      1167.5000       151.2971       -47.8024       2.115807              1
      1168.0000       150.5017       -47.4807       2.450653              1
      1168.5000       150.3569       -47.1947       2.749802              1
      1169.0000       150.7534       -46.9502        3.00745              1
      1169.5000       150.6829       -46.8797       3.091095              1
      1170.0000       150.2004       -47.0263       2.957645              1
      1170.5000       149.9712       -47.2496        2.74749              1
      1171.0000       150.8696       -47.7927       2.207298              1
      1171.5000       153.4165       -48.5301       1.469898              1
      1172.0000       155.6672       -49.0179      0.9821014              1
      1172.5000         157.23       -49.2153      0.7846985              1
      1173.0000       157.1077       -49.1077      0.8922997              1
      1173.5000        156.125       -48.7499       1.250099              1
      1174.0000       154.9707       -48.3962       1.603802              1
      1174.5000       153.9307        -48.254       1.745998              1
      1175.0000       153.0852       -48.2716       1.728401              1
      1175.5000       152.6262       -48.3349         1.6651              1
      1176.0000       151.9788        -48.254       1.745998              1
      1176.5000       151.2817       -48.1111       1.888901              1
      1177.0000       150.6348       -47.8731         2.1269              1
      1177.5000       150.1179       -47.4641         2.5359              1
      1178.0000       149.7808       -47.0727       2.927299              1
      1178.5000       149.5173       -46.7255       3.274502              1
      1179.0000       149.4202       -47.0497       2.950298              1
      1179.5000       148.8054       -47.5431       2.456902              1
      1180.0000       148.5645       -47.7224       2.277599              1
      1180.5000       149.6804       -47.7787       2.221298              1
      1181.0000       150.2346       -47.8261       2.173901              1
      1181.5000       150.4426       -47.9218       2.078201              1
      1182.0000       151.5999       -47.9638       2.036201              1
      1182.5000       153.9858       -48.6797       1.320301              1
      1183.0000       156.5334       -49.3291      0.6708984              1
      1183.5000       158.2544       -50.3912      -0.391201              1
      1184.0000       160.1106       -51.7313        -1.7313      0.9437461
      1184.5000       163.0962       -53.7027      -3.702702      0.7920999
      1185.0000       165.9585       -54.9724      -4.916126      0.6987595
      1185.5000       167.7087       -55.5317      -5.312141      0.6682968
      1186.0000       166.2502       -55.6038      -5.220955      0.6753111
      1186.5000       164.2166       -55.4266       -4.88047      0.7015023
      1187.0000       165.0227       -55.1069       -4.39748      0.7386554
      1187.5000        167.071       -54.7784      -3.905697      0.7764848
      1188.0000       169.0161       -54.4437      -3.407711      0.8147914
      1188.5000       170.1501        -54.242      -3.042725      0.8428673
      1189.0000       171.5222       -54.1027      -2.740139      0.8661432
      1189.5000       173.7422       -54.1792      -2.653355      0.8728189
      1190.0000       177.1169        -54.484      -2.794868      0.8619332
      1190.5000       180.9487       -54.5173      -2.664883      0.8719321
      1191.0000       184.5298       -54.4261      -2.410397       0.891508
      1191.5000       186.5654       -54.2484      -2.069412      0.9177375
      1192.0000       186.5693       -54.0211      -1.678825      0.9477826
      1192.5000       186.5117       -53.9456      -1.440037       0.966151
      1193.0000       187.1846       -53.9364      -1.267555      0.9794188
      1193.5000       187.9404       -54.0048      -1.172665      0.9867181
      1194.0000       187.6208       -54.0257      -1.030281      0.9976707
      1194.5000       186.3325       -54.0221     -0.8633957              1
      1195.0000       184.7056       -54.1819     -0.8599091              1
      1195.5000       182.5759        -54.481     -0.9957237              1
      1196.0000       180.4182       -54.8436      -1.195042      0.9849968
      1196.5000       178.6067       -55.0355      -1.223652       0.982796
      1197.0000       176.9224       -55.1625      -1.187366      0.9855872
      1197.5000       175.2878       -55.1553       -1.01688      0.9987015
      1198.0000       173.7756       -55.2126     -0.9108963              1
      1198.5000        172.322        -55.364     -0.8990097              1
      1199.0000       170.9377       -55.4837      -0.855423              1
      1199.5000       171.9114       -55.2806     -0.4890404              1
      1200.0000       172.8074       -54.9794    -0.02455139              1
      1200.5000       173.2373        -54.671      0.4471321              1
      1201.0000       172.4519       -54.6301      0.6513176              1
      1201.5000        171.345       -54.6528      0.7919044              1
      1202.0000       170.2114       -54.6755      0.9324913              1
      1202.5000       168.8574       -54.7274       1.043877              1
      1203.0000       167.8569       -54.9427      0.9918633              1
      1203.5000       167.3357       -55.3162      0.7816467              1
      1204.0000       167.3972       -55.6731      0.5880356              1
      1204.5000       167.5679       -55.9639      0.4605179              1
      1205.0000       167.2551       -56.3257      0.2620049              1
      1205.5000        166.946       -56.7097     0.04129028              1
      1206.0000       166.6387       -57.1473     -0.2330246              1
      1206.5000       167.0515       -57.6454     -0.5678368              1
