#------------------------------------------------------------------------------
# Created by    : vladimir.rabinovich
# Created on    : 09/19/2023 17:21:20
#------------------------------------------------------------------------------
~Version Information Section
VERS.           2.0     :   CWLS log ASCII Standard - VERSION 2.0
WRAP.           NO      :   One line per depth step
~Well Information Section
#MNEM       .UNIT                                         VALUE :DESCRIPTION
#------------------------------------------------------------------------------
STRT        .FT                                            6712 :START DEPTH
STOP        .FT                                           10254 :STOP DEPTH
STEP        .FT                                             0.5 :STEP      
NULL        .                                           -999.25 :NULL      
COMP        .                                SHELL OFFSHORE INC :COMPANY   
WELL        .                               OCS G17145 ST00BP00 :WELL      
FLD         .                                           WILDCAT :FIELD     
LOC         .                                                   :LOCATION  
CNTY        .                           HIGH ISLAND LARGE BLOCK :LOCATION  
STAT        .                                             TEXAS :STATE     
CTRY        .                                     UNITED STATES :COUNTRY   
SRVC        .                                                   :SERVICE COMPANY
DATE        .                             9/13/2023 11:19:48 AM :LOG DATE  
API         .                                    42708404610000 :API NUMBER
UWI         .                                    42708404610000 :UNIQUE WELL ID
XCOORD      .                                  1236256.25309123 :SURFACE X 
YCOORD      .                                  10648843.7308139 :SURFACE Y 
LAT         .                                         29.336637 :LATITUDE  
LON         .                                        -94.268822 :LONGITUDE 
ELEV        .FT                                             110 :ELEVATION VALUE
ELEV_TYPE   .                                                KB :ELEVATION REFERENCE TYPE
~Curve Information Section
#MNEM       .UNIT                                      API CODE :CURVE DESCRIPTION
#------------------------------------------------------------------------------
DEPT        .FT                                                 :DEPTH     
CALI        .IN                                                 :          
CPCHM       .MMHO                                               :          
CPCM        .MMHO                                               :          
DFL         .OHMM                                               :          
DPHI        .%                                                  :          
DRHO        .G/C3                                               :          
DT          .US/F                                               :          
GR          .GAPI                                               :          
GR_NORM     .GAPI                                               :GammaRay Normalized
GRAM        .GAPI                                               :          
HDCN        .MMHO                                               :          
HDRS        .OHMM                                               :          
HMRS        .OHMM                                               :          
NPHI        .%                                                  :          
PE          .G/C3                                               :          
RACHM       .OHMM                                               :          
RACM        .OHMM                                               :          
RHOB        .G/C3                                               :          
ROPS        .F/HR                                               :          
RPCHM       .OHMM                                               :          
RPCM        .OHMM                                               :          
RPTHM       .MINS                                               :          
RPTM        .MINS                                               :          
SP01        .MV                                                 :          
TENS        .LBS                                                :          
VSH_GR      .V/V                                                :Volume of Shale from GR
~A        DEPTH           CALI          CPCHM           CPCM            DFL           DPHI           DRHO             DT             GR        GR_NORM           GRAM           HDCN           HDRS           HMRS           NPHI             PE          RACHM           RACM           RHOB           ROPS          RPCHM           RPCM          RPTHM           RPTM           SP01           TENS         VSH_GR
# ...
      9372.0000        10.6859           2527        -999.25         0.5485        17.3698        -0.0601       119.2983        42.5504       81.98623        87.1449        2169.98         0.4608         0.4801        41.4968         8.5271          0.406        -999.25         2.3634         43.218          0.396        -999.25        56.8976        -999.25       485.2852       4508.555              1
      9372.5000        10.7509       2576.328        -999.25         0.5308        17.2406         -0.067       125.9141         43.627        80.8691         86.355       2247.586         0.4449         0.4597        40.2919         9.7193            0.4        -999.25         2.3655         43.597          0.388        -999.25        56.6952        -999.25       485.2026       4455.242              1
      9373.0000        10.8079       2592.547        -999.25         0.5558        15.5656        -0.0531       128.1843        45.0781       81.31698         86.678       2296.402         0.4355         0.4473        39.1946         9.0646          0.399        -999.25         2.3932         43.597          0.386        -999.25        56.4122        -999.25       485.4956       4406.406              1
      9373.5000        10.7184       2584.008        -999.25         0.5372        14.8727        -0.0333       130.6577        47.5591       81.02657         86.476       2353.703         0.4249         0.4368        40.1531         8.1533          0.404        -999.25         2.4046        43.7159          0.387        -999.25        56.1633        -999.25       485.7383       4368.313              1
      9374.0000        10.6777       2485.387        -999.25         0.4815        16.6494        -0.0151       133.4609        44.9845       81.39992         86.746       2419.023         0.4134         0.4267        41.6636         7.7823          0.412        -999.25         2.3753        43.7159          0.402        -999.25        56.0394        -999.25       485.6611       4360.414              1
      9374.5000         10.637       2422.512        -999.25         0.4661        19.9949        -0.0466        130.439        46.9974       79.75951         85.584       2460.543         0.4064         0.4202        43.1508         8.4961          0.417        -999.25         2.3201         53.074          0.413        -999.25        63.1959        -999.25       485.1128       4357.414      0.9948831
      9375.0000        10.4581       2432.785        -999.25         0.4499        19.6936        -0.0836       122.3796         49.806       76.15879         83.028       2474.402         0.4041         0.4168        42.2302         9.0376          0.418        -999.25         2.3251         53.074          0.411        -999.25        81.7441        -999.25       484.3062       4353.813      0.9182721
      9375.5000        10.4499       2442.336        -999.25         0.4674        16.7247        -0.0767       117.8859          50.04       73.71528        81.2949       2473.363         0.4043         0.4135        41.0298         9.0846          0.418        -999.25          2.374         42.189          0.409        -999.25        84.9734        -999.25       483.3828       4345.938      0.8662825
      9376.0000        10.3604       2443.207        -999.25         0.4492        12.6677        -0.0636       115.2656        51.4911       74.32628        81.7339       2463.566         0.4059         0.4128        41.0243         8.0485          0.417        -999.25          2.441         42.189          0.409        -999.25        84.6381        -999.25       482.6924       4334.227      0.8792825
      9376.5000          9.612       2448.676        -999.25         0.4675          9.598        -0.0512       120.9844        53.2699       76.31415         83.152       2383.605         0.4195         0.4276        40.9348         7.7858          0.417        -999.25         2.4916         35.903          0.408        -999.25        84.3113        -999.25       482.1899       4327.211      0.9215776
      9377.0000         8.8879       2443.336        -999.25         0.5585        10.8663        -0.0357       131.7031        53.1763       78.40015        84.6399       2157.566         0.4635         0.4765        38.1064         7.4118           0.42        -999.25         2.4707         35.903          0.409        -999.25        83.9967        -999.25       482.3794       4333.766      0.9659607
      9377.5000         8.6601       2379.117        -999.25          0.667        15.2373         -0.027       134.7749        56.1721       79.59631         85.495        1848.17         0.5411         0.5601        33.7071         6.8934          0.425        -999.25         2.3986        43.7159           0.42        -999.25        83.6914        -999.25       483.1479       4331.406      0.9914109
      9378.0000         8.9205       2344.352        -999.25          0.977        18.5301        -0.0165       138.0671         59.168       80.30293         86.002       1668.957         0.5992         0.6165        33.6635         7.0559          0.428        -999.25         2.3443        43.7159          0.427        -999.25        83.3861        -999.25       483.8125       4334.836              1
      9378.5000         9.1645       2374.426        -999.25         0.8286        20.8103        -0.0357       129.1797        62.7723       79.06471         85.126       1775.844         0.5631         0.5763         37.712         8.0576          0.425        -999.25         2.3066         34.877          0.421        -999.25        83.1539        -999.25       484.3765       4337.047      0.9801003
      9379.0000          9.433       2464.004        -999.25         0.6179        18.7677        -0.0307       110.3859        61.6489       78.57167        84.7799       2025.053         0.4938         0.5022        41.0721         7.9866          0.421        -999.25         2.3403         34.877          0.406        -999.25         83.001        -999.25       484.5566       4341.742        0.96961
      9379.5000          9.376       2446.121        -999.25         0.4789        16.1382        -0.0208       106.7437        61.7426       77.45017        83.9869       2189.387         0.4567         0.4616        39.8041         7.7145          0.419        -999.25         2.3837         39.819          0.409        -999.25        82.8479        -999.25       484.2158       4360.453      0.9457483
      9380.0000         9.1564       2424.258        -999.25         0.5036        16.2678        -0.0162       114.4155        60.1042        76.6649         83.433       2181.145         0.4585         0.4653        38.6042         6.7367          0.418        -999.25         2.3816         39.819          0.413        -999.25        82.5836        -999.25       483.6157       4375.063      0.9290405
      9380.5000         8.8472       2458.004        -999.25         0.5825        16.3416        -0.0066       127.6875        58.5126       78.09139        84.4519       2026.902         0.4934         0.5064        37.8835         6.2569          0.418        -999.25         2.3804         36.162          0.407        -999.25         82.203        -999.25       483.0547       4397.352      0.9593914
      9381.0000         8.8472       2439.359        -999.25         0.7798        19.2664        -0.0011       137.9624        57.2488       78.94583         85.064        1872.41         0.5341         0.5565        37.5178         6.2437          0.419        -999.25         2.3321         36.162           0.41        -999.25        81.8285        -999.25       482.3057       4422.563      0.9775709
      9381.5000         8.9449       2428.945        -999.25         0.7184        24.0663         -0.029       138.2046        56.8743       76.64026         83.429       1856.943         0.5385         0.5692        39.0062          6.815          0.421        -999.25         2.2529          46.95          0.412        -999.25        81.8357        -999.25         481.73       4451.484      0.9285161
