#------------------------------------------------------------------------------
# Created by    : vladimir.rabinovich
# Created on    : 09/19/2023 17:20:39
#------------------------------------------------------------------------------
~Version Information Section
VERS.           2.0     :   CWLS log ASCII Standard - VERSION 2.0
WRAP.           NO      :   One line per depth step
~Well Information Section
#MNEM       .UNIT                                         VALUE :DESCRIPTION
#------------------------------------------------------------------------------
STRT        .FT                                             502 :START DEPTH
STOP        .FT                                           11475 :STOP DEPTH
STEP        .FT                                             0.5 :STEP      
NULL        .                                           -999.25 :NULL      
COMP        .                                      SHELL OIL CO :COMPANY   
WELL        .                                OCS 00730 ST00BP00 :WELL      
FLD         .                                           WILDCAT :FIELD     
LOC         .                                                   :LOCATION  
CNTY        .                             GALVESTON LARGE BLOCK :LOCATION  
STAT        .                                             TEXAS :STATE     
CTRY        .                                     UNITED STATES :COUNTRY   
SRVC        .                                                   :SERVICE COMPANY
DATE        .                             9/13/2023 11:19:42 AM :LOG DATE  
API         .                                    42706000250000 :API NUMBER
UWI         .                                    42706000250000 :UNIQUE WELL ID
XCOORD      .                                  958538.282477158 :SURFACE X 
YCOORD      .                                   10357465.718335 :SURFACE Y 
LAT         .                                         28.524406 :LATITUDE  
LON         .                                        -95.123893 :LONGITUDE 
ELEV        .FT                                              80 :ELEVATION VALUE
ELEV_TYPE   .                                                KB :ELEVATION REFERENCE TYPE
~Curve Information Section
#MNEM       .UNIT                                      API CODE :CURVE DESCRIPTION
#------------------------------------------------------------------------------
DEPT        .FT                                                 :DEPTH     
ASN         .OHMM                                               :          
CILD        .MMHO                                               :          
ILD         .OHMM                                               :          
LAT         .OHMM                                               :          
LN          .OHMM                                               :          
SP          .MV                                                 :          
SP_NORM     .MV                                                 :SP Normalized
VSH_SP      .V/V                                                :Volume of Shale from SP
~A        DEPTH            ASN           CILD            ILD            LAT             LN             SP        SP_NORM         VSH_SP
# ...
      2685.0000         0.8787        -999.25        -999.25         0.6972         0.9014       -43.5561      -2.092686      0.9678622
      2685.5000         0.8749        -999.25        -999.25          0.697         0.9027       -43.7252      -2.261787      0.9628886
      2686.0000          0.871        -999.25        -999.25         0.6968         0.9007       -43.8943      -2.430885      0.9579151
      2686.5000          0.867        -999.25        -999.25         0.6966         0.8978       -44.0634      -2.599987      0.9529415
      2687.0000         0.8672        -999.25        -999.25         0.6965         0.8949       -44.2326      -2.769188      0.9479651
      2687.5000         0.8695        -999.25        -999.25         0.6963         0.8921       -44.4017      -2.938286      0.9429916
      2688.0000         0.8658        -999.25        -999.25         0.6961         0.8892       -44.5709      -3.107487      0.9380151
      2688.5000          0.861        -999.25        -999.25         0.6972         0.8863       -44.7399      -3.276485      0.9330446
      2689.0000         0.8561        -999.25        -999.25         0.7011         0.8834       -44.8699      -3.406487       0.929221
      2689.5000         0.8513        -999.25        -999.25          0.705         0.8805       -44.9551      -3.491688      0.9267151
      2690.0000         0.8464        -999.25        -999.25         0.7088         0.8777       -45.0402      -3.576786      0.9242122
      2690.5000          0.841        -999.25        -999.25         0.7127         0.8748       -45.1254      -3.661987      0.9217063
      2691.0000         0.8353        -999.25        -999.25         0.7165         0.8719       -45.1517      -3.688286      0.9209328
      2691.5000         0.8296        -999.25        -999.25         0.7204          0.869       -45.0221      -3.558685      0.9247445
      2692.0000         0.8253        -999.25        -999.25         0.7242         0.8662       -44.8926      -3.429188      0.9285533
      2692.5000         0.8226        -999.25        -999.25         0.7281         0.8633       -44.7631      -3.299686      0.9323621
      2693.0000           0.82        -999.25        -999.25         0.7319         0.8604       -44.6335      -3.170086      0.9361739
      2693.5000         0.8156        -999.25        -999.25         0.7358         0.8575       -44.5039      -3.040485      0.9399858
      2694.0000         0.8105        -999.25        -999.25         0.7397         0.8546       -44.3744      -2.910988      0.9437945
      2694.5000         0.8054        -999.25        -999.25         0.7435         0.8536       -44.2449      -2.781487      0.9476033
      2695.0000         0.8003        -999.25        -999.25         0.7474         0.8538       -44.1236      -2.660187       0.951171
      2695.5000         0.7959        -999.25        -999.25         0.7507          0.854       -44.0994      -2.635986      0.9518828
      2696.0000         0.7919        -999.25        -999.25         0.7531         0.8542       -44.0751      -2.611687      0.9525974
      2696.5000          0.788        -999.25        -999.25         0.7554         0.8544       -44.0508      -2.587387      0.9533122
      2697.0000         0.7887        -999.25        -999.25         0.7578         0.8546       -44.0266      -2.563187      0.9540239
      2697.5000         0.7919        -999.25        -999.25         0.7602         0.8548       -44.0024      -2.538986      0.9547357
      2698.0000         0.7951        -999.25        -999.25         0.7626          0.855       -43.9781      -2.514687      0.9554504
      2698.5000         0.7991        -999.25        -999.25          0.765         0.8552       -43.9539      -2.490486      0.9561622
      2699.0000         0.8045        -999.25        -999.25         0.7674         0.8554       -44.1989      -2.735485      0.9489563
      2699.5000         0.8099        -999.25        -999.25         0.7697         0.8556       -44.4778      -3.014385      0.9407534
      2700.0000         0.8152        -999.25        -999.25         0.7721         0.8558       -44.7567      -3.293285      0.9325504
      2700.5000         0.8095        -999.25        -999.25         0.7745          0.856       -45.0165      -3.553085      0.9249092
      2701.0000         0.8122        -999.25        -999.25         0.7738         0.8562        -45.268      -3.804588      0.9175121
      2701.5000         0.8148        -999.25        -999.25         0.7724         0.8564       -45.5195      -4.056087      0.9101151
      2702.0000         0.8175        -999.25        -999.25         0.7709         0.8566        -45.771      -4.307587      0.9027181
      2702.5000         0.8202        -999.25        -999.25         0.7695         0.8567       -45.8848      -4.421387       0.899371
      2703.0000         0.8229        -999.25        -999.25          0.768         0.8569       -45.7001      -4.236687      0.9048033
      2703.5000         0.8256        -999.25        -999.25         0.7666         0.8571       -45.5152      -4.051788      0.9102415
      2704.0000         0.8283        -999.25        -999.25         0.7651         0.8573       -45.3304      -3.866985      0.9156769
      2704.5000         0.8309        -999.25        -999.25         0.7637         0.8575       -45.1456      -3.682186      0.9211122
      2705.0000         0.8336        -999.25        -999.25         0.7622         0.8578        -44.794      -3.330585      0.9314533
      2705.5000         0.8358        -999.25        -999.25         0.7608          0.858       -44.3759      -2.912487      0.9437504
      2706.0000          0.833        -999.25        -999.25         0.7593         0.8583        -43.958      -2.494587      0.9560416
      2706.5000         0.8302        -999.25        -999.25         0.7579         0.8586       -43.5399      -2.076488      0.9683385
      2707.0000         0.8273        -999.25        -999.25         0.7567         0.8589       -43.1219      -1.658485      0.9806328
      2707.5000         0.8245        -999.25        -999.25         0.7556         0.8592       -42.7039      -1.240486      0.9929269
      2708.0000         0.8217        -999.25        -999.25         0.7545         0.8595       -42.2859     -0.8224869              1
      2708.5000         0.8189        -999.25        -999.25         0.7534         0.8597       -42.1358     -0.6723862              1
      2709.0000         0.8161        -999.25        -999.25         0.7523           0.86       -42.2517     -0.7882881              1
      2709.5000         0.8133        -999.25        -999.25         0.7513         0.8603       -42.3676     -0.9041862              1
      2710.0000         0.8132        -999.25        -999.25         0.7502         0.8606       -42.4835      -1.020088      0.9994092
      2710.5000          0.816        -999.25        -999.25         0.7491         0.8609       -42.5994      -1.135986      0.9960004
      2711.0000         0.8188        -999.25        -999.25          0.748         0.8611       -42.7153      -1.251888      0.9925915
      2711.5000         0.8215        -999.25        -999.25         0.7469         0.8614       -42.8312      -1.367786      0.9891828
      2712.0000         0.8243        -999.25        -999.25         0.7458          0.862       -42.9501      -1.486687      0.9856857
      2712.5000         0.8271        -999.25        -999.25         0.7448         0.8629       -43.0912      -1.627789      0.9815356
      2713.0000         0.8289        -999.25        -999.25         0.7437         0.8638       -43.2322      -1.768787      0.9773886
      2713.5000         0.8288        -999.25        -999.25         0.7433         0.8647       -43.3731      -1.909687      0.9732445
      2714.0000         0.8286        -999.25        -999.25         0.7433         0.8657       -43.5141      -2.050686      0.9690975
