#------------------------------------------------------------------------------
# Created by    : vladimir.rabinovich
# Created on    : 09/19/2023 17:20:40
#------------------------------------------------------------------------------
~Version Information Section
VERS.           2.0     :   CWLS log ASCII Standard - VERSION 2.0
WRAP.           NO      :   One line per depth step
~Well Information Section
#MNEM       .UNIT                                         VALUE :DESCRIPTION
#------------------------------------------------------------------------------
STRT        .FT                                             546 :START DEPTH
STOP        .FT                                            8737 :STOP DEPTH
STEP        .FT                                             0.5 :STEP      
NULL        .                                           -999.25 :NULL      
COMP        .                                      SHELL OIL CO :COMPANY   
WELL        .                                OCS 00702 ST00BP00 :WELL      
FLD         .                                           WILDCAT :FIELD     
LOC         .                                                   :LOCATION  
CNTY        .                             GALVESTON LARGE BLOCK :LOCATION  
STAT        .                                             TEXAS :STATE     
CTRY        .                                     UNITED STATES :COUNTRY   
SRVC        .                                                   :SERVICE COMPANY
DATE        .                             9/13/2023 11:19:42 AM :LOG DATE  
API         .                                    42706000140000 :API NUMBER
UWI         .                                    42706000140000 :UNIQUE WELL ID
XCOORD      .                                  1138683.88536091 :SURFACE X 
YCOORD      .                                  10533063.1188688 :SURFACE Y 
LAT         .                                         29.014964 :LATITUDE  
LON         .                                        -94.570199 :LONGITUDE 
ELEV        .FT                                              72 :ELEVATION VALUE
ELEV_TYPE   .                                                KB :ELEVATION REFERENCE TYPE
~Curve Information Section
#MNEM       .UNIT                                      API CODE :CURVE DESCRIPTION
#------------------------------------------------------------------------------
DEPT        .FT                                                 :DEPTH     
ASN         .OHMM                                               :          
CILD        .MMHO                                               :          
ILD         .OHMM                                               :          
SP          .MV                                                 :          
SP_NORM     .MV                                                 :SP Normalized
VSH_SP      .V/V                                                :Volume of Shale from SP
~A        DEPTH            ASN           CILD            ILD             SP        SP_NORM         VSH_SP
# ...
      7614.0000          1.143       1441.869         0.7938       -40.2721       1.692253              1
      7614.5000         1.0873       2060.813         0.7264       -40.7399       1.238991              1
      7615.0000         1.0218        2108.91         0.6591       -44.4974      -2.503975              1
      7615.5000         0.9872       2167.176         0.6255       -48.0947      -6.086742      0.9035393
      7616.0000         0.9512       2249.113         0.6055         -51.83       -9.80751      0.7872653
      7616.5000         0.9243       2360.023         0.5855       -57.4697      -15.43267      0.6114789
      7617.0000         0.9372        2403.18         0.5815       -62.2274      -20.17584      0.4632549
      7617.5000         0.9673       2081.316         0.6093       -63.4078       -21.3417      0.4268218
      7618.0000         1.0066       2026.125         0.6372       -63.9252      -21.84457      0.4111072
      7618.5000          1.041       2017.898         0.6714       -64.4425      -22.34733      0.3953959
      7619.0000         1.0653        2009.68         0.7425       -64.7777        -22.668      0.3853749
      7619.5000         1.1231       2001.453         0.8137       -60.6281      -18.50387      0.5155041
      7620.0000         1.1176       1884.094         0.8353       -53.1842      -11.04543      0.7485802
      7620.5000         1.0745       1389.445         0.8541       -50.6405      -8.487194      0.8285252
      7621.0000         1.0655       1331.047         0.8729       -50.3688      -8.200962      0.8374699
      7621.5000         1.0593       1324.805         0.8911       -51.0682      -8.885826      0.8160679
      7622.0000         1.0514       1294.313         0.9065       -48.8854      -6.688492      0.8847346
      7622.5000          1.039       1197.756          0.922       -46.7025      -4.491058      0.9534044
      7623.0000         1.0234       1147.113         0.9418       -44.9651       -2.73912              1
      7623.5000          1.015       1119.207         0.9823       -44.4662      -2.225689              1
      7624.0000         1.0787       1098.768         1.0228       -44.2714      -2.016354              1
      7624.5000         1.1378       1139.625          1.012       -45.4619      -3.192318      0.9939901
      7625.0000          1.183       1193.832         0.9939       -46.7961      -4.511986      0.9527504
      7625.5000         1.2565       1242.779         0.9741       -47.9838       -5.68515      0.9160891
      7626.0000         1.2899       1295.027         0.9542       -48.3101      -5.996914      0.9063464
      7626.5000         1.2384       1349.324         0.9344       -48.2518       -5.92408      0.9086225
      7627.0000         1.1624       1403.889         0.9146       -48.3263      -5.984047      0.9067485
      7627.5000         1.1361       1450.473         0.8939       -49.2061      -6.849312       0.879709
      7628.0000         1.0889       1492.689         0.8704       -50.0859      -7.714577      0.8526695
      7628.5000         1.0384       1529.557         0.8469       -50.8321      -8.446243      0.8298049
      7629.0000         0.9965        1556.17         0.8236       -51.4613      -9.060905      0.8105967
      7629.5000         0.9811       1576.008          0.807        -51.007      -8.592072      0.8252478
      7630.0000          0.996       1542.352         0.8179       -50.1249      -7.695438      0.8532676
      7630.5000         1.0108       1500.135         0.8288       -49.1448      -6.700802      0.8843499
      7631.0000         1.0221       1474.313         0.8397       -47.9988      -5.540268      0.9206166
      7631.5000         1.0334       1472.633         0.8481       -46.8696       -4.39653      0.9563584
      7632.0000         1.0649       1470.951         0.8535       -46.1646      -3.676998      0.9788438
      7632.5000         1.0766       1466.154         0.8589       -47.8452      -5.343063      0.9267793
      7633.0000         1.0568       1457.684         0.8643         -49.44      -6.923328       0.877396
      7633.5000          1.037       1435.271         0.8698        -51.037      -8.505795      0.8279439
      7634.0000         1.0172       1400.055         0.8807       -51.3939      -8.848164      0.8172449
      7634.5000         0.9995       1364.883         0.8925       -51.3477      -8.787422      0.8191431
      7635.0000         0.9882       1330.824         0.9042       -50.6862      -8.111389      0.8402691
      7635.5000          1.006       1297.211         0.9159       -50.0247      -7.435356      0.8613951
      7636.0000         1.0287       1266.361         0.9276       -49.4818      -6.877922      0.8788149
      7636.5000         1.0597         1238.1         0.9393       -49.0079      -6.389488      0.8940785
      7637.0000         1.0945        1200.43         0.9511       -48.6047      -5.971752      0.9071327
      7637.5000         1.1159       1136.771         0.9846       -49.0864      -6.438915      0.8925339
      7638.0000         1.1289       1057.555         1.0203       -50.5447      -7.882683      0.8474162
      7638.5000         1.1405       1013.644          1.056       -52.0327      -9.356148      0.8013704
      7639.0000         1.1477       981.4355         1.0916       -51.9039      -9.212814      0.8058496
      7639.5000         1.1548       959.0576         1.1145       -51.7751      -9.069481      0.8103287
      7640.0000         1.1613       936.6787         1.1363       -51.4067      -8.686543      0.8222955
      7640.5000         1.1658       920.9424         1.1581       -50.7352      -8.000507      0.8437341
      7641.0000         1.1703       907.9473         1.1748       -50.0648      -7.315575      0.8651383
      7641.5000         1.1748       911.6699         1.1814       -49.3932       -6.62944        0.88658
      7642.0000         1.1777       920.0059         1.1881       -48.7228      -5.944508      0.9079841
      7642.5000         1.1789       930.6602         1.1916       -48.1236      -5.330772      0.9271634
      7643.0000           1.18       941.3262         1.1773       -47.6647      -4.857334      0.9419583
      7643.5000         1.1811       952.0029          1.163       -47.2065      -4.384602      0.9567312
      7644.0000         1.1812       956.9678         1.1493       -47.0091      -4.172668      0.9633541
      7644.5000         1.1808       947.0205         1.1388       -47.2254      -4.374432       0.957049
      7645.0000         1.1804        928.877         1.1284       -47.4417      -4.576199      0.9507438
      7645.5000         1.1802       910.7109         1.1419       -47.5887      -4.708664      0.9466043
      7646.0000         1.1822       892.5674          1.162       -47.6877      -4.793125      0.9439648
      7646.5000         1.1841       868.9404         1.1822       -47.2867      -4.377594      0.9569502
      7647.0000         1.1956       841.5244         1.2023       -46.7604      -3.836758      0.9738513
      7647.5000         1.2081       814.2871         1.2225       -46.2336      -3.295425       0.990768
      7648.0000         1.2208       787.1826         1.2426       -45.7075      -2.754791              1
      7648.5000          1.235       760.0791         1.2706       -45.1812      -2.213955              1
      7649.0000         1.2492       742.7598         1.3039        -44.655      -1.673218              1
      7649.5000         1.2633       726.4443         1.3371       -44.2368      -1.240486              1
      7650.0000         1.2769       710.1504         1.3702       -43.8649     -0.8540497              1
      7650.5000           1.29       703.1514         1.4034       -43.4929     -0.4675179              1
      7651.0000         1.2997       720.8711         1.4367       -43.1204    -0.08048248              1
      7651.5000         1.3094       738.5918         1.4626       -42.7484      0.3060532              1
