#------------------------------------------------------------------------------
# Created by    : vladimir.rabinovich
# Created on    : 09/19/2023 17:22:26
#------------------------------------------------------------------------------
~Version Information Section
VERS.           2.0     :   CWLS log ASCII Standard - VERSION 2.0
WRAP.           NO      :   One line per depth step
~Well Information Section
#MNEM       .UNIT                                         VALUE :DESCRIPTION
#------------------------------------------------------------------------------
STRT        .FT                                            3450 :START DEPTH
STOP        .FT                                            9344 :STOP DEPTH
STEP        .FT                                             0.5 :STEP      
NULL        .                                           -999.25 :NULL      
COMP        .                                  W&T OFFSHORE INC :COMPANY   
WELL        .                               OCS G04565 ST00BP00 :WELL      
FLD         .                              GALVESTON BLOCK 0303 :FIELD     
LOC         .                                                   :LOCATION  
CNTY        .                             GALVESTON LARGE BLOCK :LOCATION  
STAT        .                                             TEXAS :STATE     
CTRY        .                                     UNITED STATES :COUNTRY   
SRVC        .                                                   :SERVICE COMPANY
DATE        .                             9/13/2023 11:19:39 AM :LOG DATE  
API         .                                    42706403900000 :API NUMBER
UWI         .                                    42706403900000 :UNIQUE WELL ID
XCOORD      .                                  983096.827540607 :SURFACE X 
YCOORD      .                                  10485968.3003259 :SURFACE Y 
LAT         .                                        28.8789082 :LATITUDE  
LON         .                                       -95.0543314 :LONGITUDE 
ELEV        .FT                                              90 :ELEVATION VALUE
ELEV_TYPE   .                                                KB :ELEVATION REFERENCE TYPE
~Curve Information Section
#MNEM       .UNIT                                      API CODE :CURVE DESCRIPTION
#------------------------------------------------------------------------------
DEPT        .FT                                                 :DEPTH     
CDER        .MMHO                                               :          
DCAL        .IN                                                 :          
DPHI        .DEC                                                :          
DRHO        .G/CC                                               :          
DTLN        .US/F                                               :          
GR          .GAPI                                               :          
GR_NORM     .GAPI                                               :GammaRay Normalized
IDER        .OHMM                                               :          
IMER        .OHMM                                               :          
NPOR        .DEC                                                :          
RWA         .OHMM                                               :          
SFLA        .OHMM                                               :          
SP          .MV                                                 :          
SP_NORM     .MV                                                 :SP Normalized
TENS        .LB                                                 :          
VSH_GR      .V/V                                                :Volume of Shale from GR
VSH_SP      .V/V                                                :Volume of Shale from SP
~A        DEPTH           CDER           DCAL           DPHI           DRHO           DTLN             GR        GR_NORM           IDER           IMER           NPOR            RWA           SFLA             SP        SP_NORM           TENS         VSH_GR         VSH_SP
# ...
      6240.0000       2114.165          0.203          0.239         -0.009         94.911         52.812       53.42955          0.473          0.516          0.316          0.047          1.203        -63.482      -62.09332        -999.25      0.4346713      0.1129526
      6240.5000       2168.257          0.221          0.239         -0.009         95.038         57.026        58.6114          0.461          0.493          0.319          0.044           1.09        -59.875      -58.48449        -999.25      0.5449234      0.1645073
      6241.0000       2157.032          0.383           0.24         -0.009          94.92         57.778       59.53498          0.464           0.49          0.316          0.045          1.001        -53.208      -51.81565        -999.25      0.5645741      0.2597765
      6241.5000       2056.767           0.57          0.236         -0.009         94.285         57.318       58.96782          0.486          0.509          0.316          0.049          0.917        -44.579      -43.18481        -999.25      0.5525068      0.3830742
      6242.0000       1870.208          0.795          0.222         -0.006         92.375         56.364       57.79303          0.535          0.563          0.334          0.051          0.865        -36.038      -34.64197        -999.25      0.5275113      0.5051147
      6242.5000       1564.945              1          0.196         -0.004          89.99         55.404       56.61086          0.639          0.649          0.338          0.051          0.853        -29.586      -28.18813        -999.25      0.5023587      0.5973124
      6243.0000       1362.398          0.996          0.169         -0.001         88.613          55.05       56.17407          0.734          0.745          0.315          0.049          0.892        -24.101      -22.70129        -999.25      0.4930654      0.6756958
      6243.5000       1186.099          0.967          0.145          0.001         87.498         56.717       58.22311          0.843          0.883          0.295          0.047          0.971        -20.241      -18.83945        -999.25      0.5366619      0.7308649
      6244.0000       1037.129          0.795           0.13          0.001         85.756          60.64       63.04703          0.964          0.982          0.279          0.047          1.071        -17.701      -16.29762        -999.25      0.6392986      0.7671769
      6244.5000        953.198          0.613          0.122         -0.001         83.024         63.875       67.02471          1.049           1.08          0.266          0.045          1.177            -16      -14.59478        -999.25      0.7239301      0.7915031
      6245.0000        920.217          0.531           0.12         -0.003         82.344         65.273       68.74288          1.087          1.142          0.248          0.044          1.279         -15.14      -13.73294        -999.25      0.7604868      0.8038151
      6245.5000         892.14          0.483          0.119         -0.006         84.341         64.433       67.70831          1.121          1.165          0.235          0.045          1.346         -14.58       -13.1711        -999.25      0.7384746      0.8118414
      6246.0000        875.197          0.479          0.122         -0.009         88.186         62.989       65.93082          1.143          1.177          0.239          0.049          1.339         -14.18      -12.76927        -999.25      0.7006557      0.8175819
      6246.5000        898.634          0.507          0.133         -0.012         92.595         62.261       65.03401          1.113          1.164          0.261          0.051          1.271         -13.88      -12.46743        -999.25      0.6815747      0.8218939
      6247.0000        979.144          0.589          0.167         -0.015         99.465         61.818       64.48775          1.021          1.075           0.28          0.056          1.204          -13.8      -12.38559        -999.25      0.6699522       0.823063
      6247.5000       1122.208          0.766          0.215         -0.017        104.887         60.059       62.32281          0.891          0.975          0.304          0.086          1.137          -13.8      -12.38375        -999.25      0.6238895      0.8230892
      6248.0000        1223.84          0.977          0.273         -0.018         105.66         58.283       60.13696          0.817          0.886          0.346          0.112          1.072         -14.08      -12.66191        -999.25      0.5773821      0.8191155
      6248.5000       1258.653          1.108          0.302         -0.016        104.634         59.054       61.08392          0.794          0.815          0.417          0.124           1.02         -14.56      -13.14008        -999.25      0.5975302      0.8122846
      6249.0000       1261.352          0.866          0.287          -0.01        103.388         62.736       65.61141          0.793          0.794          0.387          0.112           0.98         -15.16      -13.73824        -999.25      0.6938598      0.8037394
      6249.5000       1266.785          0.526          0.249         -0.005        104.829         66.878        70.7047          0.789          0.794          0.347          0.097          0.947          -15.6       -14.1764        -999.25      0.8022276        0.79748
      6250.0000       1282.709          0.386           0.22              0        107.894         68.218       72.35153           0.78          0.758          0.347          0.083          0.905        -15.361      -13.93556        -999.25      0.8372666      0.8009205
      6250.5000       1365.934          0.477          0.199          0.001        110.986         69.405       73.81017          0.732          0.728          0.363          0.075          0.867        -13.481      -12.05373        -999.25      0.8683014      0.8278039
      6251.0000       1455.816          0.825          0.201          0.002         112.55          68.88       73.16304          0.687          0.721          0.385          0.076          0.837        -11.421      -9.991887        -999.25      0.8545328      0.8572587
      6251.5000        1460.28           1.01          0.221          0.002        112.178         68.622       72.84435          0.685          0.727          0.398          0.087          0.823        -10.001       -8.57005        -999.25       0.847752      0.8775707
      6252.0000       1411.831          0.901          0.252          0.005        108.534         69.118       73.45305          0.708          0.735          0.399          0.097          0.826         -9.839      -8.406212        -999.25      0.8607032      0.8799112
      6252.5000       1355.197          0.808          0.287          0.009        104.069           67.8       71.83054          0.738          0.744          0.394          0.108          0.859         -10.32      -8.885374        -999.25      0.8261818      0.8730661
      6253.0000       1294.331          0.947          0.323           0.01        100.914         63.607       66.67178          0.773          0.756          0.395          0.126          0.913         -10.88      -9.443537        -999.25      0.7164208      0.8650923
      6253.5000        1232.59            1.3          0.349          0.011         98.705         59.495       61.61265          0.811          0.803          0.405          0.145          0.953         -11.54       -10.1017        -999.25      0.6087797        0.85569
      6254.0000       1170.686          1.656          0.338          0.012        100.774         60.096       62.35051          0.854          0.868          0.391          0.146          0.985          -11.8      -10.35986        -999.25      0.6244789       0.852002
      6254.5000       1116.196           1.51          0.305          0.012        105.334         63.182       66.14491          0.896          0.915          0.341          0.141          0.999         -11.56      -10.11802        -999.25      0.7052109      0.8554568
