#------------------------------------------------------------------------------
# Created by    : vladimir.rabinovich
# Created on    : 09/19/2023 17:21:32
#------------------------------------------------------------------------------
~Version Information Section
VERS.           2.0     :   CWLS log ASCII Standard - VERSION 2.0
WRAP.           NO      :   One line per depth step
~Well Information Section
#MNEM       .UNIT                                         VALUE :DESCRIPTION
#------------------------------------------------------------------------------
STRT        .FT                                            4185 :START DEPTH
STOP        .FT                                            8075 :STOP DEPTH
STEP        .FT                                             0.5 :STEP      
NULL        .                                           -999.25 :NULL      
COMP        .                                         HESS CORP :COMPANY   
WELL        .                               OCS G07236 ST00BP00 :WELL      
FLD         .                              GALVESTON BLOCK 0210 :FIELD     
LOC         .                                                   :LOCATION  
CNTY        .                             GALVESTON LARGE BLOCK :LOCATION  
STAT        .                                             TEXAS :STATE     
CTRY        .                                     UNITED STATES :COUNTRY   
SRVC        .                                                   :SERVICE COMPANY
DATE        .                             9/13/2023 11:19:34 AM :LOG DATE  
API         .                                    42706402930000 :API NUMBER
UWI         .                                    42706402930000 :UNIQUE WELL ID
XCOORD      .                                   1127714.7472722 :SURFACE X 
YCOORD      .                                  10563055.4663979 :SURFACE Y 
LAT         .                                         29.097041 :LATITUDE  
LON         .                                        -94.605794 :LONGITUDE 
ELEV        .FT                                              89 :ELEVATION VALUE
ELEV_TYPE   .                                                KB :ELEVATION REFERENCE TYPE
~Curve Information Section
#MNEM       .UNIT                                      API CODE :CURVE DESCRIPTION
#------------------------------------------------------------------------------
DEPT        .FT                                                 :DEPTH     
CALI        .IN                                                 :          
DRHO        .G/CC                                               :          
DT          .US/F                                               :          
ILD         .OHMM                                               :          
ILM         .OHMM                                               :          
NPHI        .%                                                  :          
RFOC        .OHMM                                               :          
RHOB        .G/CC                                               :          
SP          .MV                                                 :          
SP_NORM     .MV                                                 :SP Normalized
VSH_SP      .V/V                                                :Volume of Shale from SP
~A        DEPTH           CALI           DRHO             DT            ILD            ILM           NPHI           RFOC           RHOB             SP        SP_NORM         VSH_SP
# ...
      7042.5000         11.718         0.0037       119.2676         0.3395         0.3352        34.9271         0.7252         2.1833       -92.0764      -42.58431      0.4322092
      7043.0000        11.6778         0.0032       119.5927         0.3371         0.3169        33.9674         0.7451         2.1746       -94.7343       -45.2474      0.3967013
      7043.5000        11.6526         0.0023       119.9993         0.3233          0.295        33.6773         0.7928         2.1634       -97.4358       -47.9541       0.360612
      7044.0000        11.6571         0.0002       120.4821         0.3052         0.2769        34.1871         0.8675         2.1481      -103.2805      -53.80399      0.2826134
      7044.5000        11.6741         0.0001       120.9611         0.2782         0.2619        34.4788         0.9378         2.1301       -111.611      -62.13969      0.1714709
      7045.0000        11.7012         0.0006       121.4478         0.2474         0.2444         34.705         0.9866         2.1101      -119.6949      -70.22878     0.06361634
      7045.5000        11.7207         0.0013       121.8126         0.2293          0.232        34.6696         0.9235         2.0891      -126.2793      -76.81837              0
      7046.0000        11.7314         0.0018       122.1185         0.2177         0.2232        34.5789         0.8678         2.0763      -129.9565      -80.50076              0
      7046.5000        11.7232         0.0023       122.0862         0.2122         0.2229        34.5587          0.847         2.0735      -130.6257      -81.17516              0
      7047.0000         11.722         0.0027        121.127         0.2142         0.2243        34.8264         0.8623          2.075      -130.6921      -81.24675              0
      7047.5000        11.7237          0.003       118.8638          0.223           0.23        35.3331         0.8788         2.0835      -130.5012      -81.06106              0
      7048.0000        11.7234         0.0036        116.882         0.2395         0.2417        35.8495         0.7816         2.1043      -118.9246      -69.48964     0.07347148
      7048.5000        11.7229         0.0045        115.447         0.2674         0.2672         36.439         0.6807         2.1408      -100.7639      -51.33414      0.3155448
      7049.0000        11.7183         0.0054       114.4114         0.3057         0.3255        36.6599         0.6215         2.1828       -76.9536      -27.52903      0.6329462
      7049.5000        11.7119         0.0054       113.3123         0.3464         0.3648        36.3422         0.6238         2.2292       -62.8041      -13.38473       0.821537
      7050.0000        11.6966         0.0051       112.2234         0.4036         0.4017        35.8775          0.676         2.2619       -59.6507      -10.23652      0.8635131
      7050.5000        11.6801         0.0047       111.1852         0.4475         0.4201        35.7072         0.7921          2.275        -57.699      -8.290016      0.8894665
      7051.0000        11.6599         0.0043       110.2285         0.4676         0.4274        36.5098         0.7986          2.284       -56.5383       -7.13451      0.9048732
      7051.5000        11.6467         0.0038        109.434         0.4777          0.425        37.6911         0.7956         2.2798       -55.1388      -5.740208      0.9234639
      7052.0000        11.6403          0.003       109.3756         0.4713         0.4102        38.1978         0.8016         2.2533        -54.674      -5.280598       0.929592
      7052.5000          11.64         0.0019       112.9324         0.4465          0.383        37.4259         0.8238         2.1919       -70.1125       -20.7243       0.723676
      7053.0000        11.6515         0.0019       114.6952          0.379         0.3489        35.6107         0.8432         2.1493       -84.5138      -35.13079      0.5315894
      7053.5000        11.6882         0.0024       115.1488         0.3184         0.3183        33.9386         0.8564         2.1206      -106.4442      -57.06638      0.2391149
      7054.0000        11.7361         0.0036       114.2338         0.2924         0.3054        32.3863         0.8327         2.1089      -119.5409      -70.16827     0.06442302
      7054.5000        11.7893         0.0052        111.097         0.2773         0.2997        31.2924         0.7653         2.1257      -125.0081      -75.64067              0
      7055.0000        11.8459         0.0061       106.9595         0.2709         0.2979        31.7361         0.7203         2.1735      -122.9563      -73.59406     0.01874583
      7055.5000        11.8771         0.0062       101.6036         0.2697         0.3018        33.8438         0.6965         2.2491      -117.0808      -67.72376      0.0970165
      7056.0000        11.8918         0.0056        93.4895         0.2729         0.3143        35.6154         0.6898         2.3167      -110.5016      -61.14976      0.1846699
      7056.5000        11.8963         0.0019        86.1737          0.278         0.3358        36.8209         0.6863         2.3172      -102.6642      -53.31755      0.2890994
      7057.0000        11.8958         0.0017        87.0811         0.2862         0.3631         37.702         0.6836         2.2911       -94.1898      -44.84834      0.4020222
      7057.5000        11.8986         0.0019        91.0941         0.3028         0.3871        37.7296         0.6969         2.2592       -87.6416      -38.30534      0.4892622
      7058.0000        11.9115         0.0022        96.6626         0.3223         0.3982        37.1848         0.7729         2.2412       -85.3271      -35.99603      0.5200529
      7058.5000        11.9254          0.002       107.4054         0.3504         0.4008        36.0727         0.8659         2.2355       -88.5044      -39.17853      0.4776196
      7059.0000        11.9888         0.0026       111.3374         0.3889         0.4166         34.525         0.8823         2.2425       -93.1267      -43.80602      0.4159198
      7059.5000        12.1157         0.0038       111.7338         0.4269         0.4448        32.6259         0.7849          2.273       -93.7816      -44.46611      0.4071185
      7060.0000         12.272         0.0053       111.6505         0.4703         0.4738        31.3442         0.7671          2.409       -87.8727      -38.56241      0.4858345
      7060.5000        12.3309         0.0074       110.3711         0.5498         0.5306        29.3983         0.8695         2.5238        -77.231       -27.9259      0.6276546
      7061.0000        12.3456         0.0085       107.6335         0.6288         0.6084        27.7495         1.0681         2.5358        -67.483       -18.1831      0.7575587
      7061.5000         12.338         0.0075       102.8324         0.6716         0.6585        27.4486         1.3504         2.5277       -58.8906       -9.59589      0.8720548
      7062.0000        12.3277         0.0051        90.4615         0.7055         0.6994        28.5179         1.3908         2.4881       -56.3072      -7.017685      0.9064308
      7062.5000         12.329         0.0029        79.7419         0.7248         0.7154        30.3471         1.2866         2.4324       -55.0065      -5.722179      0.9237043
      7063.0000        12.3329         0.0033        78.6973          0.732         0.7117        32.4781         1.1189         2.3757       -55.3031      -6.023972      0.9196804
      7063.5000        12.3362         0.0039        90.6171          0.721         0.6656        34.0273         0.9187         2.3472       -56.7977      -7.523766      0.8996831
      7064.0000        12.3395         0.0046       100.3956         0.6833         0.5886         35.449         0.8499         2.3343       -57.6516      -8.382862      0.8882285
      7064.5000        12.3379         0.0052       108.5538         0.6332         0.5508        35.7173         0.8376         2.3244       -58.0887      -8.825153      0.8823313
