#------------------------------------------------------------------------------
# Created by    : vladimir.rabinovich
# Created on    : 09/19/2023 17:22:32
#------------------------------------------------------------------------------
~Version Information Section
VERS.           2.0     :   CWLS log ASCII Standard - VERSION 2.0
WRAP.           NO      :   One line per depth step
~Well Information Section
#MNEM       .UNIT                                         VALUE :DESCRIPTION
#------------------------------------------------------------------------------
STRT        .FT                                          2841.5 :START DEPTH
STOP        .FT                                          6769.5 :STOP DEPTH
STEP        .FT                                             0.5 :STEP      
NULL        .                                           -999.25 :NULL      
COMP        .                      SPINNAKER EXPLORATION CO LLC :COMPANY   
WELL        .                               OCS G18941 ST00BP00 :WELL      
FLD         .                            HIGH ISLAND BLOCK 0235 :FIELD     
LOC         .                                                   :LOCATION  
CNTY        .                           HIGH ISLAND LARGE BLOCK :LOCATION  
STAT        .                                             TEXAS :STATE     
CTRY        .                                     UNITED STATES :COUNTRY   
SRVC        .                                                   :SERVICE COMPANY
DATE        .                             9/13/2023 11:20:02 AM :LOG DATE  
API         .                                    42708405540000 :API NUMBER
UWI         .                                    42708405540000 :UNIQUE WELL ID
XCOORD      .                                  1178439.61066162 :SURFACE X 
YCOORD      .                                  10526520.2311607 :SURFACE Y 
LAT         .                                         28.998365 :LATITUDE  
LON         .                                        -94.445565 :LONGITUDE 
ELEV        .FT                                              98 :ELEVATION VALUE
ELEV_TYPE   .                                                KB :ELEVATION REFERENCE TYPE
~Curve Information Section
#MNEM       .UNIT                                      API CODE :CURVE DESCRIPTION
#------------------------------------------------------------------------------
DEPT        .FT                                                 :DEPTH     
CNCF        .%                                                  :          
DCAL        .IN                                                 :          
DT24        .US/F                                               :          
GR          .GAPI                                               :          
GR_NORM     .GAPI                                               :GammaRay Normalized
M2R1        .OHMM                                               :          
M2R2        .OHMM                                               :          
M2R3        .OHMM                                               :          
M2R6        .OHMM                                               :          
M2R9        .OHMM                                               :          
M2RX        .OHMM                                               :          
PORZ        .%                                                  :          
RWAZ        .OHMM                                               :          
SPCH        .MV                                                 :          
TEN         .LB/F                                               :          
VSH_GR      .V/V                                                :Volume of Shale from GR
ZCOR        .G/CC                                               :          
~A        DEPTH           CNCF           DCAL           DT24             GR        GR_NORM           M2R1           M2R2           M2R3           M2R6           M2R9           M2RX           PORZ           RWAZ           SPCH            TEN         VSH_GR           ZCOR
# ...
      6201.5000         35.725          0.358        110.728         95.164       58.83353          0.802          0.709          0.669          0.657          0.657          0.683         23.842           0.05         -28.69        -47.872      0.5496497          0.028
      6202.0000          34.59          0.373        110.362         95.757       59.42435          0.805          0.712          0.672          0.661          0.662          0.687         23.303          0.048        -28.074        -27.789      0.5622203          0.012
      6202.5000         34.381           0.38        111.033         94.538       58.20318          0.802           0.71          0.671          0.659          0.661          0.684         23.214          0.048        -26.561          7.955      0.5362378          0.003
      6203.0000         34.927           0.38        112.111         93.011         56.674          0.787          0.697          0.659          0.648           0.65          0.671         23.762          0.049        -25.687         11.282       0.503702          0.013
      6203.5000         35.786          0.379        114.035         93.908       57.56881          0.765           0.68          0.645          0.634          0.635          0.653         24.314           0.05        -25.717        -17.591      0.5227406          0.025
      6204.0000          37.02          0.378        115.907         98.671       62.32963           0.75          0.671          0.638          0.627          0.627          0.642         24.048          0.048        -25.706        -40.194      0.6240346          0.027
      6204.5000          38.28          0.377        117.792        105.843       69.49945          0.741           0.67          0.639          0.627          0.627           0.64         22.869          0.043        -24.736        -42.623       0.776584          0.029
      6205.0000         38.377          0.376            120        111.635       75.28928          0.727          0.666          0.637          0.625          0.624          0.634         21.659          0.038        -21.853        -35.181      0.8997718           0.03
      6205.5000         38.143          0.371        120.905         114.13       77.78209          0.708          0.656           0.63          0.618          0.616          0.624         21.364          0.036        -17.439        -31.116      0.9528104          0.024
      6206.0000         39.047          0.361        120.527         113.87       77.51991            0.7          0.653          0.627          0.615          0.613          0.619         21.776          0.038        -13.839        -29.281      0.9472322           0.02
      6206.5000         39.946           0.35        118.437        111.321       74.96873          0.714          0.666          0.639          0.627          0.623          0.627         22.039          0.039        -12.971        -26.075      0.8929517          0.025
      6207.0000          38.76          0.344        116.964        107.912       71.55755          0.744          0.689           0.66          0.646          0.642          0.645         22.121          0.041        -14.204        -25.995      0.8203734           0.03
      6207.5000          36.49          0.341        116.342        107.087       70.73036           0.77          0.707          0.676          0.661          0.655          0.657         22.102          0.041        -15.982        -31.589      0.8027737          0.028
      6208.0000          34.66          0.338        116.195        108.453       72.09419           0.78          0.711          0.678          0.663          0.657          0.657          22.12          0.041        -17.472        -38.282      0.8317913          0.023
      6208.5000         33.919          0.336        116.201        108.364       72.00301          0.777          0.706          0.673          0.657          0.651           0.65         22.221          0.041         -18.96        -43.836      0.8298512          0.018
      6209.0000         34.113          0.335        114.227        106.707       70.34383          0.771          0.699          0.666          0.651          0.644          0.642         22.381          0.041        -20.676        -45.402      0.7945495          0.015
      6209.5000         34.982           0.33        112.699        107.432       71.06664          0.763          0.692           0.66          0.644          0.637          0.635         22.335          0.041        -22.141        -42.184      0.8099286          0.013
      6210.0000         35.671           0.32        112.431        110.374       74.00646          0.757          0.686          0.655          0.639          0.633           0.63         21.883          0.039        -22.829        -39.611      0.8724779          0.008
      6210.5000         36.191          0.313        113.184         111.88       75.51028          0.753          0.684          0.652          0.637          0.631          0.628         21.371          0.037        -22.366        -43.212      0.9044741          0.004
      6211.0000         36.758          0.316        115.095        111.301       74.92911           0.75          0.682           0.65          0.635          0.629          0.626         21.258          0.036        -20.623        -51.039      0.8921087          0.005
      6211.5000         37.055          0.323         117.14         110.93       74.55592          0.742          0.674          0.644          0.628          0.623          0.621         21.472          0.037        -18.325        -47.969      0.8841686          0.012
      6212.0000         37.065          0.325        119.521        110.244       73.86774           0.73          0.663          0.633          0.619          0.614          0.612         21.716          0.037        -16.355        -29.973      0.8695265          0.019
      6212.5000         37.228          0.322        120.585        107.774       71.39556           0.72          0.653          0.624           0.61          0.606          0.604         22.043          0.038        -14.913        -15.164      0.8169268          0.019
      6213.0000         37.569          0.325         119.98        105.168       68.78738          0.714          0.646          0.618          0.604            0.6            0.6         22.446          0.039        -14.314        -12.534      0.7614335          0.019
      6213.5000         38.597          0.349        120.065        105.388        69.0052          0.705           0.64          0.612          0.599          0.596          0.595         22.481          0.039        -14.616        -13.487      0.7660682          0.026
      6214.0000         40.641          0.388        120.279        108.568       72.18302          0.693          0.633          0.606          0.594          0.591          0.591         21.929          0.037        -14.613        -17.651      0.8336813          0.032
      6214.5000         41.661          0.424        121.318         113.48       77.09284          0.681          0.628          0.603          0.592          0.588          0.589         21.156          0.034        -13.916        -26.303      0.9381456          0.035
      6215.0000         40.376          0.454        122.603        117.818       81.42866          0.674          0.628          0.605          0.594           0.59          0.592         20.613          0.032         -14.09         -26.61              1          0.036
      6215.5000         40.038          0.499        121.856        117.961       81.56947          0.677          0.635          0.613          0.603          0.599            0.6         20.484          0.032        -15.245        -18.699              1          0.033
      6216.0000         41.938          0.569        120.108        114.766        78.3723          0.691          0.652          0.631           0.62          0.616          0.618         20.811          0.034        -15.983         -14.11      0.9653681          0.032
