#------------------------------------------------------------------------------
# Created by    : vladimir.rabinovich
# Created on    : 09/19/2023 17:19:44
#------------------------------------------------------------------------------
~Version Information Section
VERS.           2.0     :   CWLS log ASCII Standard - VERSION 2.0
WRAP.           NO      :   One line per depth step
~Well Information Section
#MNEM       .UNIT                                         VALUE :DESCRIPTION
#------------------------------------------------------------------------------
STRT        .FT                                            3520 :START DEPTH
STOP        .FT                                           13769 :STOP DEPTH
STEP        .FT                                             0.5 :STEP      
NULL        .                                           -999.25 :NULL      
COMP        .                           WILLIAMS EXPLORATION CO :COMPANY   
WELL        .                                          SL 73414 :WELL      
FLD         .                                           WILDCAT :FIELD     
LOC         .                                                   :LOCATION  
CNTY        .                           HIGH ISLAND LARGE BLOCK :LOCATION  
STAT        .                                             TEXAS :STATE     
CTRY        .                                     UNITED STATES :COUNTRY   
SRVC        .                                                   :SERVICE COMPANY
DATE        .                             9/13/2023 11:19:15 AM :LOG DATE  
API         .                                    42708301040000 :API NUMBER
UWI         .                                    42708301040000 :UNIQUE WELL ID
XCOORD      .                                  1272749.25589155 :SURFACE X 
YCOORD      .                                  10699068.0748216 :SURFACE Y 
LAT         .                                        29.4758188 :LATITUDE  
LON         .                                       -94.1558378 :LONGITUDE 
ELEV        .FT                                             106 :ELEVATION VALUE
ELEV_TYPE   .                                                KB :ELEVATION REFERENCE TYPE
~Curve Information Section
#MNEM       .UNIT                                      API CODE :CURVE DESCRIPTION
#------------------------------------------------------------------------------
DEPT        .FT                                                 :DEPTH     
ASFL        .OHMM                                               :          
CILD        .MMHO                                               :          
ILD         .OHMM                                               :          
SP          .MV                                                 :          
SP_NORM     .MV                                                 :SP Normalized
VSH_SP      .V/V                                                :Volume of Shale from SP
~A        DEPTH           ASFL           CILD            ILD             SP        SP_NORM         VSH_SP
# ...
     13058.0000          0.895        1343.02         0.8743       -52.2705       2.314842              1
     13058.5000         0.9211       1325.432         0.8549       -52.3884       2.174118              1
     13059.0000         0.9535       1303.422         0.8356       -54.2014      0.3289146              1
     13059.5000         0.9964       1281.115         0.8162       -59.2636      -4.793278       0.945025
     13060.0000         1.0108       1260.248         0.7969       -58.1475      -3.737171      0.9603308
     13060.5000         0.9741       1303.322         0.7775       -56.4709      -2.120564      0.9837599
     13061.0000         0.9374       1345.752         0.7582       -55.2109     -0.9205551              1
     13061.5000         0.8975       1384.504         0.7451        -54.132     0.09835052              1
     13062.0000         0.8441       1423.258           0.74       -53.3804       0.789959              1
     13062.5000         0.8231        1462.01         0.7349       -54.2361     -0.1257324              1
     13063.0000         0.8016       1500.762         0.7301       -55.6015      -1.551128      0.9920126
     13063.5000         0.8247       1525.703         0.7319       -55.1315      -1.141117      0.9979548
     13064.0000         0.8487       1488.441         0.7338       -54.6615     -0.7311096              1
     13064.5000         0.8724        1451.08         0.7356       -54.0328     -0.1624031              1
     13065.0000          0.896       1413.719         0.7374       -53.2316       0.578804              1
     13065.5000         0.9195       1382.418         0.7392       -52.1701       1.580311              1
     13066.0000         0.9358       1360.408          0.741       -50.9821       2.708317              1
     13066.5000         0.9375        1338.35         0.7428       -50.0842       3.546227              1
     13067.0000         0.9015       1316.439         0.7446        -48.782       4.788433              1
     13067.5000         0.8639       1370.594         0.7463       -52.7852      0.7252464              1
     13068.0000         0.8296       1419.432          0.748       -54.9653      -1.514851      0.9925384
     13068.5000         0.8105       1448.197         0.7497       -56.9173      -3.526844      0.9633791
     13069.0000         0.7914       1477.014         0.7515       -54.9133      -1.582832      0.9915531
     13069.5000         0.7979       1505.779         0.7532       -53.1771     0.09337234              1
     13070.0000         0.8109       1526.262         0.7549       -51.7509       1.459579              1
     13070.5000         0.8276       1519.777         0.7566       -50.1982        2.95229              1
     13071.0000         0.8394       1513.307         0.7583       -49.9378       3.152695              1
     13071.5000         0.8243       1506.984          0.753       -51.2028       1.827702              1
     13072.0000          0.807       1503.992         0.7392       -53.8815     -0.9109879              1
     13072.5000         0.7881       1516.014         0.7253       -53.3953     -0.4847832              1
     13073.0000         0.7692       1546.172         0.7115       -52.0287      0.8218231              1
     13073.5000         0.7503        1576.33         0.6977       -51.1333       1.657234              1
     13074.0000         0.7335       1606.486         0.6839       -50.9448        1.78574              1
     13074.5000         0.7234       1636.346           0.67       -53.6632     -0.9926491              1
     13075.0000         0.7133       1662.877         0.6562       -54.9355      -2.324944      0.9807979
     13075.5000         0.7033       1689.406         0.6424       -55.9897      -3.439137      0.9646502
     13076.0000         0.6932       1715.938         0.6286       -55.4291      -2.938526      0.9719054
     13076.5000          0.685       1742.469          0.615       -54.4767       -2.04612      0.9848388
     13077.0000         0.6793       1756.678         0.6016       -53.1225      -0.751915              1
     13077.5000         0.6735       1762.043         0.5882       -50.7613       1.549297              1
     13078.0000         0.6678       1737.648         0.5749       -49.6315       2.619102              1
     13078.5000         0.6735       1713.254         0.5615       -52.9836     -0.7929916              1
     13079.0000         0.6851        1688.91         0.5481       -53.7376      -1.606979      0.9912032
     13079.5000         0.6967       1664.516         0.5347       -53.3234      -1.252773      0.9963366
     13080.0000         0.7074       1640.121         0.5213        -53.569      -1.558369      0.9919077
     13080.5000         0.7156       1615.729         0.5083       -55.8508      -3.900158      0.9579687
     13081.0000         0.7238       1599.936         0.4991       -55.4899      -3.599251      0.9623297
     13081.5000         0.7153       1601.775         0.4898       -54.8599      -3.029247      0.9705906
     13082.0000         0.7036       1603.617         0.4806       -54.2287      -2.458035      0.9788691
     13082.5000          0.692       1621.789         0.4713       -53.6632       -1.95253      0.9861952
     13083.0000         0.6836       1645.736         0.4621       -54.1692       -2.51852      0.9779925
     13083.5000         0.6845       1669.732         0.4528       -55.0323      -3.441612      0.9646143
     13084.0000         0.6876       1693.729         0.4435       -55.0013      -3.470608      0.9641941
     13084.5000         0.6917       1680.836         0.4561       -54.5734      -3.102695      0.9695262
     13085.0000         0.6958       1666.305         0.4712        -54.468      -3.057289      0.9701842
     13085.5000         0.6999       1651.771         0.4863       -55.2258      -3.875084      0.9583321
     13086.0000         0.7039        1637.24         0.5014       -55.9835      -4.692776      0.9464815
     13086.5000          0.708       1622.732         0.5165       -55.1885      -3.957767      0.9571338
     13087.0000         0.7121       1609.641         0.5315         -55.64      -4.469261      0.9497209
     13087.5000         0.7162        1599.01         0.5466       -56.9744      -5.863651      0.9295123
     13088.0000         0.7196       1588.377         0.5559       -58.2021      -7.151344      0.9108501
     13088.5000         0.7222       1577.746         0.5626       -59.4174       -8.42664      0.8923675
     13089.0000          0.715       1574.143         0.5693       -59.8391      -8.908329      0.8853865
     13089.5000         0.7027       1598.141          0.576       -59.0082      -8.137424      0.8965591
     13090.0000         0.6904       1620.299         0.5827       -58.1748      -7.364017      0.9077679
     13090.5000         0.6782       1642.457         0.5869       -57.6577      -6.906906      0.9143927
     13091.0000          0.668       1664.615         0.5683       -57.1567        -6.4659      0.9207841
     13091.5000         0.6577       1686.824         0.5497       -56.8306      -6.199791      0.9246407
     13092.0000         0.6474       1708.982         0.5311       -56.8685      -6.297684      0.9232219
     13092.5000         0.6375       1739.338         0.5125       -56.6048      -6.093979      0.9261742
     13093.0000         0.6322       1757.672         0.5051       -55.7144      -5.263569      0.9382092
     13093.5000         0.6379       1745.076         0.5086       -54.9765      -4.585663      0.9480339
     13094.0000         0.6436       1732.482         0.5122       -53.9112      -3.580357      0.9626035
     13094.5000         0.6492       1719.887         0.5157       -55.3377      -5.066845      0.9410602
     13095.0000         0.6549       1707.293         0.5192       -55.4952       -5.28434      0.9379081
     13095.5000         0.6606       1694.699         0.5227       -55.4971      -5.346233      0.9370111
