#------------------------------------------------------------------------------
# Created by    : vladimir.rabinovich
# Created on    : 09/19/2023 17:20:33
#------------------------------------------------------------------------------
~Version Information Section
VERS.           2.0     :   CWLS log ASCII Standard - VERSION 2.0
WRAP.           NO      :   One line per depth step
~Well Information Section
#MNEM       .UNIT                                         VALUE :DESCRIPTION
#------------------------------------------------------------------------------
STRT        .FT                                             526 :START DEPTH
STOP        .FT                                            9568 :STOP DEPTH
STEP        .FT                                             0.5 :STEP      
NULL        .                                           -999.25 :NULL      
COMP        .                       BLUE DOLPHIN EXPLORATION CO :COMPANY   
WELL        .                                OCS 00713 ST00BP00 :WELL      
FLD         .                              GALVESTON BLOCK 0288 :FIELD     
LOC         .                                                   :LOCATION  
CNTY        .                             GALVESTON LARGE BLOCK :LOCATION  
STAT        .                                             TEXAS :STATE     
CTRY        .                                     UNITED STATES :COUNTRY   
SRVC        .                                                   :SERVICE COMPANY
DATE        .                             9/13/2023 11:19:25 AM :LOG DATE  
API         .                                    42706000630000 :API NUMBER
UWI         .                                    42706000630000 :UNIQUE WELL ID
XCOORD      .                                  1101981.32688909 :SURFACE X 
YCOORD      .                                  10481575.8265757 :SURFACE Y 
LAT         .                                          28.87198 :LATITUDE  
LON         .                                        -94.682732 :LONGITUDE 
ELEV        .FT                                              58 :ELEVATION VALUE
ELEV_TYPE   .                                                KB :ELEVATION REFERENCE TYPE
~Curve Information Section
#MNEM       .UNIT                                      API CODE :CURVE DESCRIPTION
#------------------------------------------------------------------------------
DEPT        .FT                                                 :DEPTH     
ASN         .OHMM                                               :          
CALI        .IN                                                 :          
DT          .US/F                                               :          
ILD         .OHMM                                               :          
SP          .MV                                                 :          
SP_NORM     .MV                                                 :SP Normalized
VSH_SP      .V/V                                                :Volume of Shale from SP
~A        DEPTH            ASN           CALI             DT            ILD             SP        SP_NORM         VSH_SP
# ...
      8934.5000          1.414        10.2682        88.8147         1.0619       -32.9429     -0.3093872              1
      8935.0000         1.4519           10.3          96.46         1.0472       -32.9105     -0.2697029              1
      8935.5000         1.4299        10.2506        99.1282         1.0293       -32.9288     -0.2807198              1
      8936.0000         1.4032        10.2015        96.3568              1       -32.9623     -0.3069344              1
      8936.5000         1.3584        10.1435        97.3396         0.9454       -32.3648      0.2978477              1
      8937.0000           1.26        10.0655       101.6482         0.8942       -31.9866      0.6833286              1
      8937.5000         1.2057         9.9785       101.1096         0.8769       -33.1595     -0.4822884              1
      8938.0000         1.1805         9.9256       101.2914         0.8702       -32.6957    -0.01120758              1
      8938.5000          1.172        10.0453       105.8848         0.8684        -32.322      0.3697777              1
      8939.0000         1.1719        10.1612       109.0668         0.8687       -31.8121      0.8869591              1
      8939.5000         1.1874        10.0501       108.0728         0.8671        -31.535       1.171341              1
      8940.0000         1.2076        10.1273       103.7126          0.871       -32.2792      0.4344215              1
      8940.5000         1.1977        10.1931       100.9659         0.9035        -32.792    -0.07109451              1
      8941.0000         1.1768        10.1864        95.2976         0.9217       -32.8916      -0.163414              1
      8941.5000         1.2186        10.1277        94.9655         0.9401       -33.6143       -0.87883              1
      8942.0000         1.2296        10.1074        98.5784         0.9628       -35.0687      -2.325943      0.9660015
      8942.5000          1.245        10.1996        95.2213         0.9836       -38.6169      -5.866863      0.8752086
      8943.0000         1.2757        10.2492        96.9268         0.9631       -43.7501      -10.99278      0.7437749
      8943.5000         1.3168        10.2639       106.9619         0.9683        -41.877      -9.112396      0.7919899
      8944.0000         1.3353        10.2475       105.8041         0.9788       -38.1802      -5.408314      0.8869663
      8944.5000          1.302        10.2092        97.5461         0.9872       -37.8846      -5.105434      0.8947325
      8945.0000         1.2211        10.1493        94.2587         0.9839       -37.3865      -4.600052       0.907691
      8945.5000         1.1838        10.0606        94.8572         0.9481       -36.6937      -3.899967      0.9256419
      8946.0000         1.1473         9.8537        92.1426         0.8832       -37.5677      -4.766685      0.9034183
      8946.5000         1.0984         9.6581        90.0422         0.8281        -41.976      -9.167706      0.7905716
      8947.0000         1.0463        10.1369        98.1833         0.7809        -44.385      -11.56942      0.7289892
      8947.5000         1.0065        10.4138       104.1188         0.7425       -43.4124      -10.58954      0.7541144
      8948.0000         1.0045        10.5823        93.8749         0.7203       -44.1284      -11.29825      0.7359422
      8948.5000         1.0234        10.4921        87.0083         0.6983       -50.1801      -17.34267      0.5809572
      8949.0000         1.0418        10.3924        87.2776         0.6879       -62.1215      -29.27679      0.2749542
      8949.5000          1.047        10.1806         91.631         0.6874        -67.115        -34.263      0.1471025
      8950.0000         1.0488         9.5106         93.076          0.694       -70.3109      -37.45162     0.06534302
      8950.5000         1.0446         9.5241        93.0536         0.6967       -69.6749      -36.80834     0.08183748
      8951.0000         1.0294         9.8567        92.6429         0.7048       -68.6302      -35.75636      0.1088112
      8951.5000         0.9708         9.8057        93.7471         0.7247       -65.8092      -32.92807      0.1813314
      8952.0000         0.9112         9.6472        95.1989         0.7198       -60.2393      -27.35089       0.324336
      8952.5000         0.8911         9.5273        99.3368         0.6919       -54.6198      -21.72411      0.4686125
      8953.0000         0.8844         9.5137        96.9088         0.6636       -49.1534      -16.25043      0.6089633
      8953.5000         0.9009         9.5102        90.0916         0.6401       -51.2607      -18.35045      0.5551167
      8954.0000         0.9393         9.4952         88.431         0.6164       -57.0063      -24.08876      0.4079804
      8954.5000          0.964         9.4724        92.7664          0.601       -62.8239      -29.89908       0.258998
      8955.0000         0.9642         9.4498        93.4037          0.595       -69.5331      -36.60099     0.08715399
      8955.5000         0.9638         9.4899         91.291         0.5907       -71.2892      -38.34982     0.04231242
      8956.0000         0.9599         9.7143        91.8419         0.6003       -72.0118      -39.06514     0.02397087
      8956.5000         0.9274          9.806        94.0387         0.6209       -72.0782      -39.12425     0.02245507
      8957.0000         0.8923         9.6554        97.6897         0.6361       -70.6115      -37.65027     0.06024943
      8957.5000         0.8853          9.579         102.42         0.6417       -67.5789      -34.61039      0.1381951
      8958.0000         0.9046         9.5897         98.704         0.6446       -60.1403      -27.16451      0.3291152
      8958.5000          0.927         9.6031        84.8832         0.6429       -54.9035      -21.92042      0.4635789
      8959.0000          0.997         9.6276        83.6333          0.653       -57.8438      -24.85344      0.3883733
      8959.5000         1.0452         9.6527        93.3723         0.6643       -64.0486      -31.05096      0.2294627
      8960.0000         1.0327         9.6675        96.8438         0.6823        -67.741      -34.73607      0.1349726
      8960.5000         0.9994         9.6913        99.9382         0.7088       -67.0137      -34.00149      0.1538079
      8961.0000         0.9859         9.7497       103.1449         0.7321       -63.9451      -30.92561      0.2326768
      8961.5000         1.0222         9.7589       100.3915          0.773        -54.854      -21.82722      0.4659686
      8962.0000         1.1044         9.6718        93.2018         0.8242       -49.1692      -16.13514      0.6119194
      8962.5000         1.1898         9.6214        91.3751         0.8793        -47.645      -14.60366      0.6511882
      8963.0000         1.2591         9.6543        95.1136         0.9468       -46.9313      -13.88268      0.6696749
      8963.5000         1.3096         9.6904       100.2367         0.9566        -45.191       -12.1351      0.7144847
      8964.0000         1.3951         9.7337         97.968         0.9455       -42.3588      -9.295612       0.787292
      8964.5000         1.4951         9.7936        86.0479         0.9495       -41.2159      -8.145432      0.8167838
      8965.0000         1.5654          9.828         80.182         0.9021       -43.1422      -10.06445      0.7675782
      8965.5000         1.5711         9.8173         75.537         0.8966       -48.0908      -15.00577      0.6408777
      8966.0000         1.5352         9.7659        75.6896         0.8925       -51.7606      -18.66829       0.546967
      8966.5000         1.4645         9.7943        88.1302         0.8972       -53.8566        -20.757      0.4934103
      8967.0000         1.4098         9.9404        99.3234         0.9114       -53.9557      -20.84882       0.491056
      8967.5000         1.3757        10.1576       102.4155         0.9323       -49.3606      -16.24643      0.6090658
