#------------------------------------------------------------------------------
# Created by    : vladimir.rabinovich
# Created on    : 09/19/2023 17:22:28
#------------------------------------------------------------------------------
~Version Information Section
VERS.           2.0     :   CWLS log ASCII Standard - VERSION 2.0
WRAP.           NO      :   One line per depth step
~Well Information Section
#MNEM       .UNIT                                         VALUE :DESCRIPTION
#------------------------------------------------------------------------------
STRT        .FT                                            2000 :START DEPTH
STOP        .FT                                            7372 :STOP DEPTH
STEP        .FT                                             0.5 :STEP      
NULL        .                                           -999.25 :NULL      
COMP        .                       CORPUS CHRISTI OIL & GAS CO :COMPANY   
WELL        .                                ST TR 00596-L SE/4 :WELL      
FLD         .                                           WILDCAT :FIELD     
LOC         .                                                   :LOCATION  
CNTY        .                      MATAGORDA ISLAND LARGE BLOCK :LOCATION  
STAT        .                                             TEXAS :STATE     
CTRY        .                                     UNITED STATES :COUNTRY   
SRVC        .                                                   :SERVICE COMPANY
DATE        .                             9/13/2023 11:19:13 AM :LOG DATE  
API         .                                    42703300520000 :API NUMBER
UWI         .                                    42703300520000 :UNIQUE WELL ID
XCOORD      .                                  480173.649028781 :SURFACE X 
YCOORD      .                                  10231220.1013933 :SURFACE Y 
LAT         .                                        28.1462983 :LATITUDE  
LON         .                                       -96.6002451 :LONGITUDE 
ELEV        .FT                                              82 :ELEVATION VALUE
ELEV_TYPE   .                                                GL :ELEVATION REFERENCE TYPE
~Curve Information Section
#MNEM       .UNIT                                      API CODE :CURVE DESCRIPTION
#------------------------------------------------------------------------------
DEPT        .FT                                                 :DEPTH     
CILD        .MMHO                                               :          
ILD         .OHMM                                               :          
SN          .OHMM                                               :          
SP          .MV                                                 :          
SP_NORM     .MV                                                 :SP Normalized
VSH_SP      .V/V                                                :Volume of Shale from SP
~A        DEPTH           CILD            ILD             SN             SP        SP_NORM         VSH_SP
# ...
      6598.0000       2161.404         0.3947         0.9141       -77.8764      -56.18966     0.09525149
      6598.5000       2209.654         0.4147         0.9101       -74.4719      -52.78516       0.151063
      6599.0000         2288.7         0.3947         0.8781       -71.0675      -49.38075      0.2068729
      6599.5000       2254.504         0.3946         0.8621        -67.663      -45.97626      0.2626843
      6600.0000       2220.308         0.3746         0.8661       -64.2585      -42.57175      0.3184958
      6600.5000       2186.111         0.3746         0.8838       -60.8541      -39.16735      0.3743057
      6601.0000       2151.915         0.3746         0.8901       -61.0616      -39.37486       0.370904
      6601.5000       2117.719         0.3746         1.0261       -61.7203      -40.03355      0.3601057
      6602.0000       2083.522         0.3745         1.1622       -68.8702      -47.18346      0.2428942
      6602.5000       2049.326         0.3745         1.2982       -68.0697      -46.38296      0.2560171
      6603.0000       2021.008         0.3745         1.4895       -67.7548      -46.06805      0.2611794
      6603.5000       2003.034         0.3944         1.5095       -66.8692      -45.18246      0.2756974
      6604.0000       1969.556         0.3944         1.5214       -65.6682      -43.98145       0.295386
      6604.5000       1936.078         0.3944         1.5254       -69.4726      -47.78586      0.2330187
      6605.0000       1887.165         0.3854           0.95       -66.8949      -45.20815      0.2752762
      6605.5000       1889.914         0.3763          0.958       -64.3172      -42.63046      0.3175335
      6606.0000       1991.071         0.3743          0.962       -61.7394      -40.05265      0.3597926
      6606.5000       1991.075         0.3743           0.97       -59.1617      -37.47495        0.40205
      6607.0000       2025.043         0.3543           0.97       -52.2558      -30.56905      0.5152615
      6607.5000       2139.268         0.3143           0.95       -59.1842      -37.49745      0.4016811
      6608.0000       2253.493         0.2943         0.9251       -66.1127      -44.42596      0.2880991
      6608.5000       2367.718         0.2543         0.9002       -70.8769      -49.19016      0.2099975
      6609.0000       2481.943         0.2543         0.8753       -72.6792      -50.99245      0.1804516
      6609.5000       2596.167         0.2343         0.8504       -73.0869      -51.40015       0.173768
      6610.0000       2710.392         0.2143         0.8255       -80.8886      -59.20186     0.04587117
      6610.5000       2824.617         0.2017         0.7941       -80.2883      -58.60155     0.05571222
      6611.0000       2938.842          0.189         0.7973       -80.0885      -58.40176      0.0589876
      6611.5000       3092.021         0.1764         0.8021        -79.288      -57.60126     0.07211053
      6612.0000       2848.606         0.1742         0.8061       -79.0882      -57.40146     0.07538592
      6612.5000       2605.191         0.1542          0.842       -75.4849      -53.79816      0.1344564
      6613.0000       2361.777         0.4234          0.854       -66.8344      -45.14765       0.276268
      6613.5000       2118.362         0.4721          0.866       -58.1839      -36.49715      0.4180794
      6614.0000       1840.146         0.5434          0.902       -49.5334      -27.84665      0.5598909
      6614.5000       1697.144         0.5892         0.9619       -36.4416      -14.75485      0.7745106
      6615.0000       1554.142         0.6434         0.9899       -34.2276      -12.54085      0.8108057
      6615.5000       1411.139         0.7086         1.0138       -32.0135      -10.32675      0.8471024
      6616.0000       1207.954         0.8278         1.0235       -29.7995      -8.112753      0.8833975
      6616.5000       1203.959         0.8117         1.0418       -27.5855      -5.898754      0.9196926
      6617.0000       1195.972         0.7479         1.0202       -25.3715      -3.684753      0.9559876
      6617.5000       1183.996         0.6934         0.9986       -22.6266     -0.9398537              1
      6618.0000       1547.308         0.6463         0.9339       -22.6267     -0.9399529              1
      6618.5000       1652.435         0.6052         0.9116       -54.2119      -32.52515      0.5074195
      6619.0000       1757.561          0.569         0.8893        -67.802      -46.11526      0.2950741
      6619.5000       1862.687         0.5369         0.8671       -82.2984      -60.61166     0.06856787
      6620.0000       2005.197         0.4987         0.8448       -82.8991      -61.21236     0.05918193
      6620.5000       2133.069         0.3736         0.8225       -83.0998      -61.41306     0.05604601
      6621.0000       2337.108         0.3554         0.8002       -84.3757      -62.68896     0.03611004
      6621.5000       2541.147         0.3536          0.778       -84.5023      -62.81555       0.034132
      6622.0000       2745.186         0.2986         0.7557       -85.0471      -63.36035     0.02561951
      6622.5000       3024.203         0.2936           0.73       -85.1039      -63.41715     0.02473199
      6623.0000       3012.215         0.2137          0.726       -87.1072      -65.42046              0
      6623.5000        3052.18         0.1937         0.7141       -86.9304      -65.24365              0
      6624.0000       3169.612         0.1537         0.6781       -86.7071      -65.02036              0
      6624.5000       3287.043         0.1536         0.6768       -86.5073      -64.82056    0.002803802
      6625.0000       3439.812         0.1336         0.6755       -86.1073      -64.42056    0.009053826
      6625.5000       3439.815         0.1536         0.6742       -85.3067      -63.61996     0.02156317
      6626.0000       3439.817         0.1536         0.6621       -84.7063      -63.01955     0.03094447
      6626.5000       3430.503         0.1735         0.6661        -84.106      -62.41926     0.04032409
      6627.0000       3427.839         0.1935         0.6661       -82.9049      -61.21815     0.05909133
      6627.5000        3006.04         0.2134         0.6701       -82.7051      -61.01836     0.06221318
      6628.0000       2584.241         0.2534          0.686       -80.9036      -59.21686      0.0903616
      6628.5000       1999.282         0.2733          0.702        -74.939      -53.25226      0.1835585
      6629.0000       1979.494         0.3332          0.738       -68.9744      -47.28766      0.2767553
      6629.5000       1975.316         0.3732         0.7699       -63.0098      -41.32305      0.3699523
      6630.0000       1890.431         0.4131         0.8339       -57.0453      -35.35855      0.4631476
      6630.5000       1787.519          0.453         0.8485       -49.0641      -27.37735      0.5878539
      6631.0000       1774.298          0.453         0.8778        -50.466      -28.77925      0.5659492
      6631.5000        1771.54          0.453         0.8858       -52.3333      -30.64655      0.5367726
      6632.0000       1801.718          0.453         0.8938       -54.2006      -32.51385       0.507596
      6632.5000       1831.895         0.4529         0.9018       -56.0679      -34.38116      0.4784194
      6633.0000       1862.073         0.4329         0.9257       -57.9352      -36.24845      0.4492429
      6633.5000       1892.251         0.4329         0.9297       -59.8025      -38.11575      0.4200664
      6634.0000       1923.412         0.4129         0.9297       -61.6698      -39.98306      0.3908898
      6634.5000       1907.433         0.4129         0.9377       -63.0847      -41.39796      0.3687819
      6635.0000       1856.583         0.4728         0.9417       -52.3886      -30.70185      0.5359086
      6635.5000       1805.733         0.4778         0.9457       -41.6925      -20.00575      0.7030351
