#------------------------------------------------------------------------------
# Created by    : vladimir.rabinovich
# Created on    : 09/19/2023 17:22:45
#------------------------------------------------------------------------------
~Version Information Section
VERS.           2.0     :   CWLS log ASCII Standard - VERSION 2.0
WRAP.           NO      :   One line per depth step
~Well Information Section
#MNEM       .UNIT                                         VALUE :DESCRIPTION
#------------------------------------------------------------------------------
STRT        .FT                                            3370 :START DEPTH
STOP        .FT                                           10136 :STOP DEPTH
STEP        .FT                                             0.5 :STEP      
NULL        .                                           -999.25 :NULL      
COMP        .                                  W&T OFFSHORE INC :COMPANY   
WELL        .                               OCS G04565 ST00BP00 :WELL      
FLD         .                              GALVESTON BLOCK 0303 :FIELD     
LOC         .                                                   :LOCATION  
CNTY        .                             GALVESTON LARGE BLOCK :LOCATION  
STAT        .                                             TEXAS :STATE     
CTRY        .                                     UNITED STATES :COUNTRY   
SRVC        .                                                   :SERVICE COMPANY
DATE        .                             9/13/2023 11:19:27 AM :LOG DATE  
API         .                                    42706401000000 :API NUMBER
UWI         .                                    42706401000000 :UNIQUE WELL ID
XCOORD      .                                  988505.563749319 :SURFACE X 
YCOORD      .                                  10486369.8338556 :SURFACE Y 
LAT         .                                        28.8802688 :LATITUDE  
LON         .                                       -95.0374578 :LONGITUDE 
ELEV        .FT                                              93 :ELEVATION VALUE
ELEV_TYPE   .                                                KB :ELEVATION REFERENCE TYPE
~Curve Information Section
#MNEM       .UNIT                                      API CODE :CURVE DESCRIPTION
#------------------------------------------------------------------------------
DEPT        .FT                                                 :DEPTH     
DPHI        .DEC                                                :          
DRHO        .G/C3                                               :          
DT          .US/F                                               :          
GR          .GAPI                                               :          
GR_1        .GAPI                                               :          
GR_NORM     .GAPI                                               :GammaRay Normalized
ILD         .OHMM                                               :          
NPHI        .DEC                                                :          
RHOB        .G/C3                                               :          
SP          .MV                                                 :          
SP_NORM     .MV                                                 :SP Normalized
VSH_GR      .V/V                                                :Volume of Shale from GR
VSH_SP      .V/V                                                :Volume of Shale from SP
~A        DEPTH           DPHI           DRHO             DT             GR           GR_1        GR_NORM            ILD           NPHI           RHOB             SP        SP_NORM         VSH_GR         VSH_SP
# ...
      9678.0000        -999.25        -999.25       119.2599        -999.25        60.0125       67.18048         0.3748        -999.25        -999.25       -52.6511      -3.849415      0.7272443      0.9450083
      9678.5000        -999.25        -999.25       120.2769        -999.25        59.3427       66.33684         0.3788        -999.25        -999.25       -53.0335      -4.238907      0.7092944      0.9394442
      9679.0000        -999.25        -999.25       120.9623        -999.25          58.02       64.67706         0.3867        -999.25        -999.25       -53.1876      -4.400097      0.6739799      0.9371415
      9679.5000        -999.25        -999.25         120.33        -999.25        56.7219       63.04803         0.3941        -999.25        -999.25       -52.8356      -4.055191      0.6393197      0.9420687
      9680.0000        -999.25        -999.25       118.0417        -999.25        55.2201       61.16438         0.3981        -999.25        -999.25       -52.6585      -3.885181      0.5992421      0.9444974
      9680.5000        -999.25        -999.25       116.9076        -999.25        52.7981       58.13048         0.3891        -999.25        -999.25       -52.7952      -4.028973       0.534691      0.9424433
      9681.0000        -999.25        -999.25       116.6434        -999.25        51.5872       56.61045         0.3794        -999.25        -999.25       -53.2916      -4.532463      0.5023499      0.9352505
      9681.5000        -999.25        -999.25       117.8282        -999.25        51.0289       55.90617         0.3809        -999.25        -999.25       -54.0269      -5.274857      0.4873654      0.9246449
      9682.0000        -999.25        -999.25       118.7563        -999.25        54.1502        59.8014          0.392        -999.25        -999.25       -54.3146      -5.569649      0.5702425      0.9204336
      9682.5000        -999.25        -999.25       119.4669        -999.25        60.0493       67.16888         0.3992        -999.25        -999.25       -54.3622       -5.62434      0.7269974      0.9196523
      9683.0000        -999.25        -999.25       119.5509        -999.25        63.4688       71.43684         0.3958        -999.25        -999.25       -54.1163      -5.385529      0.8178052      0.9230639
      9683.5000        -999.25        -999.25       119.3179        -999.25          64.17       72.30694         0.3872        -999.25        -999.25       -54.2565      -5.532822      0.8363178      0.9209597
      9684.0000        -999.25        -999.25         118.86        -999.25        64.1877       72.32266         0.3844        -999.25        -999.25        -54.457      -5.740414      0.8366524      0.9179941
      9684.5000        -999.25        -999.25       118.1652        -999.25        63.6198       71.60638         0.3877        -999.25        -999.25       -54.3367      -5.627205      0.8214124      0.9196113
      9685.0000        -999.25        -999.25       117.3433        -999.25        62.3707       70.03862         0.4023        -999.25        -999.25        -53.425      -4.722595      0.7880557      0.9325343
      9685.5000        -999.25        -999.25        116.109        -999.25         61.183       68.54758         0.4262        -999.25        -999.25       -52.0061      -3.310787      0.7563316      0.9527031
      9686.0000        -999.25        -999.25       114.3417        -999.25        60.5082       67.69769         0.4558        -999.25        -999.25       -50.4638      -1.775578      0.7382486      0.9746346
      9686.5000        -999.25        -999.25        112.636        -999.25        61.0481       68.36617         0.4801        -999.25        -999.25       -49.2289     -0.5477715      0.7524716      0.9921747
      9687.0000        -999.25        -999.25       110.9254        -999.25        62.2849       69.90576         0.4958        -999.25        -999.25       -48.1412      0.5328369       0.785229              1
      9687.5000        -999.25        -999.25       109.5122        -999.25        63.0541       70.86086          0.502        -999.25        -999.25       -47.5394       1.127548      0.8055501              1
      9688.0000        -999.25        -999.25       109.1167        -999.25        63.4038       71.29158         0.5053        -999.25        -999.25       -46.9473       1.712555      0.8147145              1
      9688.5000        -999.25        -999.25       108.9452        -999.25        64.5963        72.7758         0.5057        -999.25        -999.25        -46.725       1.927765      0.8462937              1
      9689.0000        -999.25        -999.25       109.3197        -999.25        65.8711       74.36291         0.5051        -999.25        -999.25       -46.6933       1.952374      0.8800619              1
      9689.5000        -999.25        -999.25       109.6283        -999.25        64.7583        72.9655         0.4991        -999.25        -999.25       -46.8849       1.753681      0.8503298              1
      9690.0000        -999.25        -999.25       109.9362        -999.25        62.9302       70.67397         0.4931        -999.25        -999.25       -47.0245       1.606987      0.8015739              1
      9690.5000        -999.25        -999.25       110.6847        -999.25        61.6726       69.09557          0.489        -999.25        -999.25       -47.5072       1.117199      0.7679909              1
      9691.0000        -999.25        -999.25       111.1969        -999.25        61.3745       68.71655          0.487        -999.25        -999.25       -48.3087      0.3086052      0.7599265              1
      9691.5000        -999.25        -999.25       111.4366        -999.25        62.1032       69.62103         0.4874        -999.25        -999.25        -49.205     -0.5947876      0.7791709      0.9915031
      9692.0000        -999.25        -999.25        111.436        -999.25        63.3277       71.14525         0.4878        -999.25        -999.25       -49.8694      -1.266277       0.811601      0.9819103
      9692.5000        -999.25        -999.25       111.1929        -999.25        63.9964       71.97472         0.4881        -999.25        -999.25        -50.324       -1.72797      0.8292493      0.9753147
      9693.0000        -999.25        -999.25       110.9802        -999.25        63.3167        71.1187         0.4873        -999.25        -999.25       -50.2443      -1.655361      0.8110361       0.976352
      9693.5000        -999.25        -999.25       110.9194        -999.25        62.8876       70.57593         0.4837        -999.25        -999.25       -50.2397      -1.657852      0.7994878      0.9763164
      9694.0000        -999.25        -999.25       110.8696        -999.25        63.9755       71.92938         0.4829        -999.25        -999.25       -50.5163      -1.941544      0.8282847      0.9722636
      9694.5000        -999.25        -999.25       110.8483        -999.25        65.3914       73.69286         0.4842        -999.25        -999.25       -51.1006      -2.532936      0.8658056      0.9638152
      9695.0000        -999.25        -999.25       110.8406        -999.25         64.913       73.08846         0.4863        -999.25        -999.25         -51.17      -2.609425       0.852946      0.9627225
      9695.5000        -999.25        -999.25       110.8427        -999.25        62.4689       70.02693         0.4883        -999.25        -999.25       -50.7638       -2.21032       0.787807       0.968424
      9696.0000        -999.25        -999.25       110.8865        -999.25        61.4677       68.76904         0.4888        -999.25        -999.25       -50.0681      -1.521709      0.7610433      0.9782613
      9696.5000        -999.25        -999.25       110.6984        -999.25        64.7019       72.80537         0.4914        -999.25        -999.25       -49.3135     -0.7742004      0.8469229        0.98894
