#------------------------------------------------------------------------------
# Created by    : vladimir.rabinovich
# Created on    : 09/19/2023 17:21:44
#------------------------------------------------------------------------------
~Version Information Section
VERS.           2.0     :   CWLS log ASCII Standard - VERSION 2.0
WRAP.           NO      :   One line per depth step
~Well Information Section
#MNEM       .UNIT                                         VALUE :DESCRIPTION
#------------------------------------------------------------------------------
STRT        .FT                                            3434 :START DEPTH
STOP        .FT                                            9802 :STOP DEPTH
STEP        .FT                                             0.5 :STEP      
NULL        .                                           -999.25 :NULL      
COMP        .                                  UMC PETROLEUM CO :COMPANY   
WELL        .                               OCS G11352 ST00BP00 :WELL      
FLD         .                            HIGH ISLAND BLOCK 0093 :FIELD     
LOC         .                                                   :LOCATION  
CNTY        .                           HIGH ISLAND LARGE BLOCK :LOCATION  
STAT        .                                             TEXAS :STATE     
CTRY        .                                     UNITED STATES :COUNTRY   
SRVC        .                                                   :SERVICE COMPANY
DATE        .                             9/13/2023 11:19:57 AM :LOG DATE  
API         .                                    42708403880000 :API NUMBER
UWI         .                                    42708403880000 :UNIQUE WELL ID
XCOORD      .                                  1243413.75648782 :SURFACE X 
YCOORD      .                                  10663707.7269925 :SURFACE Y 
LAT         .                                         29.377731 :LATITUDE  
LON         .                                        -94.246854 :LONGITUDE 
ELEV        .FT                                              85 :ELEVATION VALUE
ELEV_TYPE   .                                                KB :ELEVATION REFERENCE TYPE
~Curve Information Section
#MNEM       .UNIT                                      API CODE :CURVE DESCRIPTION
#------------------------------------------------------------------------------
DEPT        .FT                                                 :DEPTH     
CALI        .IN                                                 :          
CALI_1      .IN                                                 :          
DPHI        .%                                                  :          
DRHO        .G/C3                                               :          
DT          .US/F                                               :          
GR          .GAPI                                               :          
GR_1        .GAPI                                               :          
GR_NORM     .GAPI                                               :GammaRay Normalized
ILD         .OHMM                                               :          
ILM         .OHMM                                               :          
NPHI        .%                                                  :          
RFOC        .OHMM                                               :          
SP          .MV                                                 :          
SP_NORM     .MV                                                 :SP Normalized
VSH_GR      .V/V                                                :Volume of Shale from GR
VSH_SP      .V/V                                                :Volume of Shale from SP
~A        DEPTH           CALI         CALI_1           DPHI           DRHO             DT             GR           GR_1        GR_NORM            ILD            ILM           NPHI           RFOC             SP        SP_NORM         VSH_GR         VSH_SP
# ...
      3914.0000        -999.25        15.7831        -999.25        -999.25        95.7349        28.1431        -999.25       56.83078         0.7505          0.948        -999.25         1.2205       -54.0939      -11.46708      0.5070378      0.7915076
      3914.5000        -999.25         15.783        -999.25        -999.25       106.0475        32.7439        -999.25       65.32534          0.655         0.8192        -999.25          0.909       -54.7225      -12.09826      0.6877732      0.7800317
      3915.0000        -999.25        15.7829        -999.25        -999.25       119.3295        36.6662        -999.25       72.56676         0.5931         0.7232        -999.25         0.7311       -55.2596      -12.63794      0.8418459      0.7702193
      3915.5000        -999.25        15.7829        -999.25        -999.25       131.7788        39.2823        -999.25       77.39571         0.5729         0.6609        -999.25         0.6752       -55.6282      -13.00911      0.9445897      0.7634708
      3916.0000        -999.25        15.7828        -999.25        -999.25       136.1277        38.5977        -999.25       76.12854         0.5777         0.6188        -999.25         0.7362       -55.8193      -13.20278      0.9176285      0.7599494
      3916.5000        -999.25        15.7827        -999.25        -999.25       135.0945         36.218        -999.25       71.73063         0.5947         0.6034        -999.25         0.8135       -55.1277      -12.51376      0.8240559      0.7724771
      3917.0000        -999.25        15.7826        -999.25        -999.25       129.4817        34.3807        -999.25        68.3345           0.62           0.62        -999.25         0.8621       -54.0203      -11.40893      0.7517978      0.7925649
      3917.5000        -999.25        15.7825        -999.25        -999.25       125.0778        32.8615        -999.25       65.52585         0.6446         0.6607        -999.25         0.8952       -53.0149       -10.4061      0.6920393      0.8107982
      3918.0000        -999.25        15.7824        -999.25        -999.25       122.2701        32.7712        -999.25        65.3563         0.6671         0.7011        -999.25         0.9111       -52.2829      -9.676678      0.6884319      0.8240604
      3918.5000        -999.25        15.7823        -999.25        -999.25       119.9791        33.2738        -999.25       66.28179         0.6838         0.7286        -999.25         0.9156       -53.1201      -10.51645      0.7081232      0.8087918
      3919.0000        -999.25        15.7822        -999.25        -999.25       117.2455        33.7291        -999.25       67.11993         0.6715         0.7311        -999.25         0.9156       -54.9625      -12.36143      0.7259559      0.7752468
      3919.5000        -999.25        15.7822        -999.25        -999.25       114.3688         34.152        -999.25       67.89821         0.6145         0.7028        -999.25          0.909       -57.4684       -14.8699      0.7425151      0.7296383
      3920.0000        -999.25        15.7821        -999.25        -999.25       111.5072        33.7877        -999.25       67.22258         0.5345         0.6539        -999.25         0.8813        -60.732      -18.13607        0.72814      0.6702533
      3920.5000        -999.25         15.782        -999.25        -999.25       109.8645         32.214        -999.25        64.3133         0.4808         0.6023        -999.25         0.8338       -63.9932      -21.39985      0.6662405      0.6109119
      3921.0000        -999.25        15.7819        -999.25        -999.25       110.6245        30.8527        -999.25        61.7963         0.4339         0.5524        -999.25          0.798       -68.7573      -26.16652      0.6126873       0.524245
      3921.5000        -999.25        15.7818        -999.25        -999.25       114.7274         29.684        -999.25       59.63502         0.3975         0.5082        -999.25         0.7823       -73.6899       -31.1017      0.5667026      0.4345146
      3922.0000        -999.25        15.7817        -999.25        -999.25       119.2618        28.2583        -999.25       56.99909         0.3679         0.4638        -999.25         0.7731       -77.6543      -35.06866      0.5106189      0.3623879
      3922.5000        -999.25        15.7816        -999.25        -999.25       123.4275        26.4593        -999.25       53.67368         0.3458          0.435        -999.25         0.7647       -80.0228      -37.43974      0.4398654      0.3192775
      3923.0000        -999.25        15.7816        -999.25        -999.25       127.5931        24.8387        -999.25       50.67777         0.3373         0.4306        -999.25         0.7605       -81.3705      -38.79002      0.3761228       0.294727
      3923.5000        -999.25        15.7815        -999.25        -999.25       130.3994        23.9803        -999.25       49.08959           0.34         0.4412        -999.25         0.7677        -81.446      -38.86809      0.3423317      0.2933075
      3924.0000        -999.25        15.7814        -999.25        -999.25       132.4861        25.0541        -999.25       51.07005         0.3568         0.4541        -999.25         0.7956       -80.3832      -37.80787      0.3844691      0.3125843
      3924.5000        -999.25        15.7813        -999.25        -999.25       132.2053        26.5522        -999.25       53.83415         0.3855         0.4838        -999.25         0.8414       -77.7856      -35.21284      0.4432798      0.3597666
      3925.0000        -999.25        15.7812        -999.25        -999.25       125.6395        28.4849        -999.25       57.40092         0.4346         0.5311        -999.25         0.8984       -74.2297      -31.65951      0.5191684      0.4243725
      3925.5000        -999.25        15.7824        -999.25        -999.25       117.1075        30.6404        -999.25       61.37921         0.4944         0.6046        -999.25         0.9276       -70.8175      -28.24988      0.6038129      0.4863658
      3926.0000        -999.25        15.7837        -999.25        -999.25        109.679        32.8504        -999.25       65.45811         0.5626         0.6502        -999.25         0.9127       -67.1726      -24.60756      0.6905982      0.5525898
      3926.5000        -999.25        15.7853        -999.25        -999.25       106.2794        34.7942        -999.25        69.0454         0.6235         0.6911        -999.25          0.884       -63.0151      -20.45263      0.7669235       0.628134
      3927.0000        -999.25        15.7869        -999.25        -999.25       110.4213        35.6027        -999.25       70.53585         0.6917         0.7422        -999.25         0.8597       -59.8629      -17.30301      0.7986351      0.6853998
      3927.5000        -999.25        15.7885        -999.25        -999.25       116.4705        36.3047        -999.25       71.82963         0.7914         0.7894        -999.25         0.8467       -57.1241      -14.56678      0.8261623      0.7351494
      3928.0000        -999.25        15.7901        -999.25        -999.25       121.4763        37.4066        -999.25       73.86198         0.8714         0.8128        -999.25         0.8417       -56.0576      -13.50285      0.8694039      0.7544936
      3928.5000        -999.25        15.7917        -999.25        -999.25       123.7448        38.7574        -999.25       76.35403         0.9096         0.8179        -999.25         0.8648       -55.7744      -13.22223      0.9224263      0.7595958
      3929.0000        -999.25        15.7933        -999.25        -999.25         119.49        39.2158        -999.25       77.19788         0.9365         0.8199        -999.25         0.8984       -56.2346      -13.68501      0.9403803      0.7511817
      3929.5000        -999.25        15.7949        -999.25        -999.25       114.4391        38.9202        -999.25       76.64915         0.9411         0.8191        -999.25         0.9113       -57.1607      -14.61368      0.9287054      0.7342967
