#------------------------------------------------------------------------------
# Created by    : vladimir.rabinovich
# Created on    : 09/19/2023 17:21:45
#------------------------------------------------------------------------------
~Version Information Section
VERS.           2.0     :   CWLS log ASCII Standard - VERSION 2.0
WRAP.           NO      :   One line per depth step
~Well Information Section
#MNEM       .UNIT                                         VALUE :DESCRIPTION
#------------------------------------------------------------------------------
STRT        .FT                                            4296 :START DEPTH
STOP        .FT                                         10848.5 :STOP DEPTH
STEP        .FT                                             0.5 :STEP      
NULL        .                                           -999.25 :NULL      
COMP        .                                 CHEVRON U S A INC :COMPANY   
WELL        .                               OCS G07271 ST00BP00 :WELL      
FLD         .                                           WILDCAT :FIELD     
LOC         .                                                   :LOCATION  
CNTY        .                           HIGH ISLAND LARGE BLOCK :LOCATION  
STAT        .                                             TEXAS :STATE     
CTRY        .                                     UNITED STATES :COUNTRY   
SRVC        .                                                   :SERVICE COMPANY
DATE        .                             9/13/2023 11:19:59 AM :LOG DATE  
API         .                                    42708403180000 :API NUMBER
UWI         .                                    42708403180000 :UNIQUE WELL ID
XCOORD      .                                  1325118.04890174 :SURFACE X 
YCOORD      .                                  10672078.9744079 :SURFACE Y 
LAT         .                                          29.40291 :LATITUDE  
LON         .                                        -93.990507 :LONGITUDE 
ELEV        .FT                                              89 :ELEVATION VALUE
ELEV_TYPE   .                                                KB :ELEVATION REFERENCE TYPE
~Curve Information Section
#MNEM       .UNIT                                      API CODE :CURVE DESCRIPTION
#------------------------------------------------------------------------------
DEPT        .FT                                                 :DEPTH     
CALI        .IN                                                 :          
DRHO        .G/C3                                               :          
DTLN        .US/F                                               :          
GR          .GAPI                                               :          
GR_1        .GAPI                                               :          
GR_NORM     .GAPI                                               :GammaRay Normalized
ILD         .OHMM                                               :          
ILM         .OHMM                                               :          
NPHI        .%                                                  :          
RHOB        .G/C3                                               :          
SFL         .OHMM                                               :          
SP          .MV                                                 :          
SP_NORM     .MV                                                 :SP Normalized
VSH_GR      .V/V                                                :Volume of Shale from GR
VSH_SP      .V/V                                                :Volume of Shale from SP
~A        DEPTH           CALI           DRHO           DTLN             GR           GR_1        GR_NORM            ILD            ILM           NPHI           RHOB            SFL             SP        SP_NORM         VSH_GR         VSH_SP
# ...
      7475.0000        15.2325        -0.0232       100.0858        26.9394        30.2076       38.43572         0.2601         0.2655        29.0613         2.2336         0.4639      -110.9261      -73.67968      0.1156537              0
      7475.5000         15.229        -0.0236       101.6764        26.2907        29.3907        37.4272         0.2457         0.2511         31.507         2.1917         0.4249      -112.6318      -75.38643     0.09419584              0
      7476.0000        15.2235        -0.0241       102.2615        26.9967        29.0201       36.96967         0.2311         0.2385        33.3331         2.1652          0.392      -113.9771      -76.73279     0.08446105              0
      7476.5000        15.2279        -0.0257       102.3947        28.8301        31.7148       40.29646         0.2157         0.2295        33.4841         2.1629         0.3701      -114.6095      -77.36624      0.1552438              0
      7477.0000        15.2512        -0.0276       102.1837        31.1294          34.08       43.21646         0.2031         0.2228        32.7166         2.1631         0.3506      -114.4694       -77.2272      0.2173716              0
      7477.5000        15.2556        -0.0302       101.9259        31.3598        35.7109       45.22992         0.1947         0.2173        31.7343         2.1638         0.3328       -113.509      -76.26785      0.2602111              0
      7478.0000        15.2559        -0.0349       101.8318        29.8863        35.7923       45.33041         0.1929         0.2138        30.9341         2.1623         0.3134      -112.0919      -74.85181      0.2623492              0
      7478.5000        15.2512        -0.0389       101.9141        28.6109        35.1766       44.57029         0.1926         0.2122        30.3441         2.1577         0.2944      -110.4534      -73.21436      0.2461764              0
      7479.0000        15.2465        -0.0404       102.2321        28.5005        33.4727       42.46671         0.1928         0.2111         29.897         2.1521         0.2742      -108.0283      -70.79031      0.2014193              0
      7479.5000        15.2418        -0.0412       102.7333        28.2332        32.3909       41.13115         0.1936         0.2109        29.6587         2.1548         0.2589      -105.2445      -68.00757      0.1730033     0.02846331
      7480.0000        15.2378        -0.0385        103.619        27.9271        31.4702       39.99449         0.1942         0.2111        29.7874         2.1577         0.2468      -102.4795      -65.24363      0.1488189     0.06794815
      7480.5000        15.2339        -0.0359       104.7373        28.1419        31.0442       39.46856         0.1947          0.212         31.242         2.1622         0.2393       -100.174      -62.93919      0.1376289      0.1008688
      7481.0000        15.2373        -0.0327       105.9944        28.9883        30.7485        39.1035         0.1954         0.2133        32.4227         2.1698          0.243       -98.2421      -61.00834      0.1298617      0.1284522
      7481.5000        15.2453        -0.0293       106.8145         30.042        31.9963       40.64399         0.1979         0.2153         33.228         2.1773         0.2493       -96.8727         -59.64      0.1626381          0.148
      7482.0000        15.2534        -0.0265       106.4221        31.0447        33.2441       42.18449         0.2031         0.2179        33.5582         2.1824         0.2419       -95.7451      -58.51345      0.1954146      0.1640936
      7482.5000        15.2547         -0.024       105.6194        31.8057        33.2023       42.13288         0.2113         0.2216        33.7173         2.1805         0.2258       -94.8511       -57.6205      0.1943167        0.17685
      7483.0000        15.2543        -0.0239       104.9357        32.4708        32.4222        41.1698         0.2226         0.2284        33.7373         2.1766         0.2151       -93.8263      -56.59676      0.1738254      0.1914748
      7483.5000         15.254        -0.0251       104.0653          32.71        31.9102        40.5377         0.2337         0.2372        33.5215         2.1773         0.2296       -93.0641      -55.83562      0.1603766      0.2023483
      7484.0000        15.2531        -0.0266       103.1232        30.8703        32.1241       40.80177         0.2389         0.2445         32.963         2.1869         0.2812       -92.3495      -55.12207      0.1659952      0.2125418
      7484.5000        15.2517        -0.0282       102.5269        28.8251        33.1924       42.12066         0.2388         0.2444        32.0251         2.1981         0.3526       -91.6199      -54.39353      0.1940566      0.2229496
      7485.0000        15.2502        -0.0268       102.4694        27.8561        34.2509       43.42745         0.2359         0.2382        30.7268         2.2006         0.3745       -90.8894      -53.66408      0.2218606      0.2333703
      7485.5000        15.2488        -0.0245       103.0382        27.5139        35.2405       44.64918         0.2296         0.2285        29.8437         2.1906         0.3264       -90.1588      -52.93454      0.2478549      0.2437923
      7486.0000        15.2461        -0.0249       103.8484        27.4728        35.8416       45.39128         0.2191         0.2189        29.4333         2.1772         0.2612       -89.2844      -52.06119      0.2636442      0.2562687
      7486.5000        15.2432        -0.0264       104.8068        27.7135        35.4802       44.94511          0.205         0.2069        29.7016         2.1639         0.2225       -88.5353      -51.31315      0.2541512       0.266955
      7487.0000        15.2402        -0.0306       105.7378         28.312        34.0186       43.14066         0.1874         0.1958        30.6957         2.1514         0.2064       -88.2487       -51.0276      0.2157587      0.2710342
      7487.5000        15.2363        -0.0353       106.1204        29.2623        31.9361       40.56967         0.1732         0.1865        31.8919         2.1428         0.2053       -88.1527      -50.93266      0.1610568      0.2723906
      7488.0000        15.2321        -0.0397       105.9664        29.4915        31.0042       39.41918         0.1628         0.1803        33.4382         2.1373         0.2097       -88.3552      -51.13622      0.1365783      0.2694826
      7488.5000         15.228         -0.044       105.4799        28.0853        30.5021        38.7993         0.1563         0.1775        33.8776         2.1377         0.2167       -88.5811      -51.36317      0.1233894      0.2662405
      7489.0000        15.2247        -0.0448       104.6443        26.6541         30.724       39.07325         0.1525          0.177        33.9842         2.1447         0.2241       -88.7148      -51.49792      0.1292181      0.2643154
      7489.5000        15.2219        -0.0444       103.5459          26.59        31.6152        40.1735          0.152         0.1775        33.9105         2.1476         0.2288       -88.7841      -51.56828      0.1526277      0.2633103
      7490.0000         15.219        -0.0433       102.4562          28.16        32.1192       40.79572         0.1546         0.1787        33.3383          2.147         0.2258       -88.9089      -51.69413      0.1658664      0.2615124
      7490.5000        15.2238        -0.0404       102.4344        29.0207        32.5704       41.35276         0.1609         0.1821        32.1229         2.1432         0.2188       -89.3293      -52.11559      0.1777182      0.2554916
      7491.0000        15.2345        -0.0378       103.1008        29.1451        32.9908       41.87177         0.1722         0.1888        31.2502         2.1459         0.2086       -89.9841      -52.77144       0.188761      0.2461223
      7491.5000        15.2451        -0.0355       104.7893         29.575        33.9325       43.03436         0.1903         0.2005        30.9407         2.1548          0.202       -90.2117       -53.0001      0.2134971      0.2428557
