#------------------------------------------------------------------------------
# Created by    : vladimir.rabinovich
# Created on    : 09/19/2023 17:22:56
#------------------------------------------------------------------------------
~Version Information Section
VERS.           2.0     :   CWLS log ASCII Standard - VERSION 2.0
WRAP.           NO      :   One line per depth step
~Well Information Section
#MNEM       .UNIT                                         VALUE :DESCRIPTION
#------------------------------------------------------------------------------
STRT        .FT                                             890 :START DEPTH
STOP        .FT                                            9495 :STOP DEPTH
STEP        .FT                                             0.5 :STEP      
NULL        .                                           -999.25 :NULL      
COMP        .                                   MARATHON OIL CO :COMPANY   
WELL        .                               OCS G04138 ST00BP00 :WELL      
FLD         .                                           WILDCAT :FIELD     
LOC         .                                                   :LOCATION  
CNTY        .                      MATAGORDA ISLAND LARGE BLOCK :LOCATION  
STAT        .                                             TEXAS :STATE     
CTRY        .                                     UNITED STATES :COUNTRY   
SRVC        .                                                   :SERVICE COMPANY
DATE        .                             9/13/2023 11:12:11 AM :LOG DATE  
API         .                                    42703402070000 :API NUMBER
UWI         .                                    42703402070000 :UNIQUE WELL ID
XCOORD      .                                  590883.400226114 :SURFACE X 
YCOORD      .                                  10259990.6406746 :SURFACE Y 
LAT         .                                         28.233929 :LATITUDE  
LON         .                                        -96.259589 :LONGITUDE 
ELEV        .FT                                              90 :ELEVATION VALUE
ELEV_TYPE   .                                                KB :ELEVATION REFERENCE TYPE
~Curve Information Section
#MNEM       .UNIT                                      API CODE :CURVE DESCRIPTION
#------------------------------------------------------------------------------
DEPT        .FT                                                 :DEPTH     
SP          .MV                                                 :          
SP_NORM     .MV                                                 :SP Normalized
VSH_SP      .V/V                                                :Volume of Shale from SP
~A        DEPTH             SP        SP_NORM         VSH_SP
# ...
      4322.0000        65.9688      -39.67913      0.1436561
      4322.5000        66.4048      -40.11333      0.1337879
      4323.0000        66.8068      -40.51355      0.1246921
      4323.5000        67.0817      -40.78666       0.118485
      4324.0000        67.3564      -41.05957      0.1122826
      4324.5000         67.416      -41.11738      0.1109687
      4325.0000        67.4585      -41.15809      0.1100434
      4325.5000        67.3402        -41.038      0.1127727
      4326.0000        66.6775       -40.3735      0.1278749
      4326.5000        60.0267      -33.72092      0.2790701
      4327.0000        57.1575      -30.84993      0.3443198
      4327.5000        53.2932      -26.98384      0.4321855
      4328.0000        50.4448      -24.13365      0.4969625
      4328.5000        48.7699      -22.45696      0.5350691
      4329.0000        47.7431      -21.42837      0.5584462
      4329.5000        47.0959      -20.77938      0.5731959
      4330.0000        46.8852      -20.56689      0.5780253
      4330.5000        46.6174       -20.2973      0.5841523
      4331.0000        46.0161      -19.69421      0.5978588
      4331.5000        45.0257      -18.70202      0.6204087
      4332.0000        39.9283      -13.60283      0.7362994
      4332.5000        36.1284      -9.801138      0.8227014
      4333.0000        33.4473      -7.118248      0.8836762
      4333.5000        30.1074       -3.77656      0.9596236
      4334.0000        27.8184      -1.485767              1
      4334.5000        26.4688     -0.1343784              1
      4335.0000        26.3062     0.03001022              1
      4335.5000        29.7044      -3.366398      0.9689455
      4336.0000        31.3708       -5.03101      0.9311134
      4336.5000         32.491       -6.14942       0.905695
      4337.0000        33.5826      -7.239229      0.8809266
      4337.5000        34.3036      -7.958439      0.8645809
      4338.0000        35.0245      -8.677551      0.8482375
      4338.5000        35.4529       -9.10416      0.8385418
      4339.0000        35.7512      -9.400671      0.8318029
      4339.5000        34.6167       -8.26438      0.8576277
      4340.0000        32.9728       -6.61869      0.8950298
      4340.5000        31.3368        -4.9809      0.9322523
      4341.0000        32.0492      -5.691507      0.9161021
      4341.5000        33.8909       -7.53142      0.8742859
      4342.0000        35.0603       -8.69903      0.8477493
      4342.5000        36.2297      -9.866638      0.8212128
      4343.0000        37.4403      -11.07545      0.7937397
      4343.5000         38.671      -12.30436        0.76581
      4344.0000        39.6322      -13.26377      0.7440053
      4344.5000        40.4945      -14.12428      0.7244482
      4345.0000        39.0751      -12.70309       0.756748
      4345.5000        38.6454       -12.2716      0.7665545
      4346.0000        39.7839      -13.40831      0.7407202
      4346.5000        41.1287      -14.75132      0.7101972
      4347.0000        42.4722      -16.09303      0.6797039
      4347.5000        43.8169      -17.43594      0.6491832
      4348.0000        45.2333      -18.85055      0.6170329
      4348.5000        44.3958      -18.01126      0.6361077
      4349.0000        36.1611      -9.774771      0.8233007
      4349.5000        33.4279       -7.03978      0.8854595
      4350.0000        35.6429      -9.252991      0.8351593
      4350.5000        37.9573       -11.5656         0.7826
      4351.0000        40.6614      -14.26791      0.7211838
      4351.5000        41.0779      -14.68262      0.7117586
      4352.0000        41.2679      -14.87083      0.7074811
      4352.5000        37.7923      -11.39344      0.7865126
      4353.0000        33.2896      -6.888952      0.8888875
      4353.5000        31.4982      -5.095762      0.9296418
      4354.0000        29.4665      -3.062271      0.9758575
      4354.5000        27.5817      -1.175682              1
      4355.0000        26.1775      0.2303085              1
      4355.5000        25.0746       1.334997              1
      4356.0000        24.6231       1.788286              1
      4356.5000         24.996       1.417177              1
      4357.0000         25.699      0.7159672              1
      4357.5000         26.192      0.2247581              1
      4358.0000        26.6854     -0.2668533              1
      4358.5000        27.0202      -0.599865              1
      4359.0000        27.3059     -0.8837738              1
      4359.5000        27.5546      -1.130684              1
      4360.0000        27.7144      -1.288692              1
      4360.5000        27.6818      -1.254305              1
      4361.0000        27.5015      -1.072212              1
      4361.5000        27.3209     -0.8898239              1
      4362.0000         27.205     -0.7721348              1
      4362.5000        27.1333     -0.6986446              1
      4363.0000        27.0615     -0.6250553              1
      4363.5000        26.8835     -0.4452629              1
      4364.0000        26.5792     -0.1391754              1
      4364.5000        26.2606      0.1812172              1
      4365.0000        25.6778      0.7658062              1
      4365.5000        25.0946       1.350794              1
      4366.0000        24.6295       1.817686              1
      4366.5000        24.3175       2.131475              1
      4367.0000        24.7791       1.671665              1
      4367.5000        25.2405       1.212055              1
      4368.0000        25.7023      0.7520466              1
      4368.5000        26.0331      0.4230347              1
      4369.0000        26.2802      0.1777248              1
      4369.5000        26.5273    -0.06758499              1
      4370.0000        26.5904     -0.1288967              1
      4370.5000        26.5929     -0.1296043              1
      4371.0000        26.5954     -0.1303158              1
      4371.5000        26.5979     -0.1310253              1
      4372.0000        26.4521     0.01656342              1
      4372.5000          26.23      0.2404537              1
      4373.0000        26.0079       0.464344              1
      4373.5000        25.7858      0.6882324              1
      4374.0000        25.6275      0.8483238              1
      4374.5000        25.4986      0.9790134              1
      4375.0000        25.4411       1.038305              1
      4375.5000        25.3907       1.090494              1
      4376.0000        25.3402       1.142782              1
      4376.5000        25.1113       1.373474              1
      4377.0000        24.8777       1.608862              1
      4377.5000         24.644       1.844355              1
      4378.0000        24.4683       2.021843              1
      4378.5000        24.5377       1.954233              1
      4379.0000        24.7678       1.725924              1
      4379.5000        25.1956       1.299911              1
      4380.0000        25.6231      0.8742027              1
      4380.5000        26.0507      0.4483929              1
      4381.0000        27.0471      -0.546217              1
      4381.5000        28.0417      -1.539028              1
      4382.0000        28.8463      -2.341837      0.9902332
      4382.5000        29.4835      -2.977247      0.9720786
      4383.0000         30.003      -3.494959      0.9572869
      4383.5000        30.1668      -3.656967      0.9526581
      4384.0000        27.2213     -0.7096786              1
      4384.5000        25.0251       1.488312              1
      4385.0000        24.3418       2.173401              1
      4385.5000        23.9315       2.585491              1
      4386.0000        23.7556       2.763182              1
      4386.5000        23.6439       2.876671              1
      4387.0000        23.6465       2.875862              1
      4387.5000        23.6452        2.87895              1
