#------------------------------------------------------------------------------
# Created by    : vladimir.rabinovich
# Created on    : 09/19/2023 17:20:37
#------------------------------------------------------------------------------
~Version Information Section
VERS.           2.0     :   CWLS log ASCII Standard - VERSION 2.0
WRAP.           NO      :   One line per depth step
~Well Information Section
#MNEM       .UNIT                                         VALUE :DESCRIPTION
#------------------------------------------------------------------------------
STRT        .FT                                             582 :START DEPTH
STOP        .FT                                            8015 :STOP DEPTH
STEP        .FT                                             0.5 :STEP      
NULL        .                                           -999.25 :NULL      
COMP        .                                CONTINENTAL OIL CO :COMPANY   
WELL        .                                OCS 00719 ST00BP00 :WELL      
FLD         .                                           WILDCAT :FIELD     
LOC         .                                                   :LOCATION  
CNTY        .                             GALVESTON LARGE BLOCK :LOCATION  
STAT        .                                             TEXAS :STATE     
CTRY        .                                     UNITED STATES :COUNTRY   
SRVC        .                                                   :SERVICE COMPANY
DATE        .                             9/13/2023 11:19:25 AM :LOG DATE  
API         .                                    42706000350000 :API NUMBER
UWI         .                                    42706000350000 :UNIQUE WELL ID
XCOORD      .                                  1010979.62119212 :SURFACE X 
YCOORD      .                                  10432235.4027546 :SURFACE Y 
LAT         .                                          28.73246 :LATITUDE  
LON         .                                        -94.964458 :LONGITUDE 
ELEV        .FT                                              63 :ELEVATION VALUE
ELEV_TYPE   .                                                KB :ELEVATION REFERENCE TYPE
~Curve Information Section
#MNEM       .UNIT                                      API CODE :CURVE DESCRIPTION
#------------------------------------------------------------------------------
DEPT        .FT                                                 :DEPTH     
ASN         .OHMM                                               :          
DT          .US/F                                               :          
LN          .OHMM                                               :          
SP          .MV                                                 :          
SP_NORM     .MV                                                 :SP Normalized
VSH_SP      .V/V                                                :Volume of Shale from SP
~A        DEPTH            ASN             DT             LN             SP        SP_NORM         VSH_SP
# ...
      2064.0000         0.6594       148.0061         0.5929       -60.9436      -15.28656      0.5714012
      2064.5000          0.666       184.3154         0.5908       -60.7253      -14.96015      0.5819308
      2065.0000         0.6348       175.8152         0.5865       -60.5076      -14.63464      0.5924309
      2065.5000         0.6075       162.2668         0.5822       -60.2906      -14.31019      0.6028972
      2066.0000         0.5932       149.1821         0.5779       -60.0735      -13.98559       0.613368
      2066.5000          0.579       149.6213         0.5736       -59.8635      -13.67169       0.623494
      2067.0000         0.5675       157.2578         0.5693       -59.6891      -13.41146      0.6318884
      2067.5000         0.5617       163.3064          0.565       -60.5676      -14.73869      0.5890745
      2068.0000         0.5558       155.7078         0.5607       -61.3019       -15.8485      0.5532742
      2068.5000           0.55       148.7622         0.5563       -61.7327      -16.50074      0.5322343
      2069.0000         0.5472       148.1377          0.552       -61.2598      -15.79046      0.5551463
      2069.5000         0.5444       151.3796         0.5485       -60.4667      -14.59744      0.5936311
      2070.0000         0.5416       155.9597         0.5482       -60.1412       -14.1094      0.6093743
      2070.5000         0.5388        158.123          0.548       -59.8156      -13.62121      0.6251222
      2071.0000          0.536       158.3774         0.5478       -59.5678      -13.25032      0.6370866
      2071.5000         0.5325       156.5107         0.5475       -60.5651      -14.75666       0.588495
      2072.0000          0.529       154.6453         0.5473       -61.2824      -15.84084      0.5535213
      2072.5000         0.5255        153.239         0.5471       -61.3875      -16.00202      0.5483221
      2073.0000         0.5287       150.6875         0.5468       -61.4924       -16.1629      0.5431324
      2073.5000         0.5369        147.187         0.5466       -61.6793      -16.44739       0.533955
      2074.0000         0.5451       147.9097         0.5464       -61.9717      -16.89096      0.5196463
      2074.5000         0.5533       149.9976         0.5461       -62.2748      -17.35066      0.5048174
      2075.0000         0.5611       150.6201         0.5459       -61.5388      -16.24372      0.5405252
      2075.5000         0.5639        151.813         0.5457       -58.3003      -11.36377      0.6979428
      2076.0000         0.5667       151.6094         0.5454       -58.1404      -11.12541      0.7056319
      2076.5000         0.5694       172.3027         0.5452       -58.0527       -10.9959      0.7098096
      2077.0000         0.5718       153.5618          0.545       -57.9145      -10.79026      0.7164433
      2077.5000         0.5671       151.8838         0.5447       -57.5725      -10.27734       0.732989
      2078.0000         0.5624       156.4739         0.5445       -57.2306      -9.764577      0.7495298
      2078.5000         0.5577       156.5439         0.5443       -56.8886      -9.251668      0.7660753
      2079.0000          0.553       156.8809         0.5441       -56.5068      -8.678749      0.7845565
      2079.5000          0.548       156.3086         0.5438       -56.1042      -8.074468      0.8040494
      2080.0000         0.5416       153.4866         0.5436       -55.7015      -7.470037      0.8235472
      2080.5000         0.5353       150.7009         0.5434         -55.34      -6.927727       0.841041
      2081.0000         0.5289       148.3992         0.5431       -55.7502      -7.548895      0.8210034
      2081.5000         0.5225       147.3071         0.5429       -56.2941      -8.371648       0.794463
      2082.0000         0.5216       151.8267         0.5427       -58.3705      -11.50494      0.6933892
      2082.5000         0.5323       153.6306          0.542       -59.1443       -12.6743      0.6556677
      2083.0000          0.541        159.105         0.5392       -59.4892      -13.19703      0.6388055
      2083.5000         0.5487       159.8711         0.5363       -59.8342       -13.7199      0.6219387
      2084.0000         0.5564       155.6516         0.5335       -60.2881      -14.40696      0.5997754
      2084.5000         0.5431       153.3066         0.5306       -60.7281      -15.07306      0.5782884
      2085.0000         0.5326       151.3994         0.5278       -61.0335      -15.53623      0.5633475
      2085.5000         0.5243       151.5903         0.5249       -60.6201      -14.91566      0.5833658
      2086.0000         0.5291       158.4766         0.5221       -60.2067       -14.2951       0.603384
      2086.5000         0.5339       160.9048         0.5193        -59.827      -13.72535       0.621763
      2087.0000         0.5388       155.4299         0.5164       -59.4955      -13.22826      0.6377981
      2087.5000         0.5436       171.5298         0.5136       -59.7693      -13.64379       0.624394
      2088.0000         0.5485       164.1038         0.5123       -60.7471      -15.12073      0.5767508
      2088.5000         0.5592        161.644         0.5155       -61.7878       -16.6925      0.5260484
      2089.0000         0.5706       156.3125         0.5187       -63.9233      -19.91489      0.4221002
      2089.5000          0.582       153.6384         0.5219       -66.0255      -23.08708      0.3197717
      2090.0000         0.5928       151.6089         0.5251        -66.819      -24.28615      0.2810919
      2090.5000         0.6005       149.3357         0.5284       -63.5755      -19.39867      0.4387527
      2091.0000         0.6082       147.1284          0.533       -62.3403      -17.53909      0.4987391
      2091.5000         0.6159       145.0737         0.5375       -61.6494      -16.50013      0.5322537
      2092.0000         0.6222       139.3726         0.5413       -61.1786      -15.79303      0.5550634
      2092.5000         0.6253       134.7534         0.5383       -60.8375      -15.28148      0.5715653
      2093.0000         0.6178       130.7141         0.5353       -60.5992      -14.92491      0.5830673
      2093.5000         0.5915       137.4819          0.532       -60.9285      -15.42411      0.5669641
      2094.0000         0.5779       159.1553         0.5282       -61.9071      -16.90226      0.5192819
      2094.5000         0.5643       147.6296         0.5244       -63.8929      -19.89894      0.4226147
      2095.0000         0.5507       148.7834         0.5207       -65.6565      -22.56064      0.3367536
      2095.5000         0.5373       153.0352         0.5169       -66.6649      -24.08371      0.2876223
      2096.0000         0.5286       153.3914         0.5131       -67.3547      -25.12642      0.2539863
      2096.5000           0.52       151.2212         0.5094       -67.9293      -25.99546      0.2259528
      2097.0000         0.5113       149.8088         0.5056       -68.3505      -26.63322      0.2053799
      2097.5000          0.505       146.9907         0.5018       -68.7885      -27.29631        0.18399
      2098.0000         0.5006       147.6018         0.4981       -69.2518      -27.99754      0.1613696
      2098.5000         0.4961       146.2029         0.4943       -69.5594      -28.46403      0.1463216
      2099.0000         0.4917       147.6667         0.4905        -69.757      -28.76467      0.1366236
      2099.5000         0.4872       149.0771         0.4868       -69.8658      -28.93142      0.1312446
      2100.0000         0.4831        150.813          0.483       -68.9528      -27.55761      0.1755611
      2100.5000          0.479       151.8384         0.4792       -68.3436      -26.64183      0.2051021
      2101.0000         0.4749       152.2678         0.4755       -67.7316      -25.72185      0.2347791
      2101.5000         0.4708       150.5208         0.4717       -67.1388      -24.83081      0.2635224
