#------------------------------------------------------------------------------
# Created by    : vladimir.rabinovich
# Created on    : 09/19/2023 17:20:04
#------------------------------------------------------------------------------
~Version Information Section
VERS.           2.0     :   CWLS log ASCII Standard - VERSION 2.0
WRAP.           NO      :   One line per depth step
~Well Information Section
#MNEM       .UNIT                                         VALUE :DESCRIPTION
#------------------------------------------------------------------------------
STRT        .FT                                             900 :START DEPTH
STOP        .FT                                            8286 :STOP DEPTH
STEP        .FT                                             0.5 :STEP      
NULL        .                                           -999.25 :NULL      
COMP        .                                       ALLIED CORP :COMPANY   
WELL        .                               OCS G04069 ST00BP00 :WELL      
FLD         .                                           WILDCAT :FIELD     
LOC         .                                                   :LOCATION  
CNTY        .                             GALVESTON LARGE BLOCK :LOCATION  
STAT        .                                             TEXAS :STATE     
CTRY        .                                     UNITED STATES :COUNTRY   
SRVC        .                                                   :SERVICE COMPANY
DATE        .                             9/13/2023 11:18:53 AM :LOG DATE  
API         .                                    42706400840000 :API NUMBER
UWI         .                                    42706400840000 :UNIQUE WELL ID
XCOORD      .                                  987200.391396966 :SURFACE X 
YCOORD      .                                   10401886.486665 :SURFACE Y 
LAT         .                                         28.647914 :LATITUDE  
LON         .                                        -95.037018 :LONGITUDE 
ELEV        .FT                                              83 :ELEVATION VALUE
ELEV_TYPE   .                                                KB :ELEVATION REFERENCE TYPE
~Curve Information Section
#MNEM       .UNIT                                      API CODE :CURVE DESCRIPTION
#------------------------------------------------------------------------------
DEPT        .FT                                                 :DEPTH     
ASFL        .OHMM                                               :          
CILD        .MMHO                                               :          
DPHI        .%                                                  :          
DT          .US/F                                               :          
GR          .GAPI                                               :          
GR_NORM     .GAPI                                               :GammaRay Normalized
ILD         .OHMM                                               :          
SP          .MV                                                 :          
SP_NORM     .MV                                                 :SP Normalized
VSH_GR      .V/V                                                :Volume of Shale from GR
VSH_SP      .V/V                                                :Volume of Shale from SP
~A        DEPTH           ASFL           CILD           DPHI             DT             GR        GR_NORM            ILD             SP        SP_NORM         VSH_GR         VSH_SP
# ...
      6795.0000         0.9731       1578.695        21.2267       121.4377        50.7214       77.10948         0.5507       -42.7676       5.288269      0.9384996              1
      6795.5000         0.9795       1551.836        22.2766       120.5955        49.5906       75.49305         0.5521        -42.786       5.268238      0.9041075              1
      6796.0000         0.9859       1525.002        22.7948       119.8262          48.53       73.97736         0.5579       -42.8044       5.248203      0.8718587              1
      6796.5000         0.9923       1498.168         23.538       119.1886        47.6592       72.73401         0.5647       -42.8229       5.228077      0.8454044              1
      6797.0000         0.9982       1477.852        24.8574        118.483         46.873       71.61208         0.5714       -42.8409       5.208443      0.8215335              1
      6797.5000         0.9984        1462.65        25.5177       117.5258        47.6846       72.78289         0.5782       -42.8415       5.206215      0.8464445              1
      6798.0000         0.9986       1447.451        25.4757       116.4175        48.4961       73.95356         0.5849        -42.842       5.204082      0.8713523              1
      6798.5000         0.9988        1432.25        25.2747       115.2686        49.3064       75.12252         0.5917       -42.8427       5.201752      0.8962238              1
      6799.0000         0.9991       1417.051        24.8537       113.3143        49.8621       75.92613         0.5984       -43.1262       4.916618       0.913322              1
      6799.5000         1.0078       1398.973        24.2692       111.6855        50.3093       76.57407         0.6099       -43.4526       4.588589      0.9271078              1
      6800.0000         1.0192       1364.932        23.5942       112.4351         50.087       76.26129         0.6251       -44.8474       3.192158       0.920453              1
      6800.5000         1.0306       1330.842        23.9777       115.8745        49.8648       75.94865         0.6404       -46.0049       2.033024       0.913801              1
      6801.0000          1.066       1296.801        25.3092       121.4971        49.8397       75.91885         0.6556       -46.8462       1.190098      0.9131671              1
      6801.5000         1.0863        1262.76        26.5525       123.5391        50.2685       76.54037         0.6708       -47.5201      0.5145645      0.9263908              1
      6802.0000         1.0947       1222.619        26.2757       122.8823        50.6972       77.16174         0.6872       -48.0344   -0.001365662      0.9396116       0.999979
      6802.5000         1.1032       1181.789        25.1289       119.7457        51.1259       77.78313         0.7198       -47.9518     0.07960129      0.9528325              1
      6803.0000         1.1193       1140.959        24.6913        116.723        51.4407       78.24106         0.7525       -47.8691      0.1606712      0.9625757              1
      6803.5000         1.1361       1100.574        24.2975       112.9236        50.7359       77.23593         0.7851       -47.7866      0.2415428        0.94119              1
      6804.0000         1.1537       1065.598        23.6793       109.3467        48.6557       74.25716         0.8178        -47.704      0.3225098       0.877812              1
      6804.5000         1.1902       1030.623        23.9471       106.8743        46.5756       71.27853         0.8504       -47.8032      0.2216797      0.8144369              1
      6805.0000          1.215       995.6475        24.8709       105.3901        45.0226       69.05627          0.883       -48.4522     -0.4289551      0.7671548      0.9934007
      6805.5000         1.2299       960.6221        25.9608       103.8082        44.3423       68.08628          0.914       -49.8389      -1.817284      0.7465166      0.9720418
      6806.0000         1.2506        934.624         26.732       102.0322         43.662       67.11632          0.944       -51.6825      -3.662514      0.7258791      0.9436536
      6806.5000          1.279       913.1025         26.711       101.4478        42.9818       66.14647          0.974       -52.6365      -4.618149       0.705244      0.9289516
      6807.0000         1.3013       891.5811        24.9472       101.6123        42.2991       65.17304         1.0039       -53.3522      -5.335476      0.6845328      0.9179158
      6807.5000         1.3213        870.085        23.9134       101.7589        41.4307       63.93315         1.0333       -53.9855      -5.970409       0.658152      0.9081476
      6808.0000          1.343       859.5205        23.5499       100.4467        40.5624        62.6934          1.062       -54.5425      -6.529037      0.6317745      0.8995533
      6808.5000         1.3381       852.0615        23.9134        97.7306         39.694       61.45351         1.0837       -55.0619      -7.050072      0.6053938      0.8915374
      6809.0000          1.319       845.1934        24.2897        96.1537        38.8184       60.20328         1.0726       -55.4325      -7.422298      0.5787932      0.8858108
      6809.5000         1.2923       861.8945        24.5055        97.5797        37.9138       58.91143         1.0615       -54.6413      -6.632732       0.551307       0.897958
      6810.0000         1.2613       878.5703        24.8776        99.2444        37.0091       57.61945         1.0503        -53.817      -5.810066      0.5238181      0.9106144
      6810.5000         1.2304       895.2461         25.577       100.9822        39.2054       60.77724         1.0392        -52.971      -4.965694      0.5910051      0.9236047
      6811.0000         1.2104       911.9473        26.3378       103.0216        41.9241       64.68465         1.0281       -52.1237      -4.120026      0.6741416       0.936615
      6811.5000         1.1909        928.623        27.2563       104.0785        44.6405       68.58878          1.017       -51.4231      -3.421055       0.757208      0.9473684
      6812.0000         1.1714       945.2988        28.0066       103.8481        46.1329        70.7365         1.0031       -50.9237      -2.923286      0.8029043      0.9550264
      6812.5000         1.1614       961.9502        28.3073       102.9215        46.0276       70.59161         0.9859       -50.4243      -2.425518      0.7998216      0.9626843
      6813.0000         1.1522       978.6025        26.8741       102.1633        45.5802       69.95583         0.9688       -49.9243      -1.927151      0.7862942      0.9703515
      6813.5000         1.1446       995.2295         24.648       101.7783        45.1327       69.31991         0.9517       -49.4958      -1.500282       0.772764      0.9769188
      6814.0000         1.1402       1011.881         23.799       102.2622        44.6852       68.68398         0.9345       -49.0989      -1.105011      0.7592335      0.9829998
      6814.5000         1.1358       1028.508        22.3919       103.8082        44.0443       67.77053         0.9174       -48.7839     -0.7916451      0.7397985      0.9878209
      6815.0000         1.1314       1045.158        20.1059       105.0958        43.3718       66.81174         0.9002       -48.6306     -0.6399727      0.7193988      0.9901543
      6815.5000         1.1255       1061.785        19.9743       106.5255           42.7       65.85397         0.8831       -48.4771     -0.4881058      0.6990206      0.9924907
      6816.0000         1.1184       1078.438        21.1472       106.6277        42.0276       64.89531          0.866       -48.3313     -0.3439331      0.6786236      0.9947087
      6816.5000         1.1113       1095.064        21.5349       105.6858        41.5601       64.23069         0.8565       -48.4043     -0.4185677      0.6644828      0.9935605
      6817.0000         1.1139       1111.691        20.5517       104.9554        42.9099        66.1738         0.8476       -48.4772     -0.4930992      0.7058255      0.9924139
