#------------------------------------------------------------------------------
# Created by    : vladimir.rabinovich
# Created on    : 09/19/2023 17:21:35
#------------------------------------------------------------------------------
~Version Information Section
VERS.           2.0     :   CWLS log ASCII Standard - VERSION 2.0
WRAP.           NO      :   One line per depth step
~Well Information Section
#MNEM       .UNIT                                         VALUE :DESCRIPTION
#------------------------------------------------------------------------------
STRT        .FT                                            3376 :START DEPTH
STOP        .FT                                            7813 :STOP DEPTH
STEP        .FT                                             0.5 :STEP      
NULL        .                                           -999.25 :NULL      
COMP        .                                MARINER ENERGY INC :COMPANY   
WELL        .                               OCS G27491 ST00BP00 :WELL      
FLD         .                                           WILDCAT :FIELD     
LOC         .                                                   :LOCATION  
CNTY        .                             GALVESTON LARGE BLOCK :LOCATION  
STAT        .                                             TEXAS :STATE     
CTRY        .                                     UNITED STATES :COUNTRY   
SRVC        .                                                   :SERVICE COMPANY
DATE        .                             9/13/2023 11:19:33 AM :LOG DATE  
API         .                                    42706404580000 :API NUMBER
UWI         .                                    42706404580000 :UNIQUE WELL ID
XCOORD      .                                  1038987.60828679 :SURFACE X 
YCOORD      .                                  10490484.8642062 :SURFACE Y 
LAT         .                                         28.893877 :LATITUDE  
LON         .                                         -94.87996 :LONGITUDE 
ELEV        .FT                                             110 :ELEVATION VALUE
ELEV_TYPE   .                                                KB :ELEVATION REFERENCE TYPE
~Curve Information Section
#MNEM       .UNIT                                      API CODE :CURVE DESCRIPTION
#------------------------------------------------------------------------------
DEPT        .FT                                                 :DEPTH     
CALI        .IN                                                 :          
DPSS        .%                                                  :          
DRHO        .G/CM3                                              :          
GR          .GAPI                                               :          
GR_NORM     .GAPI                                               :GammaRay Normalized
M2R1        .OHMM                                               :          
M2R2        .OHMM                                               :          
M2R3        .OHMM                                               :          
M2R6        .OHMM                                               :          
M2R9        .OHMM                                               :          
M2RX        .OHMM                                               :          
NPSS        .%                                                  :Neutron Porosity Sandstone
SP          .MV                                                 :          
SP_NORM     .MV                                                 :SP Normalized
TENS        .LB                                                 :          
VSH_GR      .V/V                                                :Volume of Shale from GR
VSH_SP      .V/V                                                :Volume of Shale from SP
~A        DEPTH           CALI           DPSS           DRHO             GR        GR_NORM           M2R1           M2R2           M2R3           M2R6           M2R9           M2RX           NPSS             SP        SP_NORM           TENS         VSH_GR         VSH_SP
# ...
      3796.0000        15.9135        32.6115          0.064        69.0762       68.18757            0.6         0.6393         0.6278         0.6393         0.6393          0.651        42.9913       -47.5367      -3.225323        20.4082      0.7486717      0.9715042
      3796.5000        16.1058        31.1642          0.044        67.2537       65.83612            0.6         0.6393         0.6393          0.651          0.651         0.6569        45.5973       -45.9559       -1.64452        20.4082      0.6986409              1
      3797.0000        16.2981         29.471          0.028        67.4477       66.08642         0.5946         0.6335         0.6451         0.6629         0.6629         0.6751        46.9669       -44.7695     -0.4581223        20.4082      0.7039663              1
      3797.5000        16.4904        27.8853          0.036         69.451       68.67114         0.5892         0.6335         0.6569          0.669         0.6751         0.6874         46.972       -43.9785      0.3328781        20.4082      0.7589605              1
      3798.0000        16.7212        27.1567          0.048         70.644       70.21039         0.5838         0.6278         0.6569          0.669         0.6751            0.7        46.7283       -43.5842      0.7271767        40.8163      0.7917104              1
      3798.5000         16.875        26.7955          0.052         70.434       69.93944         0.5629         0.6222          0.651         0.6629         0.6751         0.6937        46.7332       -42.7905       1.520878        61.2245      0.7859455              1
      3799.0000        16.7596        26.9241          0.044         70.224        69.6685         0.5578         0.6165         0.6451         0.6569          0.669         0.6874        44.3691       -42.3943        1.91708        61.2245      0.7801809              1
      3799.5000        16.4135        27.2976          0.044         72.614       72.75215         0.5477          0.611         0.6451          0.651          0.669         0.6812        41.8846       -41.5978       2.713577        61.2245      0.8457904              1
      3800.0000        16.1442         27.671          0.044         75.004        75.8358         0.5428         0.6055         0.6335         0.6451         0.6629         0.6751        41.4231       -41.5994       2.711979        61.2245         0.9114              1
      3800.5000        16.0664        27.6735         0.0481           75.6       76.60478         0.5428         0.6055         0.6335         0.6451          0.669         0.6751        41.7724       -42.3894       1.921978        60.6122      0.9277613              1
      3801.0000        16.0262        27.3061         0.0483           75.8       76.86284         0.5477          0.611         0.6393          0.651         0.6751         0.6874        40.9676       -42.3718       1.939579        59.5918      0.9332519              1
      3801.5000        15.9473        26.3265         0.0485           76.6         77.895         0.5578         0.6222         0.6451         0.6569         0.6751         0.6874        38.1882       -42.7552       1.556179        58.5714      0.9552128              1
      3802.0000        15.5354        25.8367         0.0447           78.8       80.73353         0.5527          0.611         0.6393         0.6569          0.669         0.6874        37.4895       -42.7379       1.573479         57.551              1              1
      3802.5000        15.3678        26.0816         0.0409           80.2       82.53984         0.5428            0.6         0.6278          0.651         0.6629         0.6751        41.7939       -42.7205       1.590878        36.1224              1              1
      3803.0000        15.3663        27.7959         0.0411           77.6       79.18524         0.5428         0.5892         0.6278         0.6451         0.6569          0.669        46.5087       -42.3009       2.010479        14.6939      0.9826647              1
      3803.5000        15.5303        28.7755         0.0533           75.2       76.08868         0.5428         0.5892         0.6222         0.6451         0.6451         0.6629        48.3529       -41.8804       2.430977        13.6735      0.9167804              1
      3804.0000        15.6526         28.898         0.0575           75.8       76.86284         0.5477            0.6         0.6278          0.651         0.6569          0.669        44.6515        -41.056       3.255379        12.6531      0.9332519              1
      3804.5000        15.6508        28.0408         0.0577           77.4        78.9272         0.5578         0.6055         0.6335         0.6569         0.6629         0.6812        40.4079       -41.4404       2.870979        11.6327      0.9771745              1
      3805.0000        15.5664        27.1837         0.0419           78.4       80.21743         0.5681         0.6165         0.6393         0.6629          0.669         0.6812        36.6489       -42.2294       2.081978        10.6122              1              1
      3805.5000        15.6059        26.6939         0.0301           79.6        81.7657         0.5629          0.611         0.6335         0.6569          0.669         0.6812        37.5866       -42.6157       1.695679         9.5918              1              1
      3806.0000        15.7276        26.6939         0.0303           79.8       82.02376         0.5527          0.611         0.6278         0.6451         0.6569         0.6751         38.764       -42.5981        1.71328         8.5714              1              1
      3806.5000        15.8491        27.0612         0.0305             79       80.99156         0.5527            0.6         0.6278         0.6451          0.651         0.6629        41.0102       -42.5805       1.730877          7.551              1              1
      3807.0000        15.7649        27.3061         0.0347           78.6       80.47547         0.5527            0.6         0.6222         0.6393         0.6451         0.6569        41.7251       -41.3463        2.96508         6.5306              1              1
      3807.5000        15.6398        27.3061         0.0349           79.6        81.7657         0.5428         0.5946         0.6165         0.6335         0.6393          0.651        41.1369       -40.5155       3.795879         5.5102              1              1
      3808.0000         15.474        26.9388         0.0351           80.8       83.31399         0.5428         0.5892         0.6055         0.6222         0.6335         0.6451        39.7137        -39.688       4.623379         4.4898              1              1
      3808.5000        15.2676        26.3265         0.0433           82.4       85.37836         0.5428         0.5892         0.6055         0.6222         0.6335         0.6451        38.1657        -39.668       4.643379         3.4694              1              1
      3809.0000        15.2662        25.7143         0.0475           83.6       86.92664         0.5527         0.6055          0.611         0.6222         0.6393          0.651        38.5223        -39.648        4.66338          2.449              1              1
      3809.5000        15.2647         25.102         0.0397           82.8       85.89445         0.5785         0.6165         0.6393          0.651          0.669         0.6812        41.3933        -39.628        4.68338         1.4286              1              1
      3810.0000         15.345        24.7347         0.0359             77       78.41111         0.6055         0.6393          0.669          0.669         0.6874         0.7126        43.2225        -40.008       4.303379         0.4082      0.9661939              1
      3810.5000        15.5893        25.2245          0.044           73.4       73.76627         0.6165          0.669         0.6812         0.6937         0.7063         0.7189        42.9796       -40.4082       3.903179              0      0.8673674              1
