#------------------------------------------------------------------------------
# Created by    : vladimir.rabinovich
# Created on    : 09/19/2023 17:21:39
#------------------------------------------------------------------------------
~Version Information Section
VERS.           2.0     :   CWLS log ASCII Standard - VERSION 2.0
WRAP.           NO      :   One line per depth step
~Well Information Section
#MNEM       .UNIT                                         VALUE :DESCRIPTION
#------------------------------------------------------------------------------
STRT        .FT                                             930 :START DEPTH
STOP        .FT                                           10010 :STOP DEPTH
STEP        .FT                                             0.5 :STEP      
NULL        .                                           -999.25 :NULL      
COMP        .                 FAIRWAYS SPEC SALES & SERVICE INC :COMPANY   
WELL        .                               OCS G02357 ST00BP00 :WELL      
FLD         .                            HIGH ISLAND BLOCK 0154 :FIELD     
LOC         .                                                   :LOCATION  
CNTY        .                           HIGH ISLAND LARGE BLOCK :LOCATION  
STAT        .                                             TEXAS :STATE     
CTRY        .                                     UNITED STATES :COUNTRY   
SRVC        .                                                   :SERVICE COMPANY
DATE        .                             9/13/2023 11:20:04 AM :LOG DATE  
API         .                                    42708400540000 :API NUMBER
UWI         .                                    42708400540000 :UNIQUE WELL ID
XCOORD      .                                  1183911.52517142 :SURFACE X 
YCOORD      .                                  10615048.6542629 :SURFACE Y 
LAT         .                                         29.242029 :LATITUDE  
LON         .                                        -94.431816 :LONGITUDE 
ELEV        .FT                                              73 :ELEVATION VALUE
ELEV_TYPE   .                                                KB :ELEVATION REFERENCE TYPE
~Curve Information Section
#MNEM       .UNIT                                      API CODE :CURVE DESCRIPTION
#------------------------------------------------------------------------------
DEPT        .FT                                                 :DEPTH     
CALI        .IN                                                 :          
DRHO        .G/C3                                               :          
DT          .US/F                                               :          
GR          .GAPI                                               :          
GR_1        .GAPI                                               :          
GR_NORM     .GAPI                                               :GammaRay Normalized
ILD         .OHMM                                               :          
NPHI        .%                                                  :          
RHOB        .G/C3                                               :          
SFL         .OHMM                                               :          
SP          .MV                                                 :          
SP_NORM     .MV                                                 :SP Normalized
VSH_GR      .V/V                                                :Volume of Shale from GR
VSH_SP      .V/V                                                :Volume of Shale from SP
~A        DEPTH           CALI           DRHO             DT             GR           GR_1        GR_NORM            ILD           NPHI           RHOB            SFL             SP        SP_NORM         VSH_GR         VSH_SP
# ...
      4440.0000        -999.25        -999.25        -999.25        -999.25        71.0463        91.9576         0.6145        -999.25        -999.25         0.5346        62.9854       5.783623              1              1
      4440.5000        -999.25        -999.25        -999.25        -999.25        74.5664       96.78588         0.6044        -999.25        -999.25         0.5298        63.5223       6.308407              1              1
      4441.0000        -999.25        -999.25        -999.25        -999.25        77.0016        100.126         0.5939        -999.25        -999.25         0.5399        62.3763       5.150288              1              1
      4441.5000        -999.25        -999.25        -999.25        -999.25        76.8671       99.94111         0.5859        -999.25        -999.25         0.5547        62.0638       4.825668              1              1
      4442.0000        -999.25        -999.25        -999.25        -999.25         73.147       94.83772         0.5834        -999.25        -999.25         0.5527        61.7199        4.46965              1              1
      4442.5000        -999.25        -999.25        -999.25        -999.25        69.2344       89.47027         0.5827        -999.25        -999.25         0.5532        60.9192       3.656834              1              1
      4443.0000        -999.25        -999.25        -999.25        -999.25        69.4392       89.75082         0.5833        -999.25        -999.25         0.5592        60.2203       2.945816              1              1
      4443.5000        -999.25        -999.25        -999.25        -999.25        70.5914       91.33098          0.586        -999.25        -999.25          0.568        59.8451       2.558498              1              1
      4444.0000        -999.25        -999.25        -999.25        -999.25        69.5535       89.90687         0.5849        -999.25        -999.25         0.5675        58.9703       1.671577              1              1
      4444.5000        -999.25        -999.25        -999.25        -999.25        68.8525       88.94491         0.5817        -999.25        -999.25         0.5583        59.6448       2.333099              1              1
      4445.0000        -999.25        -999.25        -999.25        -999.25        68.7946        88.8651         0.5785        -999.25        -999.25         0.5478        60.0894       2.754005              1              1
      4445.5000        -999.25        -999.25        -999.25        -999.25        67.9939       87.76637         0.5779        -999.25        -999.25         0.5342        59.9034       2.544304              1              1
      4446.0000        -999.25        -999.25        -999.25        -999.25        69.3232       89.58946          0.584        -999.25        -999.25         0.5286        58.6445       1.261703              1              1
      4446.5000        -999.25        -999.25        -999.25        -999.25        70.9976       91.88593         0.5975        -999.25        -999.25         0.5353        57.6312      0.2247047              1              1
      4447.0000        -999.25        -999.25        -999.25        -999.25        71.5282        92.6134         0.6103        -999.25        -999.25         0.5502        56.2105      -1.219696              1      0.9931345
      4447.5000        -999.25        -999.25        -999.25        -999.25        68.1359       87.95968         0.6238        -999.25        -999.25         0.5775         53.236      -4.217892              1      0.8994409
      4448.0000        -999.25        -999.25        -999.25        -999.25        64.8726       83.48289         0.6382        -999.25        -999.25         0.6069        51.7548      -5.722794              1      0.8524127
      4448.5000        -999.25        -999.25        -999.25        -999.25         63.397       81.45837         0.6531        -999.25        -999.25         0.6266        54.4036      -3.097694              1      0.9344471
      4449.0000        -999.25        -999.25        -999.25        -999.25         62.525       80.26185         0.6629        -999.25        -999.25          0.638        55.8526       -1.67239              1      0.9789878
      4449.5000        -999.25        -999.25        -999.25        -999.25        63.1125       81.06737         0.6685        -999.25        -999.25         0.6351         57.119     -0.4296913              1              1
      4450.0000        -999.25        -999.25        -999.25        -999.25        65.4539        84.2788         0.6667        -999.25        -999.25         0.6085        58.4507      0.8783073              1              1
      4450.5000        -999.25        -999.25        -999.25        -999.25        67.1448       86.59791         0.6641        -999.25        -999.25         0.5884        59.7948       2.198711              1              1
      4451.0000        -999.25        -999.25        -999.25        -999.25        67.1744       86.63814         0.6632        -999.25        -999.25         0.5737        59.8861       2.266312              1              1
      4451.5000        -999.25        -999.25        -999.25        -999.25        66.4261       85.61128         0.6555        -999.25        -999.25          0.557        57.6719     0.02841187              1              1
      4452.0000        -999.25        -999.25        -999.25        -999.25        68.4493       88.38622         0.6528        -999.25        -999.25         0.5561        55.7507      -1.916485              1      0.9713598
      4452.5000        -999.25        -999.25        -999.25        -999.25        71.4882       92.55442         0.6439        -999.25        -999.25         0.5802         56.587      -1.103886              1      0.9967536
      4453.0000        -999.25        -999.25        -999.25        -999.25        71.5338       92.61661         0.6316        -999.25        -999.25         0.6053        58.6371      0.9225121              1              1
      4453.5000        -999.25        -999.25        -999.25        -999.25        70.4347       91.10857         0.6219        -999.25        -999.25         0.6216        60.8364       3.098114              1              1
      4454.0000        -999.25        -999.25        -999.25        -999.25        70.1761       90.75346         0.6438        -999.25        -999.25         0.6208        61.1871       3.425114              1              1
      4454.5000        -999.25        -999.25        -999.25        -999.25        69.6722       90.06187         0.6516        -999.25        -999.25         0.5957        61.0377       3.252014              1              1
      4455.0000        -999.25        -999.25        -999.25        -999.25          70.36       91.00497         0.6454        -999.25        -999.25         0.5813         58.995       1.185616              1              1
      4455.5000        -999.25        -999.25        -999.25        -999.25        72.6459       94.14026         0.6324        -999.25        -999.25         0.5732        58.3075      0.4744148              1              1
      4456.0000        -999.25        -999.25        -999.25        -999.25        75.0526       97.44125         0.6177        -999.25        -999.25         0.5683        58.3033      0.4465141              1              1
      4456.5000        -999.25        -999.25        -999.25        -999.25         75.281        97.7542         0.6008        -999.25        -999.25         0.5646          58.21      0.3295174              1              1
      4457.0000        -999.25        -999.25        -999.25        -999.25        75.9635       98.69004         0.5858        -999.25        -999.25         0.5597        56.9918      -0.912384              1              1
      4457.5000        -999.25        -999.25        -999.25        -999.25        78.1025       101.6238         0.5746        -999.25        -999.25         0.5551        55.8231      -2.104778              1      0.9654757
