#------------------------------------------------------------------------------
# Created by    : vladimir.rabinovich
# Created on    : 09/19/2023 17:22:15
#------------------------------------------------------------------------------
~Version Information Section
VERS.           2.0     :   CWLS log ASCII Standard - VERSION 2.0
WRAP.           NO      :   One line per depth step
~Well Information Section
#MNEM       .UNIT                                         VALUE :DESCRIPTION
#------------------------------------------------------------------------------
STRT        .FT                                              41 :START DEPTH
STOP        .FT                                            7991 :STOP DEPTH
STEP        .FT                                             0.5 :STEP      
NULL        .                                           -999.25 :NULL      
COMP        .                           ENERGY DEVELOPMENT CORP :COMPANY   
WELL        .                               OCS G11200 ST00BP00 :WELL      
FLD         .                                           WILDCAT :FIELD     
LOC         .                                                   :LOCATION  
CNTY        .                    NORTH PADRE ISLAND LARGE BLOCK :LOCATION  
STAT        .                                             TEXAS :STATE     
CTRY        .                                     UNITED STATES :COUNTRY   
SRVC        .                                                   :SERVICE COMPANY
DATE        .                             9/13/2023 11:18:55 AM :LOG DATE  
API         .                                    42701400410000 :API NUMBER
UWI         .                                    42701400410000 :UNIQUE WELL ID
XCOORD      .                                   309944.09600436 :SURFACE X 
YCOORD      .                                  9740515.29665267 :SURFACE Y 
LAT         .                                          26.78454 :LATITUDE  
LON         .                                        -97.077486 :LONGITUDE 
ELEV        .FT                                              91 :ELEVATION VALUE
ELEV_TYPE   .                                                KB :ELEVATION REFERENCE TYPE
~Curve Information Section
#MNEM       .UNIT                                      API CODE :CURVE DESCRIPTION
#------------------------------------------------------------------------------
DEPT        .FT                                                 :DEPTH     
CALI        .IN                                                 :          
DRHO        .G/C3                                               :          
DT          .US/F                                               :          
GR          .GAPI                                               :          
GR_NORM     .GAPI                                               :GammaRay Normalized
ILD         .OHMM                                               :          
ILM         .OHMM                                               :          
NPHI        .%                                                  :          
RFOC        .OHMM                                               :          
RHOB        .G/C3                                               :          
SP          .MV                                                 :          
SP_NORM     .MV                                                 :SP Normalized
VSH_GR      .V/V                                                :Volume of Shale from GR
VSH_SP      .V/V                                                :Volume of Shale from SP
~A        DEPTH           CALI           DRHO             DT             GR        GR_NORM            ILD            ILM           NPHI           RFOC           RHOB             SP        SP_NORM         VSH_GR         VSH_SP
# ...
      6629.0000        10.7445         0.0551        86.5049        61.7934       53.97356         0.9582         1.0722        26.6194         1.3552         2.4411       -54.8367      -9.053566      0.4462461      0.8356415
      6629.5000        10.7378         0.0613        82.5897         62.872       55.53227          0.969         1.0596        28.1917         1.3621         2.4027       -57.4879      -11.70477      0.4794101      0.7815354
      6630.0000        10.6819          0.097        83.0764        63.1934       55.99338         0.9667         1.0301        29.5585         1.2739         2.3375       -59.4638      -13.68066      0.4892209      0.7412109
      6630.5000        10.5486         0.0954        90.0748        62.9439       55.62695         0.9338         0.9967        30.3129         1.1975         2.2947       -61.4422      -15.65907      0.4814244      0.7008354
      6631.0000        10.4826          0.078        92.1798        62.7252       55.30516         0.8746         0.9581        30.7774         1.1722         2.2911       -63.2518      -17.46867      0.4745778      0.6639048
      6631.5000         10.434         0.0786        92.4634        62.7841       55.38575         0.8253         0.9246        29.6385         1.2024         2.3063       -64.5237      -18.74056      0.4762926      0.6379477
      6632.0000        10.4322         0.1025        92.3143        62.6312       55.15934         0.8125         0.9057        28.5467         1.2486         2.3226       -64.9038      -19.12067      0.4714753      0.6301905
      6632.5000        10.4184         0.1129        91.2019         62.257       54.61214         0.8182         0.9053        28.4488          1.254         2.3346       -65.6442      -19.86107      0.4598327      0.6150802
      6633.0000         10.395         0.0965        89.8651        61.3007       53.22116         0.8325         0.9076        29.0496         1.2473          2.343       -66.3162      -20.53307      0.4302375       0.601366
      6633.5000        10.3714         0.0741        89.5203        61.0202       52.80978         0.8579         0.9125        28.9405         1.2328         2.3468       -66.6499      -20.86677      0.4214848      0.5945557
      6634.0000        10.3476         0.0652        90.4224        61.9609        54.1686         0.8774         0.9251        28.5387         1.2363         2.3365       -66.5371      -20.75397      0.4503957      0.5968578
      6634.5000        10.3237         0.0864        91.2125        62.9216        55.5564         0.8939         0.9427        28.4915         1.2701         2.3266        -65.538      -19.75487      0.4799234      0.6172476
      6635.0000        10.2872         0.1102        91.6356        62.9995       55.66454          0.907         0.9726        28.4531         1.2505         2.3276       -64.5428      -18.75967      0.4822243      0.6375578
      6635.5000        10.2482         0.1086        91.7273        62.6607       55.16866         0.9131         0.9979        28.1678         1.2095         2.3523       -64.3651      -18.58196      0.4716736      0.6411844
      6636.0000        10.2246         0.0782        91.4465        62.3367       54.69423           0.91         1.0017        27.6529         1.1982         2.3788       -65.3741      -19.59097      0.4615794      0.6205925
      6636.5000        10.2142         0.0566        90.4274        58.9884       49.83593         0.8798         0.9922        26.2098         1.2275         2.3913       -69.4005      -23.61736      0.3582113      0.5384212
      6637.0000        10.2045         0.0602        87.8702        53.0309       41.19546         0.7946         0.9525        24.5957         1.3252          2.402       -73.3771      -27.59396      0.1743714      0.4572661
      6637.5000        10.2102         0.0681        84.7273        47.4755       33.13786         0.7212         0.8866        24.4102         1.5302         2.4142       -77.5077      -31.72456    0.002933096      0.3729681
      6638.0000        10.2159         0.0374        79.3798        42.4363       25.82852         0.6535         0.7717        24.4038         1.8123         2.4336       -81.3851      -35.60197              0      0.2938374
      6638.5000        10.2211         0.0175        76.3447        41.3004        24.1772         0.5853         0.6562        24.5383         2.1893         2.4131       -88.8171      -43.03397              0       0.142164
      6639.0000         10.226         0.0505        75.6257        41.3193       24.19983          0.529         0.5876        24.9835         1.5781         2.3551       -92.7864      -47.00327              0     0.06115785
      6639.5000        10.2309         0.0942        79.3848        42.4065         25.771          0.489         0.5401        25.6703         1.1471         2.3133       -94.9211      -49.13796              0     0.01759261
      6640.0000        10.2276         0.1101        82.2993        44.4321       28.70243         0.4489         0.5114        26.7524         1.0225          2.321       -95.8619      -50.07877              0              0
      6640.5000        10.2217          0.106        83.0236        46.2592       31.34612         0.4073         0.4841        27.7224         1.0023         2.3386       -96.0347      -50.25156              0              0
      6641.0000        10.2158         0.0777        83.5555        47.8626       33.66555         0.3796         0.4567        28.8702         0.9214         2.3276       -95.9215      -50.13837     0.01416056              0
      6641.5000        10.2115         0.0528        83.9027        49.0778       35.42226         0.3634         0.4387        30.2408         0.8404         2.2922       -95.5472      -49.76407     0.05153745    0.004814927
      6642.0000        10.2077         0.0342        83.8638        49.8547       36.54364          0.354           0.43        31.3902         0.8176          2.252       -95.1733      -49.39017      0.0753966     0.01244557
      6642.5000         10.211         0.0209        88.3966         50.214       37.05969         0.3538         0.4277         31.758         0.8267         2.2251       -95.1204      -49.33727     0.08637635      0.0135252
      6643.0000        10.2502         0.0227        90.7948        49.7734       36.41623         0.3569         0.4307         31.861         0.8294         2.2089        -95.068      -49.28487     0.07268581     0.01459456
      6643.5000        10.2787         0.0232        92.4209        48.5043       34.57183         0.3661         0.4356        31.7735         0.8374         2.2021       -95.0487      -49.26556     0.03344321     0.01498849
      6644.0000        10.2983         0.0227        94.2432        47.7109       33.41699         0.3773         0.4415        31.5239         0.8625         2.1982       -95.0939      -49.31077    0.008872093     0.01406596
      6644.5000         10.299         0.0209        94.8589        48.2027        34.1251         0.3921         0.4484        31.6211         0.9369         2.1958       -95.1277      -49.34457     0.02393828      0.0133762
      6645.0000        10.2896         0.0197        94.4225         48.688       34.82379         0.4114         0.4604        32.1838         0.9969         2.1933       -95.0264      -49.24326     0.03880399     0.01544361
      6645.5000        10.2775          0.019        93.4425        50.0893       36.85025         0.4334         0.4813        32.8825           0.98         2.1922        -94.925      -49.14187      0.0819203     0.01751289
      6646.0000        10.2791         0.0175        92.1243        51.3584       38.68511         0.4593         0.5101        33.5461         0.9501         2.1919       -94.6064      -48.82327      0.1209598       0.024015
      6646.5000        10.2817         0.0153        90.6757        51.8952       39.45845         0.4896         0.5439        33.8607         0.9236         2.1895       -94.0995      -48.31637      0.1374139     0.03435984
