#------------------------------------------------------------------------------
# Created by    : vladimir.rabinovich
# Created on    : 09/19/2023 17:20:10
#------------------------------------------------------------------------------
~Version Information Section
VERS.           2.0     :   CWLS log ASCII Standard - VERSION 2.0
WRAP.           NO      :   One line per depth step
~Well Information Section
#MNEM       .UNIT                                         VALUE :DESCRIPTION
#------------------------------------------------------------------------------
STRT        .FT                                             409 :START DEPTH
STOP        .FT                                           13135 :STOP DEPTH
STEP        .FT                                             0.5 :STEP      
NULL        .                                           -999.25 :NULL      
COMP        .                         ATLANTIC RICHFIELD CO THE :COMPANY   
WELL        .                               OCS G04547 ST00BP00 :WELL      
FLD         .                                           WILDCAT :FIELD     
LOC         .                                                   :LOCATION  
CNTY        .                      MATAGORDA ISLAND LARGE BLOCK :LOCATION  
STAT        .                                             TEXAS :STATE     
CTRY        .                                     UNITED STATES :COUNTRY   
SRVC        .                                                   :SERVICE COMPANY
DATE        .                             9/13/2023 11:12:03 AM :LOG DATE  
API         .                                    42703401300000 :API NUMBER
UWI         .                                    42703401300000 :UNIQUE WELL ID
XCOORD      .                                  517134.995430583 :SURFACE X 
YCOORD      .                                  10172294.5320476 :SURFACE Y 
LAT         .                                         27.987424 :LATITUDE  
LON         .                                        -96.480505 :LONGITUDE 
ELEV        .FT                                              99 :ELEVATION VALUE
ELEV_TYPE   .                                                KB :ELEVATION REFERENCE TYPE
~Curve Information Section
#MNEM       .UNIT                                      API CODE :CURVE DESCRIPTION
#------------------------------------------------------------------------------
DEPT        .FT                                                 :DEPTH     
ASFL        .OHMM                                               :          
CILD        .MMHO                                               :          
GR          .GAPI                                               :          
GR_NORM     .GAPI                                               :GammaRay Normalized
ILD         .OHMM                                               :          
SP          .MV                                                 :          
SP_NORM     .MV                                                 :SP Normalized
VSH_GR      .V/V                                                :Volume of Shale from GR
VSH_SP      .V/V                                                :Volume of Shale from SP
~A        DEPTH           ASFL           CILD             GR        GR_NORM            ILD             SP        SP_NORM         VSH_GR         VSH_SP
# ...
      8014.5000         1.0959       969.6201        -999.25        -999.25         0.9994       -51.0554      -9.139233        -999.25      0.8338932
      8015.0000         1.1605       931.8818        -999.25        -999.25         1.0636        -52.872      -10.95583        -999.25      0.7968197
      8015.5000          1.236       917.8672        -999.25        -999.25          1.133       -54.4129      -12.49673        -999.25      0.7653728
      8016.0000         1.2548       921.6025        -999.25        -999.25         1.1725       -55.5056      -13.58943        -999.25      0.7430728
      8016.5000         1.2592       925.3369        -999.25        -999.25         1.1814       -55.9579      -14.04173        -999.25      0.7338422
      8017.0000         1.2622       929.0723        -999.25        -999.25         1.1903       -56.4109      -14.49473        -999.25      0.7245973
      8017.5000         1.2652       933.4092        -999.25        -999.25         1.1956       -57.6301      -15.71393        -999.25      0.6997157
      8018.0000         1.2689       888.9385        -999.25        -999.25         1.2004       -59.1201      -17.20393        -999.25      0.6693075
      8018.5000         1.2817       805.4277        -999.25        -999.25         1.2052       -62.1196      -20.20343        -999.25      0.6080933
      8019.0000         1.3226       809.7588        -999.25        -999.25         1.2101       -67.9154      -25.99923        -999.25      0.4898117
      8019.5000         1.9775       814.0898        -999.25        -999.25         1.2149       -71.0842      -29.16803        -999.25      0.4251423
      8020.0000         1.9961       818.4209        -999.25        -999.25         1.2197       -72.9794      -31.06323        -999.25      0.3864647
      8020.5000         2.1062       822.7578        -999.25        -999.25         1.2245       -74.2009      -32.28473        -999.25      0.3615361
      8021.0000         2.2891       767.5752        -999.25        -999.25         1.2293       -75.2896      -33.37343        -999.25      0.3393178
      8021.5000         2.4498       719.7402        -999.25        -999.25         1.2335       -67.0155      -25.09933        -999.25      0.5081769
      8022.0000         2.2537       712.9277        -999.25        -999.25         1.2375        -63.629      -21.71283        -999.25      0.5772891
      8022.5000         2.0695       710.1172        -999.25        -999.25         1.2416       -61.6503      -19.73413        -999.25      0.6176708
      8023.0000         1.8554       721.0781        -999.25        -999.25         1.2463       -59.8071      -17.89093        -999.25      0.6552871
      8023.5000          1.638       732.0391        -999.25        -999.25         1.2708       -58.5251      -16.60893        -999.25      0.6814504
      8024.0000         1.5833       748.6943        -999.25        -999.25         1.2953        -57.185      -15.26883        -999.25      0.7087993
      8024.5000         1.4828       770.6895        -999.25        -999.25         1.3198       -56.1769      -14.26073        -999.25      0.7293729
      8025.0000         1.4424       784.0049        -999.25        -999.25         1.3444       -55.7106      -13.79443        -999.25      0.7388891
      8025.5000         1.4243       787.1768        -999.25        -999.25         1.3661       -55.2444      -13.32823        -999.25      0.7484034
      8026.0000         1.4274       762.6113        -999.25        -999.25         1.3869       -54.7116      -12.79543        -999.25      0.7592769
      8026.5000         1.4539       707.8184        -999.25        -999.25         1.4162       -54.1014      -12.18523        -999.25        0.77173
      8027.0000         1.4816       653.1221        -999.25        -999.25         1.4669       -54.3657      -12.44953        -999.25      0.7663361
      8027.5000         1.5292       622.4648        -999.25        -999.25         1.5176       -54.6862      -12.77003        -999.25      0.7597953
      8028.0000         1.6128       642.3672        -999.25        -999.25         1.5755       -55.0061      -13.08993        -999.25      0.7532667
      8028.5000         1.7576       662.2705        -999.25        -999.25         1.5924       -55.3267      -13.41053        -999.25      0.7467239
      8029.0000         1.8142       678.8398        -999.25        -999.25          1.567       -55.6432      -13.72703        -999.25      0.7402647
      8029.5000         1.7483       692.0273        -999.25        -999.25         1.5417       -55.6998      -13.78363        -999.25      0.7391096
      8030.0000          1.658       673.6084        -999.25        -999.25         1.5164       -51.0264      -9.110233        -999.25      0.8344851
      8030.5000         1.5387       653.9492        -999.25        -999.25         1.4911       -49.8073      -7.891132        -999.25      0.8593646
      8031.0000         1.3091       634.3135        -999.25        -999.25         1.4632       -48.8977      -6.981533        -999.25      0.8779279
      8031.5000         1.3236       614.6543        -999.25        -999.25         1.4267       -48.1757      -6.259533        -999.25      0.8926626
      8032.0000          1.347       686.3096        -999.25        -999.25         1.3901       -47.7339       -5.81773        -999.25       0.901679
      8032.5000         1.3852       780.7139        -999.25        -999.25         1.3535       -47.5276      -5.611431        -999.25      0.9058892
      8033.0000         1.4235       855.8477        -999.25        -999.25         1.3105       -47.3215      -5.405331        -999.25      0.9100953
      8033.5000          1.265       896.9678        -999.25        -999.25         1.2565       -47.1155      -5.199333        -999.25      0.9142993
      8034.0000         1.0406       924.5342        -999.25        -999.25         1.2025       -46.9024      -4.986233        -999.25      0.9186483
      8034.5000         0.9999       946.0674        -999.25        -999.25          1.032        -46.685      -4.768833        -999.25       0.923085
      8035.0000         0.9277       967.9648        -999.25        -999.25         0.9892       -46.3977      -4.481533        -999.25      0.9289483
      8035.5000         0.9166       1003.976        -999.25        -999.25         0.9618       -45.6733      -3.757133        -999.25       0.943732
      8036.0000         0.9078       1073.465        -999.25        -999.25         0.9369        -45.005      -3.088833        -999.25      0.9573708
      8036.5000         0.9037       1129.523        -999.25        -999.25          0.925       -44.4287      -2.512531        -999.25       0.969132
      8037.0000          0.947       1169.668        -999.25        -999.25         0.9139       -44.0482       -2.13203        -999.25      0.9768974
      8037.5000         0.9878       1068.014        -999.25        -999.25         0.9065       -43.9232       -2.00703        -999.25      0.9794484
      8038.0000         0.9931       896.9189        -999.25        -999.25         0.8992         -43.97      -2.053833        -999.25      0.9784932
      8038.5000         0.9984        803.293        -999.25        -999.25         0.8919         -44.39      -2.473831        -999.25      0.9699218
      8039.0000         1.0037       772.2705        -999.25        -999.25         0.8933       -45.1774       -3.26123        -999.25      0.9538524
      8039.5000         1.0104       751.9297        -999.25        -999.25          0.907       -46.4056      -4.489433        -999.25      0.9287871
      8040.0000         1.0195       731.2246        -999.25        -999.25         0.9999       -46.6151      -4.698933        -999.25      0.9245116
      8040.5000         1.0746        710.373        -999.25        -999.25         1.0851       -46.8246      -4.908432        -999.25      0.9202361
