#------------------------------------------------------------------------------
# Created by    : vladimir.rabinovich
# Created on    : 09/19/2023 17:19:40
#------------------------------------------------------------------------------
~Version Information Section
VERS.           2.0     :   CWLS log ASCII Standard - VERSION 2.0
WRAP.           NO      :   One line per depth step
~Well Information Section
#MNEM       .UNIT                                         VALUE :DESCRIPTION
#------------------------------------------------------------------------------
STRT        .FT                                             305 :START DEPTH
STOP        .FT                                          9892.5 :STOP DEPTH
STEP        .FT                                             0.5 :STEP      
NULL        .                                           -999.25 :NULL      
COMP        .                         ATLANTIC RICHFIELD CO THE :COMPANY   
WELL        .                               OCS G07247 ST00BP00 :WELL      
FLD         .                                           WILDCAT :FIELD     
LOC         .                                                   :LOCATION  
CNTY        .                             GALVESTON LARGE BLOCK :LOCATION  
STAT        .                                             TEXAS :STATE     
CTRY        .                                     UNITED STATES :COUNTRY   
SRVC        .                                                   :SERVICE COMPANY
DATE        .                             9/13/2023 11:19:27 AM :LOG DATE  
API         .                                    42706401220000 :API NUMBER
UWI         .                                    42706401220000 :UNIQUE WELL ID
XCOORD      .                                  995038.545578968 :SURFACE X 
YCOORD      .                                  10445559.0196594 :SURFACE Y 
LAT         .                                         28.768363 :LATITUDE  
LON         .                                        -95.014888 :LONGITUDE 
ELEV        .FT                                              98 :ELEVATION VALUE
ELEV_TYPE   .                                                KB :ELEVATION REFERENCE TYPE
~Curve Information Section
#MNEM       .UNIT                                      API CODE :CURVE DESCRIPTION
#------------------------------------------------------------------------------
DEPT        .FT                                                 :DEPTH     
ALL         .OHMM                                               :          
CILD        .MMHO                                               :          
GR          .GAPI                                               :          
GR_NORM     .GAPI                                               :GammaRay Normalized
ILD         .OHMM                                               :          
SP          .MV                                                 :          
VSH_GR      .V/V                                                :Volume of Shale from GR
~A        DEPTH            ALL           CILD             GR        GR_NORM            ILD             SP         VSH_GR
# ...
      6067.0000         0.8691       1120.043        52.5101       71.15846         0.8694        65.9561      0.8118822
      6067.5000         0.8696       1111.914        52.3901       70.96796         0.8558        66.0504       0.807829
      6068.0000         0.8707       1104.238        52.2654       70.77004         0.8279        66.1448      0.8036179
      6068.5000         0.8719       1119.072        52.1409       70.57243         0.7894        66.2393      0.7994133
      6069.0000         0.8838       1188.982        52.0162       70.37448         0.7509        66.3336      0.7952017
      6069.5000         0.9039       1350.205        51.8917       70.17686         0.7123        66.9938       0.790997
      6070.0000         0.9284       1431.678         49.802       66.85988          0.682        69.6075      0.7204229
      6070.5000          0.952       1476.584        47.3378       62.94846         0.6629        75.8392      0.6372012
      6071.0000         0.9703       1509.676        45.1922       59.54275          0.661        80.9125      0.5647393
      6071.5000         0.9781       1536.658        43.3314       56.58909         0.6696         85.194      0.5018955
      6072.0000         0.9814       1554.115        42.1307        54.6832         0.6834        94.3412      0.4613448
      6072.5000         0.9789       1562.076         42.156       54.72336         0.6972        96.9467      0.4621992
      6073.0000         0.9764       1548.975        43.2988       56.53735         0.7113        95.7157      0.5007946
      6073.5000          0.973       1529.613        44.4416       58.35131          0.726        94.4849      0.5393897
      6074.0000         0.9694       1508.166        45.5168       60.05798         0.7408        93.2539      0.5757018
      6074.5000         0.9658       1475.242        46.5908       61.76274         0.7556        91.6116      0.6119732
      6075.0000         0.9621       1442.342        47.2793        62.8556         0.7593         88.865      0.6352255
      6075.5000         0.9585       1409.416        46.0599       60.92003         0.7323        86.7194      0.5940431
      6076.0000         0.9623       1392.092        44.6299        58.6502         0.7054        89.7773      0.5457489
      6076.5000         0.9788       1517.943        42.7159        55.6121         0.6784        95.6783      0.4811086
      6077.0000         1.0081       1643.795        40.5703       52.20639         0.6503       103.3822      0.4086466
      6077.5000          1.025       1769.744        38.0748       48.24528         0.5988       123.2117      0.3243676
      6078.0000         1.0343       1895.596        35.3523       43.92385         0.5472       127.4498      0.2324223
      6078.5000         1.0436       2160.047        32.6323       39.60639         0.4957       130.1384      0.1405615
      6079.0000          1.048       2565.688        29.9099       35.28512         0.4441       132.1187     0.04861953
      6079.5000         0.9358       2971.711        25.3688       28.07702         0.3906       133.5522              0
      6080.0000         0.7955       3349.555        24.2671       26.32829         0.3357       134.7676              0
      6080.5000         0.7859       4239.578        23.7379       25.48829         0.2993       135.6558              0
      6081.0000         0.7764       4640.617         23.283       24.76623         0.2656       136.5427              0
      6081.5000         0.7741       4808.313        22.8772       24.12211         0.2452       136.9019              0
      6082.0000         0.7749       4836.648        22.6972       23.83639         0.2296       137.1921              0
      6082.5000         0.7758       4825.727        22.6353       23.73814          0.228       137.4824              0
      6083.0000         0.7771       4790.867        22.9046       24.16559         0.2264       137.7729              0
      6083.5000         0.7785       4740.781         23.174       24.59321         0.2248        137.937              0
      6084.0000         0.7799       4691.297        23.4435       25.02099         0.2235       138.0417              0
      6084.5000         0.7814       4658.664        23.7126       25.44814         0.2232       138.1462              0
      6085.0000          0.782       4626.023        24.1585       26.15591         0.2229        138.251              0
      6085.5000         0.7808       4604.672        24.6158       26.88179         0.2226       138.3557              0
      6086.0000         0.7796       4589.758        25.0738       27.60877         0.2223       138.4602              0
      6086.5000         0.7784       4574.852        25.5312        28.3348          0.222       138.3977              0
      6087.0000         0.7771       4563.633        25.9891       29.06163         0.2223       138.3291              0
      6087.5000         0.7759       4556.992        26.5249        29.9121         0.2265       138.2605              0
      6088.0000         0.7741       4565.086        27.1343       30.87941         0.2308       138.1921              0
      6088.5000         0.7722        4599.07        27.7431       31.84575          0.235        138.053              0
      6089.0000         0.7703       4625.211        28.3525       32.81306         0.2393       137.6594              0
      6089.5000         0.7685       4649.195        28.9619       33.78036         0.2436       137.2664     0.01660343
      6090.0000         0.7666       4673.211        29.6076       34.80528         0.2478        136.873     0.03841027
      6090.5000         0.7692         4681.5        30.2707       35.85782         0.2521       136.4292     0.06080465
      6091.0000         0.7731       4681.484        30.9338       36.91036         0.2551       135.8391     0.08319911
      6091.5000         0.7769       4670.078        31.5149       37.83274         0.2554        135.249      0.1028243
      6092.0000         0.7808       4654.805        32.0223       38.63814         0.2557       134.6582      0.1199604
      6092.5000         0.7847       4639.531        31.7948       38.27702          0.256       134.1768      0.1122771
      6093.0000         0.7885       4625.813        31.4379       37.71052         0.2564       133.9399      0.1002238
      6093.5000         0.7895       4612.195         31.081         37.144         0.2567       134.4846     0.08817031
      6094.0000         0.7878       4598.586        30.7997        36.6975          0.257       135.0439     0.07867026
      6094.5000         0.7861       4584.977        30.8421        36.7648         0.2573       135.5708     0.08010207
      6095.0000         0.7831       4577.656        30.8845       36.83211         0.2577       135.8013      0.0815342
      6095.5000         0.7786       4570.438        30.9269        36.8994          0.258       136.0322     0.08296601
      6096.0000         0.7741       4563.219        30.9694       36.96687         0.2583       136.2629     0.08440147
      6096.5000         0.7696           4556        31.0118       37.03416         0.2586       136.3794     0.08583329
      6097.0000          0.765       4548.781        31.0542       37.10147          0.259       136.3684     0.08726526
      6097.5000         0.7605       4536.367        31.0966       37.16877         0.2593       136.3574     0.08869723
      6098.0000         0.7555       4523.227        31.1391       37.23623         0.2596       136.3464     0.09013253
      6098.5000         0.7506        4510.07        31.1815       37.30353           0.26       136.3354     0.09156451
      6099.0000         0.7457       4490.492        31.2679       37.44068         0.2603       136.3247      0.0944825
      6099.5000         0.7407       4464.203        31.3732       37.60781         0.2635       136.3137     0.09803861
      6100.0000         0.7351       4441.344        31.4785       37.77496         0.2669       136.3027      0.1015949
