#------------------------------------------------------------------------------
# Created by    : vladimir.rabinovich
# Created on    : 09/19/2023 17:21:24
#------------------------------------------------------------------------------
~Version Information Section
VERS.           2.0     :   CWLS log ASCII Standard - VERSION 2.0
WRAP.           NO      :   One line per depth step
~Well Information Section
#MNEM       .UNIT                                         VALUE :DESCRIPTION
#------------------------------------------------------------------------------
STRT        .FT                                            4234 :START DEPTH
STOP        .FT                                            7516 :STOP DEPTH
STEP        .FT                                             0.5 :STEP      
NULL        .                                           -999.25 :NULL      
COMP        .                          SEAGULL ENERGY E & P INC :COMPANY   
WELL        .                               OCS G11311 ST00BP00 :WELL      
FLD         .                                           WILDCAT :FIELD     
LOC         .                                                   :LOCATION  
CNTY        .                             GALVESTON LARGE BLOCK :LOCATION  
STAT        .                                             TEXAS :STATE     
CTRY        .                                     UNITED STATES :COUNTRY   
SRVC        .                                                   :SERVICE COMPANY
DATE        .                             9/13/2023 11:19:54 AM :LOG DATE  
API         .                                    42706403550000 :API NUMBER
UWI         .                                    42706403550000 :UNIQUE WELL ID
XCOORD      .                                  972569.007613557 :SURFACE X 
YCOORD      .                                  10477919.1442114 :SURFACE Y 
LAT         .                                         28.856272 :LATITUDE  
LON         .                                        -95.086774 :LONGITUDE 
ELEV        .FT                                              94 :ELEVATION VALUE
ELEV_TYPE   .                                                KB :ELEVATION REFERENCE TYPE
~Curve Information Section
#MNEM       .UNIT                                      API CODE :CURVE DESCRIPTION
#------------------------------------------------------------------------------
DEPT        .FT                                                 :DEPTH     
CALI        .IN                                                 :          
DPHI        .%                                                  :          
DRHO        .G/C3                                               :          
DTLN        .US/F                                               :          
GR          .GAPI                                               :          
GR_NORM     .GAPI                                               :GammaRay Normalized
IDPH        .OHMM                                               :          
IMPH        .OHMM                                               :          
NPHI        .%                                                  :          
SFLU        .OHMM                                               :          
SP          .MV                                                 :          
SP_NORM     .MV                                                 :SP Normalized
VSH_GR      .V/V                                                :Volume of Shale from GR
VSH_SP      .V/V                                                :Volume of Shale from SP
~A        DEPTH           CALI           DPHI           DRHO           DTLN             GR        GR_NORM           IDPH           IMPH           NPHI           SFLU             SP        SP_NORM         VSH_GR         VSH_SP
# ...
      6862.0000        10.6674        11.6296        -0.0083        92.6614        65.8567       65.07944         1.2681         1.3703        33.0703         1.6037       -53.2971      -12.41584      0.6825412      0.8226308
      6862.5000        10.6876         8.5106         -0.006        86.5541        58.2991       57.53497         1.3971         1.6751        21.3732         2.5988       -53.5162      -12.64234      0.5220207      0.8193951
      6863.0000        10.6889         7.2378        -0.0061         78.975        53.0469       52.29136         1.5963         1.9981        13.6517         3.3574       -53.5154      -12.64894      0.4104545      0.8193009
      6863.5000        10.6856         7.3795        -0.0081        76.7899        51.0704       50.31698         1.8048         2.3166        14.1943         3.5573       -53.0422      -12.18313      0.3684464      0.8259553
      6864.0000        10.6764         8.0881        -0.0114        79.8361        51.6098       50.85352         1.9792          2.406        17.2834         3.2846       -51.4666      -10.61493      0.3798621      0.8483582
      6864.5000        10.6714         9.6192        -0.0149        85.0673        53.8538        53.0913         2.0553          2.266        19.1725         2.7126       -49.7083      -8.864029      0.4274745       0.873371
      6865.0000        10.6619        11.6026        -0.0186        89.4175         60.384       59.60681         2.0295           2.09        21.9724         2.0613       -48.1326      -7.295723      0.5661023      0.8957754
      6865.5000        10.6344        13.6101          -0.02        94.3184          67.25       66.45746         1.9422         1.9005        25.7296         1.6733       -47.2535      -6.424023      0.7118608      0.9082282
      6866.0000        10.5833        15.4138        -0.0183        97.0792         74.116       73.30811         1.8244         1.7754        28.7498         1.5275       -46.7838      -5.961716      0.8576193      0.9148327
      6866.5000        10.5255        16.4411        -0.0157        98.3145        80.9919       80.16863          1.698         1.6746        32.0067         1.4548       -45.9686      -5.153915              1      0.9263726
      6867.0000         10.483        16.6744        -0.0116        99.0835        87.6223       86.78415         1.6165         1.6112        34.4845         1.4663       -45.1328      -4.325512              1       0.938207
      6867.5000        10.4878        16.3662        -0.0081         99.498        89.9252       89.08072         1.5726         1.5715        35.7425         1.4693       -44.7695      -3.969608              1      0.9432913
      6868.0000        10.5228        16.0557          -0.01         99.535        90.2896        89.4426         1.5538         1.5695        35.6885         1.4646       -44.4302      -3.637703              1      0.9480328
      6868.5000        10.5448        15.8711         -0.012         99.335        88.1862       87.34157          1.539         1.5698        35.6762         1.4524       -43.9482      -3.163101              1      0.9548128
      6869.0000         10.545        15.5864        -0.0137        99.0441         85.337       84.49621         1.5218         1.5746         36.772         1.4824         -42.79      -2.012299              1      0.9712529
      6869.5000        10.5076        15.1314        -0.0141        98.4083        80.9368       80.10291         1.5057         1.5666        36.8814         1.5082       -41.4515     -0.6811943              1      0.9902686
      6870.0000        10.4418        14.7763        -0.0158        97.6096        77.9098        77.0801         1.4897         1.5518        36.3807         1.4818       -41.2991       -0.53619      0.9378745      0.9923401
      6870.5000        10.3711        14.8145        -0.0181        97.9902        77.2585       76.42829          1.474          1.533        36.1848         1.4419        -41.884      -1.128487      0.9240062      0.9838788
      6871.0000        10.3421        15.4273        -0.0214        99.0065        78.5187       77.68422         1.4764         1.5175        36.2024         1.3924        -41.988      -1.239883      0.9507281      0.9822874
      6871.5000        10.3296        16.1074        -0.0224        99.6047        82.0645       81.22122         1.4702         1.5016        37.8087         1.3514       -41.9084      -1.167683              1      0.9833188
      6872.0000        10.3238        16.4591        -0.0209        99.8694        83.6656       82.81738         1.4619         1.4835        39.0924          1.343       -42.2845      -1.551174              1      0.9778404
      6872.5000        10.3286        16.4276        -0.0174       100.3256        83.1394       82.29041         1.4331         1.4626        39.1465         1.3555       -42.4836      -1.757671              1      0.9748904
      6873.0000        10.3366        16.1111        -0.0147        101.781        82.5449        81.6953         1.4136         1.4337        40.1143         1.3574        -42.165      -1.446468              1      0.9793361
      6873.5000        10.3225        16.0862        -0.0144       102.6371        82.2981        81.4472         1.3871         1.4036        42.3113         1.3193        -41.916      -1.204865              1      0.9827877
      6874.0000        10.3059        16.2632        -0.0142       103.0426        82.2819       81.42924         1.3671         1.3759        41.7997         1.3055       -41.6219     -0.9181595              1      0.9868835
      6874.5000        10.3032        16.5377        -0.0143       103.8335        83.0192       82.16331         1.3397         1.3416         40.133         1.3074        -41.364     -0.6676559              1      0.9904621
      6875.0000        10.2997        16.5248        -0.0148       105.2064        84.4951        83.6345         1.3074         1.3071        39.8958         1.2734       -41.2441     -0.5551529              1      0.9920692
      6875.5000        10.2957        16.8115        -0.0166       107.1124        86.1615       85.29581         1.2975         1.2932        40.7944         1.2037       -41.2049     -0.5233498              1      0.9925236
      6876.0000        10.2863         17.124        -0.0166       107.0411        87.8303       86.95953         1.2943         1.3143        43.1375         1.1708       -41.2805     -0.6063461              1      0.9913379
      6876.5000        10.3176        16.7606        -0.0166       102.6934        88.5946       87.72053         1.2962         1.3478        44.7325         1.2517       -41.5527     -0.8859444              1      0.9873437
      6877.0000        10.3978        15.3584        -0.0176        97.8827        85.1014       84.23244         1.3041         1.4011        42.8528         1.4046       -42.1711      -1.511742              1      0.9784037
      6877.5000        10.5121        13.9906        -0.0195        95.2301        80.0096       79.14891         1.3053         1.4221        29.7985         1.5315       -42.7406      -2.088638      0.9818917      0.9701623
      6878.0000        10.6161        13.7428        -0.0193        95.1562        73.5697       72.71994         1.3263         1.4366        26.8802          1.517       -43.3284      -2.683834      0.8451051      0.9616595
      6878.5000        10.5737        14.6123        -0.0199        97.2994        72.7528       71.90286          1.331         1.4315        28.4022         1.4098       -43.9958      -3.358631      0.8277205      0.9520196
      6879.0000        10.4952        15.3456         -0.021         98.939        77.0227       76.16254         1.3261         1.4134        34.3406         1.3075       -44.8391      -4.209328       0.918352      0.9398667
      6879.5000        10.4524        15.2291        -0.0189        99.5321        83.5479       82.67307         1.2843          1.386        35.1026         1.2837       -45.8726      -5.250225              1      0.9249968
