#------------------------------------------------------------------------------
# Created by    : vladimir.rabinovich
# Created on    : 09/19/2023 17:20:03
#------------------------------------------------------------------------------
~Version Information Section
VERS.           2.0     :   CWLS log ASCII Standard - VERSION 2.0
WRAP.           NO      :   One line per depth step
~Well Information Section
#MNEM       .UNIT                                         VALUE :DESCRIPTION
#------------------------------------------------------------------------------
STRT        .FT                                            3149 :START DEPTH
STOP        .FT                                           10186 :STOP DEPTH
STEP        .FT                                             0.5 :STEP      
NULL        .                                           -999.25 :NULL      
COMP        .                                  SAMEDAN OIL CORP :COMPANY   
WELL        .                                     ST TR 00817-L :WELL      
FLD         .                                           WILDCAT :FIELD     
LOC         .                                                   :LOCATION  
CNTY        .                        MUSTANG ISLAND LARGE BLOCK :LOCATION  
STAT        .                                             TEXAS :STATE     
CTRY        .                                     UNITED STATES :COUNTRY   
SRVC        .                                                   :SERVICE COMPANY
DATE        .                             9/13/2023 11:18:55 AM :LOG DATE  
API         .                                    42702300080000 :API NUMBER
UWI         .                                    42702300080000 :UNIQUE WELL ID
XCOORD      .                                  304914.569303086 :SURFACE X 
YCOORD      .                                  10013906.4088957 :SURFACE Y 
LAT         .                                        27.5345201 :LATITUDE  
LON         .                                       -97.1203623 :LONGITUDE 
ELEV        .FT                                              65 :ELEVATION VALUE
ELEV_TYPE   .                                                KB :ELEVATION REFERENCE TYPE
~Curve Information Section
#MNEM       .UNIT                                      API CODE :CURVE DESCRIPTION
#------------------------------------------------------------------------------
DEPT        .FT                                                 :DEPTH     
ASFL        .OHMM                                               :          
CILD        .MMHO                                               :          
DT          .US/F                                               :          
GR          .GAPI                                               :          
ILD         .OHMM                                               :          
SP          .MV                                                 :          
SP_NORM     .MV                                                 :SP Normalized
VSH_SP      .V/V                                                :Volume of Shale from SP
~A        DEPTH           ASFL           CILD             DT             GR            ILD             SP        SP_NORM         VSH_SP
# ...
     10170.0000         0.7116       2019.443       108.4894        29.9503         0.5545       -41.9517       3.662334              1
     10170.5000         0.7204       2015.939       108.5071        30.1649         0.5465       -41.6237       3.990334              1
     10171.0000         0.7291        2011.77        108.501        30.3792         0.5328       -41.2647       4.349331              1
     10171.5000         0.7379         2007.6       108.4921        30.8585         0.5245       -40.8627       4.751331              1
     10172.0000         0.7467       1988.807        108.483        31.5605         0.5234       -40.4614       5.152634              1
     10172.5000         0.7561       1960.334       108.4741        31.6721         0.5223       -40.0346       5.579433              1
     10173.0000         0.7655       1932.742       108.4652        31.1422         0.5212       -39.5684       6.045631              1
     10173.5000         0.7748       1912.342       108.4563        30.6111         0.5201       -39.1021       6.511932              1
     10174.0000         0.7842       1934.014       108.4237        30.0667         0.5243       -38.6359       6.978134              1
     10174.5000         0.8016       1957.986       108.3893        29.3864         0.5346       -38.1509       7.463131              1
     10175.0000         0.8234       1999.717       108.3547         28.705         0.5429       -38.5898       7.024231              1
     10175.5000          0.752       2065.762       108.3203        28.0247         0.5287       -39.5223       6.091732              1
     10176.0000         0.7287       2137.922       108.2858        27.4742         0.5145        -40.422       5.192032              1
     10176.5000         0.7073       2171.332       108.2513        26.9431         0.5004       -41.2078       4.406231              1
     10177.0000         0.6859       2204.648       108.2378        26.6321         0.4862       -41.4587       4.155334              1
     10177.5000         0.6644       2232.781       108.2295        26.8867         0.4721       -41.7097       3.904331              1
     10178.0000         0.6563       2260.859       108.2212        27.1414         0.4579       -41.9608       3.653233              1
     10178.5000         0.6702       2247.211       108.2129        27.3966         0.4637       -42.2117       3.402332              1
     10179.0000         0.6841       2219.719       108.2047        27.6512         0.4787       -42.4532       3.160831              1
     10179.5000          0.698       2187.281       108.1964        27.9059         0.4938       -42.5572       3.056831              1
     10180.0000         0.7119       2154.848       108.1765        27.8549         0.5089       -42.6611       2.952934              1
     10180.5000         0.7258       2126.082       108.1456        27.1965         0.4944       -42.7653       2.848732              1
     10181.0000          0.736       2154.992       108.1147        26.5381         0.4798       -42.8693       2.744732              1
     10181.5000          0.746        2198.73        108.084        25.8797         0.4692       -42.9734       2.640633              1
     10182.0000         0.7405       2232.535       108.0531        25.5117         0.4587       -43.0773       2.536732              1
     10182.5000          0.735       2254.551        -999.25        25.3415         0.4481       -43.2003       2.413734              1
     10183.0000         0.7301        2271.43        -999.25        25.2446         0.4376       -43.3491       2.264935              1
     10183.5000         0.7252       2281.129        -999.25        25.1479          0.427        -43.498       2.116032              1
     10184.0000         0.7203       2290.824        -999.25        25.0512         0.4165       -43.6465       1.967533              1
     10184.5000         0.7154       2300.512        -999.25        24.9569         0.4059       -43.7953       1.818733              1
     10185.0000         0.7105       2310.211        -999.25         24.907         0.3999       -43.9442       1.669834              1
     10185.5000         0.7056       2315.164        -999.25        24.8571         0.3978       -44.0864       1.527634              1
     10186.0000         0.7007       2320.074        -999.25        24.8301         0.3956       -43.9372       1.676834              1
