#------------------------------------------------------------------------------
# Created by    : vladimir.rabinovich
# Created on    : 09/19/2023 17:21:24
#------------------------------------------------------------------------------
~Version Information Section
VERS.           2.0     :   CWLS log ASCII Standard - VERSION 2.0
WRAP.           NO      :   One line per depth step
~Well Information Section
#MNEM       .UNIT                                         VALUE :DESCRIPTION
#------------------------------------------------------------------------------
STRT        .FT                                            4234 :START DEPTH
STOP        .FT                                            7516 :STOP DEPTH
STEP        .FT                                             0.5 :STEP      
NULL        .                                           -999.25 :NULL      
COMP        .                          SEAGULL ENERGY E & P INC :COMPANY   
WELL        .                               OCS G11311 ST00BP00 :WELL      
FLD         .                                           WILDCAT :FIELD     
LOC         .                                                   :LOCATION  
CNTY        .                             GALVESTON LARGE BLOCK :LOCATION  
STAT        .                                             TEXAS :STATE     
CTRY        .                                     UNITED STATES :COUNTRY   
SRVC        .                                                   :SERVICE COMPANY
DATE        .                             9/13/2023 11:19:54 AM :LOG DATE  
API         .                                    42706403550000 :API NUMBER
UWI         .                                    42706403550000 :UNIQUE WELL ID
XCOORD      .                                  972569.007613557 :SURFACE X 
YCOORD      .                                  10477919.1442114 :SURFACE Y 
LAT         .                                         28.856272 :LATITUDE  
LON         .                                        -95.086774 :LONGITUDE 
ELEV        .FT                                              94 :ELEVATION VALUE
ELEV_TYPE   .                                                KB :ELEVATION REFERENCE TYPE
~Curve Information Section
#MNEM       .UNIT                                      API CODE :CURVE DESCRIPTION
#------------------------------------------------------------------------------
DEPT        .FT                                                 :DEPTH     
CALI        .IN                                                 :          
DPHI        .%                                                  :          
DRHO        .G/C3                                               :          
DTLN        .US/F                                               :          
GR          .GAPI                                               :          
GR_NORM     .GAPI                                               :GammaRay Normalized
IDPH        .OHMM                                               :          
IMPH        .OHMM                                               :          
NPHI        .%                                                  :          
SFLU        .OHMM                                               :          
SP          .MV                                                 :          
SP_NORM     .MV                                                 :SP Normalized
VSH_GR      .V/V                                                :Volume of Shale from GR
VSH_SP      .V/V                                                :Volume of Shale from SP
~A        DEPTH           CALI           DPHI           DRHO           DTLN             GR        GR_NORM           IDPH           IMPH           NPHI           SFLU             SP        SP_NORM         VSH_GR         VSH_SP
# ...
      4900.0000        10.8488        22.8727        -0.0134        98.6079        26.9074       37.91868         0.5534         0.7473        27.7779         1.5109      -119.7877      -53.13518      0.1046527       0.240926
      4900.5000        10.9871        23.6807        -0.0133        99.4828        26.1387       37.26515         0.5144         0.7015        29.9133         1.2612      -120.7856      -54.06656     0.09074792      0.2276206
      4901.0000          11.14        24.0187        -0.0169       100.7955        24.9182       36.22805         0.4794           0.62        32.2866          1.091      -121.7834      -54.99784     0.06868184      0.2143166
      4901.5000        11.2493         24.723        -0.0216       102.6466        23.9315       35.38943          0.447         0.5515         34.799         0.9602      -122.7804      -55.92837     0.05083904      0.2010233
      4902.0000        11.3373        26.2471        -0.0265       105.5889        24.1266       35.55419         0.4168         0.4911        36.4249          0.845      -123.6278      -56.71928      0.0543445      0.1897246
      4902.5000        11.4085        27.9619        -0.0307       108.8478        25.8611       37.02592          0.408         0.4374        36.1188         0.7436      -123.8954      -56.96904     0.08565789      0.1861566
      4903.0000         11.481        29.9851        -0.0335       112.1041        27.4498       38.37386          0.394         0.3868        35.8704         0.6544      -122.1428      -55.33327      0.1143374      0.2095246
      4903.5000        11.5237        31.4261        -0.0282       115.3606        27.4514       38.37432         0.3847         0.3769        37.2921         0.6004      -117.5757      -51.07065      0.1143473      0.2704193
      4904.0000        11.5442        31.2286        -0.0238       115.2249        27.6024       38.50164         0.3828         0.3867        38.3923         0.6165      -113.1703      -46.95895      0.1170561      0.3291579
      4904.5000        11.5413        29.8384        -0.0208       114.2317        29.8839       40.43777         0.3869         0.4026        38.1016          0.678      -109.9518      -43.95501      0.1582504      0.3720714
      4905.0000        11.5805        28.3824        -0.0196       112.4722        33.6879       43.66652         0.3998         0.4312        36.7189         0.7125      -107.1998      -41.38647      0.2269472      0.4087647
      4905.5000        11.6142        26.0032        -0.0198       111.3959         37.727       47.09488          0.417         0.4517        36.9247         0.6793      -102.5463      -37.04321       0.299891      0.4708112
      4906.0000        11.4727        23.9995        -0.0208       111.4124        42.0687       50.78014         0.4362         0.4731        37.8861         0.6082       -96.3425      -31.25299      0.3783008      0.5535287
      4906.5000         11.327        22.8831        -0.0221       111.9508        47.3033       55.22349         0.4566          0.495        38.3343         0.5593       -89.9922      -25.32605      0.4728402      0.6381993
      4907.0000        11.2493        22.4503        -0.0229       112.2479        51.0123       58.37159         0.4756         0.5223        37.0586          0.595       -87.3118      -22.82434       0.539821       0.673938
      4907.5000         11.287        22.2055        -0.0237       111.9365        53.8134       60.74887          0.486         0.5441        33.6976          0.693       -87.5131      -23.01222      0.5904014       0.671254
      4908.0000        11.3925        21.8233        -0.0245       110.9039        56.0093       62.61232         0.4871         0.5541        34.2102         0.7862       -89.7139       -25.0663      0.6300495        0.64191
      4908.5000         11.388        21.3699        -0.0252       109.5574        58.8367       65.01193         0.4772          0.546        35.3287         0.8431       -91.8149      -27.02724       0.681105      0.6138966
      4909.0000        11.2265        21.1173        -0.0265       108.1594        59.5888       65.64959          0.456         0.5276        34.9816         0.8612       -93.2267      -28.34492      0.6946721      0.5950726
      4909.5000        11.0104        22.3145        -0.0292       107.6014        57.5049       63.87945         0.4286         0.4973         34.306         0.8415       -94.3628      -29.40528      0.6570096      0.5799246
      4910.0000         10.795        24.2449        -0.0329       108.2946        55.7466       62.38574         0.4034         0.4617        34.4818         0.7786       -98.3816      -33.15615      0.6252285      0.5263407
      4910.5000        10.5939        26.8546        -0.0363       110.1418        54.3024       61.15871         0.3808         0.4325        36.3657         0.6895      -103.5206      -37.95256      0.5991215      0.4578206
      4911.0000        10.4812        29.2638        -0.0388       112.1943        53.3959        60.3882          0.362         0.4037        38.2243         0.6107        -108.05         -42.18      0.5827276      0.3974286
      4911.5000        10.3683        31.1239        -0.0402       113.9689        53.6324        60.5881         0.3463         0.3781        38.9318         0.5972      -113.1063      -46.89921      0.5869808      0.3300113
      4912.0000        10.3006        31.5906        -0.0404       114.8918        53.9109       60.82365         0.3289         0.3544        38.5273          0.651      -117.1261      -50.65102      0.5919926       0.276414
      4912.5000        10.2748        31.4026        -0.0393       115.3439        52.0777       59.26636         0.3175         0.3431        37.5494         0.7214      -118.8947      -52.30172      0.5588588      0.2528326
      4913.0000        10.2695        30.9319        -0.0365        115.421        49.4854       57.06458           0.31         0.3366        37.2352         0.7974      -118.5717      -52.00025      0.5120123      0.2571393
      4913.5000        10.2784        30.3887        -0.0336       115.6875         48.289       56.04793         0.3092         0.3329         37.864         0.8865      -117.8466      -51.32349      0.4903815      0.2668072
      4914.0000        10.3032        29.9847        -0.0306       115.6749        47.9661        55.7729         0.3139         0.3304        38.0253         0.9333      -117.4003      -50.90694      0.4845298       0.272758
      4914.5000        10.3506        30.3491         -0.027       114.7861        46.7218       54.71559         0.3312         0.3432         36.781         0.8761      -117.0649      -50.59391      0.4620339      0.2772299
      4915.0000        10.4133        30.6284         -0.025       113.5171        45.5626       53.73052          0.357         0.3666        35.4036         0.7227      -114.4869      -48.18777      0.4410749      0.3116033
      4915.5000        10.4921        29.5406        -0.0185       111.2281        45.5614       53.72862          0.393         0.4173        33.5615         0.6114      -109.8108      -43.82341      0.4410345      0.3739513
      4916.0000        10.5895        26.3593        -0.0103       105.8867        49.4842       57.05824         0.4356         0.4792        31.8661         0.5405      -102.5387      -37.03611      0.5118774      0.4709127
      4916.5000        10.7003        20.5787        -0.0037        99.5941        52.9193       59.97379         0.4828         0.5502        30.1422         0.6232       -93.5172      -28.61605      0.5739104      0.5911993
      4917.0000         10.775        16.9095         -0.001        95.4354        54.3342       61.17417         0.5349         0.6318        29.0401         0.7657       -83.8713      -19.61321      0.5994503      0.7198113
      4917.5000        10.8155        14.6155         -0.004        94.1451        54.4274        61.2524         0.5935         0.7476        28.2974         0.8825       -79.3644      -15.40677       0.601115      0.7799032
