#------------------------------------------------------------------------------
# Created by    : vladimir.rabinovich
# Created on    : 09/19/2023 17:19:47
#------------------------------------------------------------------------------
~Version Information Section
VERS.           2.0     :   CWLS log ASCII Standard - VERSION 2.0
WRAP.           NO      :   One line per depth step
~Well Information Section
#MNEM       .UNIT                                         VALUE :DESCRIPTION
#------------------------------------------------------------------------------
STRT        .FT                                             380 :START DEPTH
STOP        .FT                                            8002 :STOP DEPTH
STEP        .FT                                             0.5 :STEP      
NULL        .                                           -999.25 :NULL      
COMP        .                               AMOCO PRODUCTION CO :COMPANY   
WELL        .                               OCS G07253 ST00BP00 :WELL      
FLD         .                                           WILDCAT :FIELD     
LOC         .                                                   :LOCATION  
CNTY        .                             GALVESTON LARGE BLOCK :LOCATION  
STAT        .                                             TEXAS :STATE     
CTRY        .                                     UNITED STATES :COUNTRY   
SRVC        .                                                   :SERVICE COMPANY
DATE        .                             9/13/2023 11:19:27 AM :LOG DATE  
API         .                                    42706401230000 :API NUMBER
UWI         .                                    42706401230000 :UNIQUE WELL ID
XCOORD      .                                  925879.569593371 :SURFACE X 
YCOORD      .                                  10358786.1357032 :SURFACE Y 
LAT         .                                         28.526408 :LATITUDE  
LON         .                                        -95.225632 :LONGITUDE 
ELEV        .FT                                             100 :ELEVATION VALUE
ELEV_TYPE   .                                                KB :ELEVATION REFERENCE TYPE
~Curve Information Section
#MNEM       .UNIT                                      API CODE :CURVE DESCRIPTION
#------------------------------------------------------------------------------
DEPT        .FT                                                 :DEPTH     
ASFL        .OHMM                                               :          
CILD        .MMHO                                               :          
GR          .GAPI                                               :          
GR_NORM     .GAPI                                               :GammaRay Normalized
ILD         .OHMM                                               :          
SP          .MV                                                 :          
SP_NORM     .MV                                                 :SP Normalized
VSH_GR      .V/V                                                :Volume of Shale from GR
VSH_SP      .V/V                                                :Volume of Shale from SP
~A        DEPTH           ASFL           CILD             GR        GR_NORM            ILD             SP        SP_NORM         VSH_GR         VSH_SP
# ...
      2950.5000         0.9228        1007.33        73.3799       72.88232         0.9306        -58.813       1.335247      0.8485599              1
      2951.0000         0.9261       993.7637        72.3104       71.81526         0.9441        -58.613       1.532093      0.8258566              1
      2951.5000         0.9294       985.0039        71.5896       71.09691         0.9576       -58.4119       1.730042      0.8105725              1
      2952.0000         0.9327       981.0293        72.4064       71.91615         0.9638       -58.1553        1.98349      0.8280032              1
      2952.5000         0.9322       988.9619        73.3562        72.8684         0.9654       -58.3984       1.737236      0.8482639              1
      2953.0000          0.927       996.8955        74.3459       73.86054         0.9669       -58.9328       1.199684      0.8693733              1
      2953.5000         0.9217       1007.068        75.3351       74.85219         0.9589       -59.4255      0.7038345      0.8904721              1
      2954.0000         0.9165       1022.623        76.3248       75.84434         0.9486       -59.9182      0.2079811      0.9115816              1
      2954.5000         0.9112        1038.17        77.3147       76.83668         0.9383       -60.4109     -0.2878723      0.9326953              1
      2955.0000          0.906       1053.719        78.3044       77.82883          0.928       -60.9036     -0.7837219      0.9538049              1
      2955.5000         0.8991       1065.541        79.4194       78.94627         0.9177       -61.3963      -1.279575      0.9775803              1
      2956.0000         0.8914       1073.797         78.998       78.52732         0.9074       -61.9454      -1.831829      0.9686664              1
      2956.5000         0.8836       1082.051        77.7534       77.28516          0.897       -62.5004       -2.38998      0.9422376      0.9904883
      2957.0000         0.8759       1090.301        77.8301       77.36431         0.8867       -62.6076      -2.500332      0.9439215      0.9877968
      2957.5000         0.8682       1098.557        79.1558       78.69245         0.8764       -62.3178       -2.21368      0.9721798      0.9947883
      2958.0000          0.861       1106.988        80.4814        80.0205         0.8661        -61.994      -1.893036              1              1
      2958.5000         0.8552        1115.59        80.7163       80.25784         0.8578       -61.6702      -1.572388              1              1
      2959.0000         0.8494       1124.189        80.3748       79.91879         0.8521       -61.3464       -1.25174      0.9982722              1
      2959.5000         0.8437       1132.791        79.6313       79.17774         0.8464       -61.0226     -0.9310875      0.9825051              1
      2960.0000         0.8379       1141.391         78.692       78.24088         0.8407       -60.6989     -0.6105423       0.962572              1
      2960.5000          0.833       1149.998        77.7534       77.30473          0.835       -60.3751     -0.2898941      0.9426539              1
      2961.0000         0.8301       1158.607        76.8142       76.36797         0.8293       -60.0513     0.03075409      0.9227228              1
      2961.5000         0.8273       1167.221        77.5503       77.10652         0.8236       -59.7195      0.3593979      0.9384366              1
      2962.0000         0.8245       1175.832        79.6307       79.18936         0.8179       -59.3216      0.7541466      0.9827524              1
      2962.5000         0.8216       1184.441        81.7623       81.32341         0.8129       -58.9238       1.148796              1              1
      2963.0000         0.8188       1193.051          83.95       83.51355          0.808       -59.1539      0.9155464              1              1
      2963.5000         0.8159       1201.664         83.687         83.253         0.8031        -59.455        0.61129              1              1
      2964.0000         0.8133       1210.275        82.8524       82.42085         0.7982        -59.756      0.3071404              1              1
      2964.5000          0.811       1218.885        81.1958       80.76669         0.7933       -60.0571    0.002891541              1              1
      2965.0000         0.8088       1227.498        79.5391       79.11244         0.7884       -60.3581     -0.3012619      0.9811158              1
      2965.5000         0.8066       1236.107        77.8831       77.45889         0.7835       -60.6591     -0.6054153      0.9459337              1
      2966.0000         0.8044       1244.719        76.2264       75.80463         0.7786       -60.9045     -0.8539658      0.9107369              1
      2966.5000         0.8022       1253.328        80.3375       79.91817         0.7737       -61.1047      -1.057316       0.998259              1
      2967.0000         0.7999       1261.941         82.676       82.25912         0.7688       -61.3049      -1.260674              1              1
      2967.5000          0.797       1271.191        84.5046       84.09016         0.7632       -61.5051      -1.464024              1              1
      2968.0000         0.7935       1280.906        82.8193       82.40731         0.7568       -61.7052      -1.667274              1              1
      2968.5000           0.79       1290.621        81.1334       80.72385         0.7504       -61.9053      -1.870525              1              1
      2969.0000         0.7865       1300.334        79.2991       78.89201          0.744       -62.1056      -2.073978      0.9764256      0.9981956
      2969.5000          0.783       1310.049        77.4518       77.04714         0.7376       -62.6335       -2.60503      0.9371732      0.9852431
      2970.0000         0.7783        1319.43        75.6044       75.20219         0.7312        -63.163       -3.13768       0.897919      0.9722517
      2970.5000         0.7728       1327.363        75.9784       75.57864         0.7248       -63.6924      -3.670235      0.9059286      0.9592625
      2971.0000         0.7672       1335.295         79.162       78.76469         0.7184       -62.7634      -2.744389      0.9737167      0.9818442
      2971.5000         0.7605       1343.229        84.4761       84.08123         0.7148       -61.5456      -1.529739              1              1
      2972.0000         0.7538       1351.162        90.3622       89.96977         0.7144       -61.3652      -1.352489              1              1
      2972.5000          0.747       1359.092        94.2015       93.81152          0.714       -61.1852      -1.175644              1              1
      2973.0000         0.7433       1367.025         96.995       96.60747         0.7136         -61.14      -1.133595              1              1
      2973.5000         0.7405        1360.33        99.3373       98.95222         0.7132        -61.095      -1.091747              1              1
      2974.0000         0.7467       1347.771       102.2094       101.8268         0.7128         -61.05      -1.049896              1              1
      2974.5000         0.7556       1331.805       104.9292        104.549         0.7124       -60.5957     -0.5987511              1              1
      2975.0000         0.7645        1315.84       106.6451       106.2673          0.712       -59.5436      0.4501991              1              1
      2975.5000         0.7785       1299.873       107.4398       107.0645         0.7222       -58.4915       1.499146              1              1
      2976.0000         0.7928       1283.906       107.7185       107.3456         0.7375       -58.3214       1.666092              1              1
      2976.5000          0.807       1267.941       107.8687       107.4983         0.7528         -58.84       1.144341              1              1
