#------------------------------------------------------------------------------
# Created by    : vladimir.rabinovich
# Created on    : 09/19/2023 17:21:39
#------------------------------------------------------------------------------
~Version Information Section
VERS.           2.0     :   CWLS log ASCII Standard - VERSION 2.0
WRAP.           NO      :   One line per depth step
~Well Information Section
#MNEM       .UNIT                                         VALUE :DESCRIPTION
#------------------------------------------------------------------------------
STRT        .FT                                             930 :START DEPTH
STOP        .FT                                           10010 :STOP DEPTH
STEP        .FT                                             0.5 :STEP      
NULL        .                                           -999.25 :NULL      
COMP        .                 FAIRWAYS SPEC SALES & SERVICE INC :COMPANY   
WELL        .                               OCS G02357 ST00BP00 :WELL      
FLD         .                            HIGH ISLAND BLOCK 0154 :FIELD     
LOC         .                                                   :LOCATION  
CNTY        .                           HIGH ISLAND LARGE BLOCK :LOCATION  
STAT        .                                             TEXAS :STATE     
CTRY        .                                     UNITED STATES :COUNTRY   
SRVC        .                                                   :SERVICE COMPANY
DATE        .                             9/13/2023 11:20:04 AM :LOG DATE  
API         .                                    42708400540000 :API NUMBER
UWI         .                                    42708400540000 :UNIQUE WELL ID
XCOORD      .                                  1183911.52517142 :SURFACE X 
YCOORD      .                                  10615048.6542629 :SURFACE Y 
LAT         .                                         29.242029 :LATITUDE  
LON         .                                        -94.431816 :LONGITUDE 
ELEV        .FT                                              73 :ELEVATION VALUE
ELEV_TYPE   .                                                KB :ELEVATION REFERENCE TYPE
~Curve Information Section
#MNEM       .UNIT                                      API CODE :CURVE DESCRIPTION
#------------------------------------------------------------------------------
DEPT        .FT                                                 :DEPTH     
CALI        .IN                                                 :          
DRHO        .G/C3                                               :          
DT          .US/F                                               :          
GR          .GAPI                                               :          
GR_1        .GAPI                                               :          
GR_NORM     .GAPI                                               :GammaRay Normalized
ILD         .OHMM                                               :          
NPHI        .%                                                  :          
RHOB        .G/C3                                               :          
SFL         .OHMM                                               :          
SP          .MV                                                 :          
SP_NORM     .MV                                                 :SP Normalized
VSH_GR      .V/V                                                :Volume of Shale from GR
VSH_SP      .V/V                                                :Volume of Shale from SP
~A        DEPTH           CALI           DRHO             DT             GR           GR_1        GR_NORM            ILD           NPHI           RHOB            SFL             SP        SP_NORM         VSH_GR         VSH_SP
# ...
      2496.0000        -999.25        -999.25        -999.25        -999.25         56.966       68.65092         0.5678        -999.25        -999.25         0.6501        33.6027      -6.493416      0.7585301      0.8412084
      2496.5000        -999.25        -999.25        -999.25        -999.25        56.7605       68.36517          0.551        -999.25        -999.25         0.6607         30.199      -9.899664      0.7524503      0.6863789
      2497.0000        -999.25        -999.25        -999.25        -999.25        57.4926       69.36555         0.5346        -999.25        -999.25         0.6601        29.8823      -10.21891       0.773735      0.6718678
      2497.5000        -999.25        -999.25        -999.25        -999.25        57.8622       69.86869         0.5222        -999.25        -999.25         0.6106        30.3338      -9.769957      0.7844402      0.6922747
      2498.0000        -999.25        -999.25        -999.25        -999.25        57.5491        69.4353         0.5103        -999.25        -999.25         0.5713        30.9639      -9.142401      0.7752192         0.7208
      2498.5000        -999.25        -999.25        -999.25        -999.25        57.1689       68.90991         0.5028        -999.25        -999.25         0.5731        32.0958       -8.01305      0.7640407      0.7721341
      2499.0000        -999.25        -999.25        -999.25        -999.25        56.9346       68.58465         0.4998        -999.25        -999.25         0.5917        33.1274      -6.983994      0.7571202      0.8189094
      2499.5000        -999.25        -999.25        -999.25        -999.25        57.3777       69.18861         0.5121        -999.25        -999.25         0.6227        32.5285      -7.585442      0.7699704      0.7915708
      2500.0000        -999.25        -999.25        -999.25        -999.25        57.8209        69.7927         0.5277        -999.25        -999.25         0.6362         32.107      -8.009487      0.7828234       0.772296
      2500.5000        -999.25        -999.25        -999.25        -999.25        58.8943       71.26126         0.5447        -999.25        -999.25         0.6425        33.4834      -6.635632      0.8140694       0.834744
      2501.0000        -999.25        -999.25        -999.25        -999.25        60.1249       72.94546         0.5726        -999.25        -999.25         0.6406        35.1583       -4.96328      0.8499033        0.91076
      2501.5000        -999.25        -999.25        -999.25        -999.25        61.3443       74.61429         0.5999        -999.25        -999.25         0.6463        34.0013      -6.122822      0.8854104      0.8580536
      2502.0000        -999.25        -999.25        -999.25        -999.25        62.4797        76.1679          0.619        -999.25        -999.25         0.6598        35.2776      -4.849072       0.918466      0.9159513
      2502.5000        -999.25        -999.25        -999.25        -999.25        63.3726       77.38886         0.6322        -999.25        -999.25         0.6756        36.8685      -3.260715      0.9444439      0.9881493
      2503.0000        -999.25        -999.25        -999.25        -999.25        63.1757       77.11489         0.6456        -999.25        -999.25          0.694        38.3426      -1.789162      0.9386147              1
      2503.5000        -999.25        -999.25        -999.25        -999.25        62.5186       76.20966         0.6556        -999.25        -999.25         0.7023        39.4056     -0.7287064      0.9193544              1
      2504.0000        -999.25        -999.25        -999.25        -999.25        63.1398       77.05792         0.6655        -999.25        -999.25         0.6956        39.8129     -0.3239517      0.9374026              1
      2504.5000        -999.25        -999.25        -999.25        -999.25           62.9       76.72511         0.6699        -999.25        -999.25         0.6792        38.9063      -1.233101      0.9303214              1
      2505.0000        -999.25        -999.25        -999.25        -999.25        60.7664       73.79449         0.6745        -999.25        -999.25         0.6682        37.9999      -2.142044      0.8679678              1
      2505.5000        -999.25        -999.25        -999.25        -999.25        58.5241       70.71477         0.6784        -999.25        -999.25         0.6831        37.8334      -2.311092      0.8024418              1
      2506.0000        -999.25        -999.25        -999.25        -999.25        59.8072       72.47099          0.675        -999.25        -999.25         0.6953        37.7363      -2.410736      0.8398083              1
      2506.5000        -999.25        -999.25        -999.25        -999.25        61.7313       75.10648         0.6693        -999.25        -999.25         0.6946        38.3222      -1.827385      0.8958826              1
      2507.0000        -999.25        -999.25        -999.25        -999.25        63.0873       76.96272         0.6636        -999.25        -999.25         0.6918        39.5009     -0.6512299      0.9353769              1
      2507.5000        -999.25        -999.25        -999.25        -999.25        62.5947       76.28311         0.6577        -999.25        -999.25         0.6806        41.1641       1.009422      0.9209173              1
      2508.0000        -999.25        -999.25        -999.25        -999.25        62.0338       75.50984         0.6517        -999.25        -999.25         0.6696        42.2234       2.066177      0.9044647              1
      2508.5000        -999.25        -999.25        -999.25        -999.25        62.8987       76.69241         0.6463        -999.25        -999.25         0.6612        42.1401       1.980331      0.9296256              1
      2509.0000        -999.25        -999.25        -999.25        -999.25        63.8846       78.04093          0.643        -999.25        -999.25         0.6541        41.9138       1.751484      0.9583177              1
      2509.5000        -999.25        -999.25        -999.25        -999.25        65.0897       79.69015         0.6397        -999.25        -999.25         0.6486        40.8006      0.6357384      0.9934074              1
      2510.0000        -999.25        -999.25        -999.25        -999.25        66.2783       81.31673         0.6365        -999.25        -999.25         0.6521        38.9118      -1.255608              1              1
      2510.5000        -999.25        -999.25        -999.25        -999.25        65.7446       80.58076          0.638        -999.25        -999.25         0.6557        37.0323      -3.137653              1       0.993743
      2511.0000        -999.25        -999.25        -999.25        -999.25        64.9569       79.49638         0.6395        -999.25        -999.25           0.66        35.8962      -4.276302      0.9892846      0.9419863
      2511.5000        -999.25        -999.25        -999.25        -999.25        64.1694       78.41226         0.6468        -999.25        -999.25          0.669        35.6442      -4.530846      0.9662184      0.9304161
      2512.0000        -999.25        -999.25        -999.25        -999.25        63.1336       76.98754         0.6564        -999.25        -999.25         0.6781        36.5941      -3.583488      0.9359052      0.9734778
      2512.5000        -999.25        -999.25        -999.25        -999.25        62.5143       76.13417         0.6658        -999.25        -999.25         0.6891        37.1259      -3.054237      0.9177483      0.9975347
      2513.0000        -999.25        -999.25        -999.25        -999.25        64.2788       78.55073         0.6746        -999.25        -999.25         0.7023        37.6434      -2.539284      0.9691644              1
      2513.5000        -999.25        -999.25        -999.25        -999.25        64.8527       79.33411         0.6835        -999.25        -999.25         0.7109        38.0894      -2.095829       0.985832              1
