#------------------------------------------------------------------------------
# Created by    : vladimir.rabinovich
# Created on    : 09/19/2023 17:20:04
#------------------------------------------------------------------------------
~Version Information Section
VERS.           2.0     :   CWLS log ASCII Standard - VERSION 2.0
WRAP.           NO      :   One line per depth step
~Well Information Section
#MNEM       .UNIT                                         VALUE :DESCRIPTION
#------------------------------------------------------------------------------
STRT        .FT                                             900 :START DEPTH
STOP        .FT                                            8286 :STOP DEPTH
STEP        .FT                                             0.5 :STEP      
NULL        .                                           -999.25 :NULL      
COMP        .                                       ALLIED CORP :COMPANY   
WELL        .                               OCS G04069 ST00BP00 :WELL      
FLD         .                                           WILDCAT :FIELD     
LOC         .                                                   :LOCATION  
CNTY        .                             GALVESTON LARGE BLOCK :LOCATION  
STAT        .                                             TEXAS :STATE     
CTRY        .                                     UNITED STATES :COUNTRY   
SRVC        .                                                   :SERVICE COMPANY
DATE        .                             9/13/2023 11:18:53 AM :LOG DATE  
API         .                                    42706400840000 :API NUMBER
UWI         .                                    42706400840000 :UNIQUE WELL ID
XCOORD      .                                  987200.391396966 :SURFACE X 
YCOORD      .                                   10401886.486665 :SURFACE Y 
LAT         .                                         28.647914 :LATITUDE  
LON         .                                        -95.037018 :LONGITUDE 
ELEV        .FT                                              83 :ELEVATION VALUE
ELEV_TYPE   .                                                KB :ELEVATION REFERENCE TYPE
~Curve Information Section
#MNEM       .UNIT                                      API CODE :CURVE DESCRIPTION
#------------------------------------------------------------------------------
DEPT        .FT                                                 :DEPTH     
ASFL        .OHMM                                               :          
CILD        .MMHO                                               :          
DPHI        .%                                                  :          
DT          .US/F                                               :          
GR          .GAPI                                               :          
GR_NORM     .GAPI                                               :GammaRay Normalized
ILD         .OHMM                                               :          
SP          .MV                                                 :          
SP_NORM     .MV                                                 :SP Normalized
VSH_GR      .V/V                                                :Volume of Shale from GR
VSH_SP      .V/V                                                :Volume of Shale from SP
~A        DEPTH           ASFL           CILD           DPHI             DT             GR        GR_NORM            ILD             SP        SP_NORM         VSH_GR         VSH_SP
# ...
      7762.5000          1.312       1111.014        18.4138       103.2401        48.9448       75.00296         0.8899       -42.8306       2.069191        0.89368              1
      7763.0000         1.3472       1097.561        17.2736       102.8685        47.8793       73.47401         0.9004       -42.9016       1.996559      0.8611493              1
      7763.5000          1.375       1084.131        17.1232       102.7395        46.8138       71.94508         0.9097       -43.0085       1.888027      0.8286186              1
      7764.0000         1.3505       1070.678        17.8617       102.5697        45.7483       70.41614         0.9191       -43.1333       1.761597       0.796088              1
      7764.5000         1.3157       1057.248        20.5395        101.594        44.6828       68.88721         0.9284        -43.258       1.635265      0.7635576              1
      7765.0000         1.2613         1043.9        20.7377       100.5186        43.9572         67.846         0.9313       -43.3827       1.508934      0.7414043              1
      7765.5000         1.2071       1046.492        19.6978        99.6859        43.2618       66.84814         0.9269       -43.5074       1.382603      0.7201731              1
      7766.0000         1.1726       1049.088        17.5587       101.7721        44.3937       68.47236         0.9225       -43.6321       1.256275      0.7547311              1
      7766.5000          1.173        1051.68        17.2019       104.2098        45.7023       70.35014         0.9181       -43.7569       1.129841      0.7946839              1
      7767.0000         1.1761       1054.271        17.3226       106.6477        47.0085       72.22446         0.9137       -43.7905       1.094608      0.8345631              1
      7767.5000         1.1911       1056.865        16.9448       108.3833        48.3159       74.10052         0.9093       -43.8148        1.06868      0.8744792              1
      7768.0000         1.2061       1059.098         16.691       107.0087        49.5894       75.92793         0.9049       -43.8391       1.042747      0.9133601              1
      7768.5000         1.2212       1061.125         17.106       105.2878        49.5217       75.83077         0.9005       -43.8633       1.016918       0.911293              1
      7769.0000         1.2362       1063.154        17.6888       103.8588        48.6739       74.61424         0.8961       -43.8876      0.9909859      0.8854094              1
      7769.5000         1.2318       1065.184        18.0783       102.3011        48.0396       73.70403          0.896       -43.9118      0.9651566      0.8660433              1
      7770.0000         1.2253       1067.211        18.3727       100.6051        47.5328        72.9768         0.8962        -43.936      0.9393234      0.8505702              1
      7770.5000         1.2187       1069.238        18.8328       100.0846        47.0255       72.24886         0.8965       -43.9603      0.9133911      0.8350821              1
      7771.0000         1.2122       1071.268        19.2339       101.5223        46.5187       71.52162         0.8967       -43.9846      0.8874626       0.819609              1
      7771.5000          1.206       1073.297        20.2761       103.1171        46.0114       70.79368          0.897       -44.0211      0.8493309      0.8041208              1
      7772.0000         1.2031        1073.32        20.0374       104.5177        45.7819       70.46436         0.8972       -44.0614      0.8073997       0.797114              1
      7772.5000         1.2003       1068.611        18.9944       105.5166        45.6292       70.24522         0.8974       -44.1017      0.7654686      0.7924516              1
      7773.0000         1.1975         1063.9        17.9664       105.7521        45.9518       70.70815         0.8977        -44.142      0.7235413      0.8023011              1
      7773.5000         1.1946       1059.191        17.2489       105.1123        46.2741       71.17064         0.9007       -44.1823      0.6816063      0.8121412              1
      7774.0000         1.1918        1054.48        16.9276       104.1826        46.6783       71.75064         0.9056       -44.2225      0.6397743      0.8244817              1
      7774.5000         1.1889        1049.77        17.0503       103.4619        47.3054        72.6505         0.9106       -44.2628       0.597847      0.8436276              1
      7775.0000         1.1923       1045.436        17.8632       103.0515        47.9325       73.55035         0.9155       -44.3031       0.555912      0.8627733              1
      7775.5000         1.2012       1041.414        19.3042       102.7894        48.5596       74.45022         0.9204       -44.3434      0.5139847      0.8819196              1
      7776.0000         1.2102       1037.387        20.0471       102.3784         49.186       75.34908         0.9254       -44.3815      0.4742508      0.9010441              1
      7776.5000         1.2191       1033.365        19.3446       101.8895        49.8131       76.24892         0.9303       -44.4169      0.4372215      0.9201897              1
      7777.0000         1.2281       1029.344         19.058       101.1663        50.4402       77.14878         0.9333       -44.4523      0.4001884      0.9393358              1
      7777.5000         1.2336       1039.453        19.4449        99.9944        50.8151       77.68674         0.9359       -44.4876      0.3632584      0.9507816              1
      7778.0000          1.218       1052.906        19.3646        99.7688        50.7559       77.60179         0.9386       -44.5229      0.3263283      0.9489743              1
      7778.5000         1.1906       1066.359        19.2678       100.4728        50.3852       77.06985         0.9412       -44.5583      0.2892952      0.9376565              1
      7779.0000         1.1633       1079.814        19.9581       102.1924        50.0145       76.53792         0.9438       -44.5937      0.2522659      0.9263387              1
      7779.5000         1.1389       1093.244        20.6375       104.2568        49.6438       76.00598         0.9368        -44.629       0.215332      0.9150209              1
      7780.0000         1.1203       1101.951        20.4938       106.3312        49.2731       75.47405         0.9286       -44.6644      0.1783066      0.9037033              1
      7780.5000         1.2395       1092.727        19.7277       107.5601        48.9163       74.96207         0.9205       -44.6998      0.1412735      0.8928099              1
      7781.0000         1.3009       1083.504         19.457       107.7084        48.5626       74.45451         0.9132       -44.6868      0.1526413      0.8820109              1
      7781.5000         1.3625       1074.293        19.5401       106.9752        48.2095       73.94784         0.9127       -44.6679      0.1699104      0.8712306              1
      7782.0000         1.4159       1069.877        18.9181       105.7452        47.8557       73.44014         0.9121        -44.649      0.1871796      0.8604285              1
      7782.5000         1.4246       1079.039        17.2392       103.8959         47.502        72.9326         0.9115       -44.6302      0.2043495      0.8496298              1
      7783.0000         1.3871       1088.201        16.4611        101.505        47.1482       72.42493         0.9109       -44.6113      0.2216148      0.8388282              1
      7783.5000         1.3306       1097.363        16.5052        99.1385         46.795        71.9181         0.9119       -44.5924      0.2388878      0.8280447              1
      7784.0000         1.2265       1117.176        17.9754        99.3392        46.7769       71.89213         0.9159       -44.5513      0.2783546      0.8274921              1
      7784.5000         1.1544       1142.287        19.4104       101.8685        46.8395       71.98196         0.9199       -44.4665      0.3615265      0.8294035              1
