#------------------------------------------------------------------------------
# Created by    : vladimir.rabinovich
# Created on    : 09/19/2023 17:20:04
#------------------------------------------------------------------------------
~Version Information Section
VERS.           2.0     :   CWLS log ASCII Standard - VERSION 2.0
WRAP.           NO      :   One line per depth step
~Well Information Section
#MNEM       .UNIT                                         VALUE :DESCRIPTION
#------------------------------------------------------------------------------
STRT        .FT                                             900 :START DEPTH
STOP        .FT                                            8286 :STOP DEPTH
STEP        .FT                                             0.5 :STEP      
NULL        .                                           -999.25 :NULL      
COMP        .                                       ALLIED CORP :COMPANY   
WELL        .                               OCS G04069 ST00BP00 :WELL      
FLD         .                                           WILDCAT :FIELD     
LOC         .                                                   :LOCATION  
CNTY        .                             GALVESTON LARGE BLOCK :LOCATION  
STAT        .                                             TEXAS :STATE     
CTRY        .                                     UNITED STATES :COUNTRY   
SRVC        .                                                   :SERVICE COMPANY
DATE        .                             9/13/2023 11:18:53 AM :LOG DATE  
API         .                                    42706400840000 :API NUMBER
UWI         .                                    42706400840000 :UNIQUE WELL ID
XCOORD      .                                  987200.391396966 :SURFACE X 
YCOORD      .                                   10401886.486665 :SURFACE Y 
LAT         .                                         28.647914 :LATITUDE  
LON         .                                        -95.037018 :LONGITUDE 
ELEV        .FT                                              83 :ELEVATION VALUE
ELEV_TYPE   .                                                KB :ELEVATION REFERENCE TYPE
~Curve Information Section
#MNEM       .UNIT                                      API CODE :CURVE DESCRIPTION
#------------------------------------------------------------------------------
DEPT        .FT                                                 :DEPTH     
ASFL        .OHMM                                               :          
CILD        .MMHO                                               :          
DPHI        .%                                                  :          
DT          .US/F                                               :          
GR          .GAPI                                               :          
GR_NORM     .GAPI                                               :GammaRay Normalized
ILD         .OHMM                                               :          
SP          .MV                                                 :          
SP_NORM     .MV                                                 :SP Normalized
VSH_GR      .V/V                                                :Volume of Shale from GR
VSH_SP      .V/V                                                :Volume of Shale from SP
~A        DEPTH           ASFL           CILD           DPHI             DT             GR        GR_NORM            ILD             SP        SP_NORM         VSH_GR         VSH_SP
# ...
      8257.5000         1.1245       1024.178        18.4902        92.8392        50.8453       77.73007         0.9495       -39.6792       -2.34639      0.9517037      0.9639017
      8258.0000         1.1519       1051.037        18.6308        93.1312        50.6307       77.42213         0.9313        -38.991      -1.674896      0.9451518      0.9742324
      8258.5000         1.1696       1076.494        20.3068        -999.25        51.1253       78.13187         0.9131       -38.3041      -1.004696      0.9602525      0.9845431
      8259.0000         1.1656       1100.131        21.1687        -999.25        51.6194       78.84087         0.8949       -38.0084     -0.7257004      0.9753376      0.9888354
      8259.5000         1.1602       1123.742         21.597        -999.25        52.1824       79.64875         0.8767       -37.7499      -0.483902      0.9925266      0.9925554
      8260.0000         1.1731       1147.379         20.615        -999.25        52.8415       80.59452         0.8696       -37.4911      -0.241806              1      0.9962799
      8260.5000         1.1857        1145.24        19.3655        -999.25        52.8832       80.65436         0.8654       -37.2325  0.00009536743              1              1
      8261.0000         1.1947       1129.252        19.1089        -999.25        52.4956       80.09818         0.8612       -36.9738      0.2420883              1              1
      8261.5000         1.2037        1113.24         18.926        -999.25        51.9205       79.27293         0.8571       -36.7153      0.4838867      0.9845303              1
      8262.0000         1.2128       1097.252        18.6263        -999.25        51.3455       78.44785         0.8529       -36.4658      0.7166824      0.9669755              1
      8262.5000         1.2239       1081.266        17.3828        -999.25        50.7704        77.6226         0.8487       -36.2173      0.9484787      0.9494171              1
      8263.0000         1.2357       1064.688        16.4371        -999.25        50.1953       76.79735         0.8663       -35.9691       1.179977      0.9318585              1
      8263.5000         1.2476       1048.012        16.4255        -999.25        50.4771       77.20173         0.8882       -35.7205       1.411873      0.9404623              1
      8264.0000         1.2719       1031.336        16.7656        -999.25        51.2305       78.28281         0.9102       -35.4723       1.643372      0.9634641              1
      8264.5000         1.2999       1014.636           16.8        -999.25         51.984       79.36405         0.9321       -35.3237       1.775269      0.9864692              1
      8265.0000         1.3279        997.959        15.9658        -999.25        52.7363       80.44357         0.9541       -35.2086       1.873669              1              1
      8265.5000         1.3209       981.2588        14.8532        -999.25        53.3676       81.34944         0.9749       -35.4599       1.605663              1              1
      8266.0000         1.3063        964.582         14.637        -999.25         53.197       81.10464         0.9946       -35.7111       1.337761              1              1
      8266.5000         1.2918       947.9063        15.5393        -999.25        52.4146       79.98193         1.0142       -35.9624       1.069759      0.9996156              1
      8267.0000         1.2772       931.2061        16.2553        -999.25        51.4071       78.53624         1.0339       -36.2136       0.801857      0.9688562              1
      8267.5000         1.2626       929.0107        16.5071        -999.25        50.3416       77.00729         1.0536       -36.4649      0.5338516      0.9363253              1
      8268.0000         1.2657       928.3037        17.3679        -999.25         49.275       75.47677         1.0679       -36.7161      0.2659531       0.903761              1
      8268.5000         1.2789       927.5967         19.578        -999.25        48.0147        73.6683         1.0711       -36.9674   -0.002052307      0.8652831      0.9999684
      8269.0000         1.2921       926.8887        20.4512        -999.25        47.7202       73.24571         1.0744       -37.1334     -0.1847534      0.8562918      0.9971576
      8269.5000         1.3057       926.1885        20.1152        -999.25        47.9631       73.59428         1.0776       -37.2863     -0.3543587       0.863708      0.9945483
      8270.0000         1.3078        926.125        18.4602        -999.25        47.8896        73.4888         1.0808       -37.4391     -0.5238571      0.8614638      0.9919407
      8270.5000         1.3047       926.0605         17.664        -999.25        47.8161       73.38333         1.0841       -37.5919     -0.6933632      0.8592198      0.9893329
      8271.0000         1.3016       925.9971        19.0199        -999.25        47.7426       73.27786          1.086       -37.7448     -0.8515968      0.8569758      0.9868985
      8271.5000         1.2985       925.9326        21.0221        -999.25        47.6691       73.17238         1.0869       -37.6087     -0.7154961      0.8547314      0.9889924
      8272.0000         1.3001       925.8682         20.208        -999.25         47.759       73.30139         1.0878       -37.4318     -0.5385971      0.8574764      0.9917139
      8272.5000         1.3062       925.8047        18.7116        -999.25        48.0302       73.69055         1.0887       -37.2552     -0.3619957      0.8657564      0.9944308
      8273.0000         1.3123       925.7402        18.2073        -999.25        48.3017       74.08013         1.0896       -37.0784     -0.1851959      0.8740454      0.9971508
      8273.5000         1.3183       925.6768        18.8388        -999.25        48.7719       74.75485         1.0905       -36.9018   -0.008594513      0.8884011      0.9998678
      8274.0000         1.3244       925.6123        20.1751        -999.25        49.4793       75.76994         1.0914       -36.7249      0.1683044      0.9099988              1
      8274.5000          1.316       925.5479         20.676        -999.25         50.188       76.78689         1.0923       -36.7074      0.1858025      0.9316359              1
      8275.0000         1.3028       925.4844        20.2348        -999.25        50.8967       77.80383         1.0932       -36.8882    0.005004883      0.9532731              1
      8275.5000         1.2897       925.4199        20.1255        -999.25        51.6055       78.82092         1.0934       -37.0687     -0.1754951      0.9749132      0.9973001
      8276.0000         1.2767       925.3564        19.8003        -999.25        52.2598       79.75981         1.0915       -37.2495     -0.3562965      0.9948896      0.9945185
      8276.5000         1.2636        925.292        19.5002        -999.25        52.8777       80.64647         1.0896         -37.43     -0.5367966              1      0.9917416
      8277.0000         1.2453       925.2275        20.9442        -999.25        52.9494       80.74935         1.0878       -37.6105     -0.7172966              1      0.9889647
      8277.5000         1.2256       925.1641        24.5236        -999.25        52.8304        80.5786         1.0859       -37.7913      -0.898098              1      0.9861831
      8278.0000         1.2077       925.0996        25.1805        -999.25        52.6918       80.37971          1.084       -37.9869      -1.093697              1      0.9831739
      8278.5000         1.2094       925.0361        22.9315        -999.25        52.5532       80.18082         1.0821       -38.2001      -1.306896              1      0.9798939
      8279.0000         1.2162       924.9717        20.2185        -999.25        52.4146       79.98193         1.0802       -37.3269     -0.4336967      0.9996156      0.9933277
      8279.5000          1.219       924.9072        19.3573        -999.25        52.2759       79.78293         1.0783       -35.8829       1.010303      0.9953815              1
