#------------------------------------------------------------------------------
# Created by    : vladimir.rabinovich
# Created on    : 09/19/2023 17:22:26
#------------------------------------------------------------------------------
~Version Information Section
VERS.           2.0     :   CWLS log ASCII Standard - VERSION 2.0
WRAP.           NO      :   One line per depth step
~Well Information Section
#MNEM       .UNIT                                         VALUE :DESCRIPTION
#------------------------------------------------------------------------------
STRT        .FT                                            3450 :START DEPTH
STOP        .FT                                            9344 :STOP DEPTH
STEP        .FT                                             0.5 :STEP      
NULL        .                                           -999.25 :NULL      
COMP        .                                  W&T OFFSHORE INC :COMPANY   
WELL        .                               OCS G04565 ST00BP00 :WELL      
FLD         .                              GALVESTON BLOCK 0303 :FIELD     
LOC         .                                                   :LOCATION  
CNTY        .                             GALVESTON LARGE BLOCK :LOCATION  
STAT        .                                             TEXAS :STATE     
CTRY        .                                     UNITED STATES :COUNTRY   
SRVC        .                                                   :SERVICE COMPANY
DATE        .                             9/13/2023 11:19:39 AM :LOG DATE  
API         .                                    42706403900000 :API NUMBER
UWI         .                                    42706403900000 :UNIQUE WELL ID
XCOORD      .                                  983096.827540607 :SURFACE X 
YCOORD      .                                  10485968.3003259 :SURFACE Y 
LAT         .                                        28.8789082 :LATITUDE  
LON         .                                       -95.0543314 :LONGITUDE 
ELEV        .FT                                              90 :ELEVATION VALUE
ELEV_TYPE   .                                                KB :ELEVATION REFERENCE TYPE
~Curve Information Section
#MNEM       .UNIT                                      API CODE :CURVE DESCRIPTION
#------------------------------------------------------------------------------
DEPT        .FT                                                 :DEPTH     
CDER        .MMHO                                               :          
DCAL        .IN                                                 :          
DPHI        .DEC                                                :          
DRHO        .G/CC                                               :          
DTLN        .US/F                                               :          
GR          .GAPI                                               :          
GR_NORM     .GAPI                                               :GammaRay Normalized
IDER        .OHMM                                               :          
IMER        .OHMM                                               :          
NPOR        .DEC                                                :          
RWA         .OHMM                                               :          
SFLA        .OHMM                                               :          
SP          .MV                                                 :          
SP_NORM     .MV                                                 :SP Normalized
TENS        .LB                                                 :          
VSH_GR      .V/V                                                :Volume of Shale from GR
VSH_SP      .V/V                                                :Volume of Shale from SP
~A        DEPTH           CDER           DCAL           DPHI           DRHO           DTLN             GR        GR_NORM           IDER           IMER           NPOR            RWA           SFLA             SP        SP_NORM           TENS         VSH_GR         VSH_SP
# ...
      4305.0000       2483.855           5.67          0.734          0.073        162.018         24.762       32.40643          0.403          0.533          0.606          0.285          0.562          -50.8      -56.62546        -999.25              0      0.1910648
      4305.5000        2481.39           5.64          0.733          0.072        154.887         24.826       32.46901          0.403          0.543          0.682          0.299          0.559        -50.797       -56.6208        -999.25              0      0.1911314
      4306.0000       2502.502          5.563          0.732          0.072         124.77         24.645       32.29202            0.4           0.55          0.766          0.313          0.562        -51.002      -56.82414        -999.25              0      0.1882265
      4306.5000       2494.388           5.54           0.73          0.072        114.824         24.495       32.14532          0.401          0.551          0.867          0.327          0.574        -51.125      -56.94549        -999.25              0       0.186493
      4307.0000       2483.855           5.56          0.726          0.072        113.564         24.419         32.071          0.403          0.552          1.044          0.329          0.599         -51.15      -56.96883        -999.25              0      0.1861596
      4307.5000       2515.091          5.669          0.716          0.073        127.015         24.268       31.92333          0.398          0.552          1.051          0.296          0.628        -51.378      -57.19517        -999.25              0      0.1829262
      4308.0000       2574.002           6.02          0.679          0.071        127.578         24.674       32.32037          0.389           0.55          0.897           0.24          0.653        -51.706      -57.52151        -999.25              0      0.1782641
      4308.5000        2652.52          6.588          0.619          0.065        120.473         25.539       33.16627          0.377          0.541          0.627          0.183          0.669        -52.091      -57.90485        -999.25    0.003537604      0.1727879
      4309.0000        2783.19          7.515          0.488          0.052        111.421         26.381       33.98969          0.359          0.512          0.469          0.137          0.674        -51.693      -57.50519        -999.25     0.02105721      0.1784973
      4309.5000       2966.479          8.432          0.391          0.028        107.654         27.343       34.93045          0.337          0.457          0.421           0.09          0.656        -51.297      -57.10753        -999.25     0.04107342      0.1841781
      4310.0000       3207.184           8.78          0.363          0.031        111.069         26.374       33.98284          0.312          0.418          0.413          0.075          0.625        -51.098      -56.90687        -999.25     0.02091152      0.1870447
      4310.5000       3474.635           8.67          0.385          0.034        130.119         24.551       32.20008          0.288          0.386          0.435          0.075           0.58        -50.901      -56.70821        -999.25              0      0.1898827
      4311.0000       3642.987          7.854          0.451          0.035        140.484         23.401       31.07547          0.275          0.358          0.493           0.09          0.536        -50.601      -56.40656        -999.25              0      0.1941921
      4311.5000       3681.885          7.021          0.601          0.041        147.595         23.114       30.79481          0.272          0.347          0.615          0.119          0.506          -50.2      -56.00389        -999.25              0      0.1999444
      4312.0000       3576.538          6.268          0.626          0.056        141.956         23.023       30.70581           0.28          0.355          0.622          0.156          0.482        -49.798      -55.60023        -999.25              0      0.2057109
      4312.5000        3300.33          5.889          0.679          0.068        128.522         23.375       31.05004          0.303          0.372           0.68          0.193          0.471        -49.297      -55.09758        -999.25              0      0.2128917
      4313.0000       3035.823           5.76          0.702          0.072        118.447         22.952       30.63638          0.329          0.416          0.755          0.226          0.481        -48.694      -54.49292        -999.25              0      0.2215297
      4313.5000       2762.431          5.941          0.673          0.072        112.596         23.058       30.74004          0.362          0.478          0.774          0.227          0.498        -48.189      -53.98626        -999.25              0      0.2287677
      4314.0000       2605.524          6.333           0.62          0.072        111.246         24.248       31.90377          0.384          0.518          0.719          0.215          0.524        -47.691       -53.4866        -999.25              0      0.2359057
      4314.5000       2536.783           6.82          0.589          0.073        117.304         27.541       35.12408          0.394          0.528           0.64          0.201          0.552        -46.994      -52.78794        -999.25     0.04519312      0.2458866
      4315.0000       2530.364          7.084          0.555          0.072        123.586         31.691       39.18248          0.395          0.516          0.611          0.174          0.576        -45.527      -51.31928        -999.25      0.1315421      0.2668674
      4315.5000       2559.509          7.552          0.501          0.069        117.579         34.963       42.38225          0.391          0.498          0.469          0.137          0.598        -44.036      -49.82662        -999.25      0.1996224      0.2881911
      4316.0000       2606.882          8.288          0.412          0.063        111.082         36.465       43.85109          0.384          0.493           0.35          0.097          0.619          -42.9      -48.68896        -999.25      0.2308742      0.3044434
      4316.5000       2624.672          9.034          0.332          0.032         110.67         35.785        43.1861          0.381          0.495          0.301          0.062          0.636        -42.254      -48.04131        -999.25      0.2167255      0.3136956
      4317.0000       2621.232          9.066          0.333         -0.007        116.521         33.985       41.42583          0.382          0.498          0.301           0.06          0.651        -42.121      -47.90664        -999.25      0.1792731      0.3156194
      4317.5000        2626.05          8.495          0.396         -0.032        123.831         32.287       39.76532          0.381          0.497          0.332          0.081          0.662        -42.683      -48.46698        -999.25       0.143943      0.3076145
      4318.0000       2639.916          7.856          0.488         -0.038        131.716         30.382       37.90237          0.379          0.494          0.384          0.122          0.668        -43.572      -49.35432        -999.25      0.1043058      0.2949382
      4318.5000       2665.956          7.209          0.573         -0.006        134.776         28.204       35.77245          0.375          0.489          0.604          0.171          0.651        -44.521      -50.30167        -999.25     0.05898837      0.2814048
      4319.0000        2693.24           6.63            0.6          0.035        128.567         26.389       33.99751          0.371          0.481          0.617           0.23          0.632        -45.352      -51.13101        -999.25     0.02122368       0.269557
      4319.5000       2711.497          6.106          0.601          0.058        121.072         24.981       32.62059          0.369          0.473          0.736          0.263          0.614         -44.93      -50.70735        -999.25              0      0.2756093
