#------------------------------------------------------------------------------
# Created by    : vladimir.rabinovich
# Created on    : 09/19/2023 17:20:04
#------------------------------------------------------------------------------
~Version Information Section
VERS.           2.0     :   CWLS log ASCII Standard - VERSION 2.0
WRAP.           NO      :   One line per depth step
~Well Information Section
#MNEM       .UNIT                                         VALUE :DESCRIPTION
#------------------------------------------------------------------------------
STRT        .FT                                             723 :START DEPTH
STOP        .FT                                            8219 :STOP DEPTH
STEP        .FT                                             0.5 :STEP      
NULL        .                                           -999.25 :NULL      
COMP        .                                    MOBIL OIL CORP :COMPANY   
WELL        .                               OCS G02338 ST00BP00 :WELL      
FLD         .                                           WILDCAT :FIELD     
LOC         .                                                   :LOCATION  
CNTY        .                             GALVESTON LARGE BLOCK :LOCATION  
STAT        .                                             TEXAS :STATE     
CTRY        .                                     UNITED STATES :COUNTRY   
SRVC        .                                                   :SERVICE COMPANY
DATE        .                             9/13/2023 11:18:53 AM :LOG DATE  
API         .                                    42706400200000 :API NUMBER
UWI         .                                    42706400200000 :UNIQUE WELL ID
XCOORD      .                                  941616.333010477 :SURFACE X 
YCOORD      .                                  10405518.1254327 :SURFACE Y 
LAT         .                                         28.655687 :LATITUDE  
LON         .                                        -95.179294 :LONGITUDE 
ELEV        .FT                                              84 :ELEVATION VALUE
ELEV_TYPE   .                                                KB :ELEVATION REFERENCE TYPE
~Curve Information Section
#MNEM       .UNIT                                      API CODE :CURVE DESCRIPTION
#------------------------------------------------------------------------------
DEPT        .FT                                                 :DEPTH     
ASFL        .OHMM                                               :          
CALI        .IN                                                 :          
CILD        .MMHO                                               :          
DPHI        .%                                                  :          
DT          .US/F                                               :          
GR          .GAPI                                               :          
GR_1        .GAPI                                               :          
GR_NORM     .GAPI                                               :GammaRay Normalized
ILD         .OHMM                                               :          
NPHI        .DEC                                                :          
SP          .MV                                                 :          
SP_NORM     .MV                                                 :SP Normalized
VSH_GR      .V/V                                                :Volume of Shale from GR
VSH_SP      .V/V                                                :Volume of Shale from SP
~A        DEPTH           ASFL           CALI           CILD           DPHI             DT             GR           GR_1        GR_NORM            ILD           NPHI             SP        SP_NORM         VSH_GR         VSH_SP
# ...
      7689.0000         1.0062        10.1203       1821.246        40.2894        99.1013        -999.25        54.6031       50.49095          0.795         0.4029        45.1349      -34.26355      0.3721478      0.3278426
      7689.5000         0.9852        10.1304       1861.627        40.3183        99.3535        -999.25        54.4611       50.34895         0.7718         0.4032        45.4185      -33.97077      0.3691266      0.3339423
      7690.0000         0.9696         10.099       1889.742        40.6161        99.6053        -999.25        51.5466       47.43445         0.7479         0.4062        45.9005      -33.47958      0.3071159      0.3441754
      7690.5000          0.954         9.9905       1902.713        41.0541        99.8575        -999.25        47.5792       43.46705         0.7239         0.4105        46.7528      -32.61809      0.2227032      0.3621232
      7691.0000         0.9384         9.9874       1909.734         41.404        99.9689        -999.25        45.3922       41.28005         0.7001          0.414        47.8436       -31.5181      0.1761712      0.3850396
      7691.5000         0.9249         9.9844       1909.301        40.7559        99.5325        -999.25        44.6978       40.58565         0.6803         0.4076        50.1223      -29.23022      0.1613968      0.4327038
      7692.0000         0.9117         9.9828       1906.367        39.7766        99.1995        -999.25        43.5627       39.45055         0.6687         0.3978        50.9878      -28.35553      0.1372457      0.4509265
      7692.5000         0.8984        10.0138       1895.789        39.0132        99.8112        -999.25        43.1904       39.07825         0.6571         0.3901         50.392      -28.94215      0.1293244      0.4387053
      7693.0000         0.8846        10.0448        1858.74        38.5446       100.7251        -999.25        43.8113       39.69915         0.6456         0.3854        51.1731      -28.15186       0.142535      0.4551696
      7693.5000         0.8698        10.0757       1840.549        38.0788       101.6404        -999.25          44.35       40.23785          0.634         0.3808        54.5676      -24.74817      0.1539967      0.5260797
      7694.0000         0.8553         10.103       1818.234        37.5801       102.0731        -999.25        45.1301       41.01795         0.6467         0.3758        58.8107      -20.49589      0.1705946       0.614669
      7694.5000         0.8573        10.0492       1791.676        37.3925       101.3835        -999.25        46.7563       42.64415         0.6653         0.3739          59.96       -19.3374      0.2051947      0.6388041
      7695.0000         0.8724        10.0076           1739        38.5446       100.6927        -999.25         48.162       44.04985         0.6839         0.3854        58.2266      -21.06161      0.2351031      0.6028832
      7695.5000         0.8941         9.9722       1600.959         39.947        99.7899        -999.25        49.2568       45.14465         0.7024         0.3995        52.0667      -27.21232      0.2583968      0.4747433
      7696.0000         0.9226         9.9393       1589.938        40.5047        98.7487        -999.25         51.101       46.98885          0.721          0.405        47.0598      -32.21004      0.2976351      0.3706242
      7696.5000          0.951         9.9228       1583.908        40.2056        97.7075        -999.25        56.0284       51.91625         0.7395         0.4021        44.2419      -35.01875      0.4024734      0.3121094
      7697.0000         0.9809         9.9063       1585.365        39.8244        96.7299        -999.25        60.5837       56.47155         0.7581         0.3982        42.7394      -36.51207      0.4993946      0.2809986
      7697.5000         1.0182         9.8897        1588.74        38.9228        95.8308        -999.25        63.9929       59.88075         0.7652         0.3892        42.0486      -37.19368      0.5719308      0.2667983
      7698.0000         1.0556         9.9089       1592.869        37.8523        95.0247        -999.25        60.2996       56.18745          0.766         0.3785        41.5239      -37.70919      0.4933499      0.2560585
      7698.5000         1.0869         9.9303       1598.145        36.9118        94.4467        -999.25        57.3804       53.26825         0.7667         0.3691        41.0571      -38.16681      0.4312393      0.2465248
      7699.0000         1.1096         9.9517       1604.254         35.309        92.8219        -999.25        54.9803       50.86815         0.7675         0.3531        40.8263      -38.38842      0.3801734      0.2419079
      7699.5000         1.1322         9.9652       1600.367        33.1321        86.4351        -999.25         53.842       49.72985         0.7729         0.3313        42.0168      -37.18873      0.3559542      0.2669015
      7700.0000         1.1549         9.9676       1590.963        30.6576        80.4995        -999.25        53.4441       49.33195         0.7803         0.3066        44.6438      -34.55254      0.3474883       0.321822
      7700.5000         1.1835           9.97       1567.551        22.7617        69.7557        -999.25        53.6302       49.51805         0.7876         0.2276        47.2982      -31.88896      0.3514478      0.3773134
      7701.0000         1.2165         9.9286       1527.859        20.5847        67.1172        -999.25        53.0277       48.91555         0.7953         0.2058        48.3059      -30.87207      0.3386286      0.3984985
      7701.5000         1.2533         9.8806       1495.623        22.3102        70.6934        -999.25        52.4277       48.31555         0.8304         0.2231        48.9025      -30.26628      0.3258627      0.4111191
      7702.0000         1.3052         9.8429       1412.982        26.0361        89.4127        -999.25        52.0267       47.91455         0.8655         0.2604        50.3595       -28.8001      0.3173308      0.4416646
      7702.5000         1.3442         9.8377       1252.441        29.6125        93.5526        -999.25        51.8259       47.71375         0.9006         0.2961         54.338      -24.81241      0.3130585      0.5247414
      7703.0000         1.3808         9.8325         1091.9        32.9108          96.72        -999.25        52.5165       48.40435         0.9357         0.3291        58.3015      -20.83973      0.3277521      0.6075056
      7703.5000         1.4179         9.8406       1008.373        34.7334        95.3533        -999.25        53.1263       49.01415         0.9736         0.3473        57.2233      -21.90874      0.3407266      0.5852346
      7704.0000         1.4631         9.8625       957.5996        35.0451         93.938        -999.25        53.3829       49.27075         1.0236         0.3505        50.1947      -28.92816      0.3461861      0.4389967
      7704.5000         1.5107         9.8844       934.8662        35.2748         92.661        -999.25        53.4768       49.36465         1.0736         0.3527        44.9183      -34.19536       0.348184      0.3292633
      7705.0000         1.5581         9.9062       889.9424        35.1855        91.6853        -999.25        53.5302       49.41805         1.1237         0.3519        41.3792      -37.72528      0.3493202      0.2557234
      7705.5000         1.5983         9.9276       865.1104        35.1254        91.3318        -999.25         53.569       49.45685         1.1738         0.3513         40.689      -38.40629      0.3501457      0.2415356
      7706.0000         1.5327          9.949        875.873         35.149        91.1819        -999.25         54.046       49.93385         1.2113         0.3515        40.0417      -39.04441      0.3602947      0.2282415
      7706.5000         1.4814         9.9697       909.3437        35.1849        91.4323        -999.25        54.2275       50.11535         1.2479         0.3518        39.8866      -39.19032      0.3641564      0.2252017
