#------------------------------------------------------------------------------
# Created by    : vladimir.rabinovich
# Created on    : 09/19/2023 17:20:34
#------------------------------------------------------------------------------
~Version Information Section
VERS.           2.0     :   CWLS log ASCII Standard - VERSION 2.0
WRAP.           NO      :   One line per depth step
~Well Information Section
#MNEM       .UNIT                                         VALUE :DESCRIPTION
#------------------------------------------------------------------------------
STRT        .FT                                             495 :START DEPTH
STOP        .FT                                            9652 :STOP DEPTH
STEP        .FT                                             0.5 :STEP      
NULL        .                                           -999.25 :NULL      
COMP        .                                      SHELL OIL CO :COMPANY   
WELL        .                                OCS 00714 ST00BP00 :WELL      
FLD         .                                FEDERAL BLOCK 0288 :FIELD     
LOC         .                                                   :LOCATION  
CNTY        .                             GALVESTON LARGE BLOCK :LOCATION  
STAT        .                                             TEXAS :STATE     
CTRY        .                                     UNITED STATES :COUNTRY   
SRVC        .                                                   :SERVICE COMPANY
DATE        .                             9/13/2023 11:19:25 AM :LOG DATE  
API         .                                    42706000490000 :API NUMBER
UWI         .                                    42706000490000 :UNIQUE WELL ID
XCOORD      .                                  1093419.85109126 :SURFACE X 
YCOORD      .                                  10468907.9519753 :SURFACE Y 
LAT         .                                         28.836806 :LATITUDE  
LON         .                                        -94.708909 :LONGITUDE 
ELEV        .FT                                              83 :ELEVATION VALUE
ELEV_TYPE   .                                                KB :ELEVATION REFERENCE TYPE
~Curve Information Section
#MNEM       .UNIT                                      API CODE :CURVE DESCRIPTION
#------------------------------------------------------------------------------
DEPT        .FT                                                 :DEPTH     
ASN         .OHMM                                               :          
ASN_1       .OHMM                                               :          
CALI        .IN                                                 :          
CALI_1      .IN                                                 :          
DRHO        .G/C3                                               :          
DT          .US/F                                               :          
ILD         .OHMM                                               :          
LAT         .OHMM                                               :          
LN          .OHMM                                               :          
RHOB        .G/C3                                               :          
SP          .MV                                                 :          
SP_1        .MV                                                 :          
SP_NORM     .MV                                                 :SP Normalized
VSH_SP      .V/V                                                :Volume of Shale from SP
~A        DEPTH            ASN          ASN_1           CALI         CALI_1           DRHO             DT            ILD            LAT             LN           RHOB             SP           SP_1        SP_NORM         VSH_SP
# ...
      9081.0000         1.5069        -999.25        10.3415        -999.25         0.0265        99.5228         1.1611        -999.25        -999.25         2.3234        -999.25       -53.9387      -17.28635      0.4540591
      9081.5000         1.5168        -999.25        10.3448        -999.25         0.0213        98.2026         1.2557        -999.25        -999.25          2.331        -999.25       -52.4886      -15.84688      0.5054687
      9082.0000         1.5398        -999.25        10.3529        -999.25         0.0057        96.7285         1.3044        -999.25        -999.25          2.333        -999.25       -51.4931      -14.86201      0.5406424
      9082.5000         1.5833        -999.25        10.3607        -999.25         0.0184        94.4695         1.2973        -999.25        -999.25         2.3651        -999.25       -52.2615      -15.64105      0.5128197
      9083.0000         1.6225        -999.25        10.3646        -999.25         0.0555        94.5144         1.2782        -999.25        -999.25         2.3919        -999.25       -54.4321      -17.82228      0.4349186
      9083.5000         1.6312        -999.25        10.3684        -999.25         0.0887        94.0736         1.2563        -999.25        -999.25         2.3975        -999.25       -53.6509      -17.05172      0.4624386
      9084.0000         1.5949        -999.25        10.3752        -999.25         0.1069        87.1919         1.2146        -999.25        -999.25         2.3989        -999.25       -50.0785      -13.48995      0.5896446
      9084.5000         1.5278        -999.25        10.3844        -999.25         0.1197        87.2909         1.1633        -999.25        -999.25         2.3907        -999.25       -48.4171      -11.83918      0.6486006
      9085.0000         1.4615        -999.25        10.4029        -999.25         0.1276        89.8727         1.1017        -999.25        -999.25         2.3917        -999.25       -48.5115      -11.94422      0.6448492
      9085.5000          1.399        -999.25        10.4266        -999.25         0.1323        88.8066         1.0458        -999.25        -999.25         2.4142        -999.25       -51.3127      -14.75605      0.5444266
      9086.0000         1.3647        -999.25        10.4533        -999.25         0.1125        96.4215         1.0008        -999.25        -999.25         2.3835        -999.25       -52.9966      -16.45059      0.4839074
      9086.5000         1.3506        -999.25        10.4274        -999.25         0.0775       101.8909         0.9703        -999.25        -999.25         2.3618        -999.25       -55.0089      -18.47353      0.4116598
      9087.0000         1.3683        -999.25        10.3594        -999.25         0.0475        94.9192         0.9467        -999.25        -999.25         2.3416        -999.25       -57.7921      -21.26736      0.3118801
      9087.5000         1.4049        -999.25         10.349        -999.25         0.0259        86.8844         0.9288        -999.25        -999.25         2.3288        -999.25       -62.9765      -26.46239       0.126343
      9088.0000         1.4195        -999.25        10.3349        -999.25         0.0126        89.4858         0.9176        -999.25        -999.25         2.3295        -999.25       -66.3263      -29.82283    0.006327493
      9088.5000          1.415        -999.25        10.3188        -999.25        -0.0015        92.2059         0.9145        -999.25        -999.25         2.3188        -999.25       -67.8821      -31.38927              0
      9089.0000          1.394        -999.25        10.3047        -999.25        -0.0169        92.0338         0.9173        -999.25        -999.25         2.2833        -999.25       -67.5516       -31.0694              0
      9089.5000         1.3462        -999.25        10.2923        -999.25        -0.0126        94.7079         0.9089        -999.25        -999.25         2.2658        -999.25       -66.5872      -30.11563              0
      9090.0000           1.27        -999.25        10.2825        -999.25          0.005        97.6101         0.8779        -999.25        -999.25         2.2693        -999.25       -65.1572      -28.69627     0.04656179
      9090.5000         1.2026        -999.25        10.2845        -999.25        -0.0082        97.3571         0.8413        -999.25        -999.25         2.2832        -999.25       -62.4504       -26.0001      0.1428535
      9091.0000         1.1314        -999.25        10.2866        -999.25        -0.0123        94.5942         0.8011        -999.25        -999.25         2.2939        -999.25       -59.6424      -23.20274      0.2427594
      9091.5000         1.0603        -999.25        10.2875        -999.25         0.0075        96.0212         0.7621        -999.25        -999.25          2.291        -999.25       -58.7431      -22.31407      0.2744974
      9092.0000         1.0228        -999.25        10.2859        -999.25         0.0125        99.0393         0.7247        -999.25        -999.25         2.2852        -999.25       -60.1437      -23.72531      0.2240962
      9092.5000         1.0219        -999.25        10.2843        -999.25         0.0085        101.729          0.699        -999.25        -999.25          2.291        -999.25       -61.3078      -24.90004      0.1821414
      9093.0000         1.0467        -999.25        10.2844        -999.25         0.0277        99.3451         0.6811        -999.25        -999.25         2.2945        -999.25       -62.3043      -25.90717      0.1461724
      9093.5000         1.0694        -999.25        10.2905        -999.25         0.0558        93.6913         0.6725        -999.25        -999.25         2.2868        -999.25       -65.0853      -28.69881     0.04647119
      9094.0000          1.068        -999.25        10.2967        -999.25          0.064        95.3712         0.6659        -999.25        -999.25         2.2734        -999.25       -67.8462      -31.47034              0
      9094.5000         1.0397        -999.25        10.3024        -999.25         0.0339        95.6862          0.663        -999.25        -999.25         2.2515        -999.25       -68.8967      -32.53148              0
      9095.0000          1.001        -999.25        10.3078        -999.25         0.0065        97.2491          0.666        -999.25        -999.25         2.2208        -999.25       -68.5498      -32.19521              0
      9095.5000         0.9879        -999.25        10.3132        -999.25         0.0028        99.4868         0.6703        -999.25        -999.25         2.2045        -999.25       -67.3853      -31.04135              0
      9096.0000         0.9933        -999.25        10.3112        -999.25         0.0051        97.8114         0.6749        -999.25        -999.25         2.2041        -999.25       -66.5995      -30.26619              0
      9096.5000         1.0039        -999.25        10.3092        -999.25        -0.0075        95.5647         0.6756        -999.25        -999.25         2.2098        -999.25       -68.0979      -31.77522              0
      9097.0000         1.0075        -999.25        10.3111        -999.25        -0.0107        94.8292         0.6762        -999.25        -999.25         2.2308        -999.25       -69.0399      -32.72786              0
      9097.5000         0.9963        -999.25        10.3144        -999.25         -0.009        94.7643         0.6769        -999.25        -999.25         2.2395        -999.25       -69.3318      -33.03039              0
      9098.0000         0.9912        -999.25        10.3147        -999.25         0.0038        94.7388         0.6808        -999.25        -999.25         2.2291        -999.25       -68.9208      -32.63002              0
      9098.5000         0.9964        -999.25        10.3142        -999.25         0.0143        94.4728         0.6943        -999.25        -999.25         2.2165        -999.25       -69.5682      -33.28806              0
