#------------------------------------------------------------------------------
# Created by    : vladimir.rabinovich
# Created on    : 09/19/2023 17:19:47
#------------------------------------------------------------------------------
~Version Information Section
VERS.           2.0     :   CWLS log ASCII Standard - VERSION 2.0
WRAP.           NO      :   One line per depth step
~Well Information Section
#MNEM       .UNIT                                         VALUE :DESCRIPTION
#------------------------------------------------------------------------------
STRT        .FT                                             970 :START DEPTH
STOP        .FT                                            9511 :STOP DEPTH
STEP        .FT                                             0.5 :STEP      
NULL        .                                           -999.25 :NULL      
COMP        .                                SHELL OFFSHORE INC :COMPANY   
WELL        .                               OCS G06097 ST00BP00 :WELL      
FLD         .                                           WILDCAT :FIELD     
LOC         .                                                   :LOCATION  
CNTY        .                             GALVESTON LARGE BLOCK :LOCATION  
STAT        .                                             TEXAS :STATE     
CTRY        .                                     UNITED STATES :COUNTRY   
SRVC        .                                                   :SERVICE COMPANY
DATE        .                             9/13/2023 11:19:27 AM :LOG DATE  
API         .                                    42706401130000 :API NUMBER
UWI         .                                    42706401130000 :UNIQUE WELL ID
XCOORD      .                                  1026820.46089783 :SURFACE X 
YCOORD      .                                  10482391.3243497 :SURFACE Y 
LAT         .                                         28.871086 :LATITUDE  
LON         .                                        -94.917566 :LONGITUDE 
ELEV        .FT                                             107 :ELEVATION VALUE
ELEV_TYPE   .                                                KB :ELEVATION REFERENCE TYPE
~Curve Information Section
#MNEM       .UNIT                                      API CODE :CURVE DESCRIPTION
#------------------------------------------------------------------------------
DEPT        .FT                                                 :DEPTH     
ASFL        .OHMM                                               :          
CALI        .IN                                                 :          
CILD        .MMHO                                               :          
DT          .US/F                                               :          
GR          .GAPI                                               :          
GR_NORM     .GAPI                                               :GammaRay Normalized
ILD         .OHMM                                               :          
ILM         .OHMM                                               :          
RHOB        .G/C3                                               :          
SP          .MV                                                 :          
SP_NORM     .MV                                                 :SP Normalized
VSH_GR      .V/V                                                :Volume of Shale from GR
VSH_SP      .V/V                                                :Volume of Shale from SP
~A        DEPTH           ASFL           CALI           CILD             DT             GR        GR_NORM            ILD            ILM           RHOB             SP        SP_NORM         VSH_GR         VSH_SP
# ...
      4390.0000         0.4214        19.4997        3790.07       121.7949        30.0381       46.28221         0.2871         0.3255         2.0128      -109.2667      -28.91003      0.2826003     0.03633245
      4390.5000         0.4194        19.4532           3775       120.5596        29.2055       45.03765         0.2902          0.325         2.0278      -109.0319       -28.6768      0.2561202     0.04410655
      4391.0000         0.4174        19.5591       3764.488       119.0461        28.5096       43.99743         0.2935         0.3258         2.0369      -108.8259      -28.47238      0.2339879     0.05092061
      4391.5000         0.4155        19.8637       3753.977       118.4446        27.9041       43.09233         0.2969         0.3276         2.0047      -108.6312      -28.27927      0.2147304     0.05735753
      4392.0000         0.4135        20.0082        3753.09       118.2589         27.298       42.18634         0.3004          0.329         1.9631      -108.4368      -28.08645       0.195454     0.06378505
      4392.5000         0.4116        20.1883       3762.773       118.4266        26.7921       41.43012         0.3038           0.33         1.8858      -108.2579      -27.90913      0.1793643     0.06969579
      4393.0000         0.4096        20.4912       3790.754       118.2678        26.6166       41.16778         0.3072         0.3284         1.8762      -108.1608      -27.81361      0.1737826     0.07287979
      4393.5000         0.4077        21.7959        3821.75        117.788        26.6997         41.292         0.3106         0.3266         1.8988      -108.0637      -27.71809      0.1764255     0.07606379
      4394.0000         0.4057        22.7191       3865.926       117.2273        26.9212        41.6231         0.3125         0.3248         1.9222       -107.975      -27.63097      0.1834701     0.07896779
      4394.5000         0.4038        22.5427       3983.918        117.132        27.1888       42.02311          0.312         0.3222         1.9185      -107.9192      -27.57674       0.191981     0.08077519
      4395.0000         0.4027        22.0388       4064.262       118.3005        27.9399       43.14584         0.3114         0.3177         1.9097      -107.8634      -27.52253      0.2158689     0.08258235
      4395.5000         0.4017         21.191       4146.922       119.6987        29.4646       45.42495         0.3109         0.3124         1.9595      -107.8077      -27.46841      0.2643606     0.08438645
      4396.0000         0.4007        18.9994       4201.023        121.126        31.1695       47.97342         0.3104         0.3077          1.979      -107.6924      -27.35468      0.3185834     0.08817723
      4396.5000         0.3998        18.7616       4173.078       122.9698        32.4256       49.85103         0.3098         0.3058         1.9927       -107.505      -27.16887      0.3585325     0.09437104
      4397.0000         0.4005        18.6376       3952.215       124.2532        33.4409       51.36869          0.309         0.3063          1.972      -107.3197      -26.98515      0.3908231      0.1004949
      4397.5000         0.4104        18.4698        3589.32       122.2662        34.5251       52.98935         0.3077         0.3112         1.9403      -107.1394      -26.80643      0.4253052      0.1064524
      4398.0000         0.4204        17.6004       3359.586       117.5969        35.0905        53.8345         0.3065         0.3321         1.9067      -106.9591      -26.62771      0.4432872      0.1124097
      4398.5000         0.4303        15.8513       3233.074       113.5317        36.3799       55.76189         0.3052         0.3693         1.9094      -106.7432      -26.41339      0.4842955      0.1195536
      4399.0000         0.4485        15.0158       3024.207       112.2896        34.3563       52.73703          0.304         0.4155         1.9687      -106.4663      -26.13807      0.4199367       0.128731
      4399.5000         0.4782        14.7671       2880.258       112.7096        33.5105       51.47273         0.3027         0.4425         2.0244       -106.548      -26.22134      0.3930368      0.1259552
      4400.0000         0.5404        14.8405       2807.273       113.2068        33.1513        50.9358         0.3063         0.4402         2.0237      -106.6296      -26.30453      0.3816127      0.1231824
      4400.5000         0.5735        15.3718       2860.098       113.5157        32.7921       50.39887         0.3126          0.421         1.9491      -106.7113      -26.38781      0.3701887      0.1204063
      4401.0000         0.5377        16.0039       2994.066       113.8063        32.4329       49.86194         0.3189         0.3968         1.8945      -106.7905      -26.46858      0.3587646      0.1177139
      4401.5000         0.5052         16.716       3206.461       114.3634        32.4843       49.93877         0.3102         0.3728         1.8841      -106.7777      -26.45737      0.3603995      0.1180878
      4402.0000         0.4748        16.9338        3515.73        115.402        32.6926       50.25014         0.3004          0.349         1.9302      -106.7648      -26.44605      0.3670243      0.1184649
      4402.5000         0.4627        17.0131       4009.879       117.9493        32.9008       50.56135         0.2906         0.3275         2.0049      -106.7518      -26.43463      0.3736458      0.1188456
      4403.0000         0.4508         17.389       4102.922       119.8372         32.585        50.0893         0.2808         0.3114         2.0335      -106.7222      -26.40661      0.3636021      0.1197797
      4403.5000         0.4389        18.1224       4152.867       120.5212        32.1329       49.41351         0.2771         0.3032         2.0036      -106.5597      -26.24569      0.3492235      0.1251437
      4404.0000          0.427        18.9066       4142.234        121.793        31.6808        48.7377         0.2775         0.3031         1.9544      -106.4979      -26.18547      0.3348447       0.127151
      4404.5000         0.4152        20.0754       4020.055        122.484        30.8689       47.52409         0.2787          0.311         1.8936      -106.6215      -26.31065      0.3090232      0.1229785
      4405.0000         0.4033         20.589       3396.781       122.4224        32.5793       50.08078         0.2974         0.3435          1.821       -106.745      -26.43573      0.3634208       0.118809
      4405.5000         0.4059        20.4275       3174.605       116.2175        34.5471       53.02223         0.3162         0.4092         1.7642      -106.8684      -26.56071      0.4260049      0.1146431
      4406.0000         0.4321         19.551       2909.289       103.5563        35.1664       53.94796         0.3349          0.508         1.7894      -106.9919      -26.68578      0.4457012      0.1104739
      4406.5000         0.4944        17.8448       2579.859        90.8674        35.9024       55.04812         0.3688         0.6037         1.9182      -107.1667      -26.86217       0.469109      0.1045944
      4407.0000         0.5707        15.6088       2307.484        88.7826        36.3209       55.67369         0.4165         0.5984         2.1861      -107.4858      -27.18285       0.482419     0.09390488
      4407.5000          0.617        14.4679       2057.688        90.9001         36.655        56.1731         0.4758         0.5635         2.2482      -107.8052      -27.50383      0.4930446     0.08320567
      4408.0000         0.6514        14.9205       2073.816       103.4958        36.9888       56.67206         0.4683         0.4956         2.1822       -108.072      -27.77221      0.5036609     0.07425969
      4408.5000         0.6845        16.4577       2151.488       121.2367        37.3365        57.1918         0.4413         0.4388         2.0803        -108.29      -27.99179      0.5147192     0.06694031
