#------------------------------------------------------------------------------
# Created by    : vladimir.rabinovich
# Created on    : 09/19/2023 17:20:58
#------------------------------------------------------------------------------
~Version Information Section
VERS.           2.0     :   CWLS log ASCII Standard - VERSION 2.0
WRAP.           NO      :   One line per depth step
~Well Information Section
#MNEM       .UNIT                                         VALUE :DESCRIPTION
#------------------------------------------------------------------------------
STRT        .FT                                             521 :START DEPTH
STOP        .FT                                           11050 :STOP DEPTH
STEP        .FT                                             0.5 :STEP      
NULL        .                                           -999.25 :NULL      
COMP        .                                      SHELL OIL CO :COMPANY   
WELL        .                                     ST TR 00335-L :WELL      
FLD         .                                           WILDCAT :FIELD     
LOC         .                                                   :LOCATION  
CNTY        .                                BRAZOS LARGE BLOCK :LOCATION  
STAT        .                                             TEXAS :STATE     
CTRY        .                                     UNITED STATES :COUNTRY   
SRVC        .                                                   :SERVICE COMPANY
DATE        .                             9/13/2023 11:18:52 AM :LOG DATE  
API         .                                    42704000130000 :API NUMBER
UWI         .                                    42704000130000 :UNIQUE WELL ID
XCOORD      .                                  903482.990868916 :SURFACE X 
YCOORD      .                                   10450808.276789 :SURFACE Y 
LAT         .                                        28.7782296 :LATITUDE  
LON         .                                       -95.3008656 :LONGITUDE 
ELEV        .FT                                              81 :ELEVATION VALUE
ELEV_TYPE   .                                                DF :ELEVATION REFERENCE TYPE
~Curve Information Section
#MNEM       .UNIT                                      API CODE :CURVE DESCRIPTION
#------------------------------------------------------------------------------
DEPT        .FT                                                 :DEPTH     
ASN         .OHMM                                               :          
CILD        .MMHO                                               :          
ILD         .OHMM                                               :          
SP          .MV                                                 :          
SP_NORM     .MV                                                 :SP Normalized
VSH_SP      .V/V                                                :Volume of Shale from SP
~A        DEPTH            ASN           CILD            ILD             SP        SP_NORM         VSH_SP
# ...
      6829.0000         1.2587       1018.717         0.9296       -49.9144      -12.90705      0.8274341
      6829.5000         1.2725       1016.565         0.9495       -50.9413      -13.93673      0.8125112
      6830.0000         1.2366       1028.998         0.9689       -51.9695       -14.9677      0.7975695
      6830.5000         1.2041        1041.42         0.9838       -55.1747      -18.17568      0.7510771
      6831.0000         1.1776        1127.58         0.9839       -57.1349      -20.13866      0.7226281
      6831.5000         1.1512       1164.504         0.9833       -55.0505      -18.05704      0.7527965
      6832.0000         1.1248       1185.482         0.9709       -52.4459      -15.45522      0.7905041
      6832.5000         1.1035       1194.225         0.9586       -49.8412      -12.85329      0.8282131
      6833.0000         1.0856       1193.313         0.9463        -47.462      -10.47687       0.862654
      6833.5000         1.0677         1192.4         0.9339       -46.0598      -9.077446      0.8829356
      6834.0000         1.0499       1199.344          0.923       -44.6577      -7.678123      0.9032156
      6834.5000         1.0352       1210.094         0.9126       -43.2554      -6.278603      0.9234985
      6835.0000         1.0239       1221.762         0.9022       -42.2982      -5.324177      0.9373308
      6835.5000         1.0174       1232.785         0.8918       -41.9717      -5.000454      0.9420224
      6836.0000         1.0123       1243.543         0.8815       -41.9849      -5.016434      0.9417908
      6836.5000         1.0081       1253.156         0.8726        -42.002      -5.036308      0.9415027
      6837.0000         1.0042       1262.453         0.8708       -42.0353      -5.072388      0.9409799
      6837.5000         1.0056       1271.303          0.869       -42.0918      -5.131668      0.9401208
      6838.0000         1.0071       1276.596         0.8672       -42.1483      -5.190945      0.9392617
      6838.5000         1.0094       1276.066         0.8654       -42.2047      -5.250122       0.938404
      6839.0000         1.0119       1270.166         0.8636       -42.2611      -5.309299      0.9375464
      6839.5000         1.0144        1266.82         0.8618       -42.3175      -5.368477      0.9366887
      6840.0000         1.0169       1263.473         0.8619       -42.3058      -5.359554      0.9368181
      6840.5000         1.0194       1260.127          0.862       -42.2634      -5.319931      0.9373923
      6841.0000         1.0156        1247.48         0.8621       -42.2211      -5.280407      0.9379651
      6841.5000         1.0097        1216.33         0.8621       -42.1788      -5.240883       0.938538
      6842.0000         1.0034       1218.273         0.8622       -42.1364       -5.20126      0.9391122
      6842.5000         0.9971       1229.967         0.8623       -42.0941      -5.161739      0.9396849
      6843.0000         0.9933       1245.377         0.8624       -41.8773      -4.947716      0.9427868
      6843.5000         1.0002       1255.344         0.8629       -41.5033      -4.576492      0.9481668
      6844.0000          1.007       1259.125         0.8635       -41.1299      -4.205875      0.9535381
      6844.5000          1.014       1259.994         0.8641       -40.7559      -3.834652      0.9589181
      6845.0000         1.0175       1260.865         0.8647       -40.3819      -3.463428      0.9642981
      6845.5000         1.0156       1261.734         0.8653       -40.0085      -3.092804      0.9696695
      6846.0000         1.0136       1260.168         0.8659       -39.7006      -2.787682      0.9740916
      6846.5000         1.0135       1256.371         0.8665       -39.4895      -2.579357      0.9771107
      6847.0000         1.0145       1252.789         0.8655       -39.4713      -2.563934      0.9773343
      6847.5000         1.0155       1249.689         0.8631       -39.7545      -2.849915      0.9731897
      6848.0000         1.0164       1246.982         0.8608       -40.0274      -3.125591      0.9691944
      6848.5000          1.015        1248.83         0.8584       -40.2872      -3.388168      0.9653889
      6849.0000         1.0123       1250.674          0.856       -40.5469      -3.650646      0.9615849
      6849.5000         1.0096       1255.367         0.8537       -40.8068      -3.913322      0.9577779
      6850.0000         1.0068       1263.232         0.8513       -41.0668      -4.176098      0.9539696
      6850.5000         1.0041       1271.096          0.849       -41.3239      -4.435974      0.9502033
      6851.0000         1.0019       1278.947         0.8471       -41.2321      -4.346958      0.9514934
      6851.5000         1.0009       1285.535         0.8456       -41.1403      -4.257935      0.9527836
      6852.0000         0.9999       1291.545         0.8441       -41.0485      -4.168911      0.9540737
      6852.5000         0.9991       1297.555         0.8425       -40.9567      -4.079887      0.9553639
      6853.0000         0.9986       1302.711          0.841       -40.8616      -3.987564       0.956702
      6853.5000         0.9982       1305.785         0.8394       -40.5777      -3.706444      0.9607762
      6854.0000         0.9978        1306.76         0.8379       -40.2942       -3.42572      0.9648446
      6854.5000         0.9975       1305.525         0.8364       -40.0103      -3.144596      0.9689189
      6855.0000         0.9972       1304.293         0.8351       -39.7265      -2.863575      0.9729916
      6855.5000          0.997       1303.061         0.8337       -39.4429      -2.582752      0.9770616
      6856.0000         0.9929       1300.238         0.8323       -39.1591      -2.301727      0.9811344
      6856.5000         0.9888       1297.172          0.831       -39.0482      -2.193604      0.9827014
      6857.0000         0.9848       1294.104         0.8292       -39.2879      -2.436081      0.9791873
      6857.5000         0.9807       1291.033         0.8254       -39.5276      -2.678562       0.975673
      6858.0000         0.9766       1291.561         0.8216       -39.7274      -2.881142      0.9727371
      6858.5000         0.9717       1297.822         0.8178       -39.7803      -2.936817      0.9719302
      6859.0000         0.9667       1309.611         0.8139       -39.8331      -2.992393      0.9711247
      6859.5000         0.9615       1323.418         0.8101        -39.886      -3.048073      0.9703178
      6860.0000         0.9545       1338.574         0.8063       -40.7466      -3.911449      0.9578051
      6860.5000         0.9475        1357.73         0.8023       -40.5282      -3.695824      0.9609301
      6861.0000         0.9395       1376.885         0.7984       -40.3101      -3.480503      0.9640507
      6861.5000         0.9346       1391.469         0.7944       -40.1313      -3.304482      0.9666017
      6862.0000         0.9361        1405.24         0.7905       -39.9933      -3.169258      0.9685615
      6862.5000         0.9376       1417.041         0.7865       -39.8759      -3.054634      0.9702227
      6863.0000         0.9391       1408.887         0.7837       -39.8076      -2.989109      0.9711723
      6863.5000         0.9375       1401.623         0.7822       -39.7448      -2.929089      0.9720422
      6864.0000         0.9351       1394.635         0.7806       -39.7255      -2.912567      0.9722816
      6864.5000         0.9297       1394.508         0.7791       -39.6285      -2.818348      0.9736471
      6865.0000         0.9237       1402.006         0.7775       -39.3459      -2.538525      0.9777026
      6865.5000         0.9177       1410.855         0.7737       -38.8354        -2.0308      0.9850609
      6866.0000         0.9118       1423.168         0.7689       -38.3922      -1.590378      0.9914438
      6866.5000         0.9073       1435.479         0.7641       -38.1928      -1.393753      0.9942935
