#------------------------------------------------------------------------------
# Created by    : vladimir.rabinovich
# Created on    : 09/19/2023 17:20:36
#------------------------------------------------------------------------------
~Version Information Section
VERS.           2.0     :   CWLS log ASCII Standard - VERSION 2.0
WRAP.           NO      :   One line per depth step
~Well Information Section
#MNEM       .UNIT                                         VALUE :DESCRIPTION
#------------------------------------------------------------------------------
STRT        .FT                                             510 :START DEPTH
STOP        .FT                                            7943 :STOP DEPTH
STEP        .FT                                             0.5 :STEP      
NULL        .                                           -999.25 :NULL      
COMP        .                       BLUE DOLPHIN EXPLORATION CO :COMPANY   
WELL        .                                OCS 00709 ST00BP00 :WELL      
FLD         .                                FEDERAL BLOCK 0288 :FIELD     
LOC         .                                                   :LOCATION  
CNTY        .                             GALVESTON LARGE BLOCK :LOCATION  
STAT        .                                             TEXAS :STATE     
CTRY        .                                     UNITED STATES :COUNTRY   
SRVC        .                                                   :SERVICE COMPANY
DATE        .                             9/13/2023 11:19:25 AM :LOG DATE  
API         .                                    42706000400000 :API NUMBER
UWI         .                                    42706000400000 :UNIQUE WELL ID
XCOORD      .                                   1098851.8122004 :SURFACE X 
YCOORD      .                                  10485233.3471489 :SURFACE Y 
LAT         .                                         28.881916 :LATITUDE  
LON         .                                        -94.692672 :LONGITUDE 
ELEV        .FT                                              93 :ELEVATION VALUE
ELEV_TYPE   .                                                KB :ELEVATION REFERENCE TYPE
~Curve Information Section
#MNEM       .UNIT                                      API CODE :CURVE DESCRIPTION
#------------------------------------------------------------------------------
DEPT        .FT                                                 :DEPTH     
ASN         .OHMM                                               :          
GR          .GAPI                                               :          
ILD         .OHMM                                               :          
NEUT        .NAPI                                               :          
SP          .MV                                                 :          
SP_NORM     .MV                                                 :SP Normalized
VSH_SP      .V/V                                                :Volume of Shale from SP
~A        DEPTH            ASN             GR            ILD           NEUT             SP        SP_NORM         VSH_SP
# ...
      6439.5000         0.7774        -999.25         0.6601        -999.25       -47.6389       3.580612              1
      6440.0000         0.7749        -999.25         0.6516        -999.25       -47.3611       3.858414              1
      6440.5000         0.7682        -999.25         0.6434        -999.25         -47.04       4.179512              1
      6441.0000         0.7593        -999.25         0.6406        -999.25       -46.5585       4.661015              1
      6441.5000         0.7584        -999.25         0.6495        -999.25       -46.0837       5.135815              1
      6442.0000         0.7633        -999.25         0.6666        -999.25       -46.0447       5.174812              1
      6442.5000         0.7745        -999.25         0.6942        -999.25       -46.5947       4.624813              1
      6443.0000         0.7991        -999.25         0.7298        -999.25       -46.8453       4.374214              1
      6443.5000         0.8486        -999.25         0.7724        -999.25       -47.0279       4.191612              1
      6444.0000         0.9107        -999.25         0.8075        -999.25       -47.5159       3.703613              1
      6444.5000         0.9695        -999.25         0.8429        -999.25       -48.5441       2.675411              1
      6445.0000         1.0229        -999.25         0.8863        -999.25       -50.1176       1.101913              1
      6445.5000         1.0368        -999.25         0.9085        -999.25       -52.1048     -0.8852882              1
      6446.0000         1.0318        -999.25         0.9117        -999.25       -52.9808      -1.761288      0.9853598
      6446.5000         1.0049        -999.25          0.913        -999.25        -52.778      -1.558487      0.9892598
      6447.0000         0.9701        -999.25         0.9068        -999.25       -52.2834      -1.063889      0.9987714
      6447.5000         0.9568        -999.25         0.8959        -999.25       -51.4865     -0.2669868              1
      6448.0000         0.9568        -999.25         0.8825        -999.25       -50.7291      0.4904137              1
      6448.5000         0.9613        -999.25         0.8604        -999.25       -50.5742      0.6453133              1
      6449.0000          0.949        -999.25          0.838        -999.25       -50.6887      0.5308113              1
      6449.5000         0.9238        -999.25         0.8144        -999.25       -50.9572      0.2623138              1
      6450.0000         0.8876        -999.25         0.8022        -999.25       -51.4379     -0.2183876              1
      6450.5000         0.8514        -999.25         0.7946        -999.25       -52.0765      -0.856987              1
      6451.0000         0.8322        -999.25         0.7917        -999.25       -53.0441      -1.824589      0.9841425
      6451.5000         0.8349        -999.25         0.7941        -999.25       -53.9066      -2.687088       0.967556
      6452.0000         0.8561        -999.25          0.804        -999.25       -54.1214      -2.901886      0.9634253
      6452.5000         0.8847        -999.25         0.8179        -999.25       -53.8055      -2.585987      0.9695002
      6453.0000         0.9133        -999.25         0.8204        -999.25       -53.6415      -2.421986      0.9726541
      6453.5000         0.9387        -999.25         0.8218        -999.25       -54.2379      -3.018387      0.9611849
      6454.0000          0.958        -999.25          0.826        -999.25       -55.3976      -4.178085      0.9388829
      6454.5000         0.9684        -999.25         0.8304        -999.25       -56.0405      -4.820988      0.9265195
      6455.0000         0.9676        -999.25          0.841        -999.25       -55.7848      -4.565289      0.9314368
      6455.5000         0.9584        -999.25         0.8543        -999.25       -56.4545      -5.234985       0.918558
      6456.0000         0.9408        -999.25         0.8579        -999.25       -57.1938      -5.974289      0.9043406
      6456.5000         0.9333        -999.25         0.8589        -999.25        -56.511      -5.291489      0.9174713
      6457.0000         0.9364        -999.25         0.8585        -999.25       -55.8379      -4.618385      0.9304157
      6457.5000          0.934        -999.25         0.8561        -999.25       -55.6333      -4.413788      0.9343503
      6458.0000          0.925        -999.25         0.8525        -999.25       -55.9939      -4.774387      0.9274156
      6458.5000         0.9196        -999.25         0.8436        -999.25       -56.3036      -5.084087      0.9214599
      6459.0000          0.927        -999.25         0.8344        -999.25       -56.5387      -5.319187      0.9169387
      6459.5000         0.9287        -999.25         0.8223        -999.25       -56.4442      -5.224686      0.9187561
      6460.0000         0.9104        -999.25         0.8101        -999.25       -56.2205      -5.000988      0.9230579
      6460.5000         0.8844        -999.25         0.7934        -999.25       -55.7695      -4.549988       0.931731
      6461.0000         0.8664        -999.25         0.7737        -999.25       -55.2823      -4.062786      0.9411002
      6461.5000         0.8483        -999.25         0.7529        -999.25       -55.1115      -3.891987      0.9443849
      6462.0000          0.831        -999.25         0.7273        -999.25       -54.6651      -3.445587      0.9529695
      6462.5000         0.8111        -999.25         0.7019        -999.25       -54.2173      -2.997787       0.961581
      6463.0000         0.7889        -999.25          0.685        -999.25       -54.5215      -3.301987       0.955731
      6463.5000         0.7655        -999.25         0.6714        -999.25       -54.7275      -3.507988      0.9517695
      6464.0000         0.7493        -999.25         0.6662        -999.25       -54.5702      -3.350689      0.9547945
      6464.5000         0.7378        -999.25         0.6592        -999.25       -53.5291      -2.309586      0.9748157
      6465.0000         0.7314        -999.25         0.6561        -999.25       -52.5253      -1.305786      0.9941195
      6465.5000         0.7349        -999.25          0.666        -999.25       -51.7685     -0.5489883              1
      6466.0000         0.7498        -999.25         0.6833        -999.25       -51.5325     -0.3129883              1
      6466.5000         0.7703        -999.25         0.7017        -999.25       -51.1366     0.08291245              1
      6467.0000         0.7913        -999.25         0.7206        -999.25       -51.1278     0.09171295              1
      6467.5000         0.8131        -999.25         0.7395        -999.25       -51.5939     -0.3743858              1
      6468.0000         0.8376        -999.25         0.7619        -999.25        -51.983     -0.7634888              1
      6468.5000         0.8645        -999.25         0.7857        -999.25       -52.1967     -0.9771881              1
      6469.0000         0.8905        -999.25         0.8061        -999.25       -52.5722      -1.352688      0.9932175
      6469.5000         0.9142        -999.25          0.823        -999.25       -53.3482      -2.128689      0.9782944
      6470.0000         0.9359        -999.25         0.8351        -999.25       -54.2435      -3.023987      0.9610772
      6470.5000         0.9451        -999.25         0.8427        -999.25       -55.8011      -4.581589      0.9311233
      6471.0000          0.942        -999.25         0.8372        -999.25       -57.3905      -6.170986      0.9005579
      6471.5000         0.9335        -999.25         0.8241        -999.25       -58.2943      -7.074787      0.8831772
      6472.0000          0.915        -999.25         0.8072        -999.25       -58.2185      -6.998985      0.8846349
      6472.5000         0.8966        -999.25         0.7885        -999.25       -56.6829      -5.463387      0.9141656
