#------------------------------------------------------------------------------
# Created by    : vladimir.rabinovich
# Created on    : 09/19/2023 17:19:47
#------------------------------------------------------------------------------
~Version Information Section
VERS.           2.0     :   CWLS log ASCII Standard - VERSION 2.0
WRAP.           NO      :   One line per depth step
~Well Information Section
#MNEM       .UNIT                                         VALUE :DESCRIPTION
#------------------------------------------------------------------------------
STRT        .FT                                             970 :START DEPTH
STOP        .FT                                            9511 :STOP DEPTH
STEP        .FT                                             0.5 :STEP      
NULL        .                                           -999.25 :NULL      
COMP        .                                SHELL OFFSHORE INC :COMPANY   
WELL        .                               OCS G06097 ST00BP00 :WELL      
FLD         .                                           WILDCAT :FIELD     
LOC         .                                                   :LOCATION  
CNTY        .                             GALVESTON LARGE BLOCK :LOCATION  
STAT        .                                             TEXAS :STATE     
CTRY        .                                     UNITED STATES :COUNTRY   
SRVC        .                                                   :SERVICE COMPANY
DATE        .                             9/13/2023 11:19:27 AM :LOG DATE  
API         .                                    42706401130000 :API NUMBER
UWI         .                                    42706401130000 :UNIQUE WELL ID
XCOORD      .                                  1026820.46089783 :SURFACE X 
YCOORD      .                                  10482391.3243497 :SURFACE Y 
LAT         .                                         28.871086 :LATITUDE  
LON         .                                        -94.917566 :LONGITUDE 
ELEV        .FT                                             107 :ELEVATION VALUE
ELEV_TYPE   .                                                KB :ELEVATION REFERENCE TYPE
~Curve Information Section
#MNEM       .UNIT                                      API CODE :CURVE DESCRIPTION
#------------------------------------------------------------------------------
DEPT        .FT                                                 :DEPTH     
ASFL        .OHMM                                               :          
CALI        .IN                                                 :          
CILD        .MMHO                                               :          
DT          .US/F                                               :          
GR          .GAPI                                               :          
GR_NORM     .GAPI                                               :GammaRay Normalized
ILD         .OHMM                                               :          
ILM         .OHMM                                               :          
RHOB        .G/C3                                               :          
SP          .MV                                                 :          
SP_NORM     .MV                                                 :SP Normalized
VSH_GR      .V/V                                                :Volume of Shale from GR
VSH_SP      .V/V                                                :Volume of Shale from SP
~A        DEPTH           ASFL           CALI           CILD             DT             GR        GR_NORM            ILD            ILM           RHOB             SP        SP_NORM         VSH_GR         VSH_SP
# ...
      2699.0000         0.7262         15.118       1455.721       145.8467        71.4255       90.71281         0.6907         0.6796         1.9454       -82.0383      -2.977638              1              1
      2699.5000         0.7321        15.1049       1443.068       144.1611        72.4572        92.2496         0.6924         0.6833         1.9702       -81.8618      -2.799301              1              1
      2700.0000         0.7392        15.0913       1430.418       143.3933        69.4867       87.80394         0.6941         0.6851           1.99       -81.6852      -2.620865              1              1
      2700.5000         0.7476         15.124       1417.768       144.0381        67.6702       85.08324         0.6958         0.6863         2.0068       -81.5085      -2.442314              1              1
      2701.0000         0.7512        15.2327       1408.229        145.366        66.0638       82.67663         0.6975         0.6866         2.0173        -81.332      -2.263977              1              1
      2701.5000         0.7538        15.3921       1399.877       146.7495        65.2826       81.50352         0.6992         0.6859         2.0281       -81.1555      -2.085632              1              1
      2702.0000         0.7461         15.571       1395.496       147.7871        65.5206       81.85389         0.7009         0.6852         2.0388       -80.9789      -1.907188              1              1
      2702.5000         0.7328        15.7604       1410.119       148.0642        65.5839       81.94313          0.702         0.6829         2.0446        -80.884      -1.810448              1              1
      2703.0000         0.7195         15.969       1424.748       147.6418         65.399       81.66135         0.7025         0.6801         2.0261       -80.7927      -1.717308              1              1
      2703.5000         0.7083        16.1454       1439.371       147.2344        65.2067       81.36852          0.703         0.6769         1.9761       -80.8073      -1.730057              1              1
      2704.0000         0.7016        15.9465       1453.994       146.8528        64.7788        80.7235         0.7034         0.6726         1.8809       -80.8588      -1.779724              1              1
      2704.5000         0.6949        15.4605       1468.623        146.832        64.3511       80.07879         0.7039         0.6684          1.847       -80.9103      -1.829384              1              1
      2705.0000         0.6909        15.1269       1471.818       146.8315        64.6735       80.55534         0.7044         0.6632         1.8455       -80.9618      -1.879036              1              1
      2705.5000         0.6901        15.0652       1470.273       146.3914        65.1027        81.1915         0.7049         0.6581         1.8913       -81.0132      -1.928596              1              1
      2706.0000         0.6935        15.2046       1468.727       146.6985        65.5316       81.82724         0.7054         0.6541         1.9454        -81.051      -1.964554              1              1
      2706.5000         0.6968        15.3737       1467.182       147.6172        65.2074       81.33723         0.7058         0.6526           1.99        -81.063      -1.974716              1              1
      2707.0000         0.7002        15.6043       1464.844       148.2244        64.2549       79.90805         0.7063         0.6511         1.9948        -81.075      -1.984863      0.9980437              1
      2707.5000         0.7024        15.8326       1458.115       148.7537         63.236       78.37963         0.7064           0.65         1.9854       -81.1266       -2.03463      0.9655241              1
      2708.0000         0.7038        16.0479       1451.383       148.9932        62.2678       76.92697         0.7057         0.6493         1.9836       -81.4197      -2.325882      0.9346164              1
      2708.5000         0.7047        16.2441       1444.654       149.3613        61.3956       75.61784          0.705         0.6487         1.9917       -81.6464      -2.550743      0.9067625              1
      2709.0000         0.7032        16.4307       1437.922       149.5261        60.5203       74.30405         0.7043         0.6497         2.0016       -81.7566      -2.659096      0.8788097              1
      2709.5000         0.7018        16.6047       1431.193       147.1084        59.5872       72.90388         0.7036         0.6532         2.0053       -81.8668      -2.767456      0.8490187              1
      2710.0000         0.7004        16.7433       1424.461       145.7673        58.7957       71.71537         0.7029         0.6577         1.9977       -81.9771      -2.875916      0.8237313              1
      2710.5000         0.7009        16.6852       1417.732       144.7168          58.29       70.95406         0.7022          0.661         1.9492        -82.009      -2.905975      0.8075333              1
      2711.0000         0.7019        16.2933       1411.404       144.2812        57.7842        70.1926         0.7015         0.6644         1.9048       -81.9127      -2.807831       0.791332              1
      2711.5000         0.7029        16.1559        1409.17       143.8962         57.212       69.33189         0.7008         0.6642         1.8857       -81.8164      -2.709686       0.773019              1
      2712.0000         0.7043        16.0463       1406.938       143.5161        56.6325       68.46027         0.7001         0.6619         1.8669       -81.7201      -2.611549      0.7544739              1
      2712.5000         0.7056        15.8398       1404.705       143.3879        56.6402        68.4664         0.6994         0.6597         1.8473       -81.6238      -2.513405      0.7546043              1
      2713.0000          0.707        15.5695       1402.471       143.5437         56.952       68.92709         0.6985         0.6583         1.8305       -81.5719      -2.459663      0.7644061              1
      2713.5000         0.7057        15.3503       1400.238       144.0032        57.2639       69.38793         0.6976         0.6574         1.8746       -81.6047      -2.490616      0.7742113              1
      2714.0000          0.703         15.358       1398.006       144.5891        57.5757       69.84862         0.6966         0.6564         1.9228       -81.6376      -2.521683      0.7840132              1
      2714.5000         0.7002        15.4255       1405.479       145.6631        58.4584       71.16268         0.6957         0.6528         1.9506       -81.6704      -2.552643       0.811972              1
      2715.0000         0.6974        15.3437       1413.389       147.1619        59.4988       72.71246         0.6948         0.6473         1.9107         -81.76      -2.640396       0.844946              1
      2715.5000         0.6932        15.0089       1421.301       148.5254        60.5391       74.26212         0.6938         0.6417         1.8873       -81.8694      -2.747955      0.8779175              1
      2716.0000         0.6887        14.7212       1429.215       149.3635        61.5794       75.81177         0.6929         0.6362         1.8676       -81.9476       -2.82431      0.9108887              1
      2716.5000         0.6859        14.5703       1437.125       149.7117        62.6198       77.36156          0.692         0.6306         1.8534       -82.0006      -2.875473      0.9438631              1
      2717.0000         0.6833        14.4563       1445.039       149.8796        63.6601       78.91121         0.6906         0.6251         1.8591       -82.0536       -2.92662      0.9768342              1
      2717.5000         0.6809        14.3544       1453.842       150.0046        64.7004       80.46085         0.6892         0.6198         1.8763        -82.182      -3.053185              1              1
