#------------------------------------------------------------------------------
# Created by    : vladimir.rabinovich
# Created on    : 09/19/2023 17:21:32
#------------------------------------------------------------------------------
~Version Information Section
VERS.           2.0     :   CWLS log ASCII Standard - VERSION 2.0
WRAP.           NO      :   One line per depth step
~Well Information Section
#MNEM       .UNIT                                         VALUE :DESCRIPTION
#------------------------------------------------------------------------------
STRT        .FT                                            4185 :START DEPTH
STOP        .FT                                            8075 :STOP DEPTH
STEP        .FT                                             0.5 :STEP      
NULL        .                                           -999.25 :NULL      
COMP        .                                         HESS CORP :COMPANY   
WELL        .                               OCS G07236 ST00BP00 :WELL      
FLD         .                              GALVESTON BLOCK 0210 :FIELD     
LOC         .                                                   :LOCATION  
CNTY        .                             GALVESTON LARGE BLOCK :LOCATION  
STAT        .                                             TEXAS :STATE     
CTRY        .                                     UNITED STATES :COUNTRY   
SRVC        .                                                   :SERVICE COMPANY
DATE        .                             9/13/2023 11:19:34 AM :LOG DATE  
API         .                                    42706402930000 :API NUMBER
UWI         .                                    42706402930000 :UNIQUE WELL ID
XCOORD      .                                   1127714.7472722 :SURFACE X 
YCOORD      .                                  10563055.4663979 :SURFACE Y 
LAT         .                                         29.097041 :LATITUDE  
LON         .                                        -94.605794 :LONGITUDE 
ELEV        .FT                                              89 :ELEVATION VALUE
ELEV_TYPE   .                                                KB :ELEVATION REFERENCE TYPE
~Curve Information Section
#MNEM       .UNIT                                      API CODE :CURVE DESCRIPTION
#------------------------------------------------------------------------------
DEPT        .FT                                                 :DEPTH     
CALI        .IN                                                 :          
DRHO        .G/CC                                               :          
DT          .US/F                                               :          
ILD         .OHMM                                               :          
ILM         .OHMM                                               :          
NPHI        .%                                                  :          
RFOC        .OHMM                                               :          
RHOB        .G/CC                                               :          
SP          .MV                                                 :          
SP_NORM     .MV                                                 :SP Normalized
VSH_SP      .V/V                                                :Volume of Shale from SP
~A        DEPTH           CALI           DRHO             DT            ILD            ILM           NPHI           RFOC           RHOB             SP        SP_NORM         VSH_SP
# ...
      6795.0000        14.6991         0.0019       112.2977         0.2537         0.2642        38.1842          1.035         2.1383      -129.7473      -77.68406              0
      6795.5000        14.8564          0.002       112.4114         0.2562         0.2684        38.7457         1.0172         2.1347      -129.6055      -77.54745              0
      6796.0000        14.9428         0.0021        112.509         0.2572          0.272        38.9582         1.0164          2.129      -130.1602      -78.10735              0
      6796.5000        14.9396          0.002       112.6027          0.257          0.274        38.7581         1.0275         2.1219      -130.8225      -78.77483              0
      6797.0000        14.9035         0.0015       112.8514         0.2571         0.2741        38.0722         1.0507         2.1182      -131.5525      -79.51004              0
      6797.5000        14.8359         0.0012       113.2915         0.2529          0.273        36.2609         1.0748         2.1183      -132.3857      -80.34843              0
      6798.0000        14.8036         0.0009       113.7698          0.246          0.268        34.1937         1.1035         2.1213      -132.7324      -80.70033              0
      6798.5000        14.8098         0.0009       114.2429           0.24         0.2571        33.5447         1.1138         2.1247      -132.6248      -80.59792              0
      6799.0000        14.8279          0.001       114.6356         0.2358         0.2491        33.8231         1.1063         2.1276      -132.4739      -80.45222              0
      6799.5000        14.8261         0.0013       114.8798         0.2318         0.2464        33.8274         1.0672         2.1306       -132.197      -80.18051              0
      6800.0000        14.7351         0.0015       114.9091         0.2301         0.2482        33.6798         0.9617         2.1343      -131.1069       -79.0956              0
      6800.5000        14.6129         0.0017       114.7521         0.2322         0.2547         33.962          0.874         2.1384      -129.4377      -77.43159              0
      6801.0000        14.6291         0.0018       114.6049         0.2356         0.2636        35.7227         0.8567         2.1416      -127.8932      -75.89229              0
      6801.5000        14.7376          0.002       114.4766         0.2401         0.2738        36.9554         0.8692         2.1424      -127.5903      -75.59459              0
      6802.0000        14.8526         0.0024       114.4363         0.2469         0.2838        37.1747         0.9089          2.141      -128.0286      -76.03807              0
      6802.5000        14.9545         0.0029       114.4524         0.2549         0.2917        35.5796         0.9975         2.1369      -129.0591      -77.07377              0
      6803.0000        15.0272         0.0025       114.6632         0.2641         0.2938        33.8033         1.0459         2.1325      -129.5984      -77.61827              0
      6803.5000        14.9787         0.0019       114.8887         0.2718          0.295        32.9867         1.0718         2.1291      -129.6697      -77.69475              0
      6804.0000        14.7134         0.0013       115.2008         0.2789         0.2953        33.1881         1.0454         2.1278       -129.925      -77.95526              0
      6804.5000        14.5141         0.0008        115.775         0.2846         0.2947         34.077         0.9991         2.1274      -130.8604      -78.89584              0
      6805.0000        14.5669         0.0004       116.4257          0.287         0.2919         34.507         0.9553         2.1263       -131.562      -79.60264              0
      6805.5000        14.6829         0.0006       116.7126         0.2845         0.2854        34.6536         0.9496         2.1246      -131.4221      -79.46794              0
      6806.0000        14.7884         0.0014       116.4147         0.2751         0.2778        34.7852         0.9776          2.123      -131.2004      -79.25143              0
      6806.5000         14.862         0.0024       116.0939         0.2662         0.2698        35.1472         1.0177         2.1228      -131.3169      -79.37312              0
      6807.0000        14.8643         0.0024       116.0419          0.258         0.2666        35.4427         1.0212         2.1221       -131.729      -79.79042              0
      6807.5000         14.812          0.002       116.3193         0.2511         0.2631        35.5767          1.009         2.1205      -131.9631      -80.02972              0
      6808.0000        14.7618         0.0018       116.7371         0.2463         0.2602        35.6437         0.9957         2.1184      -131.9006      -79.97241              0
      6808.5000        14.7196         0.0015       117.0573          0.244         0.2576        35.6528         0.9806         2.1163      -131.8223       -79.8993              0
      6809.0000        14.6802         0.0013       117.2552         0.2434         0.2554        35.4715         0.9688         2.1152      -131.7056       -79.7878              0
      6809.5000        14.6863         0.0013       117.3582         0.2431         0.2533        35.0955         0.9702         2.1137      -131.5776      -79.66499              0
      6810.0000        14.7237         0.0015       117.2325         0.2435         0.2526        34.6592         0.9921         2.1116      -131.4873       -79.5799              0
      6810.5000        14.7684         0.0018       117.0942         0.2444          0.252        34.8633         1.0071         2.1094       -131.532      -79.62978              0
      6811.0000        14.8055         0.0021       117.1106         0.2461         0.2521        35.3307          1.012         2.1077      -131.4387      -79.54168              0
      6811.5000        14.8325          0.002       117.1802         0.2475         0.2524        35.7896         1.0167         2.1064      -131.4214      -79.52957              0
      6812.0000         14.862         0.0017       117.2683         0.2483         0.2526        36.2504         1.0202         2.1061      -132.1008      -80.21416              0
      6812.5000        14.8934         0.0011       117.4087         0.2489         0.2523        36.0742         1.0126         2.1071      -132.7539      -80.87247              0
      6813.0000         14.921         0.0006       117.4009         0.2491         0.2521         35.071         0.9978         2.1079      -132.0737      -80.19745              0
      6813.5000        14.9449         0.0002       117.3674         0.2486         0.2515        34.2575         1.0064         2.1061      -131.4844      -79.61335              0
      6814.0000        14.9617              0       117.3302         0.2479         0.2507        34.0502         1.0429         2.1032      -131.4011      -79.53523              0
      6814.5000        14.9741        -0.0001       117.2959         0.2473         0.2499        33.9627         1.0658         2.1006      -131.7683      -79.90762              0
      6815.0000        14.9637        -0.0001       117.3552         0.2467         0.2498        33.4642         1.0736         2.0995      -132.6414      -80.78593              0
      6815.5000        14.8964              0       117.5939         0.2463         0.2497        32.5753          1.063         2.0994      -133.0229      -81.17262              0
      6816.0000        14.8078        -0.0001       117.9799          0.246         0.2498        31.7618         1.0431         2.1004      -133.0981      -81.25301              0
      6816.5000        14.7592        -0.0001       118.3334         0.2453         0.2499        31.2761         1.0262         2.1018      -133.1392      -81.29932              0
      6817.0000        14.8017              0       118.6091         0.2443         0.2502        31.3329         1.0199         2.1026      -133.1123      -81.27761              0
