#------------------------------------------------------------------------------
# Created by    : vladimir.rabinovich
# Created on    : 09/19/2023 17:19:44
#------------------------------------------------------------------------------
~Version Information Section
VERS.           2.0     :   CWLS log ASCII Standard - VERSION 2.0
WRAP.           NO      :   One line per depth step
~Well Information Section
#MNEM       .UNIT                                         VALUE :DESCRIPTION
#------------------------------------------------------------------------------
STRT        .FT                                             490 :START DEPTH
STOP        .FT                                           13420 :STOP DEPTH
STEP        .FT                                             0.5 :STEP      
NULL        .                                           -999.25 :NULL      
COMP        .                                 MESA PETROLEUM CO :COMPANY   
WELL        .                                     ST TR 00012-L :WELL      
FLD         .                                           WILDCAT :FIELD     
LOC         .                                                   :LOCATION  
CNTY        .                           HIGH ISLAND LARGE BLOCK :LOCATION  
STAT        .                                             TEXAS :STATE     
CTRY        .                                     UNITED STATES :COUNTRY   
SRVC        .                                                   :SERVICE COMPANY
DATE        .                             9/13/2023 11:19:15 AM :LOG DATE  
API         .                                    42708302120000 :API NUMBER
UWI         .                                    42708302120000 :UNIQUE WELL ID
XCOORD      .                                  1361115.25412243 :SURFACE X 
YCOORD      .                                  10723579.9964947 :SURFACE Y 
LAT         .                                        29.5453665 :LATITUDE  
LON         .                                       -93.8786547 :LONGITUDE 
ELEV        .FT                                              80 :ELEVATION VALUE
ELEV_TYPE   .                                                KB :ELEVATION REFERENCE TYPE
~Curve Information Section
#MNEM       .UNIT                                      API CODE :CURVE DESCRIPTION
#------------------------------------------------------------------------------
DEPT        .FT                                                 :DEPTH     
ASFL        .OHMM                                               :          
CILD        .MMHO                                               :          
GR          .GAPI                                               :          
GR_NORM     .GAPI                                               :GammaRay Normalized
ILD         .OHMM                                               :          
SP          .MV                                                 :          
SP_NORM     .MV                                                 :SP Normalized
VSH_GR      .V/V                                                :Volume of Shale from GR
~A        DEPTH           ASFL           CILD             GR        GR_NORM            ILD             SP        SP_NORM         VSH_GR
# ...
     12526.0000         0.3022       2521.938        75.8746       74.10577         0.2935       -50.8079      -1.110928      0.8745909
     12526.5000         0.3028       2500.117         75.974       74.20606         0.2934       -51.2181       -1.52113      0.8767247
     12527.0000          0.306       2478.246        76.0735       74.30645         0.2933       -51.7645      -2.067528      0.8788607
     12527.5000         0.3092       2456.371        76.2827       74.51654         0.2932       -52.4305      -2.733528      0.8833306
     12528.0000         0.3125       2434.551         76.972       75.20673         0.2931       -51.3083      -1.611328      0.8980156
     12528.5000         0.3157       2448.969        77.6602       75.89583          0.293       -50.3865     -0.6895294      0.9126772
     12529.0000         0.3187       2468.387        77.9291       76.16562         0.2929       -50.0486     -0.3516273      0.9184174
     12529.5000         0.3186       2500.656        78.0082       76.24561         0.2928       -49.7108    -0.01382828      0.9201194
     12530.0000         0.3184       2532.875        78.0872        76.3255         0.2927       -49.3734      0.3235703      0.9218192
     12530.5000         0.3183       2534.102        78.1663       76.40549         0.2926       -48.6198       1.077171      0.9235212
     12531.0000         0.3181       2510.707        78.1675       76.40759         0.2925       -47.7612       1.935772      0.9235658
     12531.5000          0.318       2487.367        78.1542       76.39518         0.2924        -46.905       2.791973      0.9233017
     12532.0000         0.3179       2464.023        78.1409       76.38277         0.2923       -46.2955        3.40147      0.9230378
     12532.5000          0.321       2427.293        78.0698       76.31256         0.2922       -47.0976       2.599373      0.9215438
     12533.0000         0.3277       2381.391        77.7484       75.99205         0.2921       -47.8985       1.798473      0.9147245
     12533.5000         0.3344       2335.492        77.4271       75.67165          0.292       -48.7007       0.996273      0.9079074
     12534.0000         0.3411       2290.082        77.2186       75.46404         0.2919       -49.5028      0.1941719      0.9034901
     12534.5000         0.3486       2247.121         77.925       76.17133         0.2956       -49.7052   -0.008228302       0.918539
     12535.0000         0.3561       2207.105        78.6302       76.87743         0.3003       -49.8855       -0.18853      0.9335623
     12535.5000         0.3637        2181.41        79.3368       77.58492          0.305       -50.4423      -0.745327      0.9486152
     12536.0000         0.3715       2155.715         80.069       78.31801         0.3096       -51.0004      -1.303429       0.964213
     12536.5000         0.3793        2130.02        80.8319        79.0818         0.3143       -51.5573      -1.860329      0.9804639
     12537.0000         0.3872       2101.672         79.874       78.12479         0.3189       -52.1154      -2.418427       0.960102
     12537.5000          0.395       2063.031        78.7653       77.01698         0.3236       -52.6722      -2.975227      0.9365315
     12538.0000         0.4003       2024.486        77.6957       75.94827         0.3283       -53.4449      -3.747929       0.913793
     12538.5000         0.3912       2057.637        76.7611       75.01456         0.3329       -54.5193      -4.822327      0.8939269
     12539.0000         0.3822       2195.336        78.2231       76.47746         0.3376       -51.9289       -2.23193      0.9250522
     12539.5000         0.3731       2287.336        80.0138       78.26905         0.3422       -50.4374     -0.7404289      0.9631713
     12540.0000         0.3641       2378.156        81.8094       80.06554         0.3469       -49.5543      0.1426735              1
     12540.5000          0.355       2417.387        83.6149       81.87193         0.3516       -48.6688       1.028172              1
     12541.0000          0.346       2440.094        85.8226       84.08053         0.3531       -47.7833       1.913673              1
     12541.5000          0.337       2462.797        88.0304       86.28922         0.3523        -47.457       2.239971              1
     12542.0000         0.3319       2487.609        90.2382       88.49791         0.3516       -47.2086       2.488373              1
     12542.5000         0.3269       2517.523        92.4459        90.7065         0.3509       -47.1773       2.519672              1
     12543.0000         0.3219       2547.488        95.4337        93.6952         0.3501       -47.5036       2.193371              1
     12543.5000         0.3168       2577.402        98.7086       96.97099         0.3494       -47.8304       1.866573              1
     12544.0000         0.3118       2538.219        99.7266       97.98988         0.3487       -48.1855       1.511471              1
     12544.5000         0.3085       2346.477       100.7839       99.04807          0.348       -48.7755      0.9214706              1
     12545.0000         0.3113       2325.832         96.415       94.68006         0.3472       -49.3643      0.3326721              1
     12545.5000         0.3142       2296.262        93.9767       92.24265         0.3465       -49.9738     -0.2768288              1
     12546.0000          0.317       2250.852        91.5825       89.84934         0.3458       -51.3549      -1.657928              1
     12546.5000         0.3198        2205.34        89.0902       87.35794          0.345       -53.1922      -3.495228              1
     12547.0000         0.3226        2159.93        87.5398       85.80843         0.3443       -53.4891       -3.79213              1
     12547.5000         0.3255       2113.148        87.0149       85.28442         0.3437       -50.9084       -1.21143              1
     12548.0000         0.3287       2066.363        86.5316       84.80202          0.343       -49.0969       0.600071              1
     12548.5000         0.3322       2026.693        86.0483       84.31961         0.3424       -48.3707       1.326271              1
     12549.0000         0.3357       2034.416        85.7792        84.0514         0.3417       -47.6434       2.053574              1
     12549.5000         0.3392       2042.152         85.608       83.88109         0.3411       -46.9529       2.744072              1
     12550.0000         0.3417       2049.875        85.4369       83.71088         0.3404       -46.2746       3.422371              1
     12550.5000          0.337       2058.324        85.2659       83.54077         0.3398       -46.2844       3.412571              1
     12551.0000         0.3324       2079.898        85.1248       83.40057         0.3362       -47.2656       2.431374              1
     12551.5000         0.3278       2101.477        85.0685       83.34515         0.3326       -48.1598        1.53717              1
     12552.0000         0.3231       2123.055        85.0122       83.28975          0.329        -48.957      0.7399712              1
     12552.5000         0.3283       2144.633        84.9562       83.23464         0.3254       -49.6255     0.07147217              1
     12553.0000          0.335       2166.207         85.191       83.47034         0.3244       -50.1946     -0.4976273              1
     12553.5000         0.3417       2200.832        85.6178       83.89803          0.326       -50.3752     -0.6782265              1
     12554.0000          0.344       2242.121        83.0605       81.34162         0.3276       -50.4797     -0.7827263              1
     12554.5000         0.3382       2283.512        81.0195       79.30151         0.3292       -50.5844     -0.8874283      0.9851386
     12555.0000         0.3324       2326.566        78.9738        77.2567         0.3308       -50.1284      -0.431427      0.9416319
