#------------------------------------------------------------------------------
# Created by    : vladimir.rabinovich
# Created on    : 09/19/2023 17:20:06
#------------------------------------------------------------------------------
~Version Information Section
VERS.           2.0     :   CWLS log ASCII Standard - VERSION 2.0
WRAP.           NO      :   One line per depth step
~Well Information Section
#MNEM       .UNIT                                         VALUE :DESCRIPTION
#------------------------------------------------------------------------------
STRT        .FT                                             325 :START DEPTH
STOP        .FT                                           10896 :STOP DEPTH
STEP        .FT                                             0.5 :STEP      
NULL        .                                           -999.25 :NULL      
COMP        .                                      GETTY OIL CO :COMPANY   
WELL        .                               OCS G03737 ST00BP00 :WELL      
FLD         .                                           WILDCAT :FIELD     
LOC         .                                                   :LOCATION  
CNTY        .                             GALVESTON LARGE BLOCK :LOCATION  
STAT        .                                             TEXAS :STATE     
CTRY        .                                     UNITED STATES :COUNTRY   
SRVC        .                                                   :SERVICE COMPANY
DATE        .                             9/13/2023 11:10:15 AM :LOG DATE  
API         .                                    42706400540000 :API NUMBER
UWI         .                                    42706400540000 :UNIQUE WELL ID
XCOORD      .                                  1098214.74516992 :SURFACE X 
YCOORD      .                                   10573216.961531 :SURFACE Y 
LAT         .                                         29.123847 :LATITUDE  
LON         .                                        -94.698615 :LONGITUDE 
ELEV        .FT                                              99 :ELEVATION VALUE
ELEV_TYPE   .                                                KB :ELEVATION REFERENCE TYPE
~Curve Information Section
#MNEM       .UNIT                                      API CODE :CURVE DESCRIPTION
#------------------------------------------------------------------------------
DEPT        .FT                                                 :DEPTH     
ASFL        .OHMM                                               :          
DT          .US/F                                               :          
DTL         .US/F                                               :          
GR          .GAPI                                               :          
GR_1        .GAPI                                               :          
GR_NORM     .GAPI                                               :GammaRay Normalized
ILD         .OHMM                                               :          
RHOB        .G/CC                                               :          
SP          .MV                                                 :          
SP_NORM     .MV                                                 :SP Normalized
VSH_GR      .V/V                                                :Volume of Shale from GR
VSH_SP      .V/V                                                :Volume of Shale from SP
~A        DEPTH           ASFL             DT            DTL             GR           GR_1        GR_NORM            ILD           RHOB             SP        SP_NORM         VSH_GR         VSH_SP
# ...
      4548.0000          1.215       118.5874       109.5959        27.2784        28.7029        40.7965         1.2848         2.1504       -74.1543       -24.5713         0.1659         0.4107
      4548.5000         1.3163       120.0626       106.0855        27.6757        28.5708        41.3738         1.1936         2.0685       -75.3552       -25.7592         0.1782          0.381
      4549.0000         1.3271       129.1829       101.1178        27.9079        28.4083        41.7117         1.0248         1.9848       -77.0042       -27.3952         0.1854         0.3401
      4549.5000         1.2255       129.6108        99.6105        28.1356         28.238        42.0431           0.81         1.9729       -78.5021       -28.8801         0.1924          0.303
      4550.0000         1.0299       127.1018        98.7086        28.3289        28.0868        42.3247         0.4005          2.023        -80.115         -30.48         0.1984          0.263
      4550.5000         0.8623       106.6727        98.6365        27.7469        27.9368        41.4824         0.1798         2.0739       -81.3358       -31.6878         0.1805         0.2328
      4551.0000         0.7434       104.9474        99.0507        26.2668        27.7816        39.3383         0.1405         2.0669        -82.377        -32.716         0.1349         0.2071
      4551.5000         0.6583       106.5154       100.3365        25.6242        27.6264        38.4082         0.1211         2.0007       -83.2726       -33.5986         0.1151          0.185
      4552.0000         0.5088       116.1926       102.3971        25.8038        27.4712        38.6699         0.1103         1.9257       -83.8782       -34.1912         0.1206         0.1702
      4552.5000          0.506         123.04       104.0495        26.2738         27.316        39.3525         0.0995         1.9194        -84.317        -34.617         0.1352         0.1596
      4553.0000          0.507         124.17       105.3345        26.7046        27.1759        39.9783         0.1055         1.9632       -84.6588       -34.9458         0.1485         0.1514
      4553.5000          0.508       123.7648       105.8104        26.7855        27.0371         40.097         0.1128         1.9829       -84.8333       -35.1073          0.151         0.1473
      4554.0000         0.5133        122.686       105.9034        25.9152        26.8984        38.8368         0.1216          1.993       -84.6898       -34.9508         0.1242         0.1512
      4554.5000         0.5233       118.3391       104.5873        24.7879        26.7596        37.2041         0.1323         1.9923       -84.5464       -34.7945         0.0894         0.1551
      4555.0000          0.536       114.3241         102.73        24.0485        26.6209        36.1336         0.1581         1.9913       -84.2252       -34.4603         0.0667         0.1635
      4555.5000         0.5518        112.858        100.027        23.7148        26.4821        35.6513         0.1937         1.9996       -83.8378       -34.0599         0.0564         0.1735
      4556.0000         0.5698       113.0333        97.5939        23.6107        26.5821        35.5017          0.237          2.029       -83.1625       -33.3716         0.0532         0.1907
      4556.5000         0.5996       114.4618        95.8804        23.3162        26.9683        35.0762          0.292          2.084       -82.6111       -32.8072         0.0442         0.2048
      4557.0000         0.9267       113.0603        94.2728        22.7694        27.4128        34.2849         0.3768          2.137       -82.1416       -32.3247         0.0273         0.2169
      4557.5000         0.9925        108.325        92.2495        22.2251        28.0094        33.4973         0.9445         2.1591       -81.2748       -31.4449         0.0106         0.2389
      4558.0000         1.0919       105.2147        90.4103        22.4059        28.7021        33.7607         0.9904          2.162       -80.5365       -30.6936         0.0162         0.2577
      4558.5000          1.125        97.8904         90.259        23.5809        28.9992        35.4653         1.0189         2.1322       -79.8777       -30.0218         0.0525         0.2745
      4559.0000         1.1357        90.4553        90.8465        24.9641        28.7554        37.4717         1.0271         2.0691       -79.3771       -29.5082         0.0951         0.2873
      4559.5000         1.1356        84.1783        92.0305        26.2441        28.5119        39.3285         1.0133         2.0193       -79.8744       -29.9925         0.1346         0.2752
      4560.0000         1.1355        83.8673        94.6813        27.0344        28.3655        40.4754         0.9996         2.0262       -80.6742       -30.7793         0.1591         0.2555
      4560.5000         1.1354        86.1453        97.5455        27.1075        28.2191        40.5827         0.9738         2.0788       -81.5364       -31.6285         0.1613         0.2343
      4561.0000         1.1353         86.224       102.2384         26.241        28.0729         39.328         0.9309         2.1246       -82.2889        -32.368         0.1346         0.2158
      4561.5000         1.0294        88.1049       105.0042        25.0941        27.9488        37.6669         0.8588         2.1822       -83.1942       -33.2603         0.0993         0.1935
      4562.0000         0.9051       100.4572       108.0961        24.6821        27.8536         37.071         0.7728         2.2039       -84.6484       -34.7015         0.0866         0.1575
      4562.5000         0.8115       107.8799       109.9305        24.4315        27.7584        36.7091         0.6898         2.2056       -85.6836       -35.7237         0.0789         0.1319
      4563.0000         0.7383       111.4769       111.7691        24.4395        27.6633        36.7221         0.6034         2.1639       -86.5242       -36.5514         0.0792         0.1112
      4563.5000         0.7016       113.4106       112.2311        24.3751        27.5703        36.6301         0.5187         2.0698       -87.1223       -37.1365         0.0772         0.0966
      4564.0000         0.6577       115.5571       111.6259        23.9405         27.496        36.0015         0.4471         1.9839       -87.6073       -37.6085         0.0639         0.0848
      4564.5000         0.6134       116.7628       109.3362          22.08        27.4215         33.306         0.3891         1.9281       -88.0105       -37.9987         0.0065          0.075
      4565.0000         0.6192       115.7993        107.072        21.1638        27.3471        31.9792         0.3271         1.9383       -88.3994       -38.3746              0         0.0656
      4565.5000         0.6227       106.8793       105.6444        21.3535        27.3208        32.2556         0.2772         1.9688       -88.7579       -38.7201              0          0.057
      4566.0000         0.6263       103.4347       104.5924        22.0677        27.3141        33.2922         0.2474         2.0095       -89.0659       -39.0151         0.0062         0.0496
      4566.5000         0.6277        105.093       103.6717        23.2287        27.3084        34.9765         0.2259         2.0482       -89.3167       -39.2529         0.0421         0.0437
      4567.0000         0.6288       107.0159       103.1559        24.3854        27.3185        36.6545         0.2117         2.0753       -89.5675       -39.4907         0.0778         0.0377
      4567.5000         0.6299       106.8275       103.5065        25.2488        27.3287        37.9074          0.204         2.0871       -89.7787       -39.6889         0.1044         0.0328
      4568.0000         0.6301        106.777       104.8856        25.3835        26.7306        38.1041         0.1975         2.0956        -89.949       -39.8462         0.1086         0.0288
