#------------------------------------------------------------------------------
# Created by    : vladimir.rabinovich
# Created on    : 09/19/2023 17:21:15
#------------------------------------------------------------------------------
~Version Information Section
VERS.           2.0     :   CWLS log ASCII Standard - VERSION 2.0
WRAP.           NO      :   One line per depth step
~Well Information Section
#MNEM       .UNIT                                         VALUE :DESCRIPTION
#------------------------------------------------------------------------------
STRT        .FT                                            2893 :START DEPTH
STOP        .FT                                           11505 :STOP DEPTH
STEP        .FT                                             0.5 :STEP      
NULL        .                                           -999.25 :NULL      
COMP        .                               SEAGULL ENERGY CORP :COMPANY   
WELL        .                               OCS G06105 ST00BP00 :WELL      
FLD         .                              GALVESTON BLOCK 0343 :FIELD     
LOC         .                                                   :LOCATION  
CNTY        .                             GALVESTON LARGE BLOCK :LOCATION  
STAT        .                                             TEXAS :STATE     
CTRY        .                                     UNITED STATES :COUNTRY   
SRVC        .                                                   :SERVICE COMPANY
DATE        .                             9/13/2023 11:19:54 AM :LOG DATE  
API         .                                    42706403720000 :API NUMBER
UWI         .                                    42706403720000 :UNIQUE WELL ID
XCOORD      .                                  915246.934514234 :SURFACE X 
YCOORD      .                                  10428990.3748243 :SURFACE Y 
LAT         .                                         28.718869 :LATITUDE  
LON         .                                        -95.262866 :LONGITUDE 
ELEV        .FT                                              96 :ELEVATION VALUE
ELEV_TYPE   .                                                KB :ELEVATION REFERENCE TYPE
~Curve Information Section
#MNEM       .UNIT                                      API CODE :CURVE DESCRIPTION
#------------------------------------------------------------------------------
DEPT        .FT                                                 :DEPTH     
CAL         .IN                                                 :          
CNCSS       .%                                                  :          
CORR        .G/CM3                                              :          
DT24        .US/FT                                              :          
GR_NORM     .GAPI                                               :GammaRay Normalized
GRR         .GAPI                                               :          
ILD         .OHMM                                               :          
ILM         .OHMM                                               :          
PORDSS      .%                                                  :          
RFOC        .OHMM                                               :          
SP          .MV                                                 :          
SP_NORM     .MV                                                 :SP Normalized
VSH_GR      .V/V                                                :Volume of Shale from GR
VSH_SP      .V/V                                                :Volume of Shale from SP
~A        DEPTH            CAL          CNCSS           CORR           DT24        GR_NORM            GRR            ILD            ILM         PORDSS           RFOC             SP        SP_NORM         VSH_GR         VSH_SP
# ...
      6367.0000        13.2115        47.1765         0.0327       127.2549       73.44971         67.551         0.6812         0.6629          23.76         0.9442             -3        -5.8563      0.8606322      0.9571428
      6367.5000        13.2115        47.6471         0.0327       126.6667       75.14056        68.5714         0.6751         0.6569          23.88         0.9352           -2.4         -5.248      0.8966078      0.9657143
      6368.0000        13.2115        47.8824         0.0327       126.6667        76.4923        69.3878          0.669          0.651          24.12         0.9262           -2.1        -4.9398      0.9253681           0.97
      6368.5000        13.2115        48.3673         0.0327        127.451       77.16535        69.7959         0.6629         0.6393          24.12         0.9262           -1.8        -4.6316      0.9396883      0.9742857
      6369.0000        13.2115        48.9796         0.0327       128.6275       78.80302        70.7843         0.6569         0.6335          24.12         0.9262           -1.2        -4.0233      0.9745322      0.9828572
      6369.5000        13.2115        49.7143         0.0327       129.6078       78.47175        70.5882          0.651         0.6278          24.24         0.9174           -0.9        -3.7151       0.967484      0.9871429
      6370.0000          13.25        50.0816         0.0245       129.8039        76.4711        69.3878          0.651         0.6278          24.48         0.9087           -0.6        -3.4068       0.924917      0.9914286
      6370.5000          13.25        50.0816         0.0245       129.2152       77.14416        69.7959          0.651         0.6278          25.08         0.9087           -0.3        -3.0986      0.9392374      0.9957143
      6371.0000        13.2115        50.0816         0.0286       128.2325       78.13004        70.3922          0.651         0.6278          25.56         0.9087           -0.3        -3.0904      0.9602135      0.9957143
      6371.5000        13.2115        50.0816         0.0571       127.2479       76.79428        69.5918          0.651         0.6278          26.04         0.9087           -0.3        -3.0821      0.9317932      0.9957143
      6372.0000        13.2115        50.2041         0.0571       126.8517       74.41449        68.1633          0.651         0.6222          26.64         0.9087           -0.3        -3.0739      0.8811594      0.9957143
      6372.5000        13.2115        50.0816         0.0408       126.6516       72.03452        66.7347          0.651         0.6222          26.88         0.9087           -0.3        -3.0657      0.8305218      0.9957143
      6373.0000        13.1731        49.8367         0.0327       126.8455       74.40388        68.1633          0.651         0.6222             27         0.9087           -0.3        -3.0574      0.8809336      0.9957143
      6373.5000        13.1731        49.8367         0.0286       127.0397       77.11235        69.7959         0.6451         0.6222          27.24         0.9087           -0.3        -3.0492      0.9385607      0.9957143
      6374.0000        13.2115        49.7143         0.0367       127.6294       79.40192        71.1765         0.6393         0.6222          27.36         0.8919           -0.3        -3.0409       0.987275      0.9957143
      6374.5000        13.2115        49.7143         0.0408       128.0226       78.41873        70.5882         0.6335         0.6165           27.6         0.8919           -0.3        -3.0327       0.966356      0.9957143
      6375.0000        13.2115        50.0816         0.0408       128.0206       78.41344        70.5882         0.6278         0.6165          27.84         0.8919              0        -2.7245      0.9662435              1
      6375.5000        13.2115        50.8163         0.0408       128.0187       79.38601        71.1765         0.6222          0.611          27.96         0.8919              0        -2.7162      0.9869364              1
      6376.0000        13.2115        51.3061          0.049       127.6201       79.38072        71.1765         0.6165          0.611          27.96         0.8919              0         -2.708      0.9868239              1
      6376.5000        13.2115        50.9388         0.0531       127.4192       78.39754        70.5882         0.6165         0.6055          27.48         0.8919            0.6        -2.0997      0.9659051              1
      6377.0000        13.2115        50.5714         0.0531       127.0192       76.73598        69.5918         0.6165            0.6          26.64         0.8919            0.6        -2.0915      0.9305528              1
      6377.5000        13.1731        50.2041         0.0449       126.8173       75.03455        68.5714         0.6222         0.6055          26.16         0.8919            0.6        -2.0833       0.894352              1
      6378.0000        13.1731        50.0816         0.0367       126.8142       75.70775        68.9796         0.6222          0.611           25.8         0.8919            0.6         -2.075      0.9086755              1
      6378.5000        13.1731        50.0816         0.0327       127.0103       77.39861             70         0.6278         0.6165           25.8         0.8919            0.6        -2.0668      0.9446512              1
      6379.0000        13.0962        49.8367         0.0286       126.8078       78.37103        70.5882         0.6393         0.6222           25.8         0.8919            0.6        -2.0585      0.9653412              1
      6379.5000        13.0577        49.7143         0.0286        126.605       79.66941        71.3725         0.6451         0.6278          25.56         0.8919            0.6        -2.0503      0.9929662              1
      6380.0000        13.0962        50.2041         0.0286       126.4017       77.70866        70.1961         0.6569         0.6335          25.32            0.9            0.6        -2.0421       0.951248              1
      6380.5000        13.1346        50.8163         0.0327            126       76.35979        69.3878         0.6629         0.6393          25.32         0.9174            0.6        -2.0338      0.9225487              1
      6381.0000        13.1346        49.8367         0.0367          126.2       74.31906        68.1633         0.6751          0.651           25.2         0.9262            0.6        -2.0256       0.879129              1
      6381.5000        13.1731        47.8824         0.0408          126.6       72.27837        66.9388         0.6812         0.6569          25.08         0.9262            0.3        -2.3174      0.8357099              1
      6382.0000        13.1731        46.4706          0.049            127       72.27306        66.9388         0.6937          0.669          24.84         0.9262            0.3        -2.3091      0.8355969              1
      6382.5000        13.2115        45.2941          0.049          126.4       75.99931        69.1837         0.6874         0.6812          24.48         0.9262            0.3        -2.3009       0.914879              1
      6383.0000          13.25        44.9412         0.0408          125.6       77.67685        70.1961         0.6874          0.669          24.36         0.9262              0        -2.5926      0.9505712              1
      6383.5000        13.3269        45.0588         0.0327          126.2       74.63167        68.3673         0.6874         0.6629          24.12         0.9262              0        -2.5844      0.8857802              1
      6384.0000          13.25        44.9412         0.0245          126.6       73.94801        67.9592         0.6812         0.6569          23.88         0.9262              0        -2.5762      0.8712342              1
      6384.5000          13.25        44.2353         0.0245          127.4        73.9427        67.9592          0.669         0.6451          23.88         0.9174              0        -2.5679      0.8711212              1
