#------------------------------------------------------------------------------
# Created by    : vladimir.rabinovich
# Created on    : 09/19/2023 17:19:49
#------------------------------------------------------------------------------
~Version Information Section
VERS.           2.0     :   CWLS log ASCII Standard - VERSION 2.0
WRAP.           NO      :   One line per depth step
~Well Information Section
#MNEM       .UNIT                                         VALUE :DESCRIPTION
#------------------------------------------------------------------------------
STRT        .FT                                             790 :START DEPTH
STOP        .FT                                           12500 :STOP DEPTH
STEP        .FT                                             0.5 :STEP      
NULL        .                                           -999.25 :NULL      
COMP        .                                 CHEVRON U S A INC :COMPANY   
WELL        .                               OCS G04596 ST00BP00 :WELL      
FLD         .                                           WILDCAT :FIELD     
LOC         .                                                   :LOCATION  
CNTY        .                        MUSTANG ISLAND LARGE BLOCK :LOCATION  
STAT        .                                             TEXAS :STATE     
CTRY        .                                     UNITED STATES :COUNTRY   
SRVC        .                                                   :SERVICE COMPANY
DATE        .                             9/13/2023 11:19:13 AM :LOG DATE  
API         .                                    42702401310000 :API NUMBER
UWI         .                                    42702401310000 :UNIQUE WELL ID
XCOORD      .                                  486632.184756912 :SURFACE X 
YCOORD      .                                  10088502.2555927 :SURFACE Y 
LAT         .                                          27.75488 :LATITUDE  
LON         .                                        -96.567316 :LONGITUDE 
ELEV        .FT                                              90 :ELEVATION VALUE
ELEV_TYPE   .                                                KB :ELEVATION REFERENCE TYPE
~Curve Information Section
#MNEM       .UNIT                                      API CODE :CURVE DESCRIPTION
#------------------------------------------------------------------------------
DEPT        .FT                                                 :DEPTH     
ASFL        .OHMM                                               :          
CILD        .MMHO                                               :          
GR          .GAPI                                               :          
GR_NORM     .GAPI                                               :GammaRay Normalized
ILD         .OHMM                                               :          
SP          .MV                                                 :          
SP_NORM     .MV                                                 :SP Normalized
VSH_GR      .V/V                                                :Volume of Shale from GR
VSH_SP      .V/V                                                :Volume of Shale from SP
~A        DEPTH           ASFL           CILD             GR        GR_NORM            ILD             SP        SP_NORM         VSH_GR         VSH_SP
# ...
      8660.5000         1.4083       918.9941        65.2358       65.50558         1.1603       -58.8254      -15.95138      0.6916082      0.7465867
      8661.0000         1.3531       898.2188        68.1345       69.97434         1.1785        -58.619      -15.74712      0.7866881      0.7500488
      8661.5000         1.3396        846.958        70.4153       73.49024         1.1989       -58.4126      -15.54286      0.8614945      0.7535108
      8662.0000         1.3745        804.125        71.5293       75.20687         1.2222       -58.3637       -15.4961      0.8980185      0.7543034
      8662.5000         1.4094       771.5449        67.7759        69.4176         1.2454       -58.5013      -15.63584      0.7748426      0.7519349
      8663.0000         1.4841       788.0078        59.1292        56.0825         1.2687        -58.639      -15.77568       0.491117      0.7495648
      8663.5000          1.562        849.915        60.3967       58.03584         1.1936       -58.0645      -15.20332      0.5326774      0.7592658
      8664.0000          1.812       903.6895        63.5704       62.92867         1.1201       -56.9291      -14.07006      0.6367802      0.7784736
      8664.5000         1.8605       950.3174        72.0918       76.06805         1.0558       -53.3448       -10.4879      0.9163414      0.8391882
      8665.0000          1.809       1008.134        73.4674       78.18807         0.9913        -48.691      -5.836239      0.9614484      0.9180298
      8665.5000         1.7552       1084.926         74.843        80.3081         0.9261       -46.9642      -4.111576              1      0.9472614
      8666.0000         1.6957       1170.098        76.2162       82.42441         0.8601       -45.9507      -3.100216              1      0.9644031
      8666.5000         1.6309       1247.188        77.1375       83.84389         0.7942       -45.1922      -2.343857              1      0.9772227
      8667.0000         1.5148       1310.869        78.0341       85.22525         0.7527       -44.6733      -1.827099              1      0.9859814
      8667.5000         1.3989        1370.41        78.9293       86.60448         0.7215       -44.1617      -1.317638              1      0.9946163
      8668.0000         1.2828       1409.547        79.5447       87.55222         0.6903       -43.6684     -0.8264771              1              1
      8668.5000         1.1669       1444.738        78.9319       86.60596         0.6761       -43.3452     -0.5054169              1              1
      8669.0000         1.0507       1479.932        78.3202       85.66144         0.6655       -43.0214     -0.1837578              1              1
      8669.5000         0.9348       1505.832        77.9063       85.02193         0.6549       -42.6982      0.1373024              1              1
      8670.0000         0.8189       1527.717        77.5918       84.53571         0.6443       -42.5441      0.2892609              1              1
      8670.5000         0.8016       1549.578        77.2775       84.04978         0.6379       -42.4236      0.4076233              1              1
      8671.0000         0.7908       1557.648        76.9624       83.56264         0.6329       -42.3887      0.4403839              1              1
      8671.5000         0.7801       1565.104        76.6479        83.0764         0.6278       -42.3538      0.4731407              1              1
      8672.0000         0.7694       1563.971        76.3335       82.59032         0.6228       -42.3188      0.5060005              1              1
      8672.5000         0.7587       1550.859        76.0184       82.10317         0.6177       -42.2838      0.5388641              1              1
      8673.0000          0.748       1537.748        75.7041       81.61723         0.6169        -42.213      0.6075211              1              1
      8673.5000         0.7531       1524.637        76.7813       83.27711         0.6246       -42.1404      0.6779823              1              1
      8674.0000         0.7619       1511.551        77.1251       83.80603         0.6323       -42.0679      0.7483406              1              1
      8674.5000         0.7708       1498.439        75.4989       81.29704           0.64       -41.9954      0.8187027              1              1
      8675.0000         0.7797       1485.328        75.2874       80.96967         0.6477       -41.8876      0.9243622              1              1
      8675.5000         0.7869       1472.217        75.7446       81.67345         0.6554       -41.7722       1.037621              1              1
      8676.0000         0.7918       1457.406        76.3734       82.64185         0.6631       -41.8698      0.9378815              1              1
      8676.5000         0.7967        1442.25        76.3833       82.65587         0.6708       -42.0074      0.7981415              1              1
      8677.0000         0.8016       1427.117        70.9078         74.211         0.6743        -42.187      0.6164017      0.8768297              1
      8677.5000         0.8065       1418.824        69.0336       71.31961         0.6763       -42.4047      0.3965607      0.8153108              1
      8678.0000         0.8114       1411.123        67.8336       69.46786         0.6782       -42.6226      0.1765213      0.7759119              1
      8678.5000         0.8127       1403.422        68.0338       69.77534         0.6802       -42.8312    -0.03421783      0.7824541              1
      8679.0000         0.8137       1396.201        69.5126        72.0545         0.6822       -42.9202     -0.1253586      0.8309467              1
      8679.5000         0.8147       1405.518        70.9913       74.33352         0.6842       -43.0094     -0.2166977      0.8794366              1
      8680.0000         0.8158       1414.832        72.4849       76.63551         0.6862       -43.0318     -0.2412376       0.928415              1
      8680.5000         0.8168       1429.336        74.0078       78.98269         0.6882       -42.9332     -0.1447792      0.9783551              1
      8681.0000         0.8178       1449.248        75.5309       81.33016         0.6785       -42.8345    -0.04821777              1              1
      8681.5000         0.8189       1469.162        75.5042       81.28773         0.6683       -42.7359     0.04824066              1              1
      8682.0000         0.8165       1488.188         75.214       80.83897         0.6582       -42.6371      0.1449013              1              1
      8682.5000          0.814       1502.531        75.7986       81.73923         0.6481       -42.5385      0.2413597              1              1
      8683.0000         0.8115       1517.811        76.6056       82.98244          0.638       -42.4399       0.337822              1              1
      8683.5000         0.8091        1534.52        77.4125       84.22549         0.6306       -42.3463      0.4292831              1              1
      8684.0000         0.8066       1551.229         78.825       86.40239         0.6253       -42.2594      0.5140419              1              1
      8684.5000         0.8028       1564.758        75.1759       80.77399         0.6201       -42.1723      0.5990028              1              1
      8685.0000         0.7962       1576.662         74.321       79.45441         0.6148       -42.0854      0.6837616      0.9883918              1
      8685.5000         0.7896        1588.59        74.9818       80.47216         0.6096       -41.9984      0.7686195              1              1
      8686.0000         0.7831       1600.494        75.6426       81.48991         0.6057       -41.9113      0.8535805              1              1
      8686.5000         0.7765       1607.498        76.3035       82.50782         0.6047       -41.8245      0.9382401              1              1
