#------------------------------------------------------------------------------
# Created by    : vladimir.rabinovich
# Created on    : 09/19/2023 17:22:54
#------------------------------------------------------------------------------
~Version Information Section
VERS.           2.0     :   CWLS log ASCII Standard - VERSION 2.0
WRAP.           NO      :   One line per depth step
~Well Information Section
#MNEM       .UNIT                                         VALUE :DESCRIPTION
#------------------------------------------------------------------------------
STRT        .FT                                             606 :START DEPTH
STOP        .FT                                           12703 :STOP DEPTH
STEP        .FT                                             0.5 :STEP      
NULL        .                                           -999.25 :NULL      
COMP        .                                       PURE OIL CO :COMPANY   
WELL        .                                OCS 00099 ST00BP00 :WELL      
FLD         .                                           WILDCAT :FIELD     
LOC         .                                                   :LOCATION  
CNTY        .                             GALVESTON LARGE BLOCK :LOCATION  
STAT        .                                             TEXAS :STATE     
CTRY        .                                     UNITED STATES :COUNTRY   
SRVC        .                                                   :SERVICE COMPANY
DATE        .                             9/13/2023 11:19:42 AM :LOG DATE  
API         .                                    42706000130000 :API NUMBER
UWI         .                                    42706000130000 :UNIQUE WELL ID
XCOORD      .                                  1105531.03723184 :SURFACE X 
YCOORD      .                                  10576678.2721464 :SURFACE Y 
LAT         .                                         29.133654 :LATITUDE  
LON         .                                        -94.675857 :LONGITUDE 
ELEV        .FT                                              66 :ELEVATION VALUE
ELEV_TYPE   .                                                KB :ELEVATION REFERENCE TYPE
~Curve Information Section
#MNEM       .UNIT                                      API CODE :CURVE DESCRIPTION
#------------------------------------------------------------------------------
DEPT        .FT                                                 :DEPTH     
LAT         .OHMM                                               :          
LN          .OHMM                                               :          
SN          .OHMM                                               :          
SP          .MV                                                 :          
SP_NORM     .MV                                                 :SP Normalized
VSH_SP      .V/V                                                :Volume of Shale from SP
~A        DEPTH            LAT             LN             SN             SP        SP_NORM         VSH_SP
# ...
      7028.0000         1.1994         0.9178          1.345       -66.8962      -16.59321      0.6001741
      7028.5000         1.2235         0.8633         1.2573       -69.8827      -19.57892      0.5236174
      7029.0000         1.2476         0.8024         1.1546       -72.9049      -22.60034      0.4461452
      7029.5000         1.2716         0.7402         1.0521       -75.9314      -25.62605      0.3685628
      7030.0000         1.2957         0.6781         0.9494        -78.958      -28.65187      0.2909777
      7030.5000          1.195         0.6228          0.888       -81.9266      -31.61968      0.2148799
      7031.0000          1.007         0.6301         0.8811       -84.6814       -34.3737      0.1442641
      7031.5000          0.686         0.6375         0.8742       -87.4316      -37.12312     0.07376608
      7032.0000         0.4687         0.6448         0.8674       -90.1863      -39.87704    0.003152896
      7032.5000         0.3925         0.6518         0.8607       -90.9954      -40.68535              0
      7033.0000         0.3414         0.6558         0.8545       -91.5414      -41.23056              0
      7033.5000         0.3673         0.6598         0.8484       -91.7233      -41.41168              0
      7034.0000         0.3933         0.6638         0.8422       -91.5271       -41.2147              0
      7034.5000         0.4192         0.6678         0.8361       -91.3311      -41.01792              0
      7035.0000         0.4451         0.6718         0.8299       -91.1351      -40.82114              0
      7035.5000         0.4655         0.6758         0.8238       -90.9391      -40.62435              0
      7036.0000         0.4796         0.6798         0.8177       -90.7429      -40.42736              0
      7036.5000         0.4938         0.6714         0.8113       -90.5468      -40.23048              0
      7037.0000         0.5079         0.6575         0.8017       -90.3507       -40.0336              0
      7037.5000         0.5221         0.6436         0.7921       -90.1545      -39.83662     0.00418932
      7038.0000         0.5331         0.6297         0.7826       -89.9584      -39.63973     0.00923773
      7038.5000         0.5371         0.6158          0.773       -89.7891      -39.46965     0.01359871
      7039.0000          0.541          0.602         0.7634       -89.9614      -39.64117    0.009200854
      7039.5000          0.545         0.5881         0.7538       -90.1342      -39.81318    0.004790184
      7040.0000         0.5789           0.59         0.7482       -90.3066       -39.9848   0.0003897838
      7040.5000         0.6389         0.5932         0.7526       -90.4791      -40.15652              0
      7041.0000         0.6989         0.5964         0.7569       -90.6515      -40.32813              0
      7041.5000         0.7589         0.5996         0.7613        -90.824      -40.49984              0
      7042.0000         0.8189         0.6028         0.7656        -90.739      -40.41406              0
      7042.5000         0.8789          0.606           0.77       -87.7704      -37.44468     0.06552105
      7043.0000         0.9389         0.6092         0.7743       -84.8018       -34.4753       0.141659
      7043.5000         1.0209         0.5941         0.7749       -81.8331      -31.50581      0.2177998
      7044.0000         1.1099         0.5777         0.7716       -78.2225      -27.89443      0.3103992
      7044.5000         1.1988         0.5612         0.7682        -79.114      -28.78514      0.2875605
      7045.0000         1.2912         0.5448         0.7649        -81.608      -31.27836      0.2236317
      7045.5000         1.2565         0.5283         0.7616       -84.1019      -33.77148      0.1597057
      7046.0000          1.181         0.5119         0.7582       -86.5958       -36.2646     0.09577961
      7046.5000         1.1053         0.4954         0.7547       -89.0117      -38.67971     0.03385348
      7047.0000         0.9936          0.479         0.7496       -90.3055      -39.97272    0.000699459
      7047.5000         0.8819         0.4742         0.7445       -91.5992      -41.26564              0
      7048.0000         0.7703          0.478         0.7393       -92.8931      -42.55875              0
      7048.5000         0.6634         0.4819         0.7342       -94.1868      -43.85167              0
      7049.0000         0.5623         0.4858         0.7672       -94.5857      -44.24979              0
      7049.5000         0.4611         0.5171         0.8041       -94.1355      -43.79881              0
      7050.0000         0.5815         0.5564          0.841       -93.6848      -43.34732              0
      7050.5000         0.8456         0.5958         0.8779       -92.7894      -42.45114              0
      7051.0000         1.1255         0.6352         0.9148       -87.8462      -37.50716     0.06391907
      7051.5000         1.3646         0.6649         0.9518       -82.8984      -32.55857      0.1908059
      7052.0000         1.4893         0.6754         0.9887       -74.1039      -23.76329       0.416326
      7052.5000         1.6141         0.6858         1.0256       -65.3206      -14.97921      0.6415587
      7053.0000         1.7464         0.6962         1.0615       -62.9025      -12.56032      0.7035815
      7053.5000         1.8305         0.7096         1.0666       -60.4843      -10.14134      0.7656067
      7054.0000          1.714         0.7436         1.0717        -58.084      -7.740253       0.827173
      7054.5000         1.5031         0.7777         1.0768       -56.5083      -6.163773      0.8675956
      7055.0000         1.2919         0.8118         1.0818       -54.9348      -4.589485      0.9079619
      7055.5000         1.0927         0.8458         1.0869       -53.3591      -3.013004      0.9483845
      7056.0000         0.9716         0.8799          1.089       -51.7834      -1.436523      0.9888071
      7056.5000         0.8505          0.914         1.0809       -50.7159     -0.3682365              1
      7057.0000         0.7294         0.9478         1.0728       -49.6639      0.6845474              1
      7057.5000         0.6837         0.9788         1.0647        -49.252       1.097233              1
      7058.0000         0.6405         1.0098         1.0566        -49.369      0.9810143              1
      7058.5000         0.5973         1.0255         1.0485        -49.486      0.8647995              1
      7059.0000         0.5856         0.9952         1.0404        -49.603      0.7485809              1
      7059.5000          0.582         0.9649         1.0323         -49.72      0.6323624              1
      7060.0000         0.5784         0.9346         1.0242        -49.837      0.5161476              1
      7060.5000         0.5748         0.9043         1.0161       -49.9542      0.3997307              1
      7061.0000         0.5711          0.874          1.008       -50.0712      0.2835159              1
      7061.5000         0.5674         0.8437         0.9999       -50.1882      0.1672974              1
      7062.0000         0.5615         0.8296         1.0022       -50.3052     0.05108261              1
      7062.5000         0.5556         0.8514         1.0096       -50.4222    -0.06513214              1
      7063.0000         0.5496         0.8731         1.0171       -50.5604      -0.202549              1
      7063.5000         0.5437         0.8949         1.0245       -50.6994     -0.3407669              1
      7064.0000         0.5378         0.9167          1.032       -50.8386     -0.4791832              1
      7064.5000         0.5319         0.9385         1.0394       -50.9776     -0.6173973              1
      7065.0000         0.5259         0.9591         1.0469       -51.1168     -0.7558136              1
      7065.5000         0.5203         0.9767         1.0544       -51.2558     -0.8940315              1
