#------------------------------------------------------------------------------
# Created by    : vladimir.rabinovich
# Created on    : 09/19/2023 17:22:38
#------------------------------------------------------------------------------
~Version Information Section
VERS.           2.0     :   CWLS log ASCII Standard - VERSION 2.0
WRAP.           NO      :   One line per depth step
~Well Information Section
#MNEM       .UNIT                                         VALUE :DESCRIPTION
#------------------------------------------------------------------------------
STRT        .FT                                             890 :START DEPTH
STOP        .FT                                            9058 :STOP DEPTH
STEP        .FT                                             0.5 :STEP      
NULL        .                                           -999.25 :NULL      
COMP        .                            COASTAL OIL & GAS CORP :COMPANY   
WELL        .                               OCS G01773 ST00BP00 :WELL      
FLD         .                                           WILDCAT :FIELD     
LOC         .                                                   :LOCATION  
CNTY        .                             GALVESTON LARGE BLOCK :LOCATION  
STAT        .                                             TEXAS :STATE     
CTRY        .                                     UNITED STATES :COUNTRY   
SRVC        .                                                   :SERVICE COMPANY
DATE        .                             9/13/2023 11:19:54 AM :LOG DATE  
API         .                                    42706403500000 :API NUMBER
UWI         .                                    42706403500000 :UNIQUE WELL ID
XCOORD      .                                  1074939.13305719 :SURFACE X 
YCOORD      .                                   10531967.363633 :SURFACE Y 
LAT         .                                         29.009472 :LATITUDE  
LON         .                                        -94.769566 :LONGITUDE 
ELEV        .FT                                              83 :ELEVATION VALUE
ELEV_TYPE   .                                                KB :ELEVATION REFERENCE TYPE
~Curve Information Section
#MNEM       .UNIT                                      API CODE :CURVE DESCRIPTION
#------------------------------------------------------------------------------
DEPT        .FT                                                 :DEPTH     
DCAL        .IN                                                 :          
DPSS        .V/V                                                :          
DRHO        .G/CM3                                              :          
DTLF        .US/FT                                              :          
DTLN        .US/FT                                              :          
GR          .GAPI                                               :          
GRS         .GAPI                                               :          
NPSS        .V/V                                                :Neutron Porosity Sandstone
SFL         .OHMM                                               :          
SP          .MV                                                 :          
SP_NORM     .MV                                                 :SP Normalized
SPHI_SAN    .V/V                                                :          
TENS        .LB                                                 :          
VSH_SP      .V/V                                                :Volume of Shale from SP
~A        DEPTH           DCAL           DPSS           DRHO           DTLF           DTLN             GR            GRS           NPSS            SFL             SP        SP_NORM       SPHI_SAN           TENS         VSH_SP
# ...
      8216.0000         0.4706          0.191          0.006          115.2            116        60.2041             67         0.3696         0.7701           -8.8     -0.2865744         0.3228           3380       0.996179
      8216.5000         0.4706         0.1849          0.006          115.4          115.6           58.8           64.6          0.366         0.7849           -9.2     -0.6844702         0.3228           3380      0.9908738
      8217.0000         0.4314         0.1824          0.008            116          115.6           57.4           62.6          0.372         0.7924           -9.6      -1.082367         0.3216           3380      0.9855685
      8217.5000         0.5098         0.1824          0.012          116.6          116.4             58           61.2         0.3828         0.7924           -9.6      -1.080262         0.3228           3380      0.9855965
      8218.0000         0.5882         0.1849          0.014          117.4            117        61.2245           60.2         0.3948         0.7627           -9.6      -1.078158         0.3228           3380      0.9856246
      8218.5000         0.5882         0.1898          0.014          117.4            117        63.8776           59.6         0.4249         0.7412           -9.6      -1.076055          0.324           3380      0.9856526
      8219.0000         0.6275         0.1922          0.012          117.4            117         64.898             59         0.4249         0.7555           -9.6       -1.07395          0.324           3460      0.9856806
      8219.5000         0.5882         0.1947          0.012            117          116.6        64.4898           60.4         0.4224         0.7627           -9.6      -1.071846          0.324           3500      0.9857087
      8220.0000         0.5098         0.1971          0.012            117          116.6        63.8776           62.8           0.42         0.7627           -9.6      -1.069742          0.324           3480      0.9857368
      8220.5000         0.4706         0.1984          0.012          117.2            117        63.2653           63.2         0.4104         0.7924           -9.6      -1.067637         0.3252           3420      0.9857649
      8221.0000         0.3922         0.1984          0.016            118          117.6        64.0816             62         0.4056         0.7849           -9.6      -1.065534         0.3276           3400      0.9857929
      8221.5000         0.3529         0.1984          0.022          119.2          118.4        64.6939           60.8          0.414         0.7627           -9.6       -1.06343         0.3288           3360      0.9858209
      8222.0000         0.3529         0.2008          0.018          119.6          119.2        64.2857           61.6         0.4212         0.7483           -9.8      -1.261325           0.33           3340      0.9831823
      8222.5000         0.3922         0.2033          0.016          119.8          119.4        62.6531             63         0.4092         0.7412            -10      -1.459221         0.3312           3340      0.9805437
      8223.0000         0.3922         0.2069          0.012       120.3922          119.8             60           63.2         0.3972         0.7342            -10      -1.457117         0.3336           3360      0.9805717
      8223.5000         0.3922         0.2131          0.008       121.1765       120.5882           58.8           62.6         0.3876         0.7272            -10      -1.455012          0.336           3400      0.9805998
      8224.0000         0.3529          0.218          0.004       122.9412       122.3529        60.8163           61.2         0.3948         0.7135          -10.2      -1.652908         0.3396           3400      0.9779612
      8224.5000         0.3922         0.2229              0       124.3137       124.3137        64.2857             60         0.4116         0.6569          -10.2      -1.650805          0.342           3400      0.9779893
      8225.0000         0.4706         0.2229         -0.002       124.7059        124.902        65.5102           59.8         0.4335         0.6165            -10        -1.4487         0.3444           3380       0.980684
      8225.5000         0.5098         0.2204         -0.004       124.7059        124.902         65.102             60         0.4384          0.611           -9.8      -1.246596         0.3444           3380      0.9833787
      8226.0000         0.5098         0.2155              0       124.1176        124.902        64.6939           62.8         0.4506         0.6165           -9.6      -1.044493         0.3444           3380      0.9860734
      8226.5000         0.5098         0.2094          0.002       124.7059       124.7059        64.6939           65.8         0.4469         0.6278           -9.4     -0.8423872         0.3444           3380      0.9887682
      8227.0000         0.5098         0.2033          0.004       125.2941       124.7059        65.5102           67.6         0.4384         0.6165           -8.8      -0.240284         0.3432           3380      0.9967962
      8227.5000         0.5098         0.2008          0.006        125.098       124.3137        66.9388           67.8         0.4445          0.611           -8.6     -0.0381794         0.3432           3380      0.9994909
      8228.0000         0.5098         0.1996          0.008       124.5098       124.1176        67.3469           65.8         0.4518         0.6055           -8.2       0.363925          0.342           3380              1
      8228.5000         0.5098         0.1959           0.01       122.9412       122.9412         67.551           63.6         0.4457         0.6222             -8      0.5660286         0.3396           3380              1
      8229.0000         0.4706          0.191          0.012       122.3529       121.9608        67.7551           63.4         0.4408         0.6629             -8      0.5681334         0.3384           3380              1
      8229.5000         0.4314         0.1849          0.012       121.9608       121.5686        68.3673             65         0.4396         0.7067             -8      0.5702372         0.3372           3380              1
      8230.0000         0.4314         0.1788          0.014       122.1569       121.9608        69.1837           65.2         0.4273         0.7272           -7.8      0.7723408         0.3384           3380              1
      8230.5000         0.4314          0.174          0.014       122.1569        122.549        68.9796           64.2         0.4176         0.7342           -7.4       1.174446         0.3384           3380              1
      8231.0000         0.4314         0.1752          0.014       122.3529       122.9412        68.7755           62.8         0.4176            0.7           -7.6      0.9765496         0.3384           3400              1
      8231.5000         0.4706         0.1752          0.014       122.1569       121.9608        68.5714           60.6         0.4224         0.6751           -7.8      0.7786531         0.3372           3380              1
      8232.0000         0.4706          0.174          0.014       121.3725       120.7843        68.5714             60         0.4212         0.6812           -7.8      0.7807579          0.336           3380              1
      8232.5000         0.4706         0.1692          0.018       120.3922            120         67.551           61.6         0.4237            0.7           -7.6       0.982862         0.3336           3400              1
      8233.0000         0.4706         0.1632           0.02          119.8          119.2        65.3061           65.6         0.4188         0.7203           -7.8      0.7849655         0.3324           3400              1
      8233.5000         0.4706         0.1608          0.024          119.8            119        63.2653           69.6         0.4152         0.7342           -8.2      0.3870707           0.33           3400              1
