#------------------------------------------------------------------------------
# Created by    : vladimir.rabinovich
# Created on    : 09/19/2023 17:21:03
#------------------------------------------------------------------------------
~Version Information Section
VERS.           2.0     :   CWLS log ASCII Standard - VERSION 2.0
WRAP.           NO      :   One line per depth step
~Well Information Section
#MNEM       .UNIT                                         VALUE :DESCRIPTION
#------------------------------------------------------------------------------
STRT        .FT                                          2542.5 :START DEPTH
STOP        .FT                                            8214 :STOP DEPTH
STEP        .FT                                             0.5 :STEP      
NULL        .                                           -999.25 :NULL      
COMP        .                          SEAGULL ENERGY E & P INC :COMPANY   
WELL        .                               OCS G12505 ST00BP00 :WELL      
FLD         .                              GALVESTON BLOCK 0357 :FIELD     
LOC         .                                                   :LOCATION  
CNTY        .                             GALVESTON LARGE BLOCK :LOCATION  
STAT        .                                             TEXAS :STATE     
CTRY        .                                     UNITED STATES :COUNTRY   
SRVC        .                                                   :SERVICE COMPANY
DATE        .                             9/13/2023 11:19:54 AM :LOG DATE  
API         .                                    42706403610000 :API NUMBER
UWI         .                                    42706403610000 :UNIQUE WELL ID
XCOORD      .                                  1003713.76055251 :SURFACE X 
YCOORD      .                                  10412171.7759297 :SURFACE Y 
LAT         .                                          28.67696 :LATITUDE  
LON         .                                        -94.986081 :LONGITUDE 
ELEV        .FT                                              96 :ELEVATION VALUE
ELEV_TYPE   .                                                KB :ELEVATION REFERENCE TYPE
~Curve Information Section
#MNEM       .UNIT                                      API CODE :CURVE DESCRIPTION
#------------------------------------------------------------------------------
DEPT        .FT                                                 :DEPTH     
AT10        .OHMM                                               :          
AT20        .OHMM                                               :          
AT30        .OHMM                                               :          
AT60        .OHMM                                               :          
AT90        .OHMM                                               :          
DCAL        .IN                                                 :          
DPSS        .V/V                                                :          
DTLF        .US/FT                                              :          
DTLN        .US/FT                                              :          
GR          .GAPI                                               :          
GR_NORM     .GAPI                                               :GammaRay Normalized
NPSS        .V/V                                                :Neutron Porosity Sandstone
SP          .MV                                                 :          
SP_NORM     .MV                                                 :SP Normalized
TENS        .LB                                                 :          
VSH_GR      .V/V                                                :Volume of Shale from GR
VSH_SP      .V/V                                                :Volume of Shale from SP
~A        DEPTH           AT10           AT20           AT30           AT60           AT90           DCAL           DPSS           DTLF           DTLN             GR        GR_NORM           NPSS             SP        SP_NORM           TENS         VSH_GR         VSH_SP
# ...
      6727.5000         0.6866         0.7063         0.6866         0.6801         0.6671           1.88          0.216            110       110.4082           83.6       74.03429         0.4056           -3.8      -5.380236       3216.294      0.8730699      0.9231395
      6728.0000         0.6801         0.7063         0.6866         0.6801         0.6671           1.88          0.216            110       110.6122           84.6       75.23428          0.431           -4.2      -5.778896       3214.022      0.8986018      0.9174443
      6728.5000         0.6801         0.7063         0.6866         0.6801         0.6671           1.88         0.2196       110.2041       110.6122             87       78.11429         0.4445           -4.2      -5.777556       3211.755      0.9598785      0.9174635
      6729.0000         0.6801         0.7063         0.6866         0.6801         0.6671           1.92          0.222       110.4082       111.0204           89.6       81.23428          0.431             -4      -5.576217       3209.493              1      0.9203398
      6729.5000         0.6735            0.7         0.6801         0.6735         0.6607           1.96         0.2268       111.0204       111.2245             91       82.91429          0.414           -3.8      -5.374877       3207.235              1       0.923216
      6730.0000         0.6671         0.6866         0.6671         0.6607         0.6481           1.96         0.2316       111.4286       111.8367           90.4       82.19429          0.402           -3.2      -4.773537       3204.982              1      0.9318066
      6730.5000         0.6607         0.6735         0.6543         0.6481         0.6357           1.96         0.2364       112.0408       112.2449             87       78.11429         0.3972           -3.6      -5.172197       3204.082      0.9598785      0.9261115
      6731.0000         0.6481         0.6607         0.6481         0.6419         0.6296           1.96         0.2316       112.6531       113.0612           85.6       76.43429          0.396           -3.6      -5.170857       3204.082      0.9241338      0.9261306
      6731.5000         0.6296         0.6543         0.6357         0.6296         0.6176           1.96         0.2244       113.0612       113.6735           85.6       76.43429         0.4032           -3.4      -4.969518       3204.082      0.9241338      0.9290069
      6732.0000         0.6296         0.6419         0.6236         0.6176         0.6058           1.96         0.2172       113.6735       114.0816           86.4       77.39429         0.4104             -3      -4.568178       3204.082      0.9445595      0.9347403
      6732.5000         0.6296         0.6419         0.6236         0.6176         0.6058           1.96         0.2064       114.2857       114.4898           88.2       79.55428         0.4176           -2.8      -4.366838       3204.082      0.9905167      0.9376166
      6733.0000         0.6296         0.6357         0.6176         0.6117            0.6           1.96         0.1992       114.0816       114.2857           89.6       81.23428         0.4188             -3      -4.565498       3204.082              1      0.9347786
      6733.5000         0.6296         0.6357         0.6176         0.6117            0.6           1.96         0.1896       113.8776       114.2857           89.6       81.23428         0.4212           -3.2      -4.764159       3204.082              1      0.9319406
      6734.0000         0.6296         0.6357         0.6176         0.6117            0.6           1.96         0.1777       113.6735       114.0816           88.8       80.27429         0.4152           -3.4      -4.962819       3204.082              1      0.9291026
      6734.5000         0.6296         0.6357         0.6176         0.6117            0.6           1.96          0.159       113.6735       114.2857           88.2       79.55428         0.4032           -3.4      -4.961479       3204.082      0.9905167      0.9291217
      6735.0000         0.6296         0.6357         0.6176         0.6117            0.6           1.92         0.1695       113.6735       114.2857           88.2       79.55428         0.3984           -3.4      -4.960139       3204.082      0.9905167      0.9291409
      6735.5000         0.6296         0.6419         0.6236         0.6176         0.6058           1.84         0.1944       113.6735       114.2857           87.4       78.59429         0.3996           -3.6        -5.1588       3204.082      0.9700913      0.9263029
      6736.0000         0.6296         0.6481         0.6296         0.6236         0.6117            1.8          0.216       113.6735       114.2857           86.8       77.87429         0.4044           -3.8       -5.35746       3204.082      0.9547721      0.9234648
      6736.5000         0.6296         0.6543         0.6357         0.6296         0.6176           1.68         0.2424       113.6735       114.4898           86.4       77.39429         0.4273           -3.8       -5.35612       3204.082      0.9445595       0.923484
      6737.0000         0.6419         0.6607         0.6419         0.6357         0.6236            1.6         0.2571       113.6735       114.0816           85.8       76.67429         0.4408           -3.8       -5.35478       3204.082      0.9292403      0.9235032
      6737.5000         0.6607         0.6671         0.6481         0.6419         0.6296           1.56         0.2584       113.2653       113.2653             85       75.71429         0.4359             -4      -5.553441       3204.082      0.9088148      0.9206651
      6738.0000         0.6671         0.6801         0.6607         0.6543         0.6419           1.56         0.2449       111.4286       111.4286             86       76.91429         0.4249           -4.2        -5.7521       3204.082      0.9343466      0.9178271
      6738.5000         0.7063         0.7189            0.7         0.6933         0.6801           1.56         0.2256          109.6          108.4           87.8        79.0743         0.4116           -4.8      -6.350761       3204.082      0.9803041      0.9092748
      6739.0000         0.7384         0.7517         0.7319         0.7254         0.7126           1.56         0.2196          106.2            106           89.6       81.23428         0.3852             -5      -6.549421       3204.082              1      0.9064369
      6739.5000         0.7859         0.7859         0.7652         0.7584          0.745           1.56         0.2244          103.2          103.8             90       81.71429         0.3576           -5.2      -6.748081       3204.082              1      0.9035988
      6740.0000            0.8            0.8         0.7789          0.772         0.7584           1.56         0.2292          102.6            103           88.6       80.03429         0.3376           -5.2      -6.746741       3204.082              1       0.903618
      6740.5000         0.8161         0.8002         0.7791         0.7722         0.7585           1.56         0.2268          102.4          102.4           84.4       74.99429         0.3294           -5.2      -6.745401       3205.446      0.8934956      0.9036371
      6741.0000         0.8164         0.8006         0.7724         0.7453          0.732           1.56         0.2353          101.8          101.4           78.8       68.27429         0.3247           -6.8      -8.344062        3289.49      0.7505168      0.8807991
      6741.5000         0.8167         0.7658         0.7388         0.7063         0.6933           1.56         0.2499           99.8           99.6           72.8       61.07429         0.3294           -9.4      -10.94272       3291.856      0.5973253      0.8436754
      6742.0000         0.8411         0.7591         0.7063         0.6671         0.6543           1.48         0.2549             97           97.6           68.6       56.03429         0.3376          -14.2      -15.74138       3294.227      0.4900912      0.7751231
