#------------------------------------------------------------------------------
# Created by    : vladimir.rabinovich
# Created on    : 09/19/2023 17:21:24
#------------------------------------------------------------------------------
~Version Information Section
VERS.           2.0     :   CWLS log ASCII Standard - VERSION 2.0
WRAP.           NO      :   One line per depth step
~Well Information Section
#MNEM       .UNIT                                         VALUE :DESCRIPTION
#------------------------------------------------------------------------------
STRT        .FT                                             682 :START DEPTH
STOP        .FT                                            8542 :STOP DEPTH
STEP        .FT                                             0.5 :STEP      
NULL        .                                           -999.25 :NULL      
COMP        .                       CORPUS CHRISTI OIL & GAS CO :COMPANY   
WELL        .                               OCS G08551 ST00BP00 :WELL      
FLD         .                                           WILDCAT :FIELD     
LOC         .                                                   :LOCATION  
CNTY        .                             GALVESTON LARGE BLOCK :LOCATION  
STAT        .                                             TEXAS :STATE     
CTRY        .                                     UNITED STATES :COUNTRY   
SRVC        .                                                   :SERVICE COMPANY
DATE        .                             9/13/2023 11:19:36 AM :LOG DATE  
API         .                                    42706401950000 :API NUMBER
UWI         .                                    42706401950000 :UNIQUE WELL ID
XCOORD      .                                   976199.22633255 :SURFACE X 
YCOORD      .                                  10415950.2633902 :SURFACE Y 
LAT         .                                         28.686063 :LATITUDE  
LON         .                                        -95.072067 :LONGITUDE 
ELEV        .FT                                              81 :ELEVATION VALUE
ELEV_TYPE   .                                                KB :ELEVATION REFERENCE TYPE
~Curve Information Section
#MNEM       .UNIT                                      API CODE :CURVE DESCRIPTION
#------------------------------------------------------------------------------
DEPT        .FT                                                 :DEPTH     
CALI        .IN                                                 :          
DPHI        .%                                                  :          
DRHO        .G/C3                                               :          
DT          .US/F                                               :          
GR          .GAPI                                               :          
GR_1        .GAPI                                               :          
GR_NORM     .GAPI                                               :GammaRay Normalized
ILD         .OHMM                                               :          
ILM         .OHMM                                               :          
NPHI        .%                                                  :          
SFL         .OHMM                                               :          
SP_NORM     .MV                                                 :SP Normalized
SPS         .MV                                                 :          
VSH_GR      .V/V                                                :Volume of Shale from GR
VSH_SP      .V/V                                                :Volume of Shale from SP
~A        DEPTH           CALI           DPHI           DRHO             DT             GR           GR_1        GR_NORM            ILD            ILM           NPHI            SFL        SP_NORM            SPS         VSH_GR         VSH_SP
# ...
       699.0000        -999.25        -999.25        -999.25        -999.25        31.9442        -999.25       82.47632        -999.25        -999.25        -999.25        -999.25      0.8072956        -999.25              1        -999.25
       699.5000        -999.25        -999.25        -999.25        -999.25        31.2244        -999.25        85.6079        -999.25        -999.25        -999.25        -999.25     0.01808279        -999.25              1        -999.25
       700.0000        -999.25        -999.25        -999.25        -999.25        30.3068        -999.25       84.07504        -999.25        -999.25        -999.25        -999.25       3.170212        -999.25              1        -999.25
       700.5000        -999.25        -999.25        -999.25        -999.25        29.2112        -999.25       80.12174        -999.25        -999.25        -999.25        -999.25       3.607297        -999.25              1        -999.25
       701.0000        -999.25        -999.25        -999.25        -999.25         28.079        -999.25       82.88889        -999.25        -999.25        -999.25        -999.25      0.1694728        -999.25              1        -999.25
       701.5000        -999.25        -999.25        -999.25        -999.25        28.4177        -999.25       85.58855        -999.25        -999.25        -999.25        -999.25       3.515065        -999.25              1        -999.25
       702.0000        -999.25        -999.25        -999.25        -999.25         31.569        -999.25       85.55024        -999.25        -999.25        -999.25        -999.25      -1.089339        -999.25              1        -999.25
       702.5000        -999.25        -999.25        -999.25        -999.25        35.2047        -999.25       79.67045        -999.25        -999.25        -999.25        -999.25       3.328774        -999.25      0.9929883        -999.25
       703.0000        -999.25        -999.25        -999.25        -999.25        37.6742        -999.25        81.5919        -999.25        -999.25        -999.25        -999.25       1.023427        -999.25              1        -999.25
       703.5000        -999.25        -999.25        -999.25        -999.25        38.4604        -999.25       78.89738        -999.25        -999.25        -999.25        -999.25       2.700689        -999.25      0.9765401        -999.25
       704.0000        -999.25        -999.25        -999.25        -999.25        36.5757        -999.25       79.09901        -999.25        -999.25        -999.25        -999.25      0.2350669        -999.25        0.98083        -999.25
       704.5000        -999.25        -999.25        -999.25        -999.25        34.1573        -999.25       81.51943        -999.25        -999.25        -999.25        -999.25       3.048725        -999.25              1        -999.25
       705.0000        -999.25        -999.25        -999.25       255.4753        34.9604        -999.25       84.07388         1.9102         1.3533        -999.25         1.1663     -0.2161955      -126.8503              1              1
       705.5000        -999.25        -999.25        -999.25       243.7529         38.415        -999.25       78.43372         0.8979         0.8991        -999.25         0.9602       3.055004      -125.4353       0.966675              1
       706.0000        -999.25        -999.25        -999.25       235.3762        41.8744        -999.25       81.90316         0.7921          0.753        -999.25         0.8823       3.154802      -122.7788              1              1
       706.5000        -999.25        -999.25        -999.25       226.7512        43.7129        -999.25       80.65282          0.792          0.776        -999.25         1.0811       1.648573      -120.2272              1              1
       707.0000        -999.25        -999.25        -999.25       229.4004        44.8256        -999.25       78.84109         0.8154         0.8027        -999.25         1.1651       2.275405      -118.6991      0.9753425              1
       707.5000        -999.25        -999.25        -999.25       231.8062        45.8755        -999.25       85.57484         0.8395          0.833        -999.25         1.2519       0.414928      -117.2677              1              1
       708.0000        -999.25        -999.25        -999.25       207.4968        45.6541        -999.25       81.65289         0.8463         0.8853        -999.25         1.1758    -0.06879292      -115.7614              1              1
       708.5000        -999.25        -999.25        -999.25       155.7612        41.2465        -999.25       83.77507         0.8337         0.9383        -999.25         1.0794     0.08364497      -114.6183              1              1
       709.0000        -999.25        -999.25        -999.25       153.1416        38.5436        -999.25       82.13857         0.8212         0.9908        -999.25          0.986     -0.9768992      -113.2478              1              1
       709.5000        -999.25        -999.25        -999.25       149.5684        36.2076        -999.25        84.1611         0.8192          1.022        -999.25         0.9102       1.823791      -111.8813              1              1
       710.0000        -999.25        -999.25        -999.25        156.115        34.5986        -999.25       85.22074         0.8534         1.0111        -999.25         0.9025       3.733893       -111.066              1              1
       710.5000        -999.25        -999.25        -999.25       164.2637        33.6587        -999.25       80.82075         0.9254         0.9748        -999.25          0.923       3.693378      -110.1597              1              1
       711.0000        -999.25        -999.25        -999.25       193.5154        33.1713        -999.25       83.01715         0.9773         0.9397        -999.25         0.9301       2.354719      -109.6565              1              1
       711.5000        -999.25        -999.25        -999.25       217.0198        33.2192        -999.25       84.77743          1.039         0.9073        -999.25         0.9534     -0.6770126      -109.3193              1              1
       712.0000        -999.25        -999.25        -999.25       229.5574        34.0283        -999.25       83.02413         1.0954         0.8795        -999.25         0.9811       1.953073      -109.0533              1              1
       712.5000        -999.25        -999.25        -999.25       241.6187        35.5892        -999.25       80.82476         1.1323         0.8571        -999.25         1.0064      0.7423891       -108.819              1              1
       713.0000        -999.25        -999.25        -999.25       252.5374        37.5419        -999.25       81.34041         1.1635         0.8374        -999.25         0.9747        2.01303      -108.5448              1              1
       713.5000        -999.25        -999.25        -999.25       245.1335        39.5369        -999.25       84.41325         1.2071          0.846        -999.25         0.9206       0.836826      -108.4375              1              1
       714.0000        -999.25        -999.25        -999.25       235.6545        41.0249        -999.25       81.38794         1.2325         0.8548        -999.25         0.8958      0.4535924      -108.2782              1              1
       714.5000        -999.25        -999.25        -999.25       214.5557        42.4995        -999.25       80.56508         1.2516         0.8637        -999.25         0.8813       1.696059      -107.9674              1              1
       715.0000        -999.25        -999.25        -999.25       204.2002        44.2184        -999.25       83.57735         1.2722         0.8837        -999.25         0.8849       2.185552      -107.6825              1              1
       715.5000        -999.25        -999.25        -999.25        186.575        46.4803        -999.25       79.53261         1.2951         0.9116        -999.25         0.8998       2.587066       -107.462      0.9900555              1
