#------------------------------------------------------------------------------
# Created by    : vladimir.rabinovich
# Created on    : 09/19/2023 17:21:40
#------------------------------------------------------------------------------
~Version Information Section
VERS.           2.0     :   CWLS log ASCII Standard - VERSION 2.0
WRAP.           NO      :   One line per depth step
~Well Information Section
#MNEM       .UNIT                                         VALUE :DESCRIPTION
#------------------------------------------------------------------------------
STRT        .FT                                             957 :START DEPTH
STOP        .FT                                           10053 :STOP DEPTH
STEP        .FT                                             0.5 :STEP      
NULL        .                                           -999.25 :NULL      
COMP        .                                    EXXON CO U S A :COMPANY   
WELL        .                               OCS G03237 ST00BP00 :WELL      
FLD         .                                           WILDCAT :FIELD     
LOC         .                                                   :LOCATION  
CNTY        .                           HIGH ISLAND LARGE BLOCK :LOCATION  
STAT        .                                             TEXAS :STATE     
CTRY        .                                     UNITED STATES :COUNTRY   
SRVC        .                                                   :SERVICE COMPANY
DATE        .                             9/13/2023 11:20:04 AM :LOG DATE  
API         .                                    42708400420000 :API NUMBER
UWI         .                                    42708400420000 :UNIQUE WELL ID
XCOORD      .                                  1163347.66403634 :SURFACE X 
YCOORD      .                                  10583934.5995257 :SURFACE Y 
LAT         .                                         29.155753 :LATITUDE  
LON         .                                        -94.495054 :LONGITUDE 
ELEV        .FT                                              94 :ELEVATION VALUE
ELEV_TYPE   .                                                KB :ELEVATION REFERENCE TYPE
~Curve Information Section
#MNEM       .UNIT                                      API CODE :CURVE DESCRIPTION
#------------------------------------------------------------------------------
DEPT        .FT                                                 :DEPTH     
CALI        .IN                                                 :          
DRHO        .G/C3                                               :          
DT          .US/F                                               :          
GR          .GAPI                                               :          
GR_1        .GAPI                                               :          
GR_NORM     .GAPI                                               :GammaRay Normalized
ILD         .OHMM                                               :          
NPHI        .%                                                  :          
RHOB        .G/C3                                               :          
SFL         .OHMM                                               :          
SP          .MV                                                 :          
SP_NORM     .MV                                                 :SP Normalized
VSH_GR      .V/V                                                :Volume of Shale from GR
VSH_SP      .V/V                                                :Volume of Shale from SP
~A        DEPTH           CALI           DRHO             DT             GR           GR_1        GR_NORM            ILD           NPHI           RHOB            SFL             SP        SP_NORM         VSH_GR         VSH_SP
# ...
      8841.0000        12.4243         0.0332         94.574        64.8016        -999.25       53.47244         0.6689        29.4063         2.3467         0.7065       -82.2894      -34.91638      0.4355839      0.4251461
      8841.5000         12.461         0.0177        89.2975        62.4746        -999.25       50.48621         0.6936         28.164         2.3461         0.8409       -91.2025      -43.81308      0.3720469      0.2743546
      8842.0000        12.3801         0.0154        80.4044        59.5096        -999.25       46.68281         0.7141        24.9433         2.4024         1.2234       -98.3667      -50.96087      0.2911236      0.1532055
      8842.5000        12.2868         0.0049         72.135        56.0863        -999.25       42.29242         0.7245        19.8584         2.4611         3.5494       -98.5717      -51.14947       0.197711       0.150009
      8843.0000        12.2597         0.0037         64.429        53.7742        -999.25       39.32526         0.7203         15.017         2.5197         7.1761       -98.3372      -50.89856      0.1345801      0.1542616
      8843.5000        12.2939        -0.0133        57.4272        53.9211        -999.25       39.50765         0.7053        12.7373         2.5627        13.8966       -98.3804      -50.92536      0.1384606      0.1538074
      8844.0000        12.4128         -0.015        57.2864        56.8687        -999.25       43.27723         0.6878        11.0839         2.5546         8.4945       -98.9814      -51.50996      0.2186645       0.143899
      8844.5000         12.558        -0.0027        63.8053        59.8435        -999.25       47.08166         0.6619         9.7429         2.4888         1.9778      -100.6471      -53.15926      0.2996098      0.1159448
      8845.0000        12.5957         0.0211        73.8049        61.1787        -999.25       48.78605         0.6333        12.0159         2.4162         1.1224      -106.1967      -58.69245      0.3358734     0.02216184
      8845.5000        12.4713         0.0271        83.7845        61.4085        -999.25       49.07462         0.5952        16.5309          2.304         0.8211      -109.6595      -62.13884      0.3420132              0
      8846.0000        12.1985         0.0141        88.9957        60.7567        -999.25       48.23401         0.5554        23.8984         2.2366           0.79      -109.9517      -62.41464      0.3241279              0
      8846.5000        12.1685        -0.0057        92.5947         60.571        -999.25       47.99041          0.527        29.2534         2.2151         0.8158      -110.3041      -62.75064      0.3189449              0
      8847.0000        12.1777        -0.0044        93.4832        62.0809        -999.25       49.91855         0.5168        31.8678         2.2077         0.8741      -111.2903      -63.72043      0.3599692              0
      8847.5000        12.1738         0.0002        92.5544        63.7178        -999.25       52.00937         0.5394        32.0179         2.2199         1.0113      -111.7135      -64.12723      0.4044546              0
      8848.0000        12.1546         0.0047        90.7814        65.0461        -999.25       53.70491          0.565        31.8574          2.231         1.2134      -110.2159      -62.61322        0.44053              0
      8848.5000        12.1418         0.0006        89.4899         64.788        -999.25       53.36858          0.595        31.3936         2.2418         1.3861      -108.3827      -60.76362      0.4333741              0
      8849.0000        12.8641         0.0047        88.6071        60.7233        -999.25       48.15667         0.6295        30.5298         2.2453         1.3872      -107.2201      -59.58462      0.3224823     0.00704038
      8849.5000        12.8433         0.0069        88.2557        60.8758        -999.25       48.34622         0.6592        29.5027         2.2432         1.3541       -105.901      -58.24911      0.3265153     0.02967608
      8850.0000        12.8257         0.0125        89.3579        60.8013        -999.25       48.24504         0.6662        28.2422         2.2364         1.2808      -118.7811      -71.11281      0.3243625              0
      8850.5000        12.8013         0.0196        89.9816         60.584        -999.25       47.96095          0.675        28.0168         2.2295         1.6143      -109.2639       -61.5792      0.3183182              0
      8851.0000        12.7739         0.0169        90.6215        60.3702        -999.25       47.68135           0.68        27.9368         2.2329         1.5992      -107.2556       -59.5545      0.3123693    0.007550837
      8851.5000        12.7455         0.0245         90.988        60.8772        -999.25       48.32497         0.6834        27.9316         2.2389         1.4503      -108.5665      -60.84899      0.3260631              0
      8852.0000        12.7459         0.0353         90.827        62.8135        -999.25       50.79925         0.6869        27.8181         2.2377         1.3076      -105.9399      -58.20599      0.3787075     0.03040689
      8852.5000        12.7747         0.0252        90.4962        63.2115        -999.25       51.30326         0.6902        27.4159         2.2372         1.2057      -103.3479      -55.59759      0.3894311     0.07461716
      8853.0000        12.8215           0.02        90.0449        63.1187        -999.25       51.17863          0.702          27.39         2.2536         1.1337      -101.4558      -53.68909      0.3867795      0.1069646
      8853.5000        12.8575         0.0291         90.402        62.4354        -999.25       50.29768         0.7346        27.4068         2.2696         1.1837      -100.3552      -52.57208      0.3680358       0.125897
      8854.0000        12.8546         0.0358        90.7368        60.1913        -999.25       47.41763         0.8244          26.82         2.2812         1.3156       -98.9207      -51.12117      0.3067581      0.1504886
      8854.5000        12.8444         0.0339        88.2195         58.019        -999.25       44.62955         0.9482        24.5358         2.2912         1.4921       -95.7994      -47.98347      0.2474373        0.20367
      8855.0000        12.8255         0.0503        80.4269        57.0823        -999.25       43.42403         1.0693        22.8615         2.3137         2.0491       -92.5149      -44.68257       0.221788      0.2596175
      8855.5000        12.8314         0.0573        73.7007        57.1973        -999.25       43.56557         1.1899        20.5966         2.3587          6.005       -89.2354      -41.38666      0.2247993      0.3154804
      8856.0000        12.9111         0.0485        65.3376        59.2498        -999.25       46.18868         1.2237        18.1595         2.4226        13.5368       -84.3334      -36.46825      0.2806103      0.3988431
      8856.5000        13.0448         0.0537        63.9537        61.6198        -999.25       49.21848         1.2463        15.7194         2.4912        14.6615       -78.8427      -30.96115      0.3450741      0.4921839
      8857.0000        13.1471         0.0745        72.4011        65.4999        -999.25       54.18243         1.2609        14.3502         2.5326          4.018        -73.342      -25.44405      0.4506899       0.585694
      8857.5000        13.3876         0.1179        83.0955        70.2549        -999.25       60.26696          1.272        15.9539         2.4976         1.7292       -67.8514      -19.93705      0.5801482      0.6790331
      8858.0000        13.8211         0.1612        93.4526        73.6135        -999.25       64.56297         1.2851        21.4397         2.4776         1.0916       -64.4778      -16.54704      0.6715525      0.7364908
      8858.5000        14.1745         0.1412        98.3186        73.5171        -999.25       64.43374         1.2952        26.9313         2.4167         0.9597         -62.43      -14.48284       0.668803      0.7714773
