#------------------------------------------------------------------------------
# Created by    : vladimir.rabinovich
# Created on    : 09/19/2023 17:20:57
#------------------------------------------------------------------------------
~Version Information Section
VERS.           2.0     :   CWLS log ASCII Standard - VERSION 2.0
WRAP.           NO      :   One line per depth step
~Well Information Section
#MNEM       .UNIT                                         VALUE :DESCRIPTION
#------------------------------------------------------------------------------
STRT        .FT                                             727 :START DEPTH
STOP        .FT                                            8206 :STOP DEPTH
STEP        .FT                                             0.5 :STEP      
NULL        .                                           -999.25 :NULL      
COMP        .                              PHOENIX RESOURCES CO :COMPANY   
WELL        .                                          BLK 335L :WELL      
FLD         .                                 BRAZOS BLOCK 0309 :FIELD     
LOC         .                                                   :LOCATION  
CNTY        .                                BRAZOS LARGE BLOCK :LOCATION  
STAT        .                                             TEXAS :STATE     
CTRY        .                                     UNITED STATES :COUNTRY   
SRVC        .                                                   :SERVICE COMPANY
DATE        .                             9/13/2023 11:18:52 AM :LOG DATE  
API         .                                    42704300210000 :API NUMBER
UWI         .                                    42704300210000 :UNIQUE WELL ID
XCOORD      .                                  898426.347293712 :SURFACE X 
YCOORD      .                                  10460523.5569112 :SURFACE Y 
LAT         .                                        28.8046676 :LATITUDE  
LON         .                                       -95.3172337 :LONGITUDE 
ELEV        .FT                                              70 :ELEVATION VALUE
ELEV_TYPE   .                                                DF :ELEVATION REFERENCE TYPE
~Curve Information Section
#MNEM       .UNIT                                      API CODE :CURVE DESCRIPTION
#------------------------------------------------------------------------------
DEPT        .FT                                                 :DEPTH     
ASN         .OHMM                                               :          
CALI        .IN                                                 :          
DT          .US/F                                               :          
ILD         .OHMM                                               :          
SP          .MV                                                 :          
SP_NORM     .MV                                                 :SP Normalized
VSH_SP      .V/V                                                :Volume of Shale from SP
~A        DEPTH            ASN           CALI             DT            ILD             SP        SP_NORM         VSH_SP
# ...
      4680.0000         0.5898        10.1409       112.0872         0.2888      -112.0812      -65.11435     0.07080653
      4680.5000         0.4862        10.1525       114.2831         0.2865      -106.9369      -59.97802      0.1452461
      4681.0000         0.4733         10.158       117.0022         0.2842      -101.3497      -54.39878      0.2261046
      4681.5000         0.5398        10.1167       117.7671         0.2824       -90.9819      -44.03895      0.3762471
      4682.0000         0.6035        10.0601       117.5181         0.2831       -92.9021      -45.96711      0.3483027
      4682.5000         0.6527        10.0566       115.7218         0.2838      -101.3596      -54.43258      0.2256148
      4683.0000          0.702        10.0755       113.2711         0.2845      -107.3378      -60.41874      0.1388588
      4683.5000         0.7478        10.0982       112.3746         0.2852      -111.6011         -64.69     0.07695649
      4684.0000         0.7741        10.1205       112.4806         0.2859      -112.6071      -65.70398     0.06226117
      4684.5000         0.7484        10.1289       112.7286         0.2866      -112.2166      -65.32144     0.06780519
      4685.0000         0.7185        10.1362       112.9833         0.2874      -111.4904      -64.60321     0.07821434
      4685.5000         0.6555        10.1379       113.3131         0.2883       -110.745      -63.86577     0.08890186
      4686.0000         0.5894        10.1463       113.6886         0.2892      -110.0243      -63.15303     0.09923138
      4686.5000         0.5249         10.164       114.0347         0.2901      -109.0587       -62.1954      0.1131101
      4687.0000         0.4777        10.1812        114.192          0.291      -106.4023      -59.54696      0.1514933
      4687.5000         0.4936        10.2051       113.7023         0.2919      -102.7156      -55.86823      0.2048083
      4688.0000         0.5094        10.2358       112.9952         0.3003      -101.3361      -54.49669      0.2246856
      4688.5000         0.5253        10.2736       112.2598         0.3094      -101.5847      -54.75326      0.2209672
      4689.0000         0.5397        10.3182        111.661         0.3186       -97.6826      -50.85913       0.277404
      4689.5000         0.5528        10.3615       111.4635         0.3278       -93.7236      -46.90809      0.3346653
      4690.0000         0.5658        10.3975        112.441         0.3371       -89.4281      -42.62056      0.3968035
      4690.5000         0.5788        10.4255       114.9609         0.3557       -84.2961      -37.49652       0.471065
      4691.0000         0.5919         10.437       116.4443         0.3742        -77.833      -31.04139      0.5646176
      4691.5000         0.6049        10.3895       115.4324         0.3928       -71.5927      -24.80905      0.6549413
      4692.0000          0.616        10.3306        113.474         0.4114         -71.36      -24.58432      0.6581982
      4692.5000          0.623        10.2569       107.3639           0.43       -78.1992      -31.43149       0.558964
      4693.0000         0.6301        10.1862       102.3114         0.4515       -84.6565      -37.89675      0.4652645
      4693.5000         0.6272        10.1425       102.7927         0.4766        -85.328      -38.57622      0.4554171
      4694.0000         0.6242        10.1075       103.4998         0.5018        -89.141      -42.39718      0.4000409
      4694.5000         0.6212          10.08       108.1061         0.5341       -97.4525      -50.71664      0.2794689
      4695.0000         0.6149        10.0909       110.5482          0.573        -99.085      -52.35711      0.2556941
      4695.5000         0.6044        10.1226       111.0393         0.5246       -96.4578      -49.73788       0.293654
      4696.0000         0.5939        10.1364       111.5521          0.462       -93.7941      -47.08214      0.3321429
      4696.5000         0.5834        10.1344       112.2906          0.404        -93.204      -46.50001      0.3405796
      4697.0000         0.5729        10.1211       112.8557         0.3737       -98.3903      -51.69427      0.2653005
      4697.5000         0.5623         10.107       113.3286          0.374      -102.6908      -56.00274      0.2028589
      4698.0000         0.5783        10.0955       113.9874         0.3743      -103.4023       -56.7222      0.1924319
      4698.5000         0.6052         10.112       114.9857         0.3746      -100.6123      -53.94016      0.2327513
      4699.0000         0.6383        10.1197       115.9619          0.375       -95.1143      -48.45013      0.3123169
      4699.5000         0.6714        10.0644       115.7472         0.3709       -92.9071      -46.25089        0.34419
      4700.0000         0.6981         10.057       114.7507         0.3643       -99.1178      -52.46956      0.2540644
      4700.5000         0.7054        10.0831       113.0138         0.3577      -105.4053      -58.76502      0.1628258
      4701.0000          0.685        10.0972       112.4951         0.3512      -107.4578      -60.82549      0.1329639
      4701.5000         0.6646         10.108       112.1608         0.3401      -108.8038      -62.17946      0.1133412
      4702.0000         0.6441        10.1196       111.8256         0.2931      -109.7242      -63.10782     0.09988669
      4702.5000         0.6237        10.1314       111.8768         0.2461      -109.4812      -62.87279      0.1032929
      4703.0000         0.5988        10.1451       112.3011          0.244      -107.2932      -60.69275      0.1348877
      4703.5000         0.5577         10.205       113.0564         0.2653      -102.2701      -55.67762      0.2075707
      4704.0000         0.5166        10.3671       114.3734         0.2866       -92.5557      -45.97118      0.3482437
      4704.5000         0.4769         10.538       115.9791         0.3084       -74.0275      -27.45094       0.616653
      4705.0000          0.475        10.4701       117.4711         0.3304       -61.7211      -15.15251      0.7948911
      4705.5000         0.5174        10.2696       117.8524         0.3524       -65.6145      -19.05388      0.7383496
      4706.0000         0.5554        10.2122       117.6736         0.3744       -76.3236      -29.77094      0.5830298
      4706.5000         0.5715        10.2432       117.8651         0.3964       -85.9491       -39.4044      0.4434144
      4707.0000         0.5875        10.1982        118.436         0.4184       -87.1776      -40.64087      0.4254946
      4707.5000         0.5984        10.1858       118.1156         0.4404       -89.9922      -43.46344      0.3845878
      4708.0000         0.6068        10.2472       115.7343         0.4375       -94.2161       -47.6953      0.3232565
      4708.5000         0.6255        10.3132       111.5156         0.4323       -92.7512      -46.23837      0.3443715
      4709.0000         0.6528         10.397       103.1775         0.4271       -90.6954      -44.19053      0.3740503
      4709.5000         0.6802        10.5077        96.4574         0.4219       -90.5663       -44.0694      0.3758059
      4710.0000         0.7023        10.5954        95.5233         0.4168       -84.7019      -38.21296      0.4606817
      4710.5000         0.7136        10.6504         97.838         0.4307       -79.2979      -32.81693      0.5388851
      4711.0000         0.6849        10.7549       102.6232         0.4463       -72.4612      -25.98819      0.6378523
      4711.5000         0.6462        10.8945        115.415         0.4618       -66.8765      -20.41146      0.7186745
      4712.0000         0.6114        10.9816       118.7101         0.4859       -59.7452      -13.28812      0.8219112
      4712.5000         0.6439        10.9685       119.3639         0.5392       -45.3864       1.062714              1
      4713.0000         0.7066        10.9587       118.4645         0.5925       -42.7357       3.705448              1
