#------------------------------------------------------------------------------
# Created by    : vladimir.rabinovich
# Created on    : 09/19/2023 17:19:56
#------------------------------------------------------------------------------
~Version Information Section
VERS.           2.0     :   CWLS log ASCII Standard - VERSION 2.0
WRAP.           NO      :   One line per depth step
~Well Information Section
#MNEM       .UNIT                                         VALUE :DESCRIPTION
#------------------------------------------------------------------------------
STRT        .FT                                            3966 :START DEPTH
STOP        .FT                                           12200 :STOP DEPTH
STEP        .FT                                             0.5 :STEP      
NULL        .                                           -999.25 :NULL      
COMP        .                       HOUSTON OIL & MINERALS CORP :COMPANY   
WELL        .                                ST TR 00526-L SW/4 :WELL      
FLD         .                                           CAVALLO :FIELD     
LOC         .                                                   :LOCATION  
CNTY        .                      MATAGORDA ISLAND LARGE BLOCK :LOCATION  
STAT        .                                             TEXAS :STATE     
CTRY        .                                     UNITED STATES :COUNTRY   
SRVC        .                                                   :SERVICE COMPANY
DATE        .                             9/13/2023 11:19:05 AM :LOG DATE  
API         .                                    42703302090000 :API NUMBER
UWI         .                                    42703302090000 :UNIQUE WELL ID
XCOORD      .                                  601997.830501628 :SURFACE X 
YCOORD      .                                  10286578.1750905 :SURFACE Y 
LAT         .                                        28.3077871 :LATITUDE  
LON         .                                       -96.2273179 :LONGITUDE 
ELEV        .FT                                             113 :ELEVATION VALUE
ELEV_TYPE   .                                                KB :ELEVATION REFERENCE TYPE
~Curve Information Section
#MNEM       .UNIT                                      API CODE :CURVE DESCRIPTION
#------------------------------------------------------------------------------
DEPT        .FT                                                 :DEPTH     
ASFL        .OHMM                                               :          
CILD        .MMHO                                               :          
ILD         .OHMM                                               :          
SP          .MV                                                 :          
SP_NORM     .MV                                                 :SP Normalized
VSH_SP      .V/V                                                :Volume of Shale from SP
~A        DEPTH           ASFL           CILD            ILD             SP        SP_NORM         VSH_SP
# ...
      6702.0000         1.5474           1720         0.6667      -122.9706      -66.26701      0.1180133
      6702.5000         1.5474           1608         0.7255      -121.7824      -65.07478      0.1341247
      6703.0000         1.7625           1496         0.7647      -120.8912      -64.17953      0.1462225
      6703.5000         1.9785           1400         0.8235         -119.7      -62.98429      0.1623745
      6704.0000         2.0199           1296         0.8235         -118.5      -61.78025      0.1786453
      6704.5000         2.0598        1149.02         0.8431         -117.6      -60.87621      0.1908621
      6705.0000         2.1952       1093.098         0.8431         -116.6      -59.87217      0.2044302
      6705.5000         2.3546       1085.177         0.8627         -115.5      -58.76812      0.2193497
      6706.0000           2.51       1081.177         0.8627         -114.3      -57.56409      0.2356205
      6706.5000         2.5697       1081.177         0.8824         -113.4      -56.66004      0.2478373
      6707.0000         2.4502       1081.177         0.8824         -112.2        -55.456      0.2641082
      6707.5000         2.3147       1085.098         0.8824           -110      -53.25196      0.2938925
      6708.0000         2.0797        1093.02         0.8824        -108.45      -51.69791      0.3148931
      6708.5000         1.9857       1108.784         0.8824         -107.4      -50.64388      0.3291368
      6709.0000         1.8606       1132.549         0.8627        -106.05      -49.28984      0.3474346
      6709.5000          1.808       1152.392         0.8431         -105.3       -48.5358      0.3576244
      6710.0000         1.7641       1176.235         0.8235         -105.3      -48.53175       0.357679
      6710.5000         1.7124           1208         0.8039           -105      -48.22771      0.3617877
      6711.0000         1.6598           1232         0.7843      -104.7029      -47.92657      0.3658572
      6711.5000         1.6598           1264         0.7647      -104.7029      -47.92253      0.3659118
      6712.0000         1.6598           1296         0.7451      -104.7029      -47.91849      0.3659664
      6712.5000         1.6637           1328         0.7255      -104.7029      -47.91445       0.366021
      6713.0000         1.6717           1352         0.7059      -104.7029       -47.9104      0.3660756
      6713.5000         1.6916           1384         0.6863      -104.7029      -47.90636      0.3661302
      6714.0000         1.7124           1416         0.6667      -104.7029      -47.90232      0.3661849
      6714.5000         1.7124           1448         0.6471      -104.7029      -47.89828      0.3662395
      6715.0000         1.7163           1472         0.6275      -104.7029      -47.89424      0.3662941
      6715.5000         1.7163           1504         0.6078           -105      -48.18729      0.3623339
      6716.0000         1.7084           1536         0.5686        -105.15      -48.33326      0.3603614
      6716.5000         1.6717           1568          0.549         -105.3      -48.47921       0.358389
      6717.0000         1.6319           1568         0.5098        -105.45      -48.62517      0.3564166
      6717.5000          1.596           1568         0.4902         -105.6      -48.77113      0.3544442
      6718.0000          1.557           1576         0.4902        -105.75      -48.91709      0.3524718
      6718.5000         1.5179           1568         0.4902         -105.9      -49.06305      0.3504994
      6719.0000         1.5251           1520          0.549        -106.05      -49.20901      0.3485269
      6719.5000         1.6319           1464         0.6078         -106.2      -49.35496      0.3465546
      6720.0000         1.7442           1416         0.6863         -106.2      -49.35092      0.3466092
      6720.5000         1.8518           1360         0.7451        -106.35      -49.49688      0.3446368
      6721.0000         1.9641           1312         0.8039         -106.5      -49.64284      0.3426644
      6721.5000         2.0319           1256         0.8824         -106.5      -49.63879       0.342719
      6722.0000         2.0996       1176.471         0.9412         -106.5      -49.63475      0.3427736
      6722.5000         2.1195        1125.02              1        -106.35      -49.48071      0.3448552
      6723.0000         2.1753        1073.49           1.08        -106.05      -49.17667      0.3489639
      6723.5000          2.255       1022.039           1.08        -105.75      -48.87263      0.3530726
      6724.0000         2.2749       998.0392           1.08         -105.6      -48.71859      0.3551542
      6724.5000         2.2948       998.0392           1.06        -105.45      -48.56454      0.3572359
      6725.0000         2.3347       942.5883           1.04         -105.3      -48.41051      0.3593175
      6725.5000         2.3546       942.5883           1.02           -105      -48.10646      0.3634261
      6726.0000         2.3904       942.5883              1      -104.4059      -47.50832      0.3715092
      6726.5000           2.51       942.5883         0.9608      -104.1088      -47.20718      0.3755786
      6727.0000         2.6853       1005.176         0.8824      -103.5147      -46.60904      0.3836616
      6727.5000         2.8247       1053.255         0.8627      -103.2176       -46.3079      0.3877311
      6728.0000         2.8247       1088.941         0.8431      -102.9206      -46.00686      0.3917992
      6728.5000         2.4303       1124.549         0.8235      -102.0294      -45.11162       0.403897
      6729.0000         2.1992       1148.471         0.8039      -101.4353      -44.51348        0.41198
      6729.5000         1.9474       1156.392         0.8039      -100.2471      -43.32123      0.4280915
      6730.0000         1.7402           1168         0.8039       -99.3559      -42.42599      0.4401893
      6730.5000         1.6239       1140.784         0.8235       -98.1676      -41.23365       0.456302
      6731.0000          1.506       1101.177         0.8627       -97.0588      -40.12081      0.4713404
      6731.5000         1.7402       1061.569         0.9216       -95.5882      -38.64617       0.491268
      6732.0000         2.0199       1018.039         0.9804       -94.4118      -37.46572        0.50722
      6732.5000         2.4701       998.0392           1.02       -92.9412      -35.99108      0.5271475
      6733.0000         2.9004       998.0392           1.08       -91.7647      -34.81054      0.5431008
      6733.5000         2.4701       958.4314           1.14          -89.1       -32.1418      0.5791649
      6734.0000         2.2231       918.8235            1.2            -87      -30.03776      0.6075979
      6734.5000         1.9578       871.2941            1.2          -86.7      -29.73372      0.6117066
      6735.0000         1.8159       871.2941            1.2          -86.4      -29.42968      0.6158152
      6735.5000         1.7402       863.3726            1.2          -86.4      -29.42564      0.6158698
      6736.0000         1.7482       863.3726            1.2          -86.4      -29.42159      0.6159244
      6736.5000         1.8637       871.2941           1.16          -86.7      -29.71755       0.611925
      6737.0000         2.3028       918.8235            1.1          -87.3      -30.31351      0.6038715
      6737.5000         3.0797       1015.634           1.06          -87.9      -30.90947       0.595818
      6738.0000         3.0598       1088.863           1.02          -88.8      -31.80543      0.5837104
      6738.5000         2.5498       1140.314         0.9804          -89.7      -32.70138      0.5716029
      6739.0000          1.992       1180.078         0.9412            -90      -32.99734      0.5676035
      6739.5000         1.9235           1216          0.902       -90.5882       -33.5815      0.5597094
