#------------------------------------------------------------------------------
# Created by    : vladimir.rabinovich
# Created on    : 09/19/2023 17:22:39
#------------------------------------------------------------------------------
~Version Information Section
VERS.           2.0     :   CWLS log ASCII Standard - VERSION 2.0
WRAP.           NO      :   One line per depth step
~Well Information Section
#MNEM       .UNIT                                         VALUE :DESCRIPTION
#------------------------------------------------------------------------------
STRT        .FT                                            3496 :START DEPTH
STOP        .FT                                          7091.5 :STOP DEPTH
STEP        .FT                                             0.5 :STEP      
NULL        .                                           -999.25 :NULL      
COMP        .                          SEAGULL ENERGY E & P INC :COMPANY   
WELL        .                               OCS G07251 ST00BP00 :WELL      
FLD         .                              GALVESTON BLOCK 0349 :FIELD     
LOC         .                                                   :LOCATION  
CNTY        .                             GALVESTON LARGE BLOCK :LOCATION  
STAT        .                                             TEXAS :STATE     
CTRY        .                                     UNITED STATES :COUNTRY   
SRVC        .                                                   :SERVICE COMPANY
DATE        .                             9/13/2023 11:19:36 AM :LOG DATE  
API         .                                    42706402300000 :API NUMBER
UWI         .                                    42706402300000 :UNIQUE WELL ID
XCOORD      .                                  1015542.86720011 :SURFACE X 
YCOORD      .                                  10434819.2372955 :SURFACE Y 
LAT         .                                         28.739771 :LATITUDE  
LON         .                                        -94.950355 :LONGITUDE 
ELEV        .FT                                              93 :ELEVATION VALUE
ELEV_TYPE   .                                                KB :ELEVATION REFERENCE TYPE
~Curve Information Section
#MNEM       .UNIT                                      API CODE :CURVE DESCRIPTION
#------------------------------------------------------------------------------
DEPT        .FT                                                 :DEPTH     
DCAL        .IN                                                 :          
DPHI        .%                                                  :          
DRHO        .G/C3                                               :          
GR          .GAPI                                               :          
GR_NORM     .GAPI                                               :GammaRay Normalized
ILD         .OHMM                                               :          
ILM         .OHMM                                               :          
NPHI        .%                                                  :          
SGRD        .OHMM                                               :          
SP          .MV                                                 :          
SP_NORM     .MV                                                 :SP Normalized
VSH_GR      .V/V                                                :Volume of Shale from GR
VSH_SP      .V/V                                                :Volume of Shale from SP
~A        DEPTH           DCAL           DPHI           DRHO             GR        GR_NORM            ILD            ILM           NPHI           SGRD             SP        SP_NORM         VSH_GR         VSH_SP
# ...
      5643.0000         0.3108        22.5158         0.0074        66.2719       72.55965         0.7697         0.7849        38.8099         0.8731       -52.6099       -3.63031      0.8416948      0.9441491
      5643.5000         0.3251        21.7217         0.0098        69.6506       77.10564         0.7704          0.792        38.1667         0.8756       -52.3529       -3.37331       0.938418       0.948103
      5644.0000         0.3366        21.3568         0.0089        69.1179       76.39571         0.7688         0.7904        37.7837         0.8798       -52.0856       -3.10601      0.9233129      0.9522152
      5644.5000         0.3459        21.3943         0.0082        67.9506         74.833         0.7555         0.7811        37.8665         0.8759       -51.7539      -2.774307      0.8900638      0.9573184
      5645.0000          0.368        21.3114          0.009        68.6453       75.77237         0.7385         0.7722        38.2515          0.859       -51.5043      -2.524708      0.9100504      0.9611583
      5645.5000         0.3982         21.438         0.0098        69.1383       76.44069         0.7136         0.7585        38.7709          0.838       -51.2206      -2.241009        0.92427      0.9655229
      5646.0000         0.3864        21.9259         0.0114        68.6553       75.79752          0.689         0.7368        39.3961         0.8303       -50.9002      -1.920609      0.9105855      0.9704522
      5646.5000         0.3235        22.3151         0.0117        69.2098        76.5485         0.6746         0.7157         40.194         0.8236       -50.7574      -1.777809      0.9265639      0.9726491
      5647.0000         0.2687          22.54           0.01        68.1538       75.13536         0.6731         0.7059        41.1142         0.8124       -50.8217       -1.84211       0.896497      0.9716598
      5647.5000         0.2985        22.3629         0.0081        67.0453       73.65166         0.6764         0.7065        41.5439         0.8012       -51.1224      -2.142807       0.864929      0.9670337
      5648.0000          0.324        22.3056         0.0064        67.1901       73.85211         0.6802           0.71        40.7404          0.796       -51.5936       -2.61401      0.8691939      0.9597844
      5648.5000         0.3383        22.7737         0.0051        67.2991       74.00445         0.6918         0.7188        39.4487         0.8035       -51.9321      -2.952507       0.872435      0.9545768
      5649.0000         0.3301        22.7423         0.0049        67.6096       74.42753         0.7053          0.729        38.7593         0.8143       -52.0019      -3.022308      0.8814368       0.953503
      5649.5000         0.3535        22.7439         0.0049        67.4626       74.23586         0.7169         0.7422        38.7219         0.8236       -51.9221      -2.942509      0.8773586      0.9547306
      5650.0000         0.3671        22.8665         0.0071        67.1212       73.78297         0.7286         0.7551        39.0538         0.8302       -51.8587      -2.879108      0.8677227       0.955706
      5650.5000         0.3542        22.6915         0.0094        66.4857       72.93488         0.7414         0.7668        39.5208         0.8377       -51.8511       -2.87151      0.8496783      0.9558229
      5651.0000         0.3899        21.8914         0.0098        65.0764         71.047         0.7491         0.7776        39.4528         0.8465       -51.7255      -2.745907      0.8095106      0.9577553
      5651.5000         0.4187        21.2436         0.0106        65.2925       71.34324         0.7508         0.7833        39.1331         0.8567       -51.5128      -2.533207      0.8158136      0.9610276
      5652.0000         0.4517        20.9096         0.0096        65.5851       71.74229         0.7518         0.7841        38.8137         0.8692       -51.2581      -2.278507       0.824304       0.964946
      5652.5000         0.4676        20.7629         0.0071         66.512       72.99368         0.7488         0.7819         38.603         0.8749       -51.0965      -2.116909      0.8509294      0.9674321
      5653.0000         0.4689        20.8939         0.0053        66.8246       73.41959         0.7393         0.7772         38.564         0.8596       -51.1766       -2.19701      0.8599912      0.9661999
      5653.5000         0.4507        21.4748         0.0048        68.3026       75.41151         0.7353         0.7666         38.915         0.8369       -51.1931      -2.213509      0.9023727       0.965946
      5654.0000         0.4327        21.5659         0.0042        72.7192       81.35217         0.7244         0.7598         39.559         0.8291       -51.3456      -2.366009              1      0.9635999
      5654.5000         0.3856        21.5427         0.0049        75.4478        85.0246         0.7078         0.7549        40.0465         0.8238       -51.5051      -2.525509              1       0.961146
      5655.0000         0.3447           21.8         0.0057        76.6663       86.66782         0.6966         0.7492        40.2668         0.8216       -51.6023      -2.622707              1      0.9596506
      5655.5000         0.3232        21.9672         0.0046        76.4812       86.42496           0.69         0.7423        40.3875         0.8181       -51.6375      -2.657909              1      0.9591091
      5656.0000          0.304        21.8601         0.0017        73.9197        82.9888         0.6871         0.7369        40.3929          0.817       -51.9087      -2.929108              1      0.9549368
      5656.5000         0.2788        21.7401        -0.0013        69.7144        77.3438         0.6869         0.7321        40.2839         0.8234       -52.7837      -3.804108       0.943485      0.9414753
      5657.0000         0.2591        21.7075        -0.0003        70.1433       77.92599         0.6868         0.7286        40.1221         0.8338       -53.7003      -4.720707      0.9558721      0.9273738
      5657.5000         0.2401        21.8949         0.0011        71.4238       79.65252         0.6857         0.7294        39.9948         0.8394       -54.5018      -5.522209      0.9926068      0.9150429
      5658.0000         0.2134        22.5616         0.0027        72.4204       80.99756         0.6871         0.7319        40.0022         0.8346       -55.0764      -6.096809              1      0.9062029
      5658.5000         0.1382        22.8761         0.0028          74.75       84.13383         0.6968         0.7354        40.2261         0.8255        -55.696      -6.716408              1      0.8966706
      5659.0000         0.0364        22.8885         0.0033        74.9575        84.4185         0.7093         0.7403        40.4738         0.8097       -56.2628      -7.283207              1      0.8879507
      5659.5000         0.0509        23.5103        -0.0007        73.1332       81.97298         0.7228         0.7501        40.6546         0.8026       -56.6436      -7.664009              1      0.8820922
      5660.0000         0.1126        24.6917        -0.0146        71.7427       80.11036          0.739         0.7592         40.713         0.8237       -56.8683       -7.88871              1      0.8786352
      5660.5000         0.1628        24.2669        -0.0188        69.4606       77.04964          0.754         0.7676        40.6851          0.854       -56.8748       -7.89521      0.9372263      0.8785352
      5661.0000         0.2322        23.2919        -0.0085        68.1794       75.33388         0.7707         0.7777        40.0994         0.8829       -56.3187      -7.339108      0.9007208      0.8870907
      5661.5000          0.292        22.6787        -0.0072        70.2034        78.0595         0.7889         0.7899        38.8685         0.9005       -55.2008       -6.22121      0.9587128      0.9042891
