#------------------------------------------------------------------------------
# Created by    : vladimir.rabinovich
# Created on    : 09/19/2023 17:21:33
#------------------------------------------------------------------------------
~Version Information Section
VERS.           2.0     :   CWLS log ASCII Standard - VERSION 2.0
WRAP.           NO      :   One line per depth step
~Well Information Section
#MNEM       .UNIT                                         VALUE :DESCRIPTION
#------------------------------------------------------------------------------
STRT        .FT                                            3683 :START DEPTH
STOP        .FT                                            9328 :STOP DEPTH
STEP        .FT                                             0.5 :STEP      
NULL        .                                           -999.25 :NULL      
COMP        .                                SHELL OFFSHORE INC :COMPANY   
WELL        .                               OCS G11316 ST00BP00 :WELL      
FLD         .                                           WILDCAT :FIELD     
LOC         .                                                   :LOCATION  
CNTY        .                             GALVESTON LARGE BLOCK :LOCATION  
STAT        .                                             TEXAS :STATE     
CTRY        .                                     UNITED STATES :COUNTRY   
SRVC        .                                                   :SERVICE COMPANY
DATE        .                             9/13/2023 11:19:34 AM :LOG DATE  
API         .                                    42706402670000 :API NUMBER
UWI         .                                    42706402670000 :UNIQUE WELL ID
XCOORD      .                                  1097534.45360284 :SURFACE X 
YCOORD      .                                  10461685.9172371 :SURFACE Y 
LAT         .                                         28.817107 :LATITUDE  
LON         .                                        -94.695737 :LONGITUDE 
ELEV        .FT                                              91 :ELEVATION VALUE
ELEV_TYPE   .                                                KB :ELEVATION REFERENCE TYPE
~Curve Information Section
#MNEM       .UNIT                                      API CODE :CURVE DESCRIPTION
#------------------------------------------------------------------------------
DEPT        .FT                                                 :DEPTH     
CALI        .IN                                                 :          
CALI_1      .IN                                                 :          
CILD        .MMHO                                               :          
DRHO        .G/C3                                               :          
DT          .US/F                                               :          
GR          .GAPI                                               :          
GR_1        .GAPI                                               :          
GR_NORM     .GAPI                                               :GammaRay Normalized
ILD         .OHMM                                               :          
ILM         .OHMM                                               :          
NPHI        .%                                                  :          
RHOB        .G/C3                                               :          
SFL         .OHMM                                               :          
SP          .MV                                                 :          
SP_NORM     .MV                                                 :SP Normalized
VSH_GR      .V/V                                                :Volume of Shale from GR
VSH_SP      .V/V                                                :Volume of Shale from SP
~A        DEPTH           CALI         CALI_1           CILD           DRHO             DT             GR           GR_1        GR_NORM            ILD            ILM           NPHI           RHOB            SFL             SP        SP_NORM         VSH_GR         VSH_SP
# ...
      4673.0000        15.6035        15.6047       970.3193          0.032       123.2734        68.8098        68.8372       73.55261          1.001         0.8726        36.3478         2.2859         1.0882       -31.4992      -11.27343      0.8628215      0.8389511
      4673.5000        15.6187        15.6299       1116.318         0.0289       121.9497        70.9054        71.8379       78.26086         0.9944         0.8139        38.0188         2.2859         1.0122       -30.8631      -10.46384      0.9629971      0.8505166
      4674.0000        15.6627        15.6809       1259.717         0.0274       121.0602        73.0195        72.8334       79.83596         0.8119         0.6999        40.9832         2.2843         0.9353       -30.2733      -9.713187      0.9965098      0.8612402
      4674.5000        15.7069        15.7363        1325.27         0.0305       123.7593        73.9458        73.2738       80.54373         0.7381         0.6539        44.6357         2.2871         0.8791       -29.7032      -8.987605              1      0.8716056
      4675.0000        15.7505        15.7896       1281.408         0.0355       125.7518        74.1134        73.6984       81.22681         0.7576         0.6694        46.5966         2.2925           0.86        -29.317      -8.496078              1      0.8786275
      4675.5000        15.8171         15.854       1198.471         0.0435       126.9014         74.301         73.921       81.59425         0.8062         0.7315        47.6967          2.298         0.8785       -29.7152      -9.002879              1      0.8713874
      4676.0000        15.9132        15.9241       1170.301         0.0491       127.4001        74.4677        73.9019       81.58405         0.8102         0.7244        47.6201         2.2998         0.9017       -29.8559      -9.174624              1      0.8689339
      4676.5000        15.9944        15.9823        1252.65         0.0447       127.3848        74.4803        73.4081       80.83212         0.7862         0.6838         46.804         2.2904         0.9148        -29.956      -9.291886              1      0.8672588
      4677.0000        16.0308        16.0091       1319.295         0.0336       127.1799        72.0986        70.8854       76.91005         0.7838         0.6606         45.944          2.277         0.9249       -30.0294      -9.375171      0.9342564       0.866069
      4677.5000        16.0344        16.0093       1223.893         0.0219       126.8694        69.6554        67.7451       72.02297         0.8237         0.7008        44.8848         2.2648         0.9456       -30.0962      -9.450055       0.830276      0.8649992
      4678.0000        16.0517        16.0095       1132.906         0.0172       126.8943        67.7177        66.4146        69.9637         0.8664         0.7879        43.2785         2.2544          0.962       -30.1123      -9.460411      0.7864617      0.8648513
      4678.5000        16.0669         15.997       1219.867         0.0135       127.2115        66.6014        65.4479       68.47286         0.8098         0.6968        41.3756         2.2478         0.9185       -30.0739      -9.401402      0.7547417      0.8656942
      4679.0000         16.032        15.9544       1291.223         0.0112       127.5394        66.1703        65.6931       68.87564         0.7818         0.6584        40.1625         2.2439         0.8853       -29.3703      -8.495776      0.7633115      0.8786318
      4679.5000        15.9631        15.9036       1303.504         0.0104       128.4785        67.1925        67.4771       71.68277         0.7653         0.6515        39.3839         2.2412         0.8794       -28.4772      -7.348969      0.8230377      0.8950148
      4680.0000        15.9047        15.8733       1279.789         0.0112       129.6177        69.6135        69.5093       74.87773         0.7539         0.6505        39.7701         2.2401         0.8604       -27.8165      -6.497942      0.8910156      0.9071723
      4680.5000        15.8831        15.8572       1291.666         0.0133        130.574        72.8801         73.035       80.40627         0.7513         0.6545        42.9157         2.2401         0.8294       -27.7404      -6.390954              1      0.9087006
      4681.0000        15.8709        15.8563       1331.514         0.0159       131.3481         75.459        76.3409       85.59137          0.761         0.6568        44.5451         2.2407          0.837       -28.3225      -7.121673              1      0.8982618
      4681.5000         15.857        15.8741       1261.336         0.0183       131.7644         78.012        77.7653       87.83664         0.7787         0.6653        45.8652         2.2436         0.8719       -28.9013      -7.848193              1      0.8878829
      4682.0000        15.8922        15.8945       1240.283         0.0217       131.8425        77.7001        76.9437       86.57253         0.7918         0.7096        46.5817         2.2484          0.875       -29.1294      -8.128366              1      0.8838805
      4682.5000        15.9512        15.9137       1361.941          0.025       132.1038        74.2213        73.1635       80.68561         0.7333         0.6088        42.9573         2.2534         0.8477       -29.1188      -8.104739              1       0.884218
      4683.0000        15.9881        15.9382       1426.133         0.0262       132.2878        69.8674        69.2634       74.61134         0.7096         0.6171        40.7245         2.2585         0.8508       -29.3897      -8.439387      0.8853477      0.8794373
      4683.5000        16.0031        15.9837       1363.561         0.0244       132.2622        68.2096        67.8588        72.4363         0.7385         0.6301        39.3263         2.2621         0.9014       -29.7984      -8.949417      0.8390703      0.8721512
      4684.0000        16.0317        16.0032       1281.359         0.0218       131.7764        68.2542        68.3949       73.29358          0.782         0.6502        40.6977         2.2628         0.9322       -29.6656      -8.770263      0.8573102      0.8747106
      4684.5000        16.0795        16.0514        1289.85         0.0216       131.2581        70.5294        69.7019       75.35542         0.7678          0.663        43.8523         2.2615         0.8867       -28.9198      -7.810928      0.9011791      0.8884153
      4685.0000        16.1698        16.1609       1426.133         0.0241       131.1035        71.2043        70.0596       75.93396         0.7225         0.6246        45.9351         2.2598         0.8078       -28.7189      -7.545103      0.9134885      0.8922128
      4685.5000        16.3157        16.3516       1494.643         0.0256       132.4629        70.5208        69.4647       75.02407          0.682         0.5903        47.1132         2.2583         0.7767       -28.7722      -7.602803      0.8941292      0.8913885
      4686.0000        16.4787        16.5239       1475.355         0.0256       133.6296        69.7297        69.0748       74.43449         0.6791         0.5851        47.5897         2.2561         0.7784       -28.8075      -7.637597       0.881585      0.8908915
      4686.5000        16.6013        16.5648       1429.807         0.0262        134.291        69.3663        69.1331       74.54523         0.6976         0.5988        45.7879          2.251         0.7663       -28.5755      -7.332189       0.883941      0.8952544
      4687.0000        16.6202        16.5717       1461.025         0.0256       134.0598         69.902        69.7612       75.54626         0.7058         0.6124        44.3957         2.2448         0.7544       -28.0467      -6.649034      0.9052397      0.9050138
      4687.5000        16.5681        16.5337       1446.057         0.0218       133.5952        72.1011        72.0343       79.11765         0.7121         0.6232         43.254         2.2367         0.7633       -27.5989      -6.068973      0.9812265      0.9133004
