#------------------------------------------------------------------------------
# Created by    : vladimir.rabinovich
# Created on    : 09/19/2023 17:19:20
#------------------------------------------------------------------------------
~Version Information Section
VERS.           2.0     :   CWLS log ASCII Standard - VERSION 2.0
WRAP.           NO      :   One line per depth step
~Well Information Section
#MNEM       .UNIT                                         VALUE :DESCRIPTION
#------------------------------------------------------------------------------
STRT        .FT                                            4783 :START DEPTH
STOP        .FT                                            9473 :STOP DEPTH
STEP        .FT                                             0.5 :STEP      
NULL        .                                           -999.25 :NULL      
COMP        .                                   FOREST OIL CORP :COMPANY   
WELL        .                               OCS G20658 ST00BP00 :WELL      
FLD         .                            HIGH ISLAND BLOCK 0052 :FIELD     
LOC         .                                                   :LOCATION  
CNTY        .                           HIGH ISLAND LARGE BLOCK :LOCATION  
STAT        .                                             TEXAS :STATE     
CTRY        .                                     UNITED STATES :COUNTRY   
SRVC        .                                                   :SERVICE COMPANY
DATE        .                             9/13/2023 11:19:51 AM :LOG DATE  
API         .                                    42708405710000 :API NUMBER
UWI         .                                    42708405710000 :UNIQUE WELL ID
XCOORD      .                                  1254974.65209524 :SURFACE X 
YCOORD      .                                  10682885.5467737 :SURFACE Y 
LAT         .                                         29.430813 :LATITUDE  
LON         .                                        -94.211177 :LONGITUDE 
ELEV        .FT                                             108 :ELEVATION VALUE
ELEV_TYPE   .                                                KB :ELEVATION REFERENCE TYPE
~Curve Information Section
#MNEM       .UNIT                                      API CODE :CURVE DESCRIPTION
#------------------------------------------------------------------------------
DEPT        .FT                                                 :DEPTH     
A28H_COND   .MMHO                                               :          
A28H_UNC    .OHMM                                               :          
AHT10       .OHMM                                               :          
AHT20       .OHMM                                               :          
AHT30       .OHMM                                               :          
AHT60       .OHMM                                               :          
AHT90       .OHMM                                               :          
DCAL        .IN                                                 :          
DPHZ        .V/V                                                :          
DRHO        .G/CC                                               :          
DTCO        .US/F                                               :          
DTSM        .US/F                                               :          
GR          .GAPI                                               :          
GR_ARC_FIL  .GAPI                                               :          
GR_NORM     .GAPI                                               :GammaRay Normalized
GR1         .GAPI                                               :          
GRM1        .GAPI                                               :          
NPOR        .V/V                                                :          
P28H_UNC    .OHMM                                               :          
ROP5        .F/HR                                               :          
ROP5_RM     .F/HR                                               :          
SP          .MV                                                 :          
TENS        .LB                                                 :          
VSH_GR      .V/V                                                :Volume of Shale from GR
~A        DEPTH      A28H_COND       A28H_UNC          AHT10          AHT20          AHT30          AHT60          AHT90           DCAL           DPHZ           DRHO           DTCO           DTSM             GR     GR_ARC_FIL        GR_NORM            GR1           GRM1           NPOR       P28H_UNC           ROP5        ROP5_RM             SP           TENS         VSH_GR
# ...
      9007.0000        -999.25        -999.25         0.5159         0.5048         0.5019         0.4993         0.4931         1.5713         0.2436          -0.01       130.3668       353.6634         80.718        -999.25       82.57249           66.4         85.058         0.3876        -999.25         32.436        -999.25         1.7458           3080              1
      9007.5000        -999.25        -999.25         0.5233         0.5126         0.5101         0.5055         0.4987         1.6716         0.2478         -0.011       130.9704       355.0495        81.2753        -999.25        88.9775           66.4         90.182         0.3924        -999.25          33.26        -999.25         1.5066           3062              1
      9008.0000        -999.25        -999.25         0.5304         0.5199         0.5191         0.5157         0.5068         1.7372         0.2484          -0.01       131.5746       356.4356        81.0983        -999.25       87.69624             65         89.157         0.3948        -999.25         39.186        -999.25         1.2674           3044              1
      9008.5000        -999.25        -999.25         0.5206         0.5136         0.5115         0.5098         0.5031         1.7488         0.2472          -0.01       132.1795       359.4059        82.8244        -999.25       83.85375           63.5         86.083          0.399        -999.25         35.349        -999.25         0.6116           3026              1
      9009.0000        -999.25        -999.25         0.5082         0.4983         0.4978         0.4987         0.4913         1.7874         0.2442         -0.007       132.9847          362.2        82.0032        -999.25       83.85375           63.1         86.083          0.414        -999.25         30.857        -999.25         0.2266           3044              1
      9009.5000        -999.25        -999.25         0.4965         0.4883         0.4878         0.4891         0.4828         1.8491         0.2472         -0.004        133.391            365         82.721        -999.25        90.2575           63.1         91.206           0.42        -999.25         31.458        -999.25         0.3207           3044              1
      9010.0000        -999.25        -999.25         0.4904         0.4814         0.4815         0.4815         0.4765         1.9418          0.249         -0.006       133.3978          367.8        83.7912        -999.25       86.41501           64.8         88.132         0.4284        -999.25         29.219        -999.25         0.9565           3080              1
      9010.5000        -999.25        -999.25         0.4891           0.48         0.4801         0.4794         0.4756         1.9495          0.252         -0.006          133.8            369        85.0492        -999.25        88.9775           65.6         90.182         0.4368        -999.25         30.218        -999.25         1.5715           3098              1
      9011.0000        -999.25        -999.25         0.4899         0.4822         0.4814         0.4798         0.4765         1.9302         0.2526         -0.005            134          371.8        84.3597        -999.25       92.81999           67.4         93.256         0.4308        -999.25         28.119        -999.25         1.8532           3098              1
      9011.5000        -999.25        -999.25         0.4907         0.4835          0.483         0.4814         0.4783         1.9379         0.2514         -0.005          133.8          374.4        82.4195        -999.25       85.13375           69.1         87.107         0.4272        -999.25         28.189        -999.25         1.7598           3116              1
      9012.0000        -999.25        -999.25         0.4878         0.4821         0.4806         0.4783         0.4752         1.9649         0.2514         -0.005          133.6          376.2        78.2402        -999.25       81.29124           69.6         84.033         0.4254        -999.25         28.823        -999.25         1.5207           3152              1
      9012.5000        -999.25        -999.25         0.4856         0.4806         0.4786         0.4766         0.4732         1.9881         0.2478         -0.004          133.4          377.8        75.5486        -999.25       87.69624           69.3         89.157         0.4224        -999.25         28.699        -999.25         1.9065           3152              1
      9013.0000        -999.25        -999.25         0.4867         0.4819           0.48          0.478         0.4738         2.0035         0.2406         -0.003          133.2          378.2        71.5563        -999.25        88.9775           69.3         90.182         0.4242        -999.25         27.294        -999.25         2.3548           3152              1
      9013.5000        -999.25        -999.25         0.4871         0.4827         0.4811         0.4792         0.4743         2.0459         0.2346         -0.003          133.2            378        71.4259        -999.25       87.69624           67.4         89.157         0.4398        -999.25         26.699        -999.25         2.8032           3152              1
      9014.0000        -999.25        -999.25         0.4868         0.4828         0.4814         0.4804          0.474         2.1077         0.2346         -0.005            133          377.4        72.4902        -999.25       85.13375             64         87.107         0.4356        -999.25         28.084        -999.25         2.5223           3134              1
      9014.5000        -999.25        -999.25         0.4846         0.4801         0.4797         0.4793          0.471          2.154         0.2388         -0.008          133.4          376.6        75.2593        -999.25       92.81999           61.4         93.256         0.4296        -999.25         28.211        -999.25         2.1165           3098              1
      9015.0000        -999.25        -999.25         0.4814         0.4761         0.4757         0.4751         0.4699         2.1964         0.2418         -0.009          133.6            376         75.776        -999.25       83.85375           61.5         86.083         0.4302        -999.25         28.512        -999.25         1.7731           3098              1
      9015.5000        -999.25        -999.25         0.4785         0.4728         0.4722         0.4719         0.4677         2.2273          0.243         -0.009          133.6          375.2          74.16        -999.25       92.81999           64.3         93.256         0.4254        -999.25         27.394        -999.25         1.9714           3098              1
      9016.0000        -999.25        -999.25         0.4769          0.471         0.4705         0.4705         0.4674         2.2582          0.243         -0.008          133.6          374.8        73.6522        -999.25        90.2575           69.6         91.206         0.4194        -999.25         25.811        -999.25         2.2739           3098              1
      9016.5000        -999.25        -999.25         0.4767         0.4706         0.4701         0.4688         0.4656         2.2428         0.2418         -0.006          133.8          374.2        74.1985        -999.25       86.41501        74.6535         88.132         0.4182        -999.25         26.781        -999.25         2.3681           3098              1
      9017.0000        -999.25        -999.25         0.4754         0.4696         0.4681         0.4668         0.4652         2.2274         0.2412         -0.003            134            374        75.8598        -999.25       83.85375        75.3465         86.083         0.4182        -999.25         27.514        -999.25         2.1289           3116              1
      9017.5000        -999.25        -999.25         0.4739         0.4676         0.4656         0.4636         0.4628         2.2196           0.24         -0.006          134.2            375        77.2591        -999.25        90.2575           69.7         91.206         0.4105        -999.25         29.066        -999.25         1.8272           3116              1
