#------------------------------------------------------------------------------
# Created by    : vladimir.rabinovich
# Created on    : 09/19/2023 17:20:35
#------------------------------------------------------------------------------
~Version Information Section
VERS.           2.0     :   CWLS log ASCII Standard - VERSION 2.0
WRAP.           NO      :   One line per depth step
~Well Information Section
#MNEM       .UNIT                                         VALUE :DESCRIPTION
#------------------------------------------------------------------------------
STRT        .FT                                             504 :START DEPTH
STOP        .FT                                            9361 :STOP DEPTH
STEP        .FT                                             0.5 :STEP      
NULL        .                                           -999.25 :NULL      
COMP        .                                      SHELL OIL CO :COMPANY   
WELL        .                                OCS 00704 ST00BP00 :WELL      
FLD         .                                           WILDCAT :FIELD     
LOC         .                                                   :LOCATION  
CNTY        .                             GALVESTON LARGE BLOCK :LOCATION  
STAT        .                                             TEXAS :STATE     
CTRY        .                                     UNITED STATES :COUNTRY   
SRVC        .                                                   :SERVICE COMPANY
DATE        .                             9/13/2023 11:19:25 AM :LOG DATE  
API         .                                    42706000430000 :API NUMBER
UWI         .                                    42706000430000 :UNIQUE WELL ID
XCOORD      .                                  1136254.96267488 :SURFACE X 
YCOORD      .                                  10526383.5552877 :SURFACE Y 
LAT         .                                         28.996505 :LATITUDE  
LON         .                                        -94.577519 :LONGITUDE 
ELEV        .FT                                              42 :ELEVATION VALUE
ELEV_TYPE   .                                                KB :ELEVATION REFERENCE TYPE
~Curve Information Section
#MNEM       .UNIT                                      API CODE :CURVE DESCRIPTION
#------------------------------------------------------------------------------
DEPT        .FT                                                 :DEPTH     
ASN         .OHMM                                               :          
DT          .US/F                                               :          
LN          .OHMM                                               :          
SP          .MV                                                 :          
SP_NORM     .MV                                                 :SP Normalized
VSH_SP      .V/V                                                :Volume of Shale from SP
~A        DEPTH            ASN             DT             LN             SP        SP_NORM         VSH_SP
# ...
      6394.0000         1.0296        108.731        -999.25        -48.989      -2.312912      0.9547272
      6394.5000         1.0352       108.5879        -999.25       -49.5631      -2.890186      0.9348212
      6395.0000         1.0408       107.1301        -999.25       -50.5591      -3.889366      0.9003667
      6395.5000         1.0464       104.4254        -999.25       -51.6343      -4.967739      0.8631814
      6396.0000         1.0405       101.5593        -999.25       -52.6174      -5.954014       0.829172
      6396.5000         1.0285       101.6546        -999.25       -53.4508      -6.790592      0.8003244
      6397.0000         1.0152       104.7573        -999.25       -54.5767      -7.919662      0.7613909
      6397.5000         0.9894       105.5527        -999.25       -56.2053      -9.551437      0.7051228
      6398.0000         0.9635       105.2645        -999.25       -58.1129      -11.46222      0.6392339
      6398.5000         0.9351       101.4229        -999.25        -59.754      -13.10649      0.5825348
      6399.0000         0.9048       102.0049        -999.25       -61.1542      -14.50986      0.5341426
      6399.5000         0.8772       104.6731        -999.25       -62.8414      -16.20024      0.4758537
      6400.0000         0.8587       108.8179        -999.25       -64.1337      -17.49571      0.4311823
      6400.5000         0.8403       107.9147        -999.25       -65.3315      -18.69669      0.3897695
      6401.0000         0.8218       106.3915        -999.25       -66.3115      -19.67986      0.3558668
      6401.5000         0.8128       105.4386        -999.25       -66.4639      -19.83544      0.3505021
      6402.0000         0.8051       105.2782        -999.25       -66.3578      -19.73252      0.3540511
      6402.5000         0.7974       107.9636        -999.25       -66.2494      -19.62729      0.3576798
      6403.0000         0.7931       108.4516        -999.25       -65.6752      -19.05627      0.3773701
      6403.5000         0.7964       108.9557        -999.25       -65.1005      -18.48474      0.3970779
      6404.0000         0.7997       110.4342        -999.25       -64.5256      -17.91301      0.4167928
      6404.5000         0.8198        110.291        -999.25       -63.9515      -17.34209      0.4364796
      6405.0000         0.8413       109.8577        -999.25       -62.8942      -16.28796      0.4728288
      6405.5000         0.8628       105.4779        -999.25       -61.6109      -15.00784      0.5169711
      6406.0000         0.8827        100.859        -999.25       -60.3185      -13.71862       0.561427
      6406.5000          0.901         95.505        -999.25       -59.0184      -12.42169      0.6061487
      6407.0000         0.9192        94.7812        -999.25        -60.241      -13.64746      0.5638805
      6407.5000         0.9287        94.9519        -999.25       -61.0081      -14.41774      0.5373193
      6408.0000         0.9268        97.6452        -999.25       -61.2751      -14.68792      0.5280029
      6408.5000          0.925       104.1319        -999.25       -60.4119      -13.82789       0.557659
      6409.0000         0.9232       108.6786        -999.25       -58.4459      -11.86507      0.6253425
      6409.5000         0.9122       110.7439        -999.25       -56.5023      -9.924641      0.6922538
      6410.0000         0.8998       111.2108        -999.25       -54.8399      -8.265415      0.7494684
      6410.5000         0.8873       111.3274        -999.25       -55.4113      -8.839993      0.7296554
      6411.0000         0.8747       111.2465        -999.25       -58.6281      -12.05997      0.6186218
      6411.5000         0.8614       110.5283        -999.25        -60.354      -13.78904      0.5589986
      6412.0000         0.8482       108.7221        -999.25       -61.0196      -14.45782      0.5359374
      6412.5000         0.8349        109.412        -999.25       -60.7277      -14.16909      0.5458934
      6413.0000         0.8195       110.2612        -999.25       -60.4361      -13.88066      0.5558391
      6413.5000         0.8035       110.6126        -999.25       -60.1442      -13.59194      0.5657951
      6414.0000         0.7883       108.6565        -999.25       -59.8389      -13.28982      0.5762132
      6414.5000         0.7966       108.8885        -999.25       -59.3563      -12.81039      0.5927452
      6415.0000          0.811       108.9502        -999.25       -58.8733      -12.33057      0.6092908
      6415.5000         0.8265       108.7418        -999.25       -58.3907      -11.85114      0.6258227
      6416.0000         0.8421       107.8661        -999.25       -57.9077      -11.37132      0.6423684
      6416.5000         0.8576        105.692        -999.25       -57.5239      -10.99069      0.6554934
      6417.0000         0.8735       106.1294        -999.25       -57.7139      -11.18387      0.6488321
      6417.5000         0.8899       108.4616        -999.25        -57.904      -11.37714      0.6421676
      6418.0000         0.9064       110.6739        -999.25       -58.0941      -11.57042      0.6355028
      6418.5000         0.9228       110.9205        -999.25       -58.2046      -11.68409       0.631583
      6419.0000         0.9391       110.4145        -999.25       -58.2518      -11.73447       0.629846
      6419.5000         0.9455       106.2825        -999.25       -58.2991      -11.78494      0.6281054
      6420.0000         0.9325       105.9935        -999.25       -58.3463      -11.83532      0.6263684
      6420.5000         0.9187       109.6377        -999.25       -57.8087      -11.30089      0.6447968
      6421.0000          0.905       109.8397        -999.25       -57.1001      -10.59547      0.6691217
      6421.5000         0.9001       109.5511        -999.25       -56.4067      -9.905243      0.6929227
      6422.0000         0.8975       107.9261        -999.25       -56.2045      -9.706215      0.6997857
      6422.5000         0.8948       105.5652        -999.25       -56.0697      -9.574593      0.7043244
      6423.0000          0.888       105.6889        -999.25       -56.1416       -9.64967      0.7017356
      6423.5000         0.8812       106.7819        -999.25       -56.2136      -9.724842      0.6991434
      6424.0000         0.8739       113.9251        -999.25       -56.1755      -9.689919      0.7003477
      6424.5000         0.8597        115.288        -999.25        -55.826      -9.343594      0.7122899
      6425.0000         0.8455       115.4341        -999.25       -55.4765      -8.997269      0.7242321
      6425.5000         0.8313       108.6919        -999.25       -58.6843      -12.20824      0.6135088
      6426.0000         0.8119       108.1132        -999.25       -59.7866      -13.31372      0.5753891
      6426.5000         0.7921       110.3626        -999.25       -60.6082      -14.13849      0.5469486
      6427.0000         0.7709       109.8121        -999.25       -61.0233      -14.55677      0.5325252
      6427.5000         0.7475       109.1323        -999.25       -61.4382      -14.97485      0.5181088
      6428.0000         0.7234       109.6414        -999.25       -62.0968      -15.63662       0.495289
      6428.5000         0.6795       111.6365        -999.25       -63.7299       -17.2729      0.4388657
      6429.0000         0.6607       113.6259        -999.25       -64.8333      -18.37947       0.400708
      6429.5000         0.6472       114.3592        -999.25        -65.299      -18.84835      0.3845398
      6430.0000         0.6502       114.0213        -999.25       -64.5634      -18.11592      0.4097958
      6430.5000         0.6532       112.6726        -999.25       -63.8278       -17.3835      0.4350519
      6431.0000         0.6605       110.3021        -999.25       -62.5939      -16.15277      0.4774908
      6431.5000         0.6694       111.7271        -999.25       -60.6189      -14.18095      0.5454846
