#------------------------------------------------------------------------------
# Created by    : vladimir.rabinovich
# Created on    : 09/19/2023 17:20:04
#------------------------------------------------------------------------------
~Version Information Section
VERS.           2.0     :   CWLS log ASCII Standard - VERSION 2.0
WRAP.           NO      :   One line per depth step
~Well Information Section
#MNEM       .UNIT                                         VALUE :DESCRIPTION
#------------------------------------------------------------------------------
STRT        .FT                                             627 :START DEPTH
STOP        .FT                                            8077 :STOP DEPTH
STEP        .FT                                             0.5 :STEP      
NULL        .                                           -999.25 :NULL      
COMP        .                                    MOBIL OIL CORP :COMPANY   
WELL        .                               OCS G02338 ST00BP00 :WELL      
FLD         .                                           WILDCAT :FIELD     
LOC         .                                                   :LOCATION  
CNTY        .                             GALVESTON LARGE BLOCK :LOCATION  
STAT        .                                             TEXAS :STATE     
CTRY        .                                     UNITED STATES :COUNTRY   
SRVC        .                                                   :SERVICE COMPANY
DATE        .                             9/13/2023 11:18:53 AM :LOG DATE  
API         .                                    42706400220000 :API NUMBER
UWI         .                                    42706400220000 :UNIQUE WELL ID
XCOORD      .                                  948421.875172236 :SURFACE X 
YCOORD      .                                   10402667.405867 :SURFACE Y 
LAT         .                                         28.648189 :LATITUDE  
LON         .                                        -95.157922 :LONGITUDE 
ELEV        .FT                                              76 :ELEVATION VALUE
ELEV_TYPE   .                                                KB :ELEVATION REFERENCE TYPE
~Curve Information Section
#MNEM       .UNIT                                      API CODE :CURVE DESCRIPTION
#------------------------------------------------------------------------------
DEPT        .FT                                                 :DEPTH     
ASFL        .OHMM                                               :          
CALI        .IN                                                 :          
CILD        .MMHO                                               :          
DT          .US/F                                               :          
DT_1        .US/F                                               :          
GR          .GAPI                                               :          
GR_NORM     .GAPI                                               :GammaRay Normalized
ILD         .OHMM                                               :          
SFL         .OHMM                                               :          
SP          .MV                                                 :          
SP_NORM     .MV                                                 :SP Normalized
VSH_GR      .V/V                                                :Volume of Shale from GR
VSH_SP      .V/V                                                :Volume of Shale from SP
~A        DEPTH           ASFL           CALI           CILD             DT           DT_1             GR        GR_NORM            ILD            SFL             SP        SP_NORM         VSH_GR         VSH_SP
# ...
      1159.0000         1.9222        -999.25       332.3257        -999.25       152.7751        28.2729       37.51771         2.9834         2.3949      -115.7656      -8.304512     0.09612153      0.6497493
      1159.5000         1.9271        -999.25       324.4907        -999.25       136.8801        28.1861       37.40001         3.1455         2.4455      -114.9552      -7.503502      0.0936173      0.6942499
      1160.0000         1.9371        -999.25        316.437        -999.25       132.4763        27.7749       36.81207         3.3212         2.5923      -114.4039      -6.961594     0.08110785      0.7243559
      1160.5000          1.947        -999.25       306.2031        -999.25       132.0032        26.6025       35.12074         3.5148         2.8163       -115.774      -8.341087     0.04512202      0.6477174
      1161.0000         1.9739        -999.25       295.9678        -999.25       132.4307        24.8938         32.652         3.4934         2.8179      -118.8381      -11.41457              0      0.4769681
      1161.5000         2.0507        -999.25       285.7324        -999.25       131.7004         23.568       30.73831         3.3907         2.7811      -120.4005      -12.98637              0      0.3896463
      1162.0000         2.1986        -999.25       275.4966        -999.25       133.7444         22.775       29.59692         3.2693          2.655      -121.4277      -14.02296              0       0.332058
      1162.5000         2.4472        -999.25       265.2627        -999.25       136.9678        22.9441       29.85016         3.1195         2.5192      -122.3127      -14.91735              0      0.2823694
      1163.0000         2.5796        -999.25       258.8418        -999.25       140.4214        23.4335       30.56768          2.972         2.3852      -122.9973      -15.61134              0      0.2438143
      1163.5000         2.6404        -999.25       253.3135        -999.25       143.9204        24.0667       31.49364          2.817         2.3125      -123.2798      -15.90324              0       0.227598
      1164.0000         2.6734        -999.25       247.7852        -999.25       147.1326        24.8773       32.67677         2.6689         2.1845      -122.8496      -15.48243              0      0.2509761
      1164.5000         2.6378        -999.25        247.375        -999.25       149.6804        26.5854       35.16085         2.5349         2.0968      -121.8976      -14.53982     0.04597563      0.3033434
      1165.0000           2.58        -999.25       255.4614        -999.25       150.9993        29.3131       39.12291         2.4091         2.0525       -121.615      -14.26661      0.1302746      0.3185217
      1165.5000         2.5221        -999.25       263.5474        -999.25        150.615        33.3188       44.93748         2.2974         2.0196       -120.396        -13.057      0.2539889      0.3857223
      1166.0000         2.4582        -999.25       271.6338        -999.25       149.4866        38.1337       51.92503         2.1924         1.9354      -117.3478      -10.01819      0.4026603      0.5545451
      1166.5000         2.3725        -999.25       295.5571        -999.25       149.4851        42.9162       58.86561         2.1012         1.7299       -113.853      -6.532776      0.5503322      0.7481791
      1167.0000         2.2975        -999.25       323.6074        -999.25       153.3447        46.4158       63.94656         2.0138          1.671      -111.8822      -4.571373      0.6584374       0.857146
      1167.5000         2.2337        -999.25       351.6572        -999.25       158.1799        49.8655        68.9552          1.938         1.7179      -110.3246      -3.023163      0.7650043      0.9431576
      1168.0000         2.1736        -999.25       381.2368        -999.25        163.615        52.4415       72.69733         1.8654         1.5057      -108.9227      -1.630653       0.844624              1
      1168.5000         2.1203        -999.25       412.4585        -999.25       167.9463        54.1865       75.23492         1.8073         1.3476      -107.8184     -0.5357437      0.8986154              1
      1169.0000         2.0546        -999.25       443.6802        -999.25       170.7483        54.1906       75.24897         1.7581         1.3591      -107.6321     -0.3588409      0.8989143              1
      1169.5000         1.9523        -999.25       468.6089        -999.25       170.1777         53.688       74.52856         1.7075         1.3832      -107.4609     -0.1970291      0.8835863              1
      1170.0000         1.7188        -999.25       491.5957        -999.25       168.3342        54.3215       75.45494         1.6547         1.4058      -106.5887      0.6657791      0.9032966              1
      1170.5000         1.6595        -999.25        514.582        -999.25       166.7839        55.5155       77.19382         1.6166         1.5597      -107.8674     -0.6223145       0.940294              1
      1171.0000         1.6042        -999.25       537.5635        -999.25       166.3298        55.8914       77.74681         1.5905         1.6085      -109.5748      -2.339104      0.9520598      0.9811609
      1171.5000         1.5611        -999.25        554.666        -999.25       168.3333        56.3345       78.39724         1.5698         1.4699      -109.5917      -2.365395      0.9658987      0.9797003
      1172.0000         1.5446        -999.25       568.6221        -999.25       170.7327          57.13       79.55848         1.5422         1.3222      -108.9413      -1.724388       0.990606              1
      1172.5000         1.5353        -999.25       582.5791        -999.25       173.2424        57.9368       80.73608         1.5183          1.306       -109.274      -2.066483              1      0.9963065
      1173.0000         1.5342        -999.25       596.5352        -999.25       175.0789         58.827       82.03458         1.5027         1.3223       -109.327      -2.128876              1      0.9928402
      1173.5000         1.5332        -999.25       610.4912        -999.25       176.1108        59.5897       83.14826         1.4872         1.3388      -109.4319      -2.243164              1      0.9864909
      1174.0000         1.5322        -999.25       620.3008        -999.25       176.9795        60.2449       84.10612         1.4798         1.3033      -110.4525      -3.273155              1      0.9292691
      1174.5000         1.5292        -999.25       628.3867        -999.25       177.7827        59.9412       83.67402         1.4757         1.2839      -110.6553      -3.485344              1      0.9174809
      1175.0000         1.5229        -999.25       636.4717        -999.25       178.3462        58.5035       81.59812         1.4708         1.2802      -110.2731      -3.112541              1      0.9381921
      1175.5000         1.4999        -999.25       644.5586        -999.25       177.7268        58.1841       81.14323         1.4605          1.326      -109.6783       -2.52713              1       0.970715
      1176.0000         1.4787        -999.25       652.6445        -999.25       176.9617        58.5464       81.67653         1.4516         1.3788      -109.2697      -2.127922              1      0.9928932
      1176.5000         1.4594        -999.25       659.7393        -999.25       176.8704        59.2414       82.69207         1.4491         1.3527      -110.1746      -3.042213              1      0.9420993
      1177.0000         1.4454        -999.25       660.4326        -999.25         177.27           57.8       80.61079         1.4654         1.2825      -110.1672      -3.044205              1      0.9419886
      1177.5000          1.432        -999.25        661.126        -999.25       177.1299        55.8694       77.82042         1.5022         1.2581      -110.0414      -2.927795      0.9536259      0.9484558
