#------------------------------------------------------------------------------
# Created by    : vladimir.rabinovich
# Created on    : 09/19/2023 17:20:33
#------------------------------------------------------------------------------
~Version Information Section
VERS.           2.0     :   CWLS log ASCII Standard - VERSION 2.0
WRAP.           NO      :   One line per depth step
~Well Information Section
#MNEM       .UNIT                                         VALUE :DESCRIPTION
#------------------------------------------------------------------------------
STRT        .FT                                             242 :START DEPTH
STOP        .FT                                            8116 :STOP DEPTH
STEP        .FT                                             0.5 :STEP      
NULL        .                                           -999.25 :NULL      
COMP        .                                       HUNT OIL CO :COMPANY   
WELL        .                                     ST TR 00005-L :WELL      
FLD         .                                           WILDCAT :FIELD     
LOC         .                                                   :LOCATION  
CNTY        .                           HIGH ISLAND LARGE BLOCK :LOCATION  
STAT        .                                             TEXAS :STATE     
CTRY        .                                     UNITED STATES :COUNTRY   
SRVC        .                                                   :SERVICE COMPANY
DATE        .                             9/13/2023 11:19:33 AM :LOG DATE  
API         .                                    42708000010000 :API NUMBER
UWI         .                                    42708000010000 :UNIQUE WELL ID
XCOORD      .                                  1328371.56215902 :SURFACE X 
YCOORD      .                                  10754892.1390607 :SURFACE Y 
LAT         .                                        29.6307718 :LATITUDE  
LON         .                                       -93.9824852 :LONGITUDE 
ELEV        .FT                                              11 :ELEVATION VALUE
ELEV_TYPE   .                                                KB :ELEVATION REFERENCE TYPE
~Curve Information Section
#MNEM       .UNIT                                      API CODE :CURVE DESCRIPTION
#------------------------------------------------------------------------------
DEPT        .FT                                                 :DEPTH     
ASN         .OHMM                                               :          
LAT         .OHMM                                               :          
LN          .OHMM                                               :          
SN          .OHMM                                               :          
SP          .MV                                                 :          
SP_NORM     .MV                                                 :SP Normalized
VSH_SP      .V/V                                                :Volume of Shale from SP
~A        DEPTH            ASN            LAT             LN             SN             SP        SP_NORM         VSH_SP
       242.0000         0.0279         0.0218         0.1165         0.1969       -52.3705       9.264721              1
       242.5000         0.0476         0.0202          0.123         0.3257       -52.3186        9.31662              1
       243.0000         0.0921         0.0185         0.8966         0.5504       -53.3324       8.302818              1
       243.5000         0.5789         0.0168          1.142         1.1913       -55.1659       6.469318              1
       244.0000         1.2241         0.0151         1.2816         1.5439       -57.4494       4.185818              1
       244.5000          1.798         0.0131         1.3906         1.7829       -61.3267      0.3085213              1
       245.0000         1.8615         0.0111         1.5008         1.8826       -65.2384      -3.603184      0.8766782
       245.5000         1.9155         0.0091         1.6111         1.9878       -66.5874      -4.952183       0.772909
       246.0000         1.9845         0.0071         1.7812         2.1143       -68.3268      -6.691578      0.6391094
       246.5000         2.0541         0.0076         1.9352         2.2418       -69.5742      -7.938984      0.5431551
       247.0000         2.1418         0.0085         2.0761         2.3265       -70.6108      -8.975582      0.4634168
       247.5000         2.2459         0.0094         2.1955         2.4015       -71.3964      -9.761181      0.4029861
       248.0000         2.3542         0.0104         2.3267         2.4671       -72.1239      -10.48868      0.3470245
       248.5000         2.4257         0.0113         2.5189          2.488       -72.5306      -10.89538      0.3157398
       249.0000          2.442          0.011         2.6184         2.5017       -72.9374      -11.30218      0.2844476
       249.5000         2.4584         0.0098         2.7277         2.5154       -73.2988      -11.66358      0.2566479
       250.0000         2.4748         0.0087         2.8147         2.5285        -73.559      -11.92378      0.2366324
       250.5000         2.4909         0.0075         2.8758         2.5406       -73.8191      -12.18388      0.2166246
       251.0000         2.5055         0.0063         2.9185         2.5527       -74.0347      -12.39948      0.2000401
       251.5000         2.5202         0.0002          2.958         2.5648       -74.2073      -12.57208      0.1867632
       252.0000         2.5348              0         2.9904         2.5769       -74.3542      -12.71898      0.1754629
       252.5000         2.5495              0         3.0199          2.589       -74.3326      -12.69738      0.1771243
       253.0000         2.5641              0         3.0452         2.6011        -74.311      -12.67578      0.1787864
       253.5000         2.5788              0         3.0705         2.6154       -74.1265      -12.49128      0.1929782
       254.0000         2.5934              0         3.0958         2.6298       -73.8359      -12.20068      0.2153323
       254.5000         2.6081              0         3.1211         2.6442       -73.5454      -11.91018      0.2376782
       255.0000         2.6248              0          3.159         2.6586       -73.2415      -11.60628      0.2610553
       255.5000         2.6427              0         3.1993         2.6739       -72.8842      -11.24898      0.2885399
       256.0000         2.6606              0         3.2457         2.6951       -72.5267      -10.89148      0.3160397
       256.5000         2.6785              0         3.2924         2.7164       -72.1694      -10.53418      0.3435243
       257.0000         2.6964              0         3.3475         2.7376       -71.8173      -10.18208      0.3706093
       257.5000         2.7144              0         3.4062         2.7588       -71.4683       -9.83308      0.3974554
       258.0000         2.7323              0         3.4727         2.7779       -71.1191      -9.483883      0.4243167
       258.5000         2.7518              0         3.5565         2.7926         -70.77      -9.134777       0.451171
       259.0000         2.7728              0           3.64         2.8072       -70.3777      -8.742481      0.4813476
       259.5000         2.7939              0         3.7237         2.8219       -69.9788      -8.343578      0.5120324
       260.0000         2.8149              0         3.8216         2.8359         -69.58      -7.944782      0.5427091
       260.5000          2.836              0         3.9687         2.8395       -69.1565      -7.521282       0.575286
       261.0000         2.8511              0         3.9384         2.8431       -68.6793      -7.044079      0.6119939
       261.5000         2.8528              0          3.908         2.8467       -68.2023      -6.567081      0.6486861
       262.0000         2.8546          0.027         3.8422         2.8503       -67.7251      -6.089878       0.685394
       262.5000         2.8563         0.1877         3.7633          2.854       -67.2566       -5.62138      0.7214323
       263.0000          2.858         0.5153         3.6866         2.8591       -66.7927      -5.157482      0.7571167
       263.5000         2.8597         0.9042         3.6236         2.8654       -66.4929      -4.857677      0.7801787
       264.0000         2.8615         1.1707         3.5705         2.8717       -66.7855       -5.15028      0.7576708
       264.5000         2.8632         1.4984         3.5359          2.878       -67.0782      -5.442982      0.7351552
       265.0000         2.8677         1.8086            3.5         2.8843        -67.371      -5.735783      0.7126321
       265.5000         2.8758         2.0537         3.4727         2.8906        -67.851      -6.215778      0.6757094
       266.0000         2.8838         2.2312         3.4623         2.8969       -68.3372      -6.701977      0.6383095
       266.5000         2.8919         2.3918         3.4613         2.9026       -68.8011      -7.165882      0.6026245
       267.0000         2.8999         2.5306         3.4747         2.9072       -69.2438      -7.608578       0.568571
       267.5000         2.9079          2.617         3.4881         2.9118       -69.6865      -8.051281      0.5345169
       268.0000          2.916         2.6969         3.5027         2.9163       -69.9952      -8.359982      0.5107707
       268.5000          2.924          2.743          3.529         2.9209       -70.2336      -8.598377      0.4924325
       269.0000         2.9318         2.7891         3.5553         2.9248       -70.4722      -8.836979      0.4740785
       269.5000         2.9362         2.8263          3.581         2.9264       -70.6691      -9.033878      0.4589324
       270.0000         2.9405         2.8297         3.6063         2.9281       -70.8181       -9.18288      0.4474707
       270.5000         2.9448          2.833         3.6025         2.9226        -70.967      -9.331783      0.4360167
       271.0000         2.9492         2.8363          3.574           2.91       -71.0833      -9.448078      0.4270709
       271.5000         2.9349         2.8397         3.5247         2.8868       -71.1667      -9.531483      0.4206552
       272.0000         2.9055          2.838         3.4789         2.8387       -71.2501       -9.61488        0.41424
       272.5000         2.8761         2.8316         3.4381         2.7907       -71.3335      -9.698284      0.4078243
       273.0000         2.8314         2.8252         3.4068         2.7344       -71.4169      -9.781681      0.4014091
       273.5000         2.7851         2.8189         3.3797         2.6781       -71.3955      -9.760281      0.4030553
       274.0000         2.7387         2.8125         3.3601         2.6188       -71.3455      -9.710278      0.4069017
       274.5000         2.6924           2.83         3.3447         2.5563       -71.1565      -9.521282      0.4214398
       275.0000         2.6482         2.8546         3.3373         2.4992       -70.5851      -8.949879       0.465394
