#------------------------------------------------------------------------------
# Created by    : vladimir.rabinovich
# Created on    : 09/19/2023 17:20:57
#------------------------------------------------------------------------------
~Version Information Section
VERS.           2.0     :   CWLS log ASCII Standard - VERSION 2.0
WRAP.           NO      :   One line per depth step
~Well Information Section
#MNEM       .UNIT                                         VALUE :DESCRIPTION
#------------------------------------------------------------------------------
STRT        .FT                                             601 :START DEPTH
STOP        .FT                                            9006 :STOP DEPTH
STEP        .FT                                             0.5 :STEP      
NULL        .                                           -999.25 :NULL      
COMP        .                                        SUN OIL CO :COMPANY   
WELL        .                               OCS G01715 ST00BP00 :WELL      
FLD         .                                           WILDCAT :FIELD     
LOC         .                                                   :LOCATION  
CNTY        .                                BRAZOS LARGE BLOCK :LOCATION  
STAT        .                                             TEXAS :STATE     
CTRY        .                                     UNITED STATES :COUNTRY   
SRVC        .                                                   :SERVICE COMPANY
DATE        .                             9/13/2023 11:18:52 AM :LOG DATE  
API         .                                    42704000710000 :API NUMBER
UWI         .                                    42704000710000 :UNIQUE WELL ID
XCOORD      .                                  842225.693118258 :SURFACE X 
YCOORD      .                                  10368215.6352389 :SURFACE Y 
LAT         .                                          28.54781 :LATITUDE  
LON         .                                        -95.486614 :LONGITUDE 
ELEV        .FT                                              79 :ELEVATION VALUE
ELEV_TYPE   .                                                KB :ELEVATION REFERENCE TYPE
~Curve Information Section
#MNEM       .UNIT                                      API CODE :CURVE DESCRIPTION
#------------------------------------------------------------------------------
DEPT        .FT                                                 :DEPTH     
ASN         .OHMM                                               :          
CALI        .IN                                                 :          
CILD        .MMHO                                               :          
DT          .US/F                                               :          
ILD         .OHMM                                               :          
SP          .MV                                                 :          
SP_NORM     .MV                                                 :SP Normalized
VSH_SP      .V/V                                                :Volume of Shale from SP
~A        DEPTH            ASN           CALI           CILD             DT            ILD             SP        SP_NORM         VSH_SP
# ...
      2282.5000         0.7931        12.6465       1529.299       156.9749         0.6443       -36.3304     -0.9276466              1
      2283.0000         0.7879        12.7153       1503.029       152.7014         0.6429       -36.0907     -0.6915932              1
      2283.5000         0.7826        12.7027       1476.563       162.3228         0.6426       -35.9016     -0.5061378              1
      2284.0000         0.7769        12.6816       1462.387       159.1929         0.6437       -35.8378     -0.4459839              1
      2284.5000         0.7682         12.653       1451.813       156.7881         0.6449       -35.7755     -0.3873291              1
      2285.0000         0.7542        12.6294       1441.236       154.5208         0.6449       -35.6984     -0.3138733              1
      2285.5000         0.7417        12.6107       1447.654       151.7207         0.6434       -35.6653     -0.2844162              1
      2286.0000         0.7382        12.5941       1462.256       149.3921         0.6345       -35.6582     -0.2809639              1
      2286.5000         0.7359        12.5517       1482.627       150.4346         0.6229       -35.7653     -0.3917084              1
      2287.0000         0.7364        12.5053       1503.004       151.4089         0.6121       -35.8425     -0.4725533              1
      2287.5000         0.7318         12.503       1523.449       151.7297         0.6018       -35.8998     -0.5334969              1
      2288.0000          0.727        12.5119       1547.438       151.6472         0.5917       -35.9156     -0.5529442              1
      2288.5000         0.7349        12.5225       1571.428       151.3555         0.5826       -35.8715     -0.5124855              1
      2289.0000          0.741        12.5278       1588.598       151.3508         0.5758       -35.8206     -0.4652328              1
      2289.5000         0.7467        12.5322       1602.291       151.9109         0.5694       -35.7998     -0.4480782              1
      2290.0000         0.7435        12.5365       1610.906       152.8086         0.5658       -35.6823     -0.3342247              1
      2290.5000         0.7357        12.5398       1614.115       153.0312         0.5655       -35.6265     -0.2820663              1
      2291.0000         0.7307         12.542       1617.807       153.0923         0.5704       -35.7615     -0.4207153              1
      2291.5000         0.7242        12.5442       1622.672       152.9778         0.5753       -36.1797      -0.842556              1
      2292.0000         0.7215        12.5368       1627.537       152.9609         0.5802       -36.7634      -1.429905              1
      2292.5000         0.7199         12.526       1632.404       152.8984         0.5851       -37.3125      -1.982647              1
      2293.0000         0.7209        12.4895       1637.451       152.2549           0.59       -38.0693      -2.743095      0.9752302
      2293.5000          0.721        12.4326       1644.012       151.6277          0.595       -38.6265      -3.303936      0.9565355
      2294.0000         0.7254        12.3043       1650.576       151.3899         0.6031       -38.3533      -3.034382      0.9655206
      2294.5000         0.7381        12.3138       1653.563       151.3193          0.613       -37.6288      -2.313526      0.9895491
      2295.0000         0.7565         12.376       1630.936       151.4314         0.6206       -36.8248      -1.513172              1
      2295.5000         0.7696        12.3858        1608.32       152.9333         0.6264       -35.9661     -0.6581154              1
      2296.0000         0.7758        12.3692       1586.811       153.2151         0.6249       -35.3458    -0.04146194              1
      2296.5000         0.7672        12.3399       1580.613       150.8196         0.6203       -35.4718     -0.1711082              1
      2297.0000         0.7513        12.3295        1574.42       149.0486         0.6131        -36.101     -0.8039551              1
      2297.5000         0.7419        12.3191       1569.998       147.4802         0.6078       -36.7312      -1.437798              1
      2298.0000         0.7354        12.3339       1566.508       146.6055         0.6043       -37.0121      -1.722343              1
      2298.5000         0.7371         12.376       1573.246       146.9673         0.6036       -37.1821      -1.895985              1
      2299.0000         0.7396        12.4349       1581.791        147.927         0.6042       -37.6091      -2.326633      0.9891122
      2299.5000         0.7494         12.364       1590.334       148.1689         0.6113        -38.087      -2.808178      0.9730607
      2300.0000         0.7691        12.2718       1598.879       148.0176         0.6204       -38.2748      -2.999622      0.9666793
      2300.5000         0.7879        12.2702       1607.422       147.3213          0.636        -38.193      -2.921467      0.9692844
      2301.0000         0.8103        12.3066       1613.225       146.5862         0.6521       -38.2186      -2.950714      0.9683095
      2301.5000         0.8313        12.3125       1580.576        145.843         0.6671       -38.5642      -3.299957      0.9566681
      2302.0000         0.8459        12.3031       1547.684       144.8469         0.6825       -39.0519      -3.791302      0.9402899
      2302.5000         0.8572         12.271       1512.473       143.7754         0.7024       -39.0286      -3.771645      0.9409452
      2303.0000         0.8678        12.2972       1487.545       142.7046         0.7223       -38.6874      -3.434093      0.9521969
      2303.5000         0.8858        12.4783       1466.725       141.5557         0.7415       -38.3998      -3.150135      0.9616622
      2304.0000         0.9072        12.6508         1445.9       140.3137          0.751       -38.2714      -3.025383      0.9658206
      2304.5000         0.9331        12.7441       1297.027       139.0723         0.7542       -38.2827      -3.040325      0.9653225
      2305.0000         0.9545        12.6725        1280.58       137.8459          0.754       -38.3802      -3.141472       0.961951
      2305.5000         0.9653        12.5916       1269.611        136.728         0.7555       -38.2361      -3.001015      0.9666328
      2306.0000         0.9468        12.5336       1268.271       135.0732         0.7572       -38.0812      -2.849762      0.9716746
      2306.5000         0.9253        12.4088       1266.932       134.4312         0.7573       -37.9434      -2.715607      0.9761465
      2307.0000         0.9073        12.3144        1265.59       135.2197         0.7658       -37.8588      -2.634651      0.9788449
      2307.5000         0.8911        12.2436       1261.762       136.3826         0.7792       -37.8029      -2.582394      0.9805869
      2308.0000         0.8852        12.2276       1257.555       137.3828         0.7966       -37.6482      -2.431343      0.9856219
      2308.5000         0.9136        12.2348        1253.35       138.8162         0.8146       -37.4701      -2.256886      0.9914371
      2309.0000         0.9449        12.2297       1249.145       141.8337         0.8275       -37.2798      -2.070232      0.9976589
      2309.5000         0.9818        12.1301       1238.121       145.6704         0.8394       -37.1282      -1.922276              1
      2310.0000         1.0112        12.0052       1217.799       148.2344          0.851       -37.0549      -1.852623              1
      2310.5000         1.0428        11.8847       1201.088       141.7043         0.8473       -36.9957      -1.797066              1
      2311.0000         1.0728         11.863       1184.371       143.8274         0.8367       -36.9197      -1.724712              1
      2311.5000         1.0694        12.2322       1172.225       147.4822         0.8222       -36.6945      -1.503155              1
