#------------------------------------------------------------------------------
# Created by    : vladimir.rabinovich
# Created on    : 09/19/2023 17:19:20
#------------------------------------------------------------------------------
~Version Information Section
VERS.           2.0     :   CWLS log ASCII Standard - VERSION 2.0
WRAP.           NO      :   One line per depth step
~Well Information Section
#MNEM       .UNIT                                         VALUE :DESCRIPTION
#------------------------------------------------------------------------------
STRT        .FT                                            4783 :START DEPTH
STOP        .FT                                            9473 :STOP DEPTH
STEP        .FT                                             0.5 :STEP      
NULL        .                                           -999.25 :NULL      
COMP        .                                   FOREST OIL CORP :COMPANY   
WELL        .                               OCS G20658 ST00BP00 :WELL      
FLD         .                            HIGH ISLAND BLOCK 0052 :FIELD     
LOC         .                                                   :LOCATION  
CNTY        .                           HIGH ISLAND LARGE BLOCK :LOCATION  
STAT        .                                             TEXAS :STATE     
CTRY        .                                     UNITED STATES :COUNTRY   
SRVC        .                                                   :SERVICE COMPANY
DATE        .                             9/13/2023 11:19:51 AM :LOG DATE  
API         .                                    42708405710000 :API NUMBER
UWI         .                                    42708405710000 :UNIQUE WELL ID
XCOORD      .                                  1254974.65209524 :SURFACE X 
YCOORD      .                                  10682885.5467737 :SURFACE Y 
LAT         .                                         29.430813 :LATITUDE  
LON         .                                        -94.211177 :LONGITUDE 
ELEV        .FT                                             108 :ELEVATION VALUE
ELEV_TYPE   .                                                KB :ELEVATION REFERENCE TYPE
~Curve Information Section
#MNEM       .UNIT                                      API CODE :CURVE DESCRIPTION
#------------------------------------------------------------------------------
DEPT        .FT                                                 :DEPTH     
A28H_COND   .MMHO                                               :          
A28H_UNC    .OHMM                                               :          
AHT10       .OHMM                                               :          
AHT20       .OHMM                                               :          
AHT30       .OHMM                                               :          
AHT60       .OHMM                                               :          
AHT90       .OHMM                                               :          
DCAL        .IN                                                 :          
DPHZ        .V/V                                                :          
DRHO        .G/CC                                               :          
DTCO        .US/F                                               :          
DTSM        .US/F                                               :          
GR          .GAPI                                               :          
GR_ARC_FIL  .GAPI                                               :          
GR_NORM     .GAPI                                               :GammaRay Normalized
GR1         .GAPI                                               :          
GRM1        .GAPI                                               :          
NPOR        .V/V                                                :          
P28H_UNC    .OHMM                                               :          
ROP5        .F/HR                                               :          
ROP5_RM     .F/HR                                               :          
SP          .MV                                                 :          
TENS        .LB                                                 :          
VSH_GR      .V/V                                                :Volume of Shale from GR
~A        DEPTH      A28H_COND       A28H_UNC          AHT10          AHT20          AHT30          AHT60          AHT90           DCAL           DPHZ           DRHO           DTCO           DTSM             GR     GR_ARC_FIL        GR_NORM            GR1           GRM1           NPOR       P28H_UNC           ROP5        ROP5_RM             SP           TENS         VSH_GR
# ...
      8699.0000        -999.25        -999.25         0.6484         0.6401         0.6361          0.633         0.6326         1.2317         0.2118          0.005       120.5941        304.819        65.8624        -999.25        66.6975        69.3889         72.358         0.3725        -999.25         37.315        -999.25         2.8493           3116      0.7169681
      8699.5000        -999.25        -999.25         0.6538         0.6447         0.6386         0.6373          0.639         1.1353         0.2136          0.002        120.198       304.4117          63.75        -999.25       56.50625        69.5938         64.205         0.3915        -999.25         37.676        -999.25         2.3184           3134       0.500133
      8700.0000        -999.25        -999.25         0.6628          0.653         0.6453         0.6422         0.6471          1.089         0.2166         -0.001            120       303.0042        61.2316        -999.25       56.50625        70.6989         64.205         0.4034        -999.25         37.225        -999.25         1.5376           3134       0.500133
      8700.5000        -999.25        -999.25         0.6795         0.6677         0.6605         0.6555         0.6568         1.2086         0.2208        -0.0041       119.5949       301.3996        61.1288        -999.25         62.875        72.4009           69.3         0.4034        -999.25         35.687        -999.25         1.2151           3134      0.6356384
      8701.0000        -999.25        -999.25         0.6996         0.6903          0.682         0.6715         0.6738         1.2935         0.2238        -0.0074       119.3848        299.802        61.8741        -999.25       65.42374        74.1036         71.339         0.3939        -999.25         36.248        -999.25         1.4134           3134      0.6898669
      8701.5000        -999.25        -999.25         0.7148         0.7011         0.6925         0.6827         0.6808         1.2549          0.225        -0.0076       118.9747       297.8218        63.3114        -999.25         62.875        75.3073           69.3          0.376        -999.25         33.872        -999.25         2.0284           3134      0.6356384
      8702.0000        -999.25        -999.25         0.6996         0.6882         0.6783         0.6747         0.6684         1.1661         0.2238        -0.0059       118.9646       294.8515        64.6632        -999.25         69.245        74.3081         74.396         0.3653        -999.25         32.024        -999.25         2.1851           3116      0.7711703
      8702.5000        -999.25        -999.25         0.6924         0.6754         0.6648         0.6634         0.6554         1.0967         0.2208         -0.001       118.9544       292.0792        63.9226        -999.25          64.15        70.6014          70.32         0.3612        -999.25         29.636        -999.25         2.0084           3098       0.662766
      8703.0000        -999.25        -999.25         0.7027         0.6782         0.6677         0.6602         0.6531         1.0697         0.2154          0.004       118.9443       288.5149        63.2779        -999.25        78.1625           67.6          81.53         0.3612        -999.25         28.796        -999.25         1.4358           3062      0.9609042
      8703.5000        -999.25        -999.25         0.7146         0.6866         0.6823         0.6728         0.6668         1.1005         0.2106          0.009       118.5342       285.7426        62.7014        -999.25       70.51875           69.1         75.415         0.3749        -999.25         28.727        -999.25         0.8633           3044      0.7982714
      8704.0000        -999.25        -999.25         0.7271         0.6995         0.6848          0.677         0.6707         1.0041         0.2088          0.015       118.1241       282.7723        64.6695        -999.25        78.1625         72.309          81.53         0.3855        -999.25         27.601        -999.25        -0.6675           3026      0.9609042
      8704.5000        -999.25        -999.25         0.7341         0.7106         0.6975         0.6797         0.6737         0.9539           0.21          0.004       117.7139       280.9901        64.3838        -999.25         69.245        73.1137         74.396         0.3778        -999.25         25.118        -999.25        -2.8025           3044      0.7711703
      8705.0000        -999.25        -999.25         0.7747         0.7593         0.7414         0.7109         0.7033         0.8381         0.2052         -0.001       117.3038        280.198        63.1974        -999.25        71.7925        71.2059         76.434         0.3516        -999.25         24.087        -999.25        -4.7083           3062      0.8253723
      8705.5000        -999.25        -999.25         0.8084          0.785         0.7662         0.7333          0.729         0.6992         0.1992         -0.007       116.8937       280.5941        59.6317        -999.25       73.06625           67.9         77.453         0.3126        -999.25         22.599        -999.25        -4.6767           3080      0.8524735
      8706.0000        -999.25        -999.25         0.7359         0.7179         0.6998         0.6876         0.6789         0.6066         0.2046          -0.01       116.8835       282.3762        57.3985        -999.25       70.51875           64.5         75.415         0.3306        -999.25         22.174        -999.25        -3.3325           3080      0.7982714
      8706.5000        -999.25        -999.25         0.6813         0.6612         0.6492         0.6464         0.6344         0.5371         0.2064         -0.008       116.8734       284.1584        55.6722        -999.25       70.51875           61.1         75.415         0.3671        -999.25         21.522        -999.25        -1.5092           3062      0.7982714
      8707.0000        -999.25        -999.25         0.7097         0.6734         0.6618         0.6564         0.6441         0.5796         0.1998         -0.004       116.8633       286.5347        56.6121        -999.25          64.15           61.1          70.32         0.3766        -999.25         21.575        -999.25        -0.1025           3044       0.662766
      8707.5000        -999.25        -999.25         0.7257         0.7026         0.6978         0.6876         0.6805         0.5641         0.1836          0.001       117.2532       288.5149        59.9675        -999.25        71.7925           62.6         76.434         0.3689        -999.25         22.733        -999.25         1.1375           3044      0.8253723
      8708.0000        -999.25        -999.25          0.718         0.6947         0.6897          0.682         0.6782         0.4985         0.1824          0.006        117.643        290.099        63.4926        -999.25        78.1625           63.8          81.53          0.357        -999.25         23.026        -999.25         2.0649           3044      0.9609042
      8708.5000        -999.25        -999.25         0.7074         0.6774         0.6706         0.6658         0.6654         0.5178         0.1902          0.008       118.0329       291.2871          65.86        -999.25         75.615           65.2         79.492         0.3612        -999.25         22.215        -999.25         2.6382           3044      0.9067021
      8709.0000        -999.25        -999.25         0.7123         0.6783         0.6758          0.669         0.6688         0.5641         0.1974          0.007       118.2228       291.4851        64.9452        -999.25       84.53125           66.5         86.625         0.3707        -999.25         22.851        -999.25         2.8574           3044              1
      8709.5000        -999.25        -999.25         0.7133         0.6835         0.6786         0.6687         0.6688         0.5487         0.1992          0.007       118.4127       291.2871        64.4036        -999.25       73.06625           68.4         77.453         0.3808        -999.25         23.531        -999.25         2.8682           3044      0.8524735
