#------------------------------------------------------------------------------
# Created by    : vladimir.rabinovich
# Created on    : 09/19/2023 17:20:38
#------------------------------------------------------------------------------
~Version Information Section
VERS.           2.0     :   CWLS log ASCII Standard - VERSION 2.0
WRAP.           NO      :   One line per depth step
~Well Information Section
#MNEM       .UNIT                                         VALUE :DESCRIPTION
#------------------------------------------------------------------------------
STRT        .FT                                             540 :START DEPTH
STOP        .FT                                            8409 :STOP DEPTH
STEP        .FT                                             0.5 :STEP      
NULL        .                                           -999.25 :NULL      
COMP        .                                      SHELL OIL CO :COMPANY   
WELL        .                                OCS 00706 ST00BP00 :WELL      
FLD         .                                           WILDCAT :FIELD     
LOC         .                                                   :LOCATION  
CNTY        .                             GALVESTON LARGE BLOCK :LOCATION  
STAT        .                                             TEXAS :STATE     
CTRY        .                                     UNITED STATES :COUNTRY   
SRVC        .                                                   :SERVICE COMPANY
DATE        .                             9/13/2023 11:19:25 AM :LOG DATE  
API         .                                    42706000280000 :API NUMBER
UWI         .                                    42706000280000 :UNIQUE WELL ID
XCOORD      .                                  1100625.96198943 :SURFACE X 
YCOORD      .                                  10499283.7203345 :SURFACE Y 
LAT         .                                         28.920625 :LATITUDE  
LON         .                                        -94.687754 :LONGITUDE 
ELEV        .FT                                              78 :ELEVATION VALUE
ELEV_TYPE   .                                                KB :ELEVATION REFERENCE TYPE
~Curve Information Section
#MNEM       .UNIT                                      API CODE :CURVE DESCRIPTION
#------------------------------------------------------------------------------
DEPT        .FT                                                 :DEPTH     
ASN         .OHMM                                               :          
DT          .US/F                                               :          
ILD         .OHMM                                               :          
LAT         .OHMM                                               :          
LN          .OHMM                                               :          
SP          .MV                                                 :          
SP_NORM     .MV                                                 :SP Normalized
VSH_SP      .V/V                                                :Volume of Shale from SP
~A        DEPTH            ASN             DT            ILD            LAT             LN             SP        SP_NORM         VSH_SP
# ...
      1572.5000         1.0894        -999.25        -999.25         1.2018         1.0493       -55.0044      -3.419888      0.9541972
      1573.0000         1.1464        -999.25        -999.25         1.1783         1.0551       -55.2308      -3.647602      0.9468516
      1573.5000         1.1883        -999.25        -999.25         1.1548         1.0608       -55.4572      -3.875313      0.9395061
      1574.0000          1.231        -999.25        -999.25         1.1312         1.0666       -55.6835      -4.102928      0.9321636
      1574.5000         1.2429        -999.25        -999.25         1.1077         1.0706         -55.91      -4.330742      0.9248148
      1575.0000         1.2242        -999.25        -999.25         1.1139         1.0622       -56.1364      -4.558453      0.9174693
      1575.5000         1.1889        -999.25        -999.25          1.142         1.0538       -55.7435      -4.166866      0.9301011
      1576.0000         1.1535        -999.25        -999.25         1.1701         1.0454       -55.1417      -3.566383      0.9494715
      1576.5000         1.1301        -999.25        -999.25         1.1982          1.037       -54.5004      -2.926395      0.9701163
      1577.0000         1.1077        -999.25        -999.25         1.2315         1.0286       -53.8589      -2.286205      0.9907676
      1577.5000         1.0853        -999.25        -999.25         1.2656         1.0202       -53.2177       -1.64632              1
      1578.0000         1.0693        -999.25        -999.25         1.2998         1.0118       -52.6376      -1.067535              1
      1578.5000          1.056        -999.25        -999.25          1.334         1.0108       -52.3062     -0.7374458              1
      1579.0000         1.0428        -999.25        -999.25         1.3682         1.0133       -51.9745     -0.4070587              1
      1579.5000         1.0295        -999.25        -999.25         1.3857         1.0159       -51.6431    -0.07697296              1
      1580.0000         1.0224        -999.25        -999.25          1.391         1.0184        -52.053     -0.4881859              1
      1580.5000         1.0156        -999.25        -999.25         1.3964          1.021       -52.5284      -0.964901              1
      1581.0000         1.0089        -999.25        -999.25         1.3723         1.0235       -53.1815      -1.619312              1
      1581.5000         1.0109        -999.25        -999.25         1.3403         1.0261       -54.0714      -2.510525      0.9835315
      1582.0000         1.0229        -999.25        -999.25         1.3083         1.0286       -54.9612      -3.401638      0.9547859
      1582.5000         1.0349        -999.25        -999.25         1.2763         1.0326       -55.8511      -4.292854       0.926037
      1583.0000          1.047        -999.25        -999.25         1.2443         1.0368        -56.741      -5.184067      0.8972881
      1583.5000         1.0565        -999.25        -999.25         1.2122         1.0409       -57.5175       -5.96188      0.8721974
      1584.0000         1.0625        -999.25        -999.25          1.181         1.0451       -58.1619       -6.60759      0.8513681
      1584.5000         1.0685        -999.25        -999.25         1.1523         1.0493       -58.8062      -7.253204      0.8305418
      1585.0000         1.0706        -999.25        -999.25         1.1235         1.0535        -58.967      -7.415318      0.8253123
      1585.5000         1.0613        -999.25        -999.25         1.0948         1.0577        -58.661       -7.11063      0.8351409
      1586.0000          1.052        -999.25        -999.25          1.066         1.0618        -58.355      -6.805943      0.8449696
      1586.5000         1.0422        -999.25        -999.25         1.0373         1.0604        -58.049      -6.501255      0.8547982
      1587.0000          1.032        -999.25        -999.25         1.0523         1.0562       -57.8056      -6.259171      0.8626074
      1587.5000         1.0219        -999.25        -999.25         1.0706          1.052       -57.5744      -6.029285      0.8700231
      1588.0000         1.0117        -999.25        -999.25          1.089         1.0478       -57.3433      -5.799496      0.8774356
      1588.5000         1.0164        -999.25        -999.25         1.1074         1.0436       -57.1121      -5.569607      0.8848514
      1589.0000         1.0293        -999.25        -999.25         1.1257         1.0393       -57.4931      -5.951923      0.8725186
      1589.5000         1.0422        -999.25        -999.25         1.1441         1.0351       -58.0771      -6.537235      0.8536376
      1590.0000         1.0567        -999.25        -999.25         1.1625         1.0301       -58.6611      -7.122547      0.8347566
      1590.5000         1.0717        -999.25        -999.25          1.178         1.0238       -59.2839      -7.746662      0.8146238
      1591.0000         1.0867        -999.25        -999.25         1.1838         1.0176       -60.0756      -8.539677      0.7890427
      1591.5000         1.0773        -999.25        -999.25         1.1897         1.0114       -60.8673      -9.332687      0.7634617
      1592.0000         1.0516        -999.25        -999.25         1.1956         1.0052       -61.3531      -9.819801      0.7477483
      1592.5000         1.0228        -999.25        -999.25         1.2015          0.999       -60.5491      -9.017113      0.7736415
      1593.0000         0.9939        -999.25        -999.25         1.2074         0.9927        -59.934      -8.403324      0.7934412
      1593.5000         0.9739        -999.25        -999.25         1.2133         0.9865       -59.3962       -7.86684      0.8107471
      1594.0000         0.9613        -999.25        -999.25         1.2192         0.9803       -58.8583      -7.330254      0.8280563
      1594.5000         0.9488        -999.25        -999.25         1.2251          0.977       -58.3204      -6.793667      0.8453656
      1595.0000          0.945        -999.25        -999.25          1.231         0.9757       -58.1353      -6.609879      0.8512942
      1595.5000         0.9533        -999.25        -999.25         1.2369         0.9744       -58.2466      -6.722496      0.8476614
      1596.0000         0.9617        -999.25        -999.25         1.2404         0.9731        -58.358      -6.835209      0.8440255
      1596.5000         0.9754        -999.25        -999.25         1.2415         0.9718       -58.4694      -6.947918      0.8403897
      1597.0000         0.9948        -999.25        -999.25         1.2426         0.9705       -58.4033      -6.883133      0.8424796
      1597.5000         1.0142        -999.25        -999.25         1.2436         0.9692       -58.2718      -6.752949      0.8466791
      1598.0000         1.0207        -999.25        -999.25         1.2447         0.9679       -58.1403      -6.622761      0.8508787
      1598.5000         1.0116        -999.25        -999.25         1.2457         0.9666       -57.8701       -6.35387      0.8595526
      1599.0000         1.0019        -999.25        -999.25         1.2468         0.9652       -57.3866      -5.871685      0.8751069
      1599.5000         0.9921        -999.25        -999.25         1.2479         0.9636       -56.9031        -5.3895      0.8906613
      1600.0000         0.9823        -999.25        -999.25         1.2489         0.9621       -56.4198      -4.907513      0.9062093
      1600.5000         0.9725        -999.25        -999.25           1.25         0.9606       -55.9363      -4.425323      0.9217638
      1601.0000         0.9646        -999.25        -999.25          1.251          0.959        -55.453      -3.943336      0.9373117
      1601.5000         0.9667        -999.25        -999.25         1.2521         0.9575       -55.0203      -3.511951      0.9512274
