#------------------------------------------------------------------------------
# Created by    : vladimir.rabinovich
# Created on    : 09/19/2023 17:19:47
#------------------------------------------------------------------------------
~Version Information Section
VERS.           2.0     :   CWLS log ASCII Standard - VERSION 2.0
WRAP.           NO      :   One line per depth step
~Well Information Section
#MNEM       .UNIT                                         VALUE :DESCRIPTION
#------------------------------------------------------------------------------
STRT        .FT                                             970 :START DEPTH
STOP        .FT                                            9511 :STOP DEPTH
STEP        .FT                                             0.5 :STEP      
NULL        .                                           -999.25 :NULL      
COMP        .                                SHELL OFFSHORE INC :COMPANY   
WELL        .                               OCS G06097 ST00BP00 :WELL      
FLD         .                                           WILDCAT :FIELD     
LOC         .                                                   :LOCATION  
CNTY        .                             GALVESTON LARGE BLOCK :LOCATION  
STAT        .                                             TEXAS :STATE     
CTRY        .                                     UNITED STATES :COUNTRY   
SRVC        .                                                   :SERVICE COMPANY
DATE        .                             9/13/2023 11:19:27 AM :LOG DATE  
API         .                                    42706401130000 :API NUMBER
UWI         .                                    42706401130000 :UNIQUE WELL ID
XCOORD      .                                  1026820.46089783 :SURFACE X 
YCOORD      .                                  10482391.3243497 :SURFACE Y 
LAT         .                                         28.871086 :LATITUDE  
LON         .                                        -94.917566 :LONGITUDE 
ELEV        .FT                                             107 :ELEVATION VALUE
ELEV_TYPE   .                                                KB :ELEVATION REFERENCE TYPE
~Curve Information Section
#MNEM       .UNIT                                      API CODE :CURVE DESCRIPTION
#------------------------------------------------------------------------------
DEPT        .FT                                                 :DEPTH     
ASFL        .OHMM                                               :          
CALI        .IN                                                 :          
CILD        .MMHO                                               :          
DT          .US/F                                               :          
GR          .GAPI                                               :          
GR_NORM     .GAPI                                               :GammaRay Normalized
ILD         .OHMM                                               :          
ILM         .OHMM                                               :          
RHOB        .G/C3                                               :          
SP          .MV                                                 :          
SP_NORM     .MV                                                 :SP Normalized
VSH_GR      .V/V                                                :Volume of Shale from GR
VSH_SP      .V/V                                                :Volume of Shale from SP
~A        DEPTH           ASFL           CALI           CILD             DT             GR        GR_NORM            ILD            ILM           RHOB             SP        SP_NORM         VSH_GR         VSH_SP
# ...
      6100.0000         0.7742         9.4888       2027.283       111.6063        51.5179        66.7801         0.5222         0.5466         2.2849       -99.2448      -34.83611      0.7187255      0.5023413
      6100.5000         0.7837         9.4962       2023.078       112.6404           50.7        65.3491         0.5316          0.559         2.2954       -96.4355      -32.02805      0.6882787      0.5424565
      6101.0000         0.7932         9.4554       2017.748       112.3514        51.7103       67.11525          0.541         0.5762         2.3277       -96.7474      -32.34118      0.7258564      0.5379832
      6101.5000         0.8027         9.3922       2010.309       110.4857        52.9149       69.22118         0.5428         0.5924         2.3558       -98.2423      -33.83731      0.7706635      0.5166098
      6102.0000         0.8107         9.3414       2020.422       106.9067        54.0508       71.20697         0.5394         0.5993         2.3623      -100.6637      -36.25994      0.8129143      0.4820008
      6102.5000         0.8186          9.304        2060.68       108.2671        55.0924       73.02787         0.5361         0.6021         2.3618      -103.5017      -39.09918      0.8516568      0.4414403
      6103.0000         0.8265         9.2994        2132.91       108.9742         56.134       74.84875         0.5327         0.6007         2.3497      -106.3936      -41.99232       0.890399      0.4001098
      6103.5000         0.8249         9.3165       2363.242       108.3462        56.0877       74.76711         0.5294         0.5809         2.3321      -109.7683      -45.36825       0.888662      0.3518822
      6104.0000         0.8132         9.3534       2618.895       106.7211        54.1586       71.39284         0.5061         0.5483          2.311      -116.7848      -52.38598      0.8168689      0.2516289
      6104.5000         0.8015          9.387       2753.723         106.14        52.1833       67.93776         0.4801         0.5118          2.294      -117.5372      -53.13962      0.7433566      0.2408626
      6105.0000         0.7898         9.4198       2813.836       107.0474        48.8111        62.0398         0.4584         0.4738         2.2631      -118.3159      -53.91956      0.6178681      0.2297206
      6105.5000          0.779         9.4518        2883.98       107.9434        43.6498       53.01306         0.4371         0.4471         2.2505      -118.8864      -54.49128      0.4258097      0.2215531
      6106.0000         0.7703         9.4517       2909.754       108.3812        41.4882       49.23219         0.4159         0.4305         2.2449      -118.7717      -54.37782      0.3453656      0.2231741
      6106.5000         0.7638         9.4495       2794.426       107.3635         43.194       52.21463         0.4078         0.4288         2.2472      -118.3226      -53.92995      0.4088219      0.2295721
      6107.0000         0.7622         9.4232       2667.344       105.7322        45.0296       55.42406         0.4042         0.4403         2.2588      -117.4269      -53.03549      0.4771076      0.2423501
      6107.5000         0.7606         9.3983       2602.215       104.3992         48.191       60.95205         0.4005         0.4528         2.2619      -116.4258      -52.03561      0.5947245      0.2566341
      6108.0000         0.7591         9.3974       2559.438       105.0483        50.1541       64.38445         0.3968         0.4672         2.2644      -115.3756      -50.98666      0.6677543      0.2716192
      6108.5000         0.7604         9.3837       2544.035       106.2869        51.9971       67.60682         0.3968         0.4801         2.2745      -114.6036      -50.21589      0.7363153      0.2826301
      6109.0000         0.7625         9.3543       2522.617       107.5004         54.465       71.92202         0.4016         0.4906         2.2891       -113.842      -49.45552      0.8281281      0.2934926
      6109.5000         0.7646         9.3307       2576.105       108.5107        56.0059       74.61609         0.4065         0.4991         2.3057      -114.8094      -50.42416      0.8854487      0.2796549
      6110.0000         0.7666         9.3132       2644.809       107.2732        54.1146       71.30791         0.4113         0.4768          2.299      -116.0802      -51.69619       0.815062       0.261483
      6110.5000         0.7682         9.3004       2726.121       103.7795        47.3725       59.51667         0.4161         0.4575         2.2612      -119.0248      -54.64203      0.5641844      0.2193996
      6111.0000         0.7699         9.2872       2845.656       101.9781        45.6705       56.53954         0.4148         0.4446         2.2344      -121.3114      -56.92986      0.5008413      0.1867163
      6111.5000          0.771          9.276       2961.469       101.6335        44.3458       54.22223         0.4079          0.437         2.2257      -122.7744      -58.39409      0.4515369      0.1657987
      6112.0000         0.7676         9.2757       3025.406       101.7275        43.4678       52.68613          0.401         0.4351         2.2386      -121.9963      -57.61723      0.4188538      0.1768968
      6112.5000         0.7642         9.2798       3098.133       102.0833        42.7749       51.47372         0.3941         0.4339         2.2538      -121.0529      -56.67506      0.3930578      0.1903562
      6113.0000         0.7609         9.2965       3140.227       102.6401        42.3953       50.80922         0.3872          0.433         2.2714      -120.5525      -56.17589      0.3789195      0.1974873
      6113.5000         0.7575         9.2982       3166.113       103.2186        42.1331       50.35001         0.3803         0.4344         2.2649      -120.3967      -56.02132      0.3691491      0.1996954
      6114.0000         0.7543         9.2977       3145.863       103.5803        41.8705       49.89011          0.375         0.4358         2.2498      -120.5265      -56.15236       0.359364      0.1978234
      6114.5000         0.7518         9.3158       3105.926       103.7593        41.5413       49.31374          0.375         0.4385         2.2369      -120.6561       -56.2832      0.3471009      0.1959544
      6115.0000         0.7493         9.3269       3069.637       103.6904        41.1647       48.65448          0.375         0.4416         2.2236      -120.7858      -56.41412       0.333074      0.1940839
      6115.5000         0.7471         9.3371       3039.035       101.6664        40.7879       47.99486          0.375         0.4454         2.2126      -120.9194      -56.54897      0.3190395      0.1921576
      6116.0000         0.7532         9.3598        3010.02        98.0522        40.4553       47.41254          0.375         0.4519         2.2045       -121.053       -56.6838      0.3066499      0.1902314
      6116.5000         0.7592         9.4318       2955.461        97.0959        40.9932       48.35255          0.375         0.4585         2.2083      -120.5638      -56.19582      0.3266501      0.1972025
      6117.0000         0.7653         9.5091       2892.172        97.5873        41.5311       49.29258          0.375         0.4648         2.2156        -119.73      -55.36327      0.3466507      0.2090962
      6117.5000         0.7714         9.5857       2823.715        98.1376        42.0691       50.23277          0.375         0.4705         2.2261      -118.7797       -54.4142      0.3666546      0.2226543
      6118.0000         0.7772         9.5846       2729.398        98.3138        43.0518       51.95064         0.3771         0.4762         2.2344      -117.1769      -52.81264      0.4032051      0.2455337
      6118.5000          0.783         9.5429       2669.578        97.5295        44.1694       53.90445         0.3886         0.4874         2.2422      -115.5729      -51.20986      0.4447754      0.2684306
