#------------------------------------------------------------------------------
# Created by    : vladimir.rabinovich
# Created on    : 09/19/2023 17:22:45
#------------------------------------------------------------------------------
~Version Information Section
VERS.           2.0     :   CWLS log ASCII Standard - VERSION 2.0
WRAP.           NO      :   One line per depth step
~Well Information Section
#MNEM       .UNIT                                         VALUE :DESCRIPTION
#------------------------------------------------------------------------------
STRT        .FT                                            3370 :START DEPTH
STOP        .FT                                           10136 :STOP DEPTH
STEP        .FT                                             0.5 :STEP      
NULL        .                                           -999.25 :NULL      
COMP        .                                  W&T OFFSHORE INC :COMPANY   
WELL        .                               OCS G04565 ST00BP00 :WELL      
FLD         .                              GALVESTON BLOCK 0303 :FIELD     
LOC         .                                                   :LOCATION  
CNTY        .                             GALVESTON LARGE BLOCK :LOCATION  
STAT        .                                             TEXAS :STATE     
CTRY        .                                     UNITED STATES :COUNTRY   
SRVC        .                                                   :SERVICE COMPANY
DATE        .                             9/13/2023 11:19:27 AM :LOG DATE  
API         .                                    42706401000000 :API NUMBER
UWI         .                                    42706401000000 :UNIQUE WELL ID
XCOORD      .                                  988505.563749319 :SURFACE X 
YCOORD      .                                  10486369.8338556 :SURFACE Y 
LAT         .                                        28.8802688 :LATITUDE  
LON         .                                       -95.0374578 :LONGITUDE 
ELEV        .FT                                              93 :ELEVATION VALUE
ELEV_TYPE   .                                                KB :ELEVATION REFERENCE TYPE
~Curve Information Section
#MNEM       .UNIT                                      API CODE :CURVE DESCRIPTION
#------------------------------------------------------------------------------
DEPT        .FT                                                 :DEPTH     
DPHI        .DEC                                                :          
DRHO        .G/C3                                               :          
DT          .US/F                                               :          
GR          .GAPI                                               :          
GR_1        .GAPI                                               :          
GR_NORM     .GAPI                                               :GammaRay Normalized
ILD         .OHMM                                               :          
NPHI        .DEC                                                :          
RHOB        .G/C3                                               :          
SP          .MV                                                 :          
SP_NORM     .MV                                                 :SP Normalized
VSH_GR      .V/V                                                :Volume of Shale from GR
VSH_SP      .V/V                                                :Volume of Shale from SP
~A        DEPTH           DPHI           DRHO             DT             GR           GR_1        GR_NORM            ILD           NPHI           RHOB             SP        SP_NORM         VSH_GR         VSH_SP
# ...
      6562.0000         0.2071        -0.0058       117.7915        86.6421        -999.25       87.66249         0.8092         0.4131         2.3042        -36.658      -1.627132              1      0.9767553
      6562.5000         0.2051        -0.0052        120.641        87.9861        -999.25       89.34291         0.8133         0.4271          2.306       -36.6893      -1.665565              1      0.9762062
      6563.0000         0.2034        -0.0046       122.3893        88.3641        -999.25       89.81583         0.8198         0.4396         2.3059       -36.6602      -1.643593              1      0.9765201
      6563.5000         0.2028        -0.0049       123.0179        87.4825        -999.25       88.71425         0.8263         0.4429         2.3049        -36.631      -1.621525              1      0.9768354
      6564.0000         0.2041        -0.0053       123.0785        85.9275        -999.25       86.77092         0.8257         0.4429         2.3025       -36.6055      -1.603157              1      0.9770977
      6564.5000         0.2078        -0.0061       121.9855        85.8436        -999.25       86.66645         0.8206         0.4398         2.2976       -36.6108      -1.615589              1      0.9769201
      6565.0000         0.2139        -0.0068       120.8793        86.7427        -999.25       87.79075         0.8154         0.4336         2.2901       -36.6161      -1.628021              1      0.9767426
      6565.5000         0.2184        -0.0069       120.0176        86.9705        -999.25       88.07591         0.8067         0.4265         2.2834       -36.5979      -1.616951              1      0.9769007
      6566.0000         0.2191        -0.0069       119.4255        84.3638        -999.25       84.81796         0.7951         0.4202         2.2834       -36.4659      -1.492085              1      0.9786845
      6566.5000         0.2175        -0.0068       119.1917        82.5668        -999.25       82.57214         0.7838         0.4161          2.288       -36.3337      -1.367012              1      0.9804713
      6567.0000         0.2136        -0.0066       120.2682        81.6936        -999.25       81.48106         0.7795         0.4231         2.2928       -36.1785      -1.218948              1      0.9825864
      6567.5000         0.2079        -0.0062       121.7163        83.3246        -999.25       83.52022          0.778         0.4312          2.298       -35.8945     -0.9420776              1      0.9865417
      6568.0000         0.2033        -0.0055        122.209        86.6445        -999.25       87.67052         0.7789         0.4344         2.3035       -35.6105     -0.6652107              1       0.990497
      6568.5000         0.1995        -0.0044         120.12        85.8695        -999.25       86.70218         0.7822         0.4237         2.3097       -35.3266     -0.3884392              1      0.9944509
      6569.0000         0.1977        -0.0029       118.9792        83.1024        -999.25       83.24372         0.7807         0.4142          2.314       -35.3426     -0.4115753              1      0.9941204
      6569.5000          0.196        -0.0011       118.4896        82.0374        -999.25       81.91289         0.7777         0.4113         2.3173       -35.5052     -0.5813026              1      0.9916957
      6570.0000         0.1942         0.0007        118.578        82.0424        -999.25       81.91956         0.7727          0.411         2.3191       -35.6677     -0.7509346              1      0.9892724
      6570.5000         0.1922         0.0025       117.8706        82.1038        -999.25       81.99673         0.7662         0.4099         2.3217       -35.8223     -0.9126663              1      0.9869619
      6571.0000         0.1895         0.0027       116.7743        79.6245        -999.25       78.89802         0.7566         0.4061          2.323       -35.9563      -1.053795      0.9765536      0.9849458
      6571.5000         0.1906         0.0021       116.5986        78.5328        -999.25       77.53381         0.7486         0.4014         2.3227       -36.0903      -1.194931      0.9475279      0.9829295
      6572.0000         0.1944         0.0017       116.7644        80.7748        -999.25       80.33675         0.7454         0.4009         2.3172       -36.2239      -1.335659              1      0.9809192
      6572.5000          0.202         0.0013        117.661        84.8723        -999.25       85.45902         0.7433         0.4051         2.3091       -36.3522      -1.471092              1      0.9789844
      6573.0000         0.2072         0.0008       117.8022        85.7072        -999.25       86.50307         0.7423         0.4085         2.3026       -36.4805      -1.606522              1      0.9770497
      6573.5000         0.2095         0.0001       117.6342        85.0043        -999.25       85.62486         0.7463         0.4074         2.2985       -36.6644      -1.797554              1      0.9743207
      6574.0000         0.2043        -0.0023       116.9866        84.1638        -999.25       84.57466          0.749         0.4033         2.2988       -37.1203      -2.260586              1      0.9677059
      6574.5000         0.1936         -0.005        115.736        83.5671        -999.25        83.8292         0.7527         0.3982         2.3194        -37.351      -2.498421              1      0.9643083
      6575.0000         0.1884        -0.0064       115.1509        83.3607        -999.25       83.57162         0.7712         0.3932         2.3268        -37.121      -2.275547              1      0.9674922
      6575.5000         0.1908        -0.0074       115.0841        84.0479        -999.25       84.43104         0.7809         0.3894          2.316       -36.8375      -1.999184              1      0.9714403
      6576.0000         0.2002        -0.0071       115.7903         88.101        -999.25       89.49783         0.7814         0.3916         2.3033       -36.5135      -1.682312              1       0.975967
      6576.5000         0.2098        -0.0068        116.618        90.3187        -999.25       92.27037         0.7777         0.3988          2.291       -36.2045       -1.38044              1      0.9802794
      6577.0000         0.2173         -0.006       116.9269        91.4709        -999.25       93.71104         0.7688         0.4028          2.281       -36.1891      -1.372173              1      0.9803975
      6577.5000          0.222        -0.0053       116.8987        90.7125        -999.25       92.76346         0.7607         0.4038          2.276       -36.1736      -1.363804              1      0.9805171
      6578.0000         0.2201        -0.0048       114.8828        88.4243        -999.25       89.90363         0.7558         0.3971         2.2794       -36.1459      -1.343239              1      0.9808109
      6578.5000         0.2159        -0.0049       114.1278        87.0253        -999.25        88.1553          0.751         0.3871         2.2873       -36.0698      -1.274269              1      0.9817961
      6579.0000         0.2111        -0.0051       113.8344         86.549        -999.25       87.56035         0.7452         0.3818         2.2935       -35.9946        -1.2062              1      0.9827686
      6579.5000         0.2065        -0.0061       113.8594        86.0731        -999.25       86.96588         0.7389         0.3837         2.2981       -35.9717       -1.19043              1      0.9829938
      6580.0000         0.1975        -0.0072       114.3853        83.8998        -999.25       84.24968         0.7269         0.3889         2.3067       -35.9487      -1.174564              1      0.9832205
      6580.5000         0.1887        -0.0073       114.7952        82.4569        -999.25       82.44647         0.7235         0.3928          2.323       -35.8328      -1.065796              1      0.9847744
