#------------------------------------------------------------------------------
# Created by    : vladimir.rabinovich
# Created on    : 09/19/2023 17:20:39
#------------------------------------------------------------------------------
~Version Information Section
VERS.           2.0     :   CWLS log ASCII Standard - VERSION 2.0
WRAP.           NO      :   One line per depth step
~Well Information Section
#MNEM       .UNIT                                         VALUE :DESCRIPTION
#------------------------------------------------------------------------------
STRT        .FT                                             523 :START DEPTH
STOP        .FT                                           11863 :STOP DEPTH
STEP        .FT                                             0.5 :STEP      
NULL        .                                           -999.25 :NULL      
COMP        .                                      SHELL OIL CO :COMPANY   
WELL        .                                OCS 00727 ST00BP00 :WELL      
FLD         .                                           WILDCAT :FIELD     
LOC         .                                                   :LOCATION  
CNTY        .                             GALVESTON LARGE BLOCK :LOCATION  
STAT        .                                             TEXAS :STATE     
CTRY        .                                     UNITED STATES :COUNTRY   
SRVC        .                                                   :SERVICE COMPANY
DATE        .                             9/13/2023 11:19:42 AM :LOG DATE  
API         .                                    42706000240000 :API NUMBER
UWI         .                                    42706000240000 :UNIQUE WELL ID
XCOORD      .                                  977080.798970248 :SURFACE X 
YCOORD      .                                   10388448.113324 :SURFACE Y 
LAT         .                                         28.610486 :LATITUDE  
LON         .                                        -95.067834 :LONGITUDE 
ELEV        .FT                                              76 :ELEVATION VALUE
ELEV_TYPE   .                                                KB :ELEVATION REFERENCE TYPE
~Curve Information Section
#MNEM       .UNIT                                      API CODE :CURVE DESCRIPTION
#------------------------------------------------------------------------------
DEPT        .FT                                                 :DEPTH     
ASN         .OHMM                                               :          
ILD         .OHMM                                               :          
LN          .OHMM                                               :          
SP          .MV                                                 :          
SP_NORM     .MV                                                 :SP Normalized
VSH_SP      .V/V                                                :Volume of Shale from SP
~A        DEPTH            ASN            ILD             LN             SP        SP_NORM         VSH_SP
# ...
     11809.0000         0.4683         0.5096        -999.25       -37.3487        1.67569              1
     11809.5000         0.4701         0.5112        -999.25        -37.449        1.57539              1
     11810.0000          0.472         0.5128        -999.25       -37.5492       1.475193              1
     11810.5000         0.4738         0.5144        -999.25       -37.6139       1.410492              1
     11811.0000         0.4756          0.516        -999.25       -37.6399       1.384491              1
     11811.5000         0.4774         0.5174        -999.25        -37.666       1.358391              1
     11812.0000         0.4792         0.5184        -999.25        -37.692        1.33239              1
     11812.5000         0.4811         0.5194        -999.25       -37.5773        1.44709              1
     11813.0000         0.4827         0.5204        -999.25        -37.105       1.919392              1
     11813.5000         0.4834         0.5214        -999.25       -36.7059       2.318493              1
     11814.0000         0.4841         0.5224        -999.25       -36.6663       2.358089              1
     11814.5000         0.4848         0.5234        -999.25       -37.0474        1.97699              1
     11815.0000         0.4855         0.5244        -999.25       -37.4285        1.59589              1
     11815.5000         0.4862         0.5255        -999.25        -37.809       1.215393              1
     11816.0000         0.4869         0.5265        -999.25       -38.1901      0.8342896              1
     11816.5000         0.4875         0.5275        -999.25       -38.4985      0.5258904              1
     11817.0000         0.4855         0.5285        -999.25       -38.7383      0.2860909              1
     11817.5000         0.4835         0.5295        -999.25       -38.9782     0.04619217              1
     11818.0000         0.4814         0.5305        -999.25       -39.2175     -0.1931076              1
     11818.5000         0.4794         0.5315        -999.25        -39.134     -0.1096077              1
     11819.0000         0.4778         0.5278        -999.25       -38.8688      0.1555901              1
     11819.5000         0.4766         0.5236        -999.25       -38.4645      0.5598907              1
     11820.0000         0.4753         0.5193        -999.25       -38.0602      0.9641914              1
     11820.5000         0.4741         0.5151        -999.25       -37.6559       1.368492              1
     11821.0000         0.4729         0.5109        -999.25       -37.2516       1.772793              1
     11821.5000         0.4716         0.5066        -999.25       -37.3061       1.718292              1
     11822.0000         0.4717         0.5024        -999.25       -37.5983        1.42609              1
     11822.5000         0.4721         0.4982        -999.25       -37.8909       1.133492              1
     11823.0000         0.4725         0.4939        -999.25       -38.1949      0.8294907              1
     11823.5000         0.4729         0.4897        -999.25       -38.5049      0.5194893              1
     11824.0000         0.4733         0.4855        -999.25       -38.8143      0.2100906              1
     11824.5000         0.4732         0.4812        -999.25       -38.9575     0.06689072              1
     11825.0000         0.4719          0.477        -999.25       -38.7712      0.2531929              1
     11825.5000         0.4706         0.4728        -999.25       -38.5852      0.4391899              1
     11826.0000         0.4694         0.4686        -999.25        -38.399      0.6253929              1
     11826.5000         0.4681         0.4649        -999.25       -38.2265      0.7978897              1
     11827.0000         0.4668         0.4649        -999.25       -38.1716      0.8527908              1
     11827.5000         0.4655         0.4649        -999.25       -38.1168      0.9075928              1
     11828.0000         0.4642         0.4649        -999.25        -38.062      0.9623909              1
     11828.5000         0.4637          0.465        -999.25       -38.0071       1.017292              1
     11829.0000         0.4637          0.465        -999.25       -37.9523        1.07209              1
     11829.5000         0.4637          0.465        -999.25       -37.8976       1.126793              1
     11830.0000         0.4637          0.465        -999.25       -37.8427        1.18169              1
     11830.5000         0.4637         0.4651        -999.25       -37.7878       1.236591              1
     11831.0000         0.4637         0.4651        -999.25        -37.733       1.291389              1
     11831.5000         0.4637         0.4651        -999.25       -37.7086       1.315792              1
     11832.0000         0.4642         0.4652        -999.25       -37.7618       1.262592              1
     11832.5000         0.4649         0.4652        -999.25       -37.8362        1.18819              1
     11833.0000         0.4656         0.4652        -999.25       -37.9637       1.060692              1
     11833.5000         0.4663         0.4652        -999.25       -38.0912      0.9331894              1
     11834.0000          0.467         0.4653        -999.25       -38.2187      0.8056908              1
     11834.5000         0.4677         0.4653        -999.25       -38.3462      0.6781921              1
     11835.0000         0.4684         0.4671        -999.25       -38.3461      0.6782913              1
     11835.5000         0.4691         0.4696        -999.25       -38.3331      0.6912918              1
     11836.0000         0.4698         0.4721        -999.25       -38.3201      0.7042923              1
     11836.5000         0.4706         0.4745        -999.25       -38.3071      0.7172928              1
     11837.0000         0.4701          0.477        -999.25       -38.2941      0.7302895              1
     11837.5000         0.4689         0.4795        -999.25       -38.2811      0.7432899              1
     11838.0000         0.4676         0.4819        -999.25       -38.2681      0.7562904              1
     11838.5000         0.4664         0.4844        -999.25        -38.222      0.8023911              1
     11839.0000         0.4651         0.4869        -999.25       -38.1619      0.8624916              1
     11839.5000         0.4639         0.4893        -999.25       -38.1019       0.922493              1
     11840.0000         0.4627         0.4918        -999.25       -38.0417      0.9826927              1
     11840.5000         0.4614         0.4943        -999.25       -37.9816       1.042789              1
     11841.0000         0.4603         0.4967        -999.25       -37.9216       1.102791              1
     11841.5000         0.4601         0.4972        -999.25       -37.8615       1.162891              1
     11842.0000           0.46         0.4967        -999.25       -37.8013       1.223091              1
     11842.5000         0.4598         0.4962        -999.25       -37.7703       1.254089              1
     11843.0000         0.4597         0.4958        -999.25       -37.8129       1.211491              1
     11843.5000         0.4596         0.4953        -999.25       -37.8554       1.168991              1
     11844.0000         0.4594         0.4948        -999.25       -37.8978       1.126591              1
     11844.5000         0.4593         0.4944        -999.25       -37.9505       1.073891              1
     11845.0000         0.4591         0.4939        -999.25       -38.1063      0.9180908              1
     11845.5000          0.459         0.4934        -999.25       -38.2618      0.7625923              1
     11846.0000          0.459          0.493        -999.25       -38.4176      0.6067924              1
     11846.5000          0.459         0.4925        -999.25        -38.748      0.2763901              1
