#------------------------------------------------------------------------------
# Created by    : vladimir.rabinovich
# Created on    : 09/19/2023 17:21:03
#------------------------------------------------------------------------------
~Version Information Section
VERS.           2.0     :   CWLS log ASCII Standard - VERSION 2.0
WRAP.           NO      :   One line per depth step
~Well Information Section
#MNEM       .UNIT                                         VALUE :DESCRIPTION
#------------------------------------------------------------------------------
STRT        .FT                                          2542.5 :START DEPTH
STOP        .FT                                            8214 :STOP DEPTH
STEP        .FT                                             0.5 :STEP      
NULL        .                                           -999.25 :NULL      
COMP        .                          SEAGULL ENERGY E & P INC :COMPANY   
WELL        .                               OCS G12505 ST00BP00 :WELL      
FLD         .                              GALVESTON BLOCK 0357 :FIELD     
LOC         .                                                   :LOCATION  
CNTY        .                             GALVESTON LARGE BLOCK :LOCATION  
STAT        .                                             TEXAS :STATE     
CTRY        .                                     UNITED STATES :COUNTRY   
SRVC        .                                                   :SERVICE COMPANY
DATE        .                             9/13/2023 11:19:54 AM :LOG DATE  
API         .                                    42706403610000 :API NUMBER
UWI         .                                    42706403610000 :UNIQUE WELL ID
XCOORD      .                                  1003713.76055251 :SURFACE X 
YCOORD      .                                  10412171.7759297 :SURFACE Y 
LAT         .                                          28.67696 :LATITUDE  
LON         .                                        -94.986081 :LONGITUDE 
ELEV        .FT                                              96 :ELEVATION VALUE
ELEV_TYPE   .                                                KB :ELEVATION REFERENCE TYPE
~Curve Information Section
#MNEM       .UNIT                                      API CODE :CURVE DESCRIPTION
#------------------------------------------------------------------------------
DEPT        .FT                                                 :DEPTH     
AT10        .OHMM                                               :          
AT20        .OHMM                                               :          
AT30        .OHMM                                               :          
AT60        .OHMM                                               :          
AT90        .OHMM                                               :          
DCAL        .IN                                                 :          
DPSS        .V/V                                                :          
DTLF        .US/FT                                              :          
DTLN        .US/FT                                              :          
GR          .GAPI                                               :          
GR_NORM     .GAPI                                               :GammaRay Normalized
NPSS        .V/V                                                :Neutron Porosity Sandstone
SP          .MV                                                 :          
SP_NORM     .MV                                                 :SP Normalized
TENS        .LB                                                 :          
VSH_GR      .V/V                                                :Volume of Shale from GR
VSH_SP      .V/V                                                :Volume of Shale from SP
~A        DEPTH           AT10           AT20           AT30           AT60           AT90           DCAL           DPSS           DTLF           DTLN             GR        GR_NORM           NPSS             SP        SP_NORM           TENS         VSH_GR         VSH_SP
# ...
      5287.5000         0.7555         0.7483         0.7483         0.7342         0.7203           0.72         0.2304       116.1224       116.7347           82.6       66.37823         0.3864           -3.4      -3.795896       2795.918       0.710175      0.9457729
      5288.0000         0.7701         0.7627         0.7701         0.7555         0.7412           0.72         0.2352       114.0816       114.6939           78.8       62.59544         0.3828           -4.6       -4.99899       2795.918      0.6296901      0.9285859
      5288.5000         0.7849         0.7849         0.7924         0.7774         0.7627           0.72         0.2364       111.8367        112.449           74.6       58.41441          0.372           -5.6      -6.002083       2795.918      0.5407322       0.914256
      5289.0000         0.8073         0.8073         0.8073         0.7924         0.7774           0.72         0.2328       109.5918       110.2041             72       55.82629         0.3612           -6.6      -7.005177       2795.918      0.4856657      0.8999261
      5289.5000          0.822         0.8295          0.822         0.8073         0.7924           0.72          0.228       107.7551       108.3673           71.8        55.6275         0.3516           -7.8      -8.208271       2795.918      0.4814361       0.882739
      5290.0000         0.8371         0.8447         0.8371         0.8146            0.8           0.72          0.222       106.5306       107.1429           73.8       57.61892         0.3468           -8.4      -8.811364       2795.918      0.5238067      0.8741234
      5290.5000         0.8371         0.8447         0.8371          0.822         0.8073         0.6412         0.2184       107.7551       108.3673           77.2       61.00412         0.3432           -7.6      -8.014458       2794.554      0.5958324      0.8855078
      5291.0000         0.8371         0.8371         0.8295         0.8073         0.7924         0.6432         0.2219       110.4082       111.0204           77.4       61.20354          0.354           -6.4      -6.817552       2792.278      0.6000754      0.9026064
      5291.5000          0.822          0.822         0.8073         0.7849         0.7701         0.6452          0.229       113.2653       113.8776           77.2       61.00475         0.3768           -5.4      -5.820645       2789.996      0.5958458      0.9168479
      5292.0000         0.7924         0.8073         0.7701         0.7555         0.7412         0.6472         0.2338       115.7143       116.3265           77.4       61.20419         0.3923           -5.8      -6.223739       2869.646      0.6000891      0.9110894
      5292.5000          0.822         0.7774         0.7342         0.7203         0.7067         0.6492         0.2337       114.6939       115.3061           76.4       60.20894         0.3911          -10.6      -11.02683        2867.44      0.5789137      0.8424738
      5293.0000          0.868         0.7849         0.7412         0.7067            0.7         0.6512         0.2289       107.7551       110.2041           73.8       57.62082         0.3684          -15.4      -15.82993       2865.229      0.5238472      0.7738582
      5293.5000         0.9322         0.8295         0.7627         0.7067            0.7         0.6532         0.2168        99.6078       102.0408             70       53.83802         0.3432          -16.6      -17.03302       2863.014      0.4433621      0.7566711
      5294.0000              1          0.868         0.7924            0.7         0.7067         0.7352         0.1975        96.2745         97.451        68.2135       52.05978         0.3132            -15      -15.43611       2860.794      0.4055271      0.7794841
      5294.5000         0.9913          0.868         0.7774            0.7         0.7067         0.7372         0.1855        96.4706        97.0588        66.6289       50.48253         0.2846          -13.2      -13.63921       2858.569      0.3719687      0.8051542
      5295.0000         0.9487         0.8447         0.7555            0.7         0.6933         0.8192         0.1866       101.8367        102.449        67.2265        51.0778         0.3012          -12.8       -13.2423        2856.34       0.384634      0.8108243
      5295.5000         0.8919         0.8146         0.7412         0.6933         0.6801         0.8212         0.1974       108.3673       108.9796        69.0105       52.85418         0.3288          -11.6      -12.04539       2854.553      0.4224294      0.8279229
      5296.0000          0.822         0.7555         0.7067         0.6671         0.6543         0.9432         0.2045        114.898       115.5102           72.4       56.22893          0.348           -6.4      -6.848488       2852.315      0.4942326      0.9021645
      5296.5000         0.7412         0.6933         0.6735         0.6481         0.6357         0.9852          0.208       121.3725       121.9608             77       60.80881         0.3801           -2.8      -3.251581       2850.073      0.5916768      0.9535488
      5297.0000         0.6543         0.6481         0.6419         0.6236         0.6117         1.0672         0.2128       124.1176       124.7059           81.6       65.38866         0.4062            0.4    -0.05467513       2847.826      0.6891205      0.9992189
      5297.5000         0.6357         0.6296         0.6176         0.6058         0.5948         1.0692         0.2211       125.4902       126.0784           86.4       70.16766         0.4191            1.4      0.9422312       2845.574      0.7908013              1
      5298.0000         0.6357         0.6296         0.6176            0.6         0.5897         1.0712         0.2283        124.902       125.4902           87.8       71.56175         0.4362            1.6       1.139138       2843.318      0.8204628              1
      5298.5000         0.6419         0.6357         0.6176            0.6         0.5897         1.0732         0.2294       123.7255       124.3137           87.2       70.96473         0.4533            0.6       0.136044       2841.057      0.8077602              1
      5299.0000         0.6481         0.6419         0.6176            0.6         0.5897         1.0752         0.2293       122.7451       123.1373             86       69.77038         0.4789              0     -0.4670497       2838.791      0.7823485      0.9933279
      5299.5000         0.6543         0.6419         0.6058         0.5948         0.5846         1.0772         0.2293       123.7255       123.1373           85.8       69.57159         0.4837              0     -0.4701433        2836.52      0.7781188      0.9932837
      5300.0000         0.6543         0.6296            0.6         0.5897         0.5795         1.0792         0.2292       124.3137       124.1176           88.2       71.96124         0.4604              0     -0.4732369       2834.245      0.8289624      0.9932395
      5300.5000         0.6359         0.6238          0.595         0.5847         0.5747           1.08         0.2268       124.5098       124.7059        91.8011       75.54665         0.4322        -0.3942     -0.8705305       2830.858      0.9052478      0.9875638
      5301.0000         0.6362         0.6181         0.5952          0.585         0.5749           1.12          0.222        124.902       124.7059        92.0032       75.74815         0.4187        -1.5865      -2.065924       2826.733      0.9095352      0.9704868
      5301.5000         0.6427         0.6184         0.5903         0.5852         0.5752           1.12         0.2136        125.098       124.5098             90       73.75417         0.4092        -2.7812      -3.263718       2822.607      0.8671101      0.9533755
      5302.0000          0.643         0.6068         0.5906         0.5804         0.5704           1.16         0.2016       125.8824        124.902           87.8       71.56429         0.4222        -1.5696      -2.055212       2818.482      0.8205167      0.9706398
