#------------------------------------------------------------------------------
# Created by    : vladimir.rabinovich
# Created on    : 09/19/2023 17:20:12
#------------------------------------------------------------------------------
~Version Information Section
VERS.           2.0     :   CWLS log ASCII Standard - VERSION 2.0
WRAP.           NO      :   One line per depth step
~Well Information Section
#MNEM       .UNIT                                         VALUE :DESCRIPTION
#------------------------------------------------------------------------------
STRT        .FT                                             309 :START DEPTH
STOP        .FT                                            9124 :STOP DEPTH
STEP        .FT                                             0.5 :STEP      
NULL        .                                           -999.25 :NULL      
COMP        .                         SONAT EXPLORATION GOM INC :COMPANY   
WELL        .                               OCS G03084 ST00BP00 :WELL      
FLD         .                                           WILDCAT :FIELD     
LOC         .                                                   :LOCATION  
CNTY        .                      MATAGORDA ISLAND LARGE BLOCK :LOCATION  
STAT        .                                             TEXAS :STATE     
CTRY        .                                     UNITED STATES :COUNTRY   
SRVC        .                                                   :SERVICE COMPANY
DATE        .                             9/13/2023 11:12:09 AM :LOG DATE  
API         .                                    42703400260000 :API NUMBER
UWI         .                                    42703400260000 :UNIQUE WELL ID
XCOORD      .                                  563826.313549269 :SURFACE X 
YCOORD      .                                  10238444.2560225 :SURFACE Y 
LAT         .                                         28.172716 :LATITUDE  
LON         .                                        -96.341662 :LONGITUDE 
ELEV        .FT                                              97 :ELEVATION VALUE
ELEV_TYPE   .                                                KB :ELEVATION REFERENCE TYPE
~Curve Information Section
#MNEM       .UNIT                                      API CODE :CURVE DESCRIPTION
#------------------------------------------------------------------------------
DEPT        .FT                                                 :DEPTH     
ASFL        .OHMM                                               :          
CILD        .MMHO                                               :          
DT          .US/F                                               :          
GR          .GAPI                                               :          
GR_NORM     .GAPI                                               :GammaRay Normalized
ILD         .OHMM                                               :          
SP          .MV                                                 :          
SP_NORM     .MV                                                 :SP Normalized
VSH_GR      .V/V                                                :Volume of Shale from GR
VSH_SP      .V/V                                                :Volume of Shale from SP
~A        DEPTH           ASFL           CILD             DT             GR        GR_NORM            ILD             SP        SP_NORM         VSH_GR         VSH_SP
# ...
      3249.0000         0.5039       3117.074       122.8325        32.2645       37.99775         0.2223      -113.1414      -22.74394      0.1063352      0.0940024
      3249.5000         0.5059       3147.352       123.1554        32.4039       38.22218          0.219      -113.5801      -23.17799      0.1111103     0.07591724
      3250.0000         0.5077       3141.832       124.2665        33.5171       40.04413         0.2158      -113.9143      -23.50752      0.1498751     0.06218656
      3250.5000         0.5095       3135.676       127.1676        34.5706       41.76815         0.2138      -114.0598      -23.64837      0.1865563     0.05631797
      3251.0000         0.5113       3129.523       128.7603        35.4449       43.19818         0.2187      -114.2052      -23.78912      0.2169826      0.0504535
      3251.5000         0.5132       3128.785       128.7112        36.5414       44.99273         0.2236      -114.2816      -23.86086      0.2551645     0.04746437
      3252.0000          0.515       3131.859       128.1672        36.0865       44.24221         0.2285      -114.2372       -23.8118       0.239196     0.04950841
      3252.5000         0.5168       3134.934       127.3364        35.3422       43.01693         0.2333      -114.1927      -23.76265      0.2131262     0.05155627
      3253.0000         0.5186       3138.012        126.505        34.5622       41.73308         0.2382      -114.1484      -23.71368      0.1858103      0.0535965
      3253.5000         0.5207        3152.23       125.8259        33.7639        40.4192           0.24       -114.104      -23.66463      0.1578554     0.05564054
      3254.0000         0.5231        3166.57       125.6345        33.0473       39.23936         0.2369      -114.0352      -23.59118      0.1327524     0.05870088
      3254.5000         0.5255        3180.91       125.4431        32.4415       38.24129         0.2338      -113.9594      -23.51071      0.1115168     0.06205368
      3255.0000         0.5279       3195.254       125.9863        32.7903       38.80923         0.2306      -113.8835      -23.43016      0.1236007     0.06540998
      3255.5000         0.5302       3189.914       126.5857         33.139       39.37702         0.2275      -113.6479      -23.18991      0.1356812     0.07542038
      3256.0000         0.5327        3184.34       127.0159        33.4879       39.94513          0.226       -113.298      -22.83534      0.1477687     0.09019407
      3256.5000         0.5354       3170.047       127.3358        33.8368       40.51325         0.2271      -112.9148      -22.44749      0.1598564      0.1063544
      3257.0000         0.5382       3142.242       126.8431        34.1856       41.08119         0.2282      -112.3881      -21.91614      0.1719402      0.1284943
      3257.5000         0.5409       3114.441       126.3239        34.5344       41.64915         0.2292      -111.8613      -21.38467      0.1840245      0.1506386
      3258.0000         0.5565       3046.883        125.804        34.8832        42.2171         0.2363      -111.3943      -20.91302      0.1961085      0.1702906
      3258.5000         0.5732       2969.625       131.5212        34.3646       41.36208         0.2519      -110.8716      -20.38567      0.1779165      0.1922639
      3259.0000         0.5997       2873.043       139.4817         33.533       39.99357         0.2899       -110.113      -19.62241      0.1487994      0.2240661
      3259.5000         0.6212       2773.961        144.687        33.5783       40.06363         0.3417       -109.141      -18.64575        0.15029      0.2647603
      3260.0000         0.6421       2645.066       147.8625        38.2763       47.76645         0.3972      -107.6295       -17.1296      0.3141797      0.3279333
      3260.5000         0.6577       2494.195       147.4385        41.1139       52.41729         0.4649       -105.421      -14.91644      0.4131337      0.4201482
      3261.0000         0.6731       2128.434       146.2598        45.8034       60.10617         0.5517       -98.2162      -7.706985      0.5767271      0.7205423
      3261.5000         0.6899        1799.43       145.4277        48.9596       65.27968         0.6373       -95.0189      -4.505028      0.6868017      0.8539572
      3262.0000         0.7077       1651.107       144.9119        53.5197       72.75627         0.6884       -92.9219      -2.403374      0.8458781      0.9415261
      3262.5000         0.7314       1463.432       144.7815        56.3162       77.33971         0.7377       -91.7968      -1.273613       0.943398      0.9885995
      3263.0000         0.7486       1172.955       145.9788        57.4811       79.24645         0.7641       -90.9446     -0.4167633      0.9839671              1
      3263.5000         0.7599        1118.92       146.0535        57.0026       78.45721         0.7905       -90.3055      0.2269974      0.9671748              1
      3264.0000         0.7695       1080.271       145.6052         56.496       77.62188         0.8168       -89.6993      0.8378525      0.9494017              1
      3264.5000          0.779       1065.141        144.894        55.9108       76.65758         0.8398       -89.2451       1.296707      0.9288846              1
      3265.0000         0.7903       1050.008       143.7046        55.3256       75.69331         0.8541       -88.7909       1.755562      0.9083683              1
      3265.5000         0.8016       1034.877       141.6562        54.7285       74.70951         0.8684         -88.39       2.161125      0.8874364              1
      3266.0000         0.8138       1019.745       139.2964        54.1012       73.67616         0.8828       -88.0972        2.45858      0.8654501              1
      3266.5000         0.8273       1004.613        135.718        53.6096       72.86542         0.8969       -87.9763       2.584129      0.8482004              1
      3267.0000         0.8419        987.377       131.6138        52.6995       71.36815         0.9087       -87.8556       2.709496      0.8163436              1
      3267.5000         0.8604       969.7109       125.8906        50.6447       67.99298         0.9205        -87.792       2.777748      0.7445315              1
      3268.0000         0.8827       952.0449       120.9282        52.7213       71.39539         0.9323       -87.8176       2.756805      0.8169233              1
      3268.5000         0.9166       934.3906       117.9026        53.6896       72.97964         0.9538       -87.8433       2.735764      0.8506308              1
      3269.0000         0.9508       920.9629       119.7383        54.1264       73.69196         0.9792       -88.0653       2.518417      0.8657864              1
      3269.5000         0.9721       908.3408       122.8927        54.4998       74.30025         1.0046       -88.5836       2.004768      0.8787288              1
      3270.0000         0.9872       895.9404        126.316        54.8731        74.9084          1.024       -89.3102       1.282822      0.8916681              1
      3270.5000          0.899       888.9512       130.1799        55.1888       75.42206         1.0268       -90.2834      0.3142853       0.902597              1
      3271.0000         0.8773       902.6104       133.4783         55.498       75.92503          1.001        -91.032      -0.429657      0.9132984              1
      3271.5000          0.865       918.9717       135.2676        55.4061       75.77002         0.9755       -91.7911      -1.184105      0.9100004      0.9923289
      3272.0000          0.854       936.7754       135.5542        55.1443       75.33628         0.9509       -91.5463     -0.9346466      0.9007719              1
      3272.5000         0.8465       954.5918       135.8411        54.8824       74.90237         0.9263       -91.3014     -0.6850891      0.8915397              1
      3273.0000         0.8391       972.1953       137.1069        54.6205       74.46845         0.9018       -91.0566     -0.4356384      0.8823075              1
