#------------------------------------------------------------------------------
# Created by    : vladimir.rabinovich
# Created on    : 09/19/2023 17:20:03
#------------------------------------------------------------------------------
~Version Information Section
VERS.           2.0     :   CWLS log ASCII Standard - VERSION 2.0
WRAP.           NO      :   One line per depth step
~Well Information Section
#MNEM       .UNIT                                         VALUE :DESCRIPTION
#------------------------------------------------------------------------------
STRT        .FT                                             945 :START DEPTH
STOP        .FT                                           12004 :STOP DEPTH
STEP        .FT                                             0.5 :STEP      
NULL        .                                           -999.25 :NULL      
COMP        .                                    EXXON CO U S A :COMPANY   
WELL        .                                     ST TR 00819-L :WELL      
FLD         .                                           WILDCAT :FIELD     
LOC         .                                                   :LOCATION  
CNTY        .                        MUSTANG ISLAND LARGE BLOCK :LOCATION  
STAT        .                                             TEXAS :STATE     
CTRY        .                                     UNITED STATES :COUNTRY   
SRVC        .                                                   :SERVICE COMPANY
DATE        .                             9/13/2023 11:18:55 AM :LOG DATE  
API         .                                    42702301310000 :API NUMBER
UWI         .                                    42702301310000 :UNIQUE WELL ID
XCOORD      .                                  274042.524369281 :SURFACE X 
YCOORD      .                                  9990401.22532542 :SURFACE Y 
LAT         .                                        27.4671591 :LATITUDE  
LON         .                                       -97.2129423 :LONGITUDE 
ELEV        .FT                                              93 :ELEVATION VALUE
ELEV_TYPE   .                                                KB :ELEVATION REFERENCE TYPE
~Curve Information Section
#MNEM       .UNIT                                      API CODE :CURVE DESCRIPTION
#------------------------------------------------------------------------------
DEPT        .FT                                                 :DEPTH     
ASFL        .OHMM                                               :          
CILD        .MMHO                                               :          
GR          .GAPI                                               :          
GR_NORM     .GAPI                                               :GammaRay Normalized
ILD         .OHMM                                               :          
SP          .MV                                                 :          
SP_NORM     .MV                                                 :SP Normalized
VSH_GR      .V/V                                                :Volume of Shale from GR
VSH_SP      .V/V                                                :Volume of Shale from SP
~A        DEPTH           ASFL           CILD             GR        GR_NORM            ILD             SP        SP_NORM         VSH_GR         VSH_SP
# ...
      2402.5000         0.6286       1228.238        36.8098       42.70666         0.7335         -35.34      -4.387619      0.2065246      0.6589116
      2403.0000         0.6413       1197.682        37.2472       43.51874         0.7336       -35.1606      -4.208218      0.2238029      0.6845403
      2403.5000          0.654       1143.924        37.4954       43.97955         0.7338       -34.9812       -4.02882      0.2336075      0.7101685
      2404.0000         0.6667       1090.189        37.7358        44.4259         0.7526       -34.8018      -3.849419      0.2431042      0.7357973
      2404.5000         0.6794       1036.432        37.3276       43.66803         0.7788       -34.6224      -3.670017      0.2269793      0.7614261
      2405.0000          0.692       1001.754        36.9193       42.90997         0.8049       -34.4429       -3.49052      0.2108503      0.7870685
      2405.5000         0.7047       973.7217        36.5112       42.15228         0.8311       -34.2635      -3.311119      0.1947294      0.8126973
      2406.0000         0.7216       945.6768         36.103       41.39442         0.8572       -34.0842      -3.131821      0.1786046      0.8383113
      2406.5000         0.7394       917.6445        35.6949       40.63672         0.8834       -33.9047       -2.95232      0.1624835      0.8639542
      2407.0000         0.7571       892.2773        35.2866       39.87867         0.9095       -33.7292      -2.776817      0.1463547      0.8890261
      2407.5000         0.7749       877.3311        35.2781        39.8629         0.9357       -33.5952      -2.642818      0.1460191      0.9081688
      2408.0000         0.7923       865.6953        35.3676       40.02906         0.9506       -33.4612       -2.50882      0.1495546      0.9273115
      2408.5000         0.8092       896.5049        35.4572       40.19541          0.954       -33.3271      -2.374718      0.1530939      0.9464689
      2409.0000          0.794       927.3271        35.9739       41.15473         0.9574       -33.1932      -2.240818      0.1735048      0.9655975
      2409.5000          0.759       958.1367        36.7501       42.59582         0.9608       -33.0591       -2.10672      0.2041664      0.9847543
      2410.0000         0.7349        988.959         37.526       44.03638         0.9641       -32.9252       -1.97282      0.2348165              1
      2410.5000         0.7134       1021.554        38.0207       44.95484         0.9675       -32.8148      -1.862419      0.2543583              1
      2411.0000         0.6919       1056.863         37.569       44.11621         0.9577       -32.8334       -1.88102       0.236515              1
      2411.5000         0.6704       1092.186        37.1172       43.27738         0.9203       -32.8519      -1.899517      0.2186676              1
      2412.0000         0.6674       1099.861        36.6655       42.43876         0.8829       -32.8704      -1.918018      0.2008247              1
      2412.5000         0.6825       1063.893        36.3419       41.83796         0.8455        -32.889      -1.936619      0.1880418              1
      2413.0000         0.6975       1027.926        36.3439       41.84167         0.8509       -32.9075       -1.95512      0.1881207              1
      2413.5000         0.7126        991.959        36.3458        41.8452         0.8641       -32.8727      -1.920319      0.1881957              1
      2414.0000         0.7276       955.9922        36.3478       41.84891         0.8774       -32.7346      -1.782219      0.1882746              1
      2414.5000           0.74       924.6465        36.3498       41.85262         0.8907       -32.5964       -1.64402      0.1883537              1
      2415.0000         0.7515       915.4375        37.5192       44.02375          0.904       -32.4584       -1.50602      0.2345478              1
      2415.5000          0.763       906.2285        38.8502        46.4949         0.9181       -32.3203       -1.36792      0.2871256              1
      2416.0000         0.7746       897.0195        40.1813       48.96624         0.9384       -32.1821      -1.229717      0.3397072              1
      2416.5000         0.7861       887.8105        41.5118       51.43646         0.9587       -32.0461      -1.093719      0.3922651              1
      2417.0000         0.7976       876.0791        43.0033       54.20561         0.9789       -31.9186     -0.9662189      0.4511832              1
      2417.5000         0.8092       863.0674        44.3901       56.78035         0.9992       -31.7912     -0.8388195       0.505965              1
      2418.0000         0.8207       850.0547        43.9758       56.01115         1.0195       -31.6602      -0.707819       0.489599              1
      2418.5000         0.8368       824.5703        43.6592       55.42335         1.0398       -31.4165      -0.464119      0.4770926              1
      2419.0000         0.8549       776.6143        43.3564       54.86116         1.0601        -31.173     -0.2206192      0.4651312              1
      2419.5000         0.8729       728.6582        43.0536       54.29898         1.0804       -30.9294     0.02298164      0.4531698              1
      2420.0000         0.8932       680.6768        42.7509       53.73699         1.1007       -30.6858      0.2665806      0.4412125              1
      2420.5000          0.918       634.6787        43.2476       54.65918          1.137       -30.4422      0.5101814      0.4608335              1
      2421.0000         0.9429       592.3389        44.3511       56.70793         1.1811       -30.3239      0.6284809       0.504424              1
      2421.5000         0.9688        549.999         45.454       58.75561         1.2253       -30.2158      0.7365818      0.5479918              1
      2422.0000         0.9992       507.6597        46.5576       60.80455         1.2694       -30.1076      0.8447819      0.5915862              1
      2422.5000         1.0296       499.7495         47.423       62.41126         1.3194       -30.2007      0.7516804      0.6257715              1
      2423.0000         1.0576       528.8105        48.0715       63.61528          1.371       -30.4583      0.4940815       0.651389              1
      2423.5000           1.08       565.1748        48.1961        63.8466         1.4225       -30.7159      0.2364807      0.6563106              1
      2424.0000         1.0496       606.8945        47.6204       62.77775         1.4741       -30.9735    -0.02111816      0.6335692              1
      2424.5000          1.015        648.627        47.0444       61.70835         1.4495        -31.231     -0.2786198       0.610816              1
      2425.0000         0.9805       690.3594        46.4687        60.6395         1.4138       -31.2633     -0.3109188      0.5880744              1
      2425.5000          0.947       732.0801        45.8936       59.57176         1.3756       -31.1712     -0.2188187      0.5653566              1
      2426.0000         0.9183       773.8125        45.3629       58.58647         1.3374       -31.0791     -0.1267185      0.5443929              1
      2426.5000         0.8896       795.0068        44.8319       57.60061         1.2992        -30.987    -0.03461838      0.5234173              1
      2427.0000         0.8843       814.3047        44.3011       56.61512          1.261       -30.7838       0.168581      0.5024495              1
      2427.5000         0.8868       833.6025        43.7701       55.62925         1.2228       -30.5258      0.4265804      0.4814734              1
      2428.0000         0.8893       852.9004        44.7024       57.36017         1.1846       -30.2679      0.6844807      0.5183015              1
      2428.5000         0.8918       872.1982        45.9178        59.6167         1.1464       -30.0098      0.9425812      0.5663127              1
