#------------------------------------------------------------------------------
# Created by    : vladimir.rabinovich
# Created on    : 09/19/2023 17:19:44
#------------------------------------------------------------------------------
~Version Information Section
VERS.           2.0     :   CWLS log ASCII Standard - VERSION 2.0
WRAP.           NO      :   One line per depth step
~Well Information Section
#MNEM       .UNIT                                         VALUE :DESCRIPTION
#------------------------------------------------------------------------------
STRT        .FT                                            3520 :START DEPTH
STOP        .FT                                           13769 :STOP DEPTH
STEP        .FT                                             0.5 :STEP      
NULL        .                                           -999.25 :NULL      
COMP        .                           WILLIAMS EXPLORATION CO :COMPANY   
WELL        .                                          SL 73414 :WELL      
FLD         .                                           WILDCAT :FIELD     
LOC         .                                                   :LOCATION  
CNTY        .                           HIGH ISLAND LARGE BLOCK :LOCATION  
STAT        .                                             TEXAS :STATE     
CTRY        .                                     UNITED STATES :COUNTRY   
SRVC        .                                                   :SERVICE COMPANY
DATE        .                             9/13/2023 11:19:15 AM :LOG DATE  
API         .                                    42708301040000 :API NUMBER
UWI         .                                    42708301040000 :UNIQUE WELL ID
XCOORD      .                                  1272749.25589155 :SURFACE X 
YCOORD      .                                  10699068.0748216 :SURFACE Y 
LAT         .                                        29.4758188 :LATITUDE  
LON         .                                       -94.1558378 :LONGITUDE 
ELEV        .FT                                             106 :ELEVATION VALUE
ELEV_TYPE   .                                                KB :ELEVATION REFERENCE TYPE
~Curve Information Section
#MNEM       .UNIT                                      API CODE :CURVE DESCRIPTION
#------------------------------------------------------------------------------
DEPT        .FT                                                 :DEPTH     
ASFL        .OHMM                                               :          
CILD        .MMHO                                               :          
ILD         .OHMM                                               :          
SP          .MV                                                 :          
SP_NORM     .MV                                                 :SP Normalized
VSH_SP      .V/V                                                :Volume of Shale from SP
~A        DEPTH           ASFL           CILD            ILD             SP        SP_NORM         VSH_SP
# ...
     10322.0000         0.4479       2170.293         0.3818       -76.6381       1.567444              1
     10322.5000         0.4617       2123.723         0.3799       -77.4323      0.7681503              1
     10323.0000         0.4717       2077.152         0.3781       -78.3341     -0.1387482              1
     10323.5000         0.4747        2031.58         0.3793       -79.2378      -1.047546      0.9993109
     10324.0000         0.4685       2061.797          0.388       -80.1415      -1.956345        0.98614
     10324.5000         0.4594       2150.746         0.3967       -80.0074      -1.827339      0.9880096
     10325.0000         0.4503       2208.285         0.4054       -79.6803      -1.505333      0.9926763
     10325.5000         0.4413       2255.258         0.4141       -79.3528       -1.18293      0.9973488
     10326.0000         0.4322       2302.324         0.4175       -79.0253      -0.860527              1
     10326.5000         0.4231       2349.293         0.3949       -78.6978     -0.5381241              1
     10327.0000         0.4171       2403.844         0.3965       -78.4661     -0.3115234              1
     10327.5000          0.413       2465.871         0.3982       -78.4062     -0.2567139              1
     10328.0000         0.4111       2403.246         0.3998       -78.3463     -0.2019119              1
     10328.5000         0.4179       2338.523         0.4015       -78.2865     -0.1472092              1
     10329.0000         0.4247       2273.805         0.4032       -78.2058     -0.0716095              1
     10329.5000         0.4315       2208.984         0.4117       -78.0437     0.08539581              1
     10330.0000         0.4383       2144.266         0.4265       -77.8815      0.2425003              1
     10330.5000         0.4451        2099.09         0.4413       -77.7194      0.3995056              1
     10331.0000         0.4519       2056.609         0.4561       -78.1949    -0.08109283              1
     10331.5000         0.4587       2014.029         0.4709       -78.8907     -0.7819901              1
     10332.0000         0.4655       1971.447         0.4857       -79.7314      -1.627785      0.9909016
     10332.5000         0.4723       1943.775         0.5004       -80.5702       -2.47168      0.9786713
     10333.0000          0.479       1974.588         0.5152       -81.4108      -3.317375      0.9664149
     10333.5000         0.4811       2012.732           0.53       -82.2273      -4.138977      0.9545076
     10334.0000          0.477       2053.418         0.5277       -81.5165      -3.433273      0.9647352
     10334.5000         0.4729       2094.105         0.5214       -80.2788      -2.200668       0.982599
     10335.0000         0.4688       2134.793         0.5151       -79.0411     -0.9680634              1
     10335.5000         0.4647       2175.477         0.5089       -77.9596      0.1083374              1
     10336.0000         0.4606       2209.883         0.5026       -77.9069      0.1559448              1
     10336.5000         0.4561       2237.605         0.4939       -77.8541      0.2036438              1
     10337.0000         0.4508        2264.48         0.4818       -77.8539      0.1987534              1
     10337.5000         0.4456       2239.551         0.4696       -77.8705      0.1770554              1
     10338.0000         0.4404       2214.621         0.4575       -77.8872      0.1552582              1
     10338.5000         0.4481       2189.688         0.4454       -77.9038      0.1335602              1
     10339.0000         0.4566       2170.742         0.4332       -77.9204      0.1118622              1
     10339.5000         0.4652        2156.43         0.4256       -77.9371       0.090065              1
     10340.0000         0.4706       2142.121         0.4255       -77.8196      0.2024689              1
     10340.5000          0.465       2207.391         0.4254        -77.616      0.4009781              1
     10341.0000         0.4594        2321.77         0.4253       -77.4119      0.5999756              1
     10341.5000         0.4538       2372.332         0.4251       -77.2081      0.7986832              1
     10342.0000         0.4482       2422.789          0.425        -77.004      0.9976883              1
     10342.5000         0.4426       2472.254         0.4249       -76.7999       1.196693              1
     10343.0000          0.437       2441.688         0.4248       -76.5958       1.395691              1
     10343.5000         0.4314       2411.121         0.4246       -76.3843       1.602097              1
     10344.0000         0.4258       2380.605         0.4245       -76.1727       1.808601              1
     10344.5000         0.4246       2350.043         0.4264       -76.1354       1.840805              1
     10345.0000         0.4334       2319.477         0.4284       -76.2369       1.734207              1
     10345.5000         0.4422       2288.914         0.4303       -76.3387       1.627312              1
     10346.0000          0.451       2258.398         0.4323       -76.4406       1.520317              1
     10346.5000         0.4566       2222.945         0.4342       -76.5895       1.366318              1
     10347.0000         0.4613       2206.293         0.4362       -76.7728       1.177925              1
     10347.5000          0.461       2241.047         0.4381       -76.9563      0.9893265              1
     10348.0000          0.454       2275.801         0.4401       -77.1395      0.8010254              1
     10348.5000         0.4469       2309.406          0.442       -77.3228      0.6126328              1
     10349.0000         0.4399       2291.805         0.4439       -77.5062      0.4241333              1
     10349.5000         0.4328       2255.504         0.4459       -77.5956      0.3296432              1
     10350.0000         0.4341       2204.297         0.4479       -77.2898      0.6303406              1
     10350.5000         0.4425        2150.25         0.4522       -76.9883      0.9267502              1
     10351.0000         0.4508       2096.199         0.4564       -76.7935       1.116447              1
     10351.5000         0.4591        2042.15         0.4607        -76.599       1.305855              1
     10352.0000         0.4674       1988.102         0.4649       -76.4047       1.495056              1
     10352.5000          0.474       1936.047         0.4692       -76.2098        1.68486              1
     10353.0000         0.4797       1905.855         0.4735       -76.4451       1.444466              1
     10353.5000         0.4854       1892.592         0.4777       -76.8607       1.023766              1
     10354.0000          0.485       1879.305          0.482       -77.2754      0.6039734              1
     10354.5000         0.4721       1917.996         0.4862        -77.691      0.1832733              1
     10355.0000         0.4591       2022.105         0.4905       -78.1068     -0.2376175              1
     10355.5000         0.4494       2079.645         0.4947       -77.9277    -0.06361389              1
     10356.0000         0.4404       2104.426         0.4983       -77.6652      0.1937866              1
     10356.5000         0.4313       2129.207         0.4943       -77.4021      0.4517899              1
     10357.0000         0.4222       2154.039         0.4903       -77.1395      0.7092896              1
     10357.5000         0.4268        2182.41         0.4863       -76.8765      0.9671936              1
     10358.0000         0.4321       2220.555         0.4823       -76.6134       1.225197              1
     10358.5000         0.4374       2258.648         0.4782       -76.3508       1.482704              1
     10359.0000         0.4428       2299.434         0.4742       -76.0878       1.740608              1
     10359.5000         0.4481       2345.207         0.3856       -75.8726       1.950714              1
