#------------------------------------------------------------------------------
# Created by    : vladimir.rabinovich
# Created on    : 09/19/2023 17:20:35
#------------------------------------------------------------------------------
~Version Information Section
VERS.           2.0     :   CWLS log ASCII Standard - VERSION 2.0
WRAP.           NO      :   One line per depth step
~Well Information Section
#MNEM       .UNIT                                         VALUE :DESCRIPTION
#------------------------------------------------------------------------------
STRT        .FT                                             501 :START DEPTH
STOP        .FT                                            8659 :STOP DEPTH
STEP        .FT                                             0.5 :STEP      
NULL        .                                           -999.25 :NULL      
COMP        .                                      SHELL OIL CO :COMPANY   
WELL        .                                OCS 00705 ST00BP00 :WELL      
FLD         .                                           WILDCAT :FIELD     
LOC         .                                                   :LOCATION  
CNTY        .                             GALVESTON LARGE BLOCK :LOCATION  
STAT        .                                             TEXAS :STATE     
CTRY        .                                     UNITED STATES :COUNTRY   
SRVC        .                                                   :SERVICE COMPANY
DATE        .                             9/13/2023 11:19:25 AM :LOG DATE  
API         .                                    42706000440000 :API NUMBER
UWI         .                                    42706000440000 :UNIQUE WELL ID
XCOORD      .                                  1104214.94625617 :SURFACE X 
YCOORD      .                                  10500066.5450575 :SURFACE Y 
LAT         .                                         28.922918 :LATITUDE  
LON         .                                        -94.676571 :LONGITUDE 
ELEV        .FT                                              41 :ELEVATION VALUE
ELEV_TYPE   .                                                KB :ELEVATION REFERENCE TYPE
~Curve Information Section
#MNEM       .UNIT                                      API CODE :CURVE DESCRIPTION
#------------------------------------------------------------------------------
DEPT        .FT                                                 :DEPTH     
ASN         .OHMM                                               :          
CILD        .MMHO                                               :          
DT          .US/F                                               :          
ILD         .OHMM                                               :          
LAT         .OHMM                                               :          
SP          .MV                                                 :          
SP_NORM     .MV                                                 :SP Normalized
VSH_SP      .V/V                                                :Volume of Shale from SP
~A        DEPTH            ASN           CILD             DT            ILD            LAT             SP        SP_NORM         VSH_SP
# ...
      4306.5000         0.7465       1098.182        -999.25         1.0242        -999.25        -47.269     -0.1578026              1
      4307.0000         0.7498        1089.18        -999.25         1.0269        -999.25       -46.9077      0.2014351              1
      4307.5000         0.7531       1080.178        -999.25         1.0297        -999.25       -46.3989      0.7081718              1
      4308.0000         0.7564       1071.176        -999.25         1.0325        -999.25       -45.8902       1.214806              1
      4308.5000         0.7597       1062.174        -999.25         1.0352        -999.25       -45.3815       1.721439              1
      4309.0000         0.7643       1053.166        -999.25          1.038        -999.25        -45.424       1.676876              1
      4309.5000         0.7706       1048.279        -999.25         1.0408        -999.25        -45.742       1.356812              1
      4310.0000         0.7769       1044.129        -999.25         1.0435        -999.25         -46.06       1.036747              1
      4310.5000         0.7833       1039.982        -999.25         1.0388        -999.25        -46.378      0.7166862              1
      4311.0000         0.7869       1053.883        -999.25         1.0312        -999.25       -46.6957      0.3969154              1
      4311.5000         0.7821       1075.354        -999.25         1.0236        -999.25       -47.0137     0.07685471              1
      4312.0000         0.7773       1104.922        -999.25          1.016        -999.25       -47.3633     -0.2748108              1
      4312.5000         0.7725       1137.701        -999.25         1.0084        -999.25       -47.4966     -0.4101753              1
      4313.0000         0.7696       1146.391        -999.25         1.0008        -999.25       -47.4575     -0.3731422              1
      4313.5000         0.7671       1150.824        -999.25         0.9932        -999.25       -47.4185     -0.3362045              1
      4314.0000         0.7645       1155.256        -999.25         0.9853        -999.25       -47.3795     -0.2992706              1
      4314.5000          0.762       1159.688        -999.25         0.9767        -999.25       -47.1681    -0.08993149              1
      4315.0000         0.7594       1164.119        -999.25         0.9681        -999.25       -46.8696       0.206501              1
      4315.5000         0.7569       1170.088        -999.25         0.9595        -999.25        -46.571      0.5030365              1
      4316.0000         0.7546       1185.541        -999.25         0.9508        -999.25       -46.2725      0.7994728              1
      4316.5000         0.7526       1200.994        -999.25         0.9422        -999.25       -46.0453       1.024609              1
      4317.0000         0.7506       1216.447        -999.25         0.9336        -999.25       -45.8367        1.23114              1
      4317.5000         0.7485       1232.568        -999.25          0.925        -999.25       -45.6282       1.437576              1
      4318.0000         0.7465       1250.373        -999.25         0.9164        -999.25       -45.4195       1.644215              1
      4318.5000         0.7445       1268.188        -999.25         0.9094        -999.25        -45.211       1.850651              1
      4319.0000         0.7425       1286.004        -999.25         0.9051        -999.25       -45.4844        1.57518              1
      4319.5000         0.7393       1301.066        -999.25         0.9008        -999.25       -45.7988       1.258717              1
      4320.0000         0.7348       1315.484        -999.25         0.8964        -999.25       -46.1727      0.8827553              1
      4320.5000         0.7304       1296.465        -999.25         0.8921        -999.25       -47.0789    -0.02550888              1
      4321.0000         0.7259       1273.838        -999.25         0.8878        -999.25       -47.9856     -0.9342728              1
      4321.5000         0.7215       1259.254        -999.25         0.8952        -999.25       -48.8917      -1.842442      0.9765989
      4322.0000          0.717       1244.668        -999.25         0.9055        -999.25       -48.9782      -1.931004      0.9741388
      4322.5000          0.714       1230.084        -999.25         0.9158        -999.25       -48.9106      -1.865467      0.9759592
      4323.0000         0.7196        1215.49        -999.25         0.9261        -999.25       -48.6514      -1.608334      0.9831018
      4323.5000         0.7219       1206.414        -999.25         0.9364        -999.25       -48.3921      -1.351101      0.9902472
      4324.0000         0.7241       1199.156        -999.25         0.9467        -999.25        -48.133      -1.094063      0.9973872
      4324.5000         0.7263       1191.898        -999.25           0.95        -999.25       -47.8737     -0.8368263              1
      4325.0000         0.7286       1184.639        -999.25         0.9519        -999.25       -47.6144     -0.5795898              1
      4325.5000         0.7308       1185.396        -999.25         0.9539        -999.25       -47.3552     -0.3224602              1
      4326.0000         0.7331       1194.516        -999.25         0.9558        -999.25       -47.0959    -0.06522369              1
      4326.5000         0.7353       1203.635        -999.25         0.9577        -999.25       -46.8367      0.1919136              1
      4327.0000         0.7376       1212.748        -999.25         0.9597        -999.25       -46.6766      0.3499489              1
      4327.5000         0.7398       1221.867        -999.25         0.9566        -999.25        -46.646      0.3784828              1
      4328.0000         0.7423       1224.697        -999.25         0.9526        -999.25       -46.6154      0.4070206              1
      4328.5000         0.7451       1226.881        -999.25         0.9487        -999.25       -46.5847      0.4356537              1
      4329.0000         0.7479        1222.67        -999.25         0.9447        -999.25       -46.5541      0.4641914              1
      4329.5000         0.7507       1215.545        -999.25         0.9408        -999.25       -46.6328      0.3834267              1
      4330.0000         0.7535        1208.42        -999.25         0.9368        -999.25       -46.9533     0.06085968              1
      4330.5000         0.7562       1201.289        -999.25         0.9329        -999.25        -47.274     -0.2619019              1
      4331.0000          0.759       1194.164        -999.25          0.936        -999.25       -47.5946      -0.584568              1
      4331.5000         0.7618       1176.863        -999.25         0.9402        -999.25       -47.9151     -0.9071312              1
      4332.0000         0.7646       1157.633        -999.25         0.9443        -999.25       -48.2359          -1.23      0.9936111
      4332.5000         0.7674       1138.402        -999.25         0.9484        -999.25       -48.3869      -1.383064      0.9893593
      4333.0000          0.773       1119.172        -999.25         0.9525        -999.25       -48.4519      -1.450127      0.9874965
      4333.5000         0.7792       1103.508        -999.25         0.9684        -999.25        -48.517      -1.517288      0.9856309
      4334.0000         0.7854       1088.822        -999.25         0.9958        -999.25        -48.582      -1.584358      0.9837678
      4334.5000         0.7916       1074.139        -999.25         1.0232        -999.25        -48.647      -1.651421       0.981905
      4335.0000         0.7979       1059.543        -999.25         1.0506        -999.25       -48.4034      -1.409885      0.9886143
      4335.5000         0.8041       1047.623        -999.25          1.078        -999.25       -48.1268      -1.135349      0.9962403
