#------------------------------------------------------------------------------
# Created by    : vladimir.rabinovich
# Created on    : 09/19/2023 17:22:48
#------------------------------------------------------------------------------
~Version Information Section
VERS.           2.0     :   CWLS log ASCII Standard - VERSION 2.0
WRAP.           NO      :   One line per depth step
~Well Information Section
#MNEM       .UNIT                                         VALUE :DESCRIPTION
#------------------------------------------------------------------------------
STRT        .FT                                             306 :START DEPTH
STOP        .FT                                           13139 :STOP DEPTH
STEP        .FT                                             0.5 :STEP      
NULL        .                                           -999.25 :NULL      
COMP        .                                    CITIES SERVICE :COMPANY   
WELL        .                                          SL 77337 :WELL      
FLD         .                                           WILDCAT :FIELD     
LOC         .                                                   :LOCATION  
CNTY        .                                BRAZOS LARGE BLOCK :LOCATION  
STAT        .                                             TEXAS :STATE     
CTRY        .                                     UNITED STATES :COUNTRY   
SRVC        .                                                   :SERVICE COMPANY
DATE        .                             9/13/2023 11:18:52 AM :LOG DATE  
API         .                                    42704301950000 :API NUMBER
UWI         .                                    42704301950000 :UNIQUE WELL ID
XCOORD      .                                   673900.18951543 :SURFACE X 
YCOORD      .                                   10333530.060148 :SURFACE Y 
LAT         .                                        28.4418955 :LATITUDE  
LON         .                                       -96.0077528 :LONGITUDE 
ELEV        .FT                                              82 :ELEVATION VALUE
ELEV_TYPE   .                                                KB :ELEVATION REFERENCE TYPE
~Curve Information Section
#MNEM       .UNIT                                      API CODE :CURVE DESCRIPTION
#------------------------------------------------------------------------------
DEPT        .FT                                                 :DEPTH     
DT          .US/F                                               :          
SP          .MV                                                 :          
SP_NORM     .MV                                                 :SP Normalized
VSH_SP      .V/V                                                :Volume of Shale from SP
~A        DEPTH             DT             SP        SP_NORM         VSH_SP
# ...
      2002.0000       147.0771       -74.6515      -10.36578      0.2795551
      2002.5000       148.1592        -74.547      -10.26128      0.2875935
      2003.0000       149.1211       -75.0142      -10.72849       0.251655
      2003.5000       149.3525       -75.2655      -10.97979      0.2323239
      2004.0000       148.8291         -75.54      -11.25429      0.2112086
      2004.5000       148.2832       -75.9202      -11.63448      0.1819628
      2005.0000        147.801       -76.2595      -11.97379      0.1558627
      2005.5000       147.3796       -76.5618      -12.27608      0.1326089
      2006.0000       147.0559       -76.8191      -12.53339      0.1128164
      2006.5000       146.8562       -77.0703      -12.78458     0.09349354
      2007.0000       146.7769       -77.3173      -13.03159     0.07449341
      2007.5000       147.1831       -77.5743      -13.28859     0.05472388
      2008.0000       147.9568        -77.933      -13.64729     0.02713189
      2008.5000       148.4758       -78.0685      -13.78278     0.01670896
      2009.0000       148.2075        -78.243      -13.95728    0.003285922
      2009.5000       147.3376       -78.3964      -14.11069              0
      2010.0000       146.3965       -78.5424      -14.25668              0
      2010.5000        145.509        -78.595      -14.30929              0
      2011.0000       144.6455       -78.3927      -14.10699              0
      2011.5000       143.8777       -78.0656      -13.77988     0.01693197
      2012.0000       143.9697       -77.5885      -13.30279     0.05363171
      2012.5000       144.5566       -77.1018      -12.81609     0.09107032
      2013.0000       145.2891       -76.6003      -12.31459      0.1296469
      2013.5000       146.3401       -76.1395      -11.85379       0.165093
      2014.0000       145.0225       -75.6934      -11.40768      0.1994089
      2014.5000       141.3118       -75.3068      -11.02109      0.2291471
      2015.0000       137.5957       -74.9275      -10.64178      0.2583243
      2015.5000       137.1809       -74.5879      -10.30219      0.2844473
      2016.0000       138.8567       -74.2618      -9.976089      0.3095316
      2016.5000       142.2485       -73.9591      -9.673386      0.3328165
      2017.0000       145.4751       -73.7493      -9.463585       0.348955
      2017.5000       145.8555       -73.7145      -9.428787      0.3516318
      2018.0000        142.533       -73.8358      -9.550087       0.342301
      2018.5000       137.5388       -74.0677       -9.78199      0.3244623
      2019.0000        136.175        -74.347      -10.06129      0.3029779
      2019.5000       138.1401       -74.6727      -10.38699      0.2779242
      2020.0000       140.6521       -75.0726      -10.78689      0.2471624
      2020.5000       142.0017        -75.557      -11.27129      0.2099011
      2021.0000       142.2429       -76.1519      -11.86619      0.1641394
      2021.5000            143       -76.7745      -12.48878      0.1162473
      2022.0000       145.1396        -77.293      -13.00729     0.07636261
      2022.5000        149.626       -77.4012      -13.11549     0.06803953
      2023.0000       153.1943       -77.2621      -12.97639     0.07873946
      2023.5000       154.5937       -76.8317      -12.54599      0.1118469
      2024.0000       152.6504       -76.3452      -12.05949      0.1492703
      2024.5000       148.7004       -75.9526      -11.66689      0.1794704
      2025.0000       145.5979       -75.5907      -11.30499      0.2073088
      2025.5000        143.479       -75.4244      -11.13869       0.220101
      2026.0000       142.8328       -75.3126      -11.02689      0.2287011
      2026.5000       144.2285       -75.1943      -10.90858      0.2378012
      2027.0000       145.6914       -75.0876      -10.80189      0.2460086
      2027.5000       146.6089       -75.0682      -10.78249      0.2475011
      2028.0000       146.8167       -75.1222      -10.83649      0.2433472
      2028.5000       146.1443       -75.2606      -10.97488      0.2327012
      2029.0000       145.2195       -75.4325      -11.14679      0.2194777
      2029.5000       144.2068        -75.653      -11.36729      0.2025164
      2030.0000       143.2742       -76.0405      -11.75478       0.172709
      2030.5000       142.4209       -76.2007      -11.91499      0.1603857
      2031.0000       141.6963       -76.2373      -11.95158      0.1575705
      2031.5000       141.0549       -76.2238      -11.93809      0.1586087
      2032.0000       140.4568       -76.2074      -11.92168      0.1598704
      2032.5000        140.959        -76.147      -11.86129      0.1645162
      2033.0000       142.6675       -76.0698      -11.78409      0.1704548
      2033.5000       145.1807       -76.0059      -11.72018      0.1753704
      2034.0000       145.6565       -75.9464      -11.66069      0.1799469
      2034.5000       144.3513       -75.8563      -11.57059      0.1868779
      2035.0000       143.4387       -75.7621      -11.47639      0.1941241
      2035.5000       142.7219       -75.6395      -11.35379      0.2035546
      2036.0000       141.9019       -75.5106      -11.22488      0.2134705
      2036.5000       139.7378        -75.408      -11.12228      0.2213628
      2037.0000        136.876       -75.3269      -11.04118      0.2276013
      2037.5000        136.092       -75.4022      -11.11649      0.2218088
      2038.0000       138.0615       -75.5671      -11.28139      0.2091241
      2038.5000       145.2605       -75.8969      -11.61118      0.1837551
      2039.0000       149.4426       -76.1241      -11.83839       0.166278
      2039.5000       150.6272       -76.3912      -12.10548       0.145732
      2040.0000       147.7725       -76.7162      -12.43049      0.1207316
      2040.5000       144.7131       -76.9856      -12.69989      0.1000085
      2041.0000       143.4392       -77.0736      -12.78789     0.09323942
      2041.5000       142.1426       -76.9281      -12.64239      0.1044317
      2042.0000       140.0632       -76.5084      -12.22269      0.1367164
      2042.5000       136.4673       -76.2173      -11.93159      0.1591087
      2043.0000       138.5205       -76.2153      -11.92959      0.1592624
      2043.5000       142.0154       -76.4783      -12.19259      0.1390316
      2044.0000       145.3735       -76.7214      -12.43568       0.120332
      2044.5000       143.3398       -76.8796      -12.59389      0.1081625
      2045.0000       136.3452       -77.0941      -12.80839     0.09166248
      2045.5000        130.219        -76.998      -12.71229     0.09905478
      2046.0000       127.4414       -76.8043      -12.51859       0.113955
      2046.5000       132.9602       -76.6361      -12.35039      0.1268933
      2047.0000       143.6042       -76.4974      -12.21169      0.1375627
      2047.5000       147.5161       -76.3667      -12.08099      0.1476165
      2048.0000       148.9412       -76.2743      -11.98859      0.1547241
      2048.5000       146.2134       -76.2073      -11.92159      0.1598781
      2049.0000       141.3691       -76.2372      -11.95148      0.1575781
      2049.5000       137.8047       -76.4113      -12.12559      0.1441856
      2050.0000       134.8748       -76.4885      -12.20279       0.138247
      2050.5000       132.8325       -76.5529      -12.26719      0.1332932
      2051.0000       132.0137       -76.6652      -12.37949      0.1246549
      2051.5000       132.3401       -76.7875      -12.50179      0.1152473
      2052.0000        132.991       -76.9463      -12.66058       0.103032
      2052.5000       133.7422       -77.0956      -12.80988     0.09154745
      2053.0000       133.7666       -77.2202      -12.93449     0.08196259
      2053.5000       133.2026       -77.3317      -13.04599     0.07338539
      2054.0000       133.1658       -77.4104      -13.12469     0.06733175
      2054.5000        133.739       -77.4846      -13.19888     0.06162438
