#------------------------------------------------------------------------------
# Created by    : vladimir.rabinovich
# Created on    : 09/19/2023 17:19:46
#------------------------------------------------------------------------------
~Version Information Section
VERS.           2.0     :   CWLS log ASCII Standard - VERSION 2.0
WRAP.           NO      :   One line per depth step
~Well Information Section
#MNEM       .UNIT                                         VALUE :DESCRIPTION
#------------------------------------------------------------------------------
STRT        .FT                                            3460 :START DEPTH
STOP        .FT                                           13634 :STOP DEPTH
STEP        .FT                                             0.5 :STEP      
NULL        .                                           -999.25 :NULL      
COMP        .                                SHELL OFFSHORE INC :COMPANY   
WELL        .                               OCS G06107 ST00BP00 :WELL      
FLD         .                                           WILDCAT :FIELD     
LOC         .                                                   :LOCATION  
CNTY        .                             GALVESTON LARGE BLOCK :LOCATION  
STAT        .                                             TEXAS :STATE     
CTRY        .                                     UNITED STATES :COUNTRY   
SRVC        .                                                   :SERVICE COMPANY
DATE        .                             9/13/2023 11:19:27 AM :LOG DATE  
API         .                                    42706401270000 :API NUMBER
UWI         .                                    42706401270000 :UNIQUE WELL ID
XCOORD      .                                  941908.785460496 :SURFACE X 
YCOORD      .                                  10441108.8632451 :SURFACE Y 
LAT         .                                         28.753553 :LATITUDE  
LON         .                                        -95.180411 :LONGITUDE 
ELEV        .FT                                              90 :ELEVATION VALUE
ELEV_TYPE   .                                                KB :ELEVATION REFERENCE TYPE
~Curve Information Section
#MNEM       .UNIT                                      API CODE :CURVE DESCRIPTION
#------------------------------------------------------------------------------
DEPT        .FT                                                 :DEPTH     
ASFL        .OHMM                                               :          
CALI        .IN                                                 :          
CILD        .MMHO                                               :          
DT          .US/F                                               :          
GR          .GAPI                                               :          
GR_1        .GAPI                                               :          
GR_NORM     .GAPI                                               :GammaRay Normalized
ILD         .OHMM                                               :          
ILM         .OHMM                                               :          
RHOB        .G/C3                                               :          
SP          .MV                                                 :          
VSH_GR      .V/V                                                :Volume of Shale from GR
~A        DEPTH           ASFL           CALI           CILD             DT             GR           GR_1        GR_NORM            ILD            ILM           RHOB             SP         VSH_GR
# ...
      6904.0000         0.7553        17.1753       2298.766       129.7866        -999.25        45.5803       91.25097         0.4376         0.4528         2.2114       -40.8378              1
      6904.5000         0.7512        17.2307        2261.18       130.2271        -999.25        43.1782       87.34892         0.4438         0.4559         2.2246       -41.0389              1
      6905.0000         0.7513        17.3242       2222.039       129.9397        -999.25        42.4068       86.09583         0.4517          0.458         2.2372       -39.7946              1
      6905.5000         0.7402        17.4299       2181.371       129.1174        -999.25        42.0266       85.47822         0.4587         0.4584         2.2445       -38.9844              1
      6906.0000          0.746        17.5164       2143.711       128.2808        -999.25        41.6824       84.91911         0.4667         0.4588         2.2408       -39.3358              1
      6906.5000           0.74        17.5555       2106.051       127.4479        -999.25        41.1013       83.97514         0.4777         0.4575         2.2294       -39.6626              1
      6907.0000         0.7188        17.6264       2071.875       127.4257        -999.25        40.8918       83.63482           0.49         0.4546         2.2221       -39.2852              1
      6907.5000          0.732        17.7624       2049.859       129.6443        -999.25        40.8402       83.55099         0.4987         0.4516         2.2118       -38.5593              1
      6908.0000         0.7436         17.974        2039.09        131.157        -999.25        41.0517       83.89456         0.5019          0.449         2.1937       -37.7142              1
      6908.5000         0.7365        18.1633       2043.174       132.1741        -999.25        41.8301       85.15902         0.5013          0.447         2.1781        -38.039              1
      6909.0000         0.7298        18.1088        2052.18       131.0063        -999.25         43.266       87.49154         0.4965         0.4466         2.1722       -39.2244              1
      6909.5000         0.7214        17.5368       2063.508       129.5566        -999.25        43.3051       87.55506         0.4908         0.4462         2.1706       -40.3123              1
      6910.0000          0.741        17.6325       2072.348       128.1191        -999.25        41.7699       85.06123         0.4856         0.4483          2.185       -41.1542              1
      6910.5000         0.7227        17.4066       2076.801       127.1061        -999.25        39.6965       81.69314         0.4815          0.452         2.1976       -41.8673              1
      6911.0000         0.7084        17.1264        2077.75       128.4707        -999.25        39.2468       80.96262         0.4811         0.4563         2.2047       -42.0456              1
      6911.5000         0.7241        17.2246       2078.652       129.8911        -999.25        40.8191       83.51672         0.4824         0.4613         2.2032       -42.0927              1
      6912.0000         0.7374        17.2986       2078.086       131.1807        -999.25        42.5157       86.27274         0.4845         0.4666         2.2022       -41.9086              1
      6912.5000         0.7523        17.3445       2079.016       130.7424        -999.25        43.9702       88.63547         0.4873         0.4707         2.2086       -41.7116              1
      6913.0000         0.7551        17.3706       2076.438         129.21        -999.25        43.5127       87.89229         0.4902         0.4753         2.2155       -41.3637              1
      6913.5000         0.7503        17.3791       2070.879       128.1313        -999.25         42.747       86.64848         0.4931         0.4796          2.222       -40.9472              1
      6914.0000         0.7523        17.2957       2057.484       126.7495        -999.25        42.7686       86.68356         0.4952          0.483          2.227       -40.9857              1
      6914.5000         0.7468        17.0986        2042.52       126.4675        -999.25        43.9048       88.52923         0.4965          0.485          2.231       -41.0497              1
      6915.0000           0.73        16.8018       2026.072       127.8699        -999.25        45.5656       91.22709         0.4948         0.4864         2.2352       -40.8082              1
      6915.5000         0.7032        16.7816       2009.611       129.3875        -999.25        46.7948       93.22385          0.493         0.4875         2.2421       -40.9274              1
      6916.0000         0.6802        16.8655       1995.791       129.6199        -999.25        44.9427       90.21523         0.4957         0.4894         2.2501       -41.3796              1
      6916.5000         0.6788        16.8259       1984.365       129.8428        -999.25        42.3748       86.04385         0.4993         0.4928         2.2592       -41.2314              1
      6917.0000         0.7005        16.6814        1969.93       130.2976        -999.25        41.2163       84.16194         0.5033          0.496         2.2658       -40.7834              1
      6917.5000         0.6976        16.4256       1958.047       130.8184        -999.25        40.7275       83.36793         0.5043         0.4986         2.2645       -40.6539              1
      6918.0000         0.6852        16.1762       1951.551       131.5242        -999.25        42.6054       86.41845         0.5053         0.5013         2.2526       -39.8445              1
      6918.5000         0.6789        16.7596       1948.184       131.7693        -999.25        44.9312       90.19654         0.5062          0.504         2.2403       -39.1103              1
      6919.0000         0.6666         16.847       1950.934       131.1052        -999.25        45.4291       91.00535          0.507         0.5053         2.2351        -38.738              1
      6919.5000         0.6922        16.9557        1958.49       129.5615        -999.25        44.2585       89.10379         0.5069         0.5063         2.2362       -38.8399              1
      6920.0000         0.6855        17.0667       1969.547       130.5549        -999.25        42.8066       86.74527         0.5069         0.5069         2.2438       -39.2301              1
      6920.5000         0.6766        17.2402       1980.355       132.8623        -999.25        41.5649       84.72822         0.5069         0.5072         2.2487       -38.4094              1
      6921.0000         0.6823        17.4847       1989.395       135.1167        -999.25        41.5854       84.76153          0.507         0.5031         2.2447        -38.139              1
      6921.5000         0.6812        17.1171       1996.494       135.2671        -999.25        42.8578       86.82846         0.5071         0.4998         2.2322       -38.7816              1
      6922.0000         0.6845        17.1033       2002.627       134.1565        -999.25        44.9556       90.23618         0.5063         0.4973         2.2207       -38.8027              1
      6922.5000         0.6953        17.0904       2005.369       132.7068        -999.25        45.4662       91.06561         0.5047         0.4951         2.2084       -39.6177              1
      6923.0000         0.7011        17.0567       2007.287       129.6812        -999.25        43.0616       87.15951         0.5045         0.4932         2.1862       -39.2731              1
      6923.5000         0.7104        17.0159       2008.236       127.7662        -999.25        41.9019       85.27566         0.5048         0.4924          2.172        -40.361              1
      6924.0000         0.7002         17.024       2008.275       126.3103        -999.25        41.8224       85.14651          0.506         0.4917         2.1661       -39.8737              1
