#------------------------------------------------------------------------------
# Created by    : vladimir.rabinovich
# Created on    : 09/19/2023 17:19:47
#------------------------------------------------------------------------------
~Version Information Section
VERS.           2.0     :   CWLS log ASCII Standard - VERSION 2.0
WRAP.           NO      :   One line per depth step
~Well Information Section
#MNEM       .UNIT                                         VALUE :DESCRIPTION
#------------------------------------------------------------------------------
STRT        .FT                                             970 :START DEPTH
STOP        .FT                                            9511 :STOP DEPTH
STEP        .FT                                             0.5 :STEP      
NULL        .                                           -999.25 :NULL      
COMP        .                                SHELL OFFSHORE INC :COMPANY   
WELL        .                               OCS G06097 ST00BP00 :WELL      
FLD         .                                           WILDCAT :FIELD     
LOC         .                                                   :LOCATION  
CNTY        .                             GALVESTON LARGE BLOCK :LOCATION  
STAT        .                                             TEXAS :STATE     
CTRY        .                                     UNITED STATES :COUNTRY   
SRVC        .                                                   :SERVICE COMPANY
DATE        .                             9/13/2023 11:19:27 AM :LOG DATE  
API         .                                    42706401130000 :API NUMBER
UWI         .                                    42706401130000 :UNIQUE WELL ID
XCOORD      .                                  1026820.46089783 :SURFACE X 
YCOORD      .                                  10482391.3243497 :SURFACE Y 
LAT         .                                         28.871086 :LATITUDE  
LON         .                                        -94.917566 :LONGITUDE 
ELEV        .FT                                             107 :ELEVATION VALUE
ELEV_TYPE   .                                                KB :ELEVATION REFERENCE TYPE
~Curve Information Section
#MNEM       .UNIT                                      API CODE :CURVE DESCRIPTION
#------------------------------------------------------------------------------
DEPT        .FT                                                 :DEPTH     
ASFL        .OHMM                                               :          
CALI        .IN                                                 :          
CILD        .MMHO                                               :          
DT          .US/F                                               :          
GR          .GAPI                                               :          
GR_NORM     .GAPI                                               :GammaRay Normalized
ILD         .OHMM                                               :          
ILM         .OHMM                                               :          
RHOB        .G/C3                                               :          
SP          .MV                                                 :          
SP_NORM     .MV                                                 :SP Normalized
VSH_GR      .V/V                                                :Volume of Shale from GR
VSH_SP      .V/V                                                :Volume of Shale from SP
~A        DEPTH           ASFL           CALI           CILD             DT             GR        GR_NORM            ILD            ILM           RHOB             SP        SP_NORM         VSH_GR         VSH_SP
# ...
      7240.0000         0.9405        10.6371        1373.15       105.7284        47.0536       53.82251          0.806         0.8037         2.3667       -76.3987      -21.08464      0.4430321      0.6987909
      7240.5000         0.9226        10.6099       1429.742       109.0649        46.8223       53.45409         0.7498         0.7863         2.3386       -77.8348      -22.53191      0.4351934      0.6781155
      7241.0000         0.9048        10.2588       1517.459       110.3877         46.591       53.08567         0.6935         0.7369         2.2783       -80.5111      -25.21938      0.4273546      0.6397231
      7241.5000         0.8876         9.9834       1703.711       109.5055        46.3594       52.71677         0.6508         0.6919         2.2527       -83.6873      -28.40675      0.4195058      0.5941893
      7242.0000         0.8703        10.0221       1773.109       106.5276        46.0601       52.24022         0.6191          0.649         2.2698       -85.4763      -30.20692      0.4093664      0.5684726
      7242.5000         0.8551        10.1674       1868.619       103.7662        45.6356       51.56458         0.5875         0.6116          2.295       -86.3751      -31.11689      0.3949911       0.555473
      7243.0000         0.8407        10.2104       1958.271       104.0682        45.2115       50.88956         0.5558         0.5837         2.3131       -85.0181      -29.77105      0.3806289      0.5746992
      7243.5000         0.8237        10.1441       2102.281       105.2589        44.7875       50.21471         0.5242         0.5571         2.2981       -83.7767      -28.54082      0.3662704       0.592274
      7244.0000         0.8046         10.118       2156.043       104.2092        44.3712       49.55211         0.4925         0.5259         2.2602       -82.3615       -27.1368      0.3521725      0.6123315
      7244.5000         0.7849        10.2262       2242.766       102.9545        45.0468       50.62584         0.4721          0.511         2.2706       -80.8322      -25.61866      0.3750179      0.6340191
      7245.0000         0.7686        10.4163       2215.883       102.7738         47.098       53.88707         0.4753          0.511         2.3143       -78.9524      -23.75003      0.4444056      0.6607139
      7245.5000         0.7741        10.7285       2092.602       105.0978         49.387       57.52644         0.4785         0.5442         2.3396        -76.683       -21.4918      0.5218391      0.6929743
      7246.0000         0.7797        10.6903       2082.102       107.7661        51.9652       61.62569         0.4817         0.5923          2.394       -74.0436      -18.86357      0.6090573      0.7305204
      7246.5000         0.7892        10.1194       2110.371       108.4253        55.4723        67.2021         0.4849         0.6185         2.3858       -76.4135      -21.24464      0.7277042      0.6965052
      7247.0000         0.8073         9.9061       2139.027       107.7837        56.2491       68.43677         0.4881         0.6183         2.3432       -81.2341      -26.07641      0.7539738      0.6274799
      7247.5000         0.8253         9.7434       2149.488       104.9266        52.7421       62.85931         0.4924         0.5977         2.2981       -84.0059      -28.85938      0.6353045      0.5877232
      7248.0000         0.8422         9.6944       2134.672       101.1005        45.3702       51.13588         0.5197         0.5639         2.2434       -86.5131      -31.37775      0.3858699      0.5517465
      7248.5000         0.8455         9.7124       2105.555        98.2887        43.1547       47.61218         0.5469         0.5306         2.2498       -87.4811      -32.35692      0.3108975      0.5377583
      7249.0000         0.8309         9.8131       2041.867        98.7368        42.1769       46.05667         0.5741         0.5049         2.2837        -88.318      -33.20499      0.2778016      0.5256431
      7249.5000         0.8166         10.019       1932.061       100.7229        43.1572       47.61494         0.6013         0.5022         2.3265       -87.0204      -31.91855      0.3109563      0.5440207
      7250.0000         0.8031         10.095       1869.314       103.1671        45.6986       51.65569         0.6286         0.5256         2.3704       -73.6931      -18.60242      0.3969296      0.7342511
      7250.5000         0.8357        10.1136       1673.928        106.155        48.6689       56.37846         0.6624         0.5709         2.3834       -67.2966      -12.21709      0.4974141      0.8254701
      7251.0000         0.8661        10.1299       1540.293       108.1305         61.185       76.28102         0.6966         0.6294         2.3904       -62.6132      -7.544861      0.9208728      0.8922163
      7251.5000         0.8966        10.1953       1361.486       106.9907        59.5209       73.63416         0.7308         0.6864         2.3889       -61.3597      -6.302528      0.8645565      0.9099639
      7252.0000         0.9356        10.3682       1274.514       106.5701         58.423       71.88765         0.7649         0.7414         2.3897       -60.2568        -5.2108      0.8273968        0.92556
      7252.5000         0.9758        10.5186       1222.242       106.3545        57.3287       70.14689         0.7991         0.8092         2.4007       -59.4236      -4.388767      0.7903593      0.9373033
      7253.0000         1.0006        10.3635       1184.912       104.4484        56.2332       68.40421         0.8299          0.896         2.4086       -58.5964      -3.572739      0.7532811      0.9489609
      7253.5000         1.0249        10.0784         1155.4       102.0999        55.5157       67.26266         0.8603         0.9298          2.402       -57.7865      -2.774006      0.7289927      0.9603713
      7254.0000         1.0409         10.083        1131.82        99.5021        56.7418       69.21178         0.8906         0.9141         2.3932       -56.9777      -1.976376      0.7704635      0.9717661
      7254.5000         1.0562        10.2517       1116.643        98.5505        57.9819       71.18319         0.9067         0.9031         2.3796       -57.1701      -2.179947      0.8124083      0.9688579
      7255.0000         1.0734        10.3178       1119.709        98.9055        58.8176       72.51152         0.9136         0.9003         2.3881       -55.8394     -0.8604164      0.8406706      0.9877083
      7255.5000         1.0658        10.2422       1128.197       102.1074        59.6533       73.83987         0.9204         0.9065         2.4059       -53.9645       1.003319      0.8689333              1
      7256.0000         1.0582        10.1688       1136.686       103.1656        60.5453       75.25771         0.9273         0.9066         2.4221       -52.5676        2.38905      0.8991003              1
      7256.5000         1.0505        10.1615       1163.814        103.248        61.4534       76.70117         0.9285         0.8971         2.4029       -51.3287       3.616779      0.9298122              1
      7257.0000          1.039        10.2838       1190.396       103.2804        62.3613       78.14432         0.9252         0.8841         2.3851       -50.3864       4.547913      0.9605174              1
      7257.5000         1.0265        10.3708       1198.066       104.0293        63.4103       79.81184         0.9219         0.8703         2.3682       -49.7709       5.152241      0.9959965              1
      7258.0000         1.0122        10.4166       1217.229       105.8479        64.6528       81.78706         0.9187         0.8606         2.3676       -49.5526       5.359371              1              1
      7258.5000         0.9908        10.3898       1241.354        108.452         64.415        81.4083         0.9154         0.8526         2.3664       -49.5709       5.329903              1              1
