#------------------------------------------------------------------------------
# Created by    : vladimir.rabinovich
# Created on    : 09/19/2023 17:21:46
#------------------------------------------------------------------------------
~Version Information Section
VERS.           2.0     :   CWLS log ASCII Standard - VERSION 2.0
WRAP.           NO      :   One line per depth step
~Well Information Section
#MNEM       .UNIT                                         VALUE :DESCRIPTION
#------------------------------------------------------------------------------
STRT        .FT                                            2869 :START DEPTH
STOP        .FT                                           10002 :STOP DEPTH
STEP        .FT                                             0.5 :STEP      
NULL        .                                           -999.25 :NULL      
COMP        .                          SEAGULL ENERGY E & P INC :COMPANY   
WELL        .                               OCS G06145 ST00BP00 :WELL      
FLD         .                                           WILDCAT :FIELD     
LOC         .                                                   :LOCATION  
CNTY        .                           HIGH ISLAND LARGE BLOCK :LOCATION  
STAT        .                                             TEXAS :STATE     
CTRY        .                                     UNITED STATES :COUNTRY   
SRVC        .                                                   :SERVICE COMPANY
DATE        .                             9/13/2023 11:19:59 AM :LOG DATE  
API         .                                    42708402850000 :API NUMBER
UWI         .                                    42708402850000 :UNIQUE WELL ID
XCOORD      .                                  1277324.30822617 :SURFACE X 
YCOORD      .                                   10672684.104362 :SURFACE Y 
LAT         .                                         29.403374 :LATITUDE  
LON         .                                        -94.140646 :LONGITUDE 
ELEV        .FT                                              88 :ELEVATION VALUE
ELEV_TYPE   .                                                KB :ELEVATION REFERENCE TYPE
~Curve Information Section
#MNEM       .UNIT                                      API CODE :CURVE DESCRIPTION
#------------------------------------------------------------------------------
DEPT        .FT                                                 :DEPTH     
CALI        .IN                                                 :          
DPHI        .%                                                  :          
DRHO        .G/C3                                               :          
GR          .GAPI                                               :          
GR_NORM     .GAPI                                               :GammaRay Normalized
ILD         .OHMM                                               :          
ILM         .OHMM                                               :          
NPHI        .%                                                  :          
SFL         .OHMM                                               :          
SP          .MV                                                 :          
SP_NORM     .MV                                                 :SP Normalized
VSH_GR      .V/V                                                :Volume of Shale from GR
VSH_SP      .V/V                                                :Volume of Shale from SP
~A        DEPTH           CALI           DPHI           DRHO             GR        GR_NORM            ILD            ILM           NPHI            SFL             SP        SP_NORM         VSH_GR         VSH_SP
# ...
      9519.0000        12.6157        18.3771        -0.0074        46.3976        54.7807         0.3819         0.4056        41.9207         0.4666       -36.2778      -8.387733      0.4634192      0.8801752
      9519.5000        12.5466        17.7176        -0.0041        45.6385       53.83183         0.3856         0.4085        42.3712         0.4778       -35.7767      -7.968512      0.4432304      0.8861641
      9520.0000        12.4971        17.4127        -0.0016        46.9838       55.51345         0.3893         0.4122        43.7593         0.4942       -35.3972      -7.649436      0.4790097      0.8907223
      9520.5000        12.4858        18.0559        -0.0042        48.6524       57.59921         0.3907         0.4163         44.382         0.5086       -35.0177      -7.330356      0.5233873      0.8952807
      9521.0000         12.522        18.8408        -0.0082        49.2756        58.3782         0.3905         0.4138        44.0624         0.5096       -34.3975      -6.813053      0.5399618      0.9026707
      9521.5000        12.6178        19.5516        -0.0121        48.5413       57.46033         0.3899         0.4099        43.1155         0.4905       -33.7619      -6.283072      0.5204326      0.9102418
      9522.0000        12.6835        19.4305        -0.0149        48.1266       56.94195         0.3894         0.4085        42.1807         0.4757       -33.1436      -5.767334      0.5094032      0.9176095
      9522.5000        12.6448        19.1404        -0.0176        49.2078       58.29346         0.3904         0.4096        41.3553         0.4735       -32.5302      -5.255632      0.5381587      0.9249195
      9523.0000        12.5524        19.1848        -0.0192         50.822        60.3112         0.3921          0.413        41.0012         0.4793       -31.9416      -4.764355      0.5810894      0.9319378
      9523.5000        12.4489        19.4515        -0.0204        51.6094       61.29546         0.3945          0.417        40.8796         0.4853       -31.3738      -4.290206       0.602031      0.9387113
      9524.0000        12.3588        19.1244        -0.0199        51.2664        60.8667         0.3971         0.4223        40.7461         0.4938       -30.9246      -3.913726      0.5929086      0.9440897
      9524.5000        12.2716        18.3486        -0.0178        51.1164       60.67921         0.3999         0.4269        39.7242         0.5029       -30.6441      -3.676178      0.5889193      0.9474832
      9525.0000        12.1951        17.9171        -0.0158        51.1472        60.7177         0.4027          0.429        39.1127         0.5175       -30.8993      -3.879793      0.5897384      0.9445744
      9525.5000        12.1278        17.7532        -0.0147        51.3694       60.99545         0.4055         0.4308         39.163         0.5349       -31.2455      -4.158351      0.5956479       0.940595
      9526.0000        12.0753        17.7232        -0.0137        51.5919       61.27358         0.4085         0.4314        39.7963         0.5472       -31.7626       -4.57765      0.6015655       0.934605
      9526.5000        12.0335         17.769        -0.0121        51.9753       61.75283         0.4119         0.4319        40.1376         0.5317       -32.2606       -4.98122      0.6117623      0.9288397
      9527.0000        11.9949         17.815        -0.0101        52.3745       62.25183         0.4139         0.4308        39.9028         0.5091       -32.7518      -5.379187      0.6223794      0.9231545
      9527.5000        11.9499        17.8196        -0.0077        52.4197       62.30833         0.4143         0.4296        39.7173         0.4877       -32.9332      -5.522027      0.6235815      0.9211139
      9528.0000        11.8997        17.8132         -0.005        52.0272        61.8177         0.4123         0.4284        41.1378         0.4762        -32.956      -5.534256      0.6131426      0.9209392
      9528.5000        11.8475        17.6681        -0.0026         52.308        62.1687         0.4104         0.4273        42.7328         0.4754       -32.6611      -5.284845      0.6206107      0.9245022
      9529.0000        11.7921        17.4028        -0.0007        53.4533       63.60033         0.4085         0.4266        43.9963         0.4888       -31.6762      -4.467205      0.6510708      0.9361828
      9529.5000        11.7373         17.099        -0.0004        54.1144        64.4267         0.4072         0.4272        45.0378         0.5006       -31.6392      -4.430185      0.6686533      0.9367116
      9530.0000        11.6834        17.4047        -0.0011        53.9938       64.27596          0.406         0.4277        44.2845         0.5031       -32.5599      -5.181859      0.6654459      0.9259734
      9530.5000        11.6425        17.8699         -0.003        53.0522       63.09895         0.4058         0.4283        42.5213            0.5       -33.5718       -6.00864      0.6404033      0.9141623
      9531.0000        11.6425        18.2593        -0.0052        52.0204        61.8092         0.4059         0.4285        41.2308         0.4912       -34.5851      -6.836572      0.6129618      0.9023347
      9531.5000        11.6768         18.107        -0.0072          51.76        61.4837         0.4056         0.4275        41.6322         0.4844       -35.0917      -7.247226      0.6060362      0.8964682
      9532.0000        11.6946        17.6035        -0.0072        52.9596        62.9832         0.4043         0.4264        42.3862         0.4834       -35.2874      -7.401841      0.6379405      0.8942594
      9532.5000        11.7112        17.2006        -0.0056        54.1864       64.51671          0.403         0.4254        43.0063         0.4845       -34.9294      -7.100471      0.6705683      0.8985647
      9533.0000        11.7277        16.9337        -0.0037        54.7424       65.21171         0.4012         0.4235        43.3301         0.4968       -34.5975      -6.820591      0.6853555       0.902563
      9533.5000        11.7301         16.827        -0.0019        53.7347       63.95208         0.3993         0.4195        43.9543         0.5113       -34.3019      -6.570607      0.6585549      0.9061342
      9534.0000        11.7308        16.8111        -0.0008        51.1577       60.73083         0.3971         0.4149        44.7811         0.5164       -34.0504      -6.356939      0.5900176      0.9091866
      9534.5000        11.7677        16.8512         0.0003        49.9649       59.23983         0.3942         0.4089         44.379         0.4977       -33.9996      -6.308556      0.5582942      0.9098778
      9535.0000        11.8178        16.9948        -0.0002        50.5468        59.9672         0.3914         0.4039        43.6948         0.4768       -33.9509      -6.261902      0.5737702      0.9105443
      9535.5000        11.8629        17.2081        -0.0009        51.3651       60.99008         0.3898            0.4         43.311         0.4672       -34.0172      -6.309954      0.5955337      0.9098578
      9536.0000        11.8798         17.473        -0.0022        50.4752        59.8777         0.3887         0.3987        43.2164         0.4616       -34.0995       -6.37118       0.571866      0.9089832
      9536.5000        11.8412        17.8076        -0.0041        49.6306       58.82195         0.3889          0.399        43.2466         0.4602       -34.4549      -6.657314      0.5494033      0.9048955
      9537.0000        11.7946        18.1167        -0.0029        49.9458       59.21596          0.391         0.4051        42.9561         0.4607       -34.8295       -6.95926      0.5577863       0.900582
      9537.5000        11.7324        17.8271        -0.0004        51.6539       61.35108         0.3932         0.4114        42.8275          0.462       -35.3275      -7.362828      0.6032145      0.8948168
