#------------------------------------------------------------------------------
# Created by    : vladimir.rabinovich
# Created on    : 09/19/2023 17:22:48
#------------------------------------------------------------------------------
~Version Information Section
VERS.           2.0     :   CWLS log ASCII Standard - VERSION 2.0
WRAP.           NO      :   One line per depth step
~Well Information Section
#MNEM       .UNIT                                         VALUE :DESCRIPTION
#------------------------------------------------------------------------------
STRT        .FT                                             306 :START DEPTH
STOP        .FT                                           13139 :STOP DEPTH
STEP        .FT                                             0.5 :STEP      
NULL        .                                           -999.25 :NULL      
COMP        .                                    CITIES SERVICE :COMPANY   
WELL        .                                          SL 77337 :WELL      
FLD         .                                           WILDCAT :FIELD     
LOC         .                                                   :LOCATION  
CNTY        .                                BRAZOS LARGE BLOCK :LOCATION  
STAT        .                                             TEXAS :STATE     
CTRY        .                                     UNITED STATES :COUNTRY   
SRVC        .                                                   :SERVICE COMPANY
DATE        .                             9/13/2023 11:18:52 AM :LOG DATE  
API         .                                    42704301950000 :API NUMBER
UWI         .                                    42704301950000 :UNIQUE WELL ID
XCOORD      .                                   673900.18951543 :SURFACE X 
YCOORD      .                                   10333530.060148 :SURFACE Y 
LAT         .                                        28.4418955 :LATITUDE  
LON         .                                       -96.0077528 :LONGITUDE 
ELEV        .FT                                              82 :ELEVATION VALUE
ELEV_TYPE   .                                                KB :ELEVATION REFERENCE TYPE
~Curve Information Section
#MNEM       .UNIT                                      API CODE :CURVE DESCRIPTION
#------------------------------------------------------------------------------
DEPT        .FT                                                 :DEPTH     
DT          .US/F                                               :          
SP          .MV                                                 :          
SP_NORM     .MV                                                 :SP Normalized
VSH_SP      .V/V                                                :Volume of Shale from SP
~A        DEPTH             DT             SP        SP_NORM         VSH_SP
# ...
      8839.0000       109.9335       -46.6172      -1.386192      0.9905807
      8839.5000       110.7957       -46.4802      -1.249969      0.9939032
      8840.0000       111.4523       -46.3579      -1.128445      0.9968672
      8840.5000       111.5071       -46.2369      -1.008224      0.9997994
      8841.0000       110.5389       -46.1121     -0.8841972              1
      8841.5000       109.8226       -45.9852     -0.7580757              1
      8842.0000       109.1628       -45.8278     -0.6014519              1
      8842.5000       108.7798       -45.6655       -0.43993              1
      8843.0000       109.2021       -45.3198    -0.09500504              1
      8843.5000       109.7572       -44.9915      0.2325172              1
      8844.0000       110.3129       -44.7701      0.4531403              1
      8844.5000       110.8262       -44.6703       0.552166              1
      8845.0000       111.2971       -44.7274      0.4942856              1
      8845.5000       110.7184       -45.0779       0.143013              1
      8846.0000       109.7068       -45.8234     -0.6032639              1
      8846.5000       108.4135       -46.6152       -1.39584      0.9903454
      8847.0000       107.7242        -47.283      -2.064419      0.9740385
      8847.5000       108.8396       -47.8437      -2.625896       0.960344
      8848.0000       110.5265       -47.8718       -2.65477      0.9596398
      8848.5000       111.6591       -47.4058      -2.189548      0.9709866
      8849.0000       112.3633       -46.8846      -1.669125      0.9836799
      8849.5000       111.6753       -46.5945      -1.379803      0.9907365
      8850.0000       110.4767       -46.7358      -1.521877      0.9872713
      8850.5000       109.5242       -46.9544      -1.741253      0.9819207
      8851.0000       108.9823       -47.2325       -2.02013      0.9751188
      8851.5000       108.6832       -47.4598      -2.248207      0.9695559
      8852.0000       109.0464       -47.3123      -2.101486      0.9731345
      8852.5000       109.9409       -46.9291      -1.719059       0.982462
      8853.0000       111.3762       -46.3496      -1.140339      0.9965771
      8853.5000       112.5811       -45.8052     -0.5967102              1
      8854.0000       113.4058       -45.5622     -0.3544884              1
      8854.5000       111.4983       -45.7144     -0.5074692              1
      8855.0000       108.9492       -46.3183      -1.112141      0.9972649
      8855.5000       106.3578       -46.8733      -1.667919      0.9837093
      8856.0000       104.1476       -47.4333      -2.228695      0.9700319
      8856.5000       103.0648       -47.9204      -2.716572      0.9581324
      8857.0000       102.4344       -48.1349      -2.931847      0.9528818
      8857.5000       102.8219       -47.9789      -2.776627      0.9566677
      8858.0000        104.297       -47.6965      -2.494999      0.9635366
      8858.5000       106.3054       -47.2548      -2.054077      0.9742908
      8859.0000        108.244       -46.7449      -1.544956      0.9867084
      8859.5000       109.7255       -46.2237      -1.024532      0.9994016
      8860.0000       110.6262       -46.4442      -1.245808      0.9940047
      8860.5000       110.2312       -46.7145      -1.516884      0.9873931
      8861.0000       109.0739       -46.9548      -1.757961      0.9815131
      8861.5000       107.8229       -47.6251      -2.429035      0.9651455
      8862.0000       106.5497       -48.5196      -3.324314      0.9433094
      8862.5000       105.6538       -49.6409      -4.446392      0.9159417
      8863.0000       104.8832       -50.4478      -5.254066      0.8962423
      8863.5000         104.52       -50.9802      -5.787247      0.8832379
      8864.0000       104.3157        -51.118      -5.925819      0.8798581
      8864.5000       104.1416       -51.4336      -6.242199      0.8721415
      8865.0000       103.9491       -51.5445       -6.35387      0.8694178
      8865.5000       103.7834       -51.6052      -6.415352      0.8679183
      8866.0000       104.0657       -51.6132      -6.424129      0.8677042
      8866.5000       104.3387        -51.534      -6.345703       0.869617
      8867.0000       104.6063       -51.2415      -6.053982      0.8767322
      8867.5000       104.6071       -50.9295      -5.742756       0.884323
      8868.0000       104.3506       -50.8866      -5.700634      0.8853504
      8868.5000       103.9139        -51.145      -5.959808       0.879029
      8869.0000       103.5588       -51.4477      -6.263287      0.8716272
      8869.5000       103.2218       -51.4135      -6.229866      0.8724423
      8870.0000       103.0994       -51.3655       -6.18264      0.8735942
      8870.5000       103.3203       -51.0616      -5.879517      0.8809874
      8871.0000       103.5345       -50.7547      -5.573391      0.8884539
      8871.5000       103.4968       -50.4252      -5.244671      0.8964714
      8872.0000        103.276       -50.1983      -5.018543      0.9019868
      8872.5000        103.048        -50.288       -5.10902        0.89978
      8873.0000       102.8119       -50.5994        -5.4212      0.8921658
      8873.5000       102.5762       -50.9627      -5.785275       0.883286
      8874.0000       102.3964       -51.3429      -6.166252      0.8739939
      8874.5000       102.2332       -51.8083      -6.632427      0.8626238
      8875.0000       102.0637       -52.2776      -7.102505      0.8511584
      8875.5000       102.7452       -52.5403      -7.365978      0.8447322
      8876.0000       103.5482       -52.2581      -7.084557      0.8515962
      8876.5000       104.5873       -51.6718      -6.499035      0.8658772
      8877.0000       105.6251       -50.9614       -5.78941      0.8831851
      8877.5000       106.0245       -50.3613       -5.19009      0.8978027
      8878.0000       105.6849       -50.0071      -4.836662      0.9064229
      8878.5000       104.6982       -49.9731       -4.80344      0.9072332
      8879.0000       105.1168       -50.0098      -4.840916      0.9063191
      8879.5000       105.7722       -50.0373      -4.869194      0.9056294
      8880.0000        106.311       -50.0584      -4.891071      0.9050958
      8880.5000       106.3665        -50.076      -4.909447      0.9046476
      8881.0000       105.8973       -50.0877      -4.921925      0.9043433
      8881.5000       105.3467        -50.563      -5.397999      0.8927317
      8882.0000       105.2501       -50.8793      -5.715076      0.8849981
      8882.5000       106.1049       -50.9698      -5.806351      0.8827719
      8883.0000       106.8163       -50.9874       -5.82473      0.8823237
      8883.5000       106.7764       -51.0051      -5.843204      0.8818731
      8884.0000        106.078       -51.0227      -5.861584      0.8814248
      8884.5000       105.5815       -51.0403      -5.879959      0.8809766
      8885.0000       105.2367       -51.0388      -5.879234      0.8809943
      8885.5000        105.271       -50.7907      -5.631912      0.8870265
      8886.0000       105.2578       -50.3839      -5.225887      0.8969296
      8886.5000       105.2194        -49.837      -4.679768      0.9102496
      8887.0000       105.0991       -49.3145      -4.158039      0.9229746
      8887.5000       106.3179       -48.8284      -3.672718      0.9348118
      8888.0000       108.7025        -48.373      -3.218098      0.9459001
      8888.5000       110.5889       -47.8988      -2.744671      0.9574471
      8889.0000       111.9618       -47.4177      -2.264351      0.9691622
      8889.5000       112.1025       -46.9072      -1.754623      0.9815946
      8890.0000        110.828       -46.6353      -1.483501      0.9882073
      8890.5000       109.7777       -46.6346      -1.483578      0.9882054
      8891.0000       109.1359        -46.946      -1.795753      0.9805914
      8891.5000       109.4912       -47.3707      -2.221233      0.9702138
