#------------------------------------------------------------------------------
# Created by    : vladimir.rabinovich
# Created on    : 09/19/2023 17:20:04
#------------------------------------------------------------------------------
~Version Information Section
VERS.           2.0     :   CWLS log ASCII Standard - VERSION 2.0
WRAP.           NO      :   One line per depth step
~Well Information Section
#MNEM       .UNIT                                         VALUE :DESCRIPTION
#------------------------------------------------------------------------------
STRT        .FT                                             900 :START DEPTH
STOP        .FT                                            8286 :STOP DEPTH
STEP        .FT                                             0.5 :STEP      
NULL        .                                           -999.25 :NULL      
COMP        .                                       ALLIED CORP :COMPANY   
WELL        .                               OCS G04069 ST00BP00 :WELL      
FLD         .                                           WILDCAT :FIELD     
LOC         .                                                   :LOCATION  
CNTY        .                             GALVESTON LARGE BLOCK :LOCATION  
STAT        .                                             TEXAS :STATE     
CTRY        .                                     UNITED STATES :COUNTRY   
SRVC        .                                                   :SERVICE COMPANY
DATE        .                             9/13/2023 11:18:53 AM :LOG DATE  
API         .                                    42706400840000 :API NUMBER
UWI         .                                    42706400840000 :UNIQUE WELL ID
XCOORD      .                                  987200.391396966 :SURFACE X 
YCOORD      .                                   10401886.486665 :SURFACE Y 
LAT         .                                         28.647914 :LATITUDE  
LON         .                                        -95.037018 :LONGITUDE 
ELEV        .FT                                              83 :ELEVATION VALUE
ELEV_TYPE   .                                                KB :ELEVATION REFERENCE TYPE
~Curve Information Section
#MNEM       .UNIT                                      API CODE :CURVE DESCRIPTION
#------------------------------------------------------------------------------
DEPT        .FT                                                 :DEPTH     
ASFL        .OHMM                                               :          
CILD        .MMHO                                               :          
DPHI        .%                                                  :          
DT          .US/F                                               :          
GR          .GAPI                                               :          
GR_NORM     .GAPI                                               :GammaRay Normalized
ILD         .OHMM                                               :          
SP          .MV                                                 :          
SP_NORM     .MV                                                 :SP Normalized
VSH_GR      .V/V                                                :Volume of Shale from GR
VSH_SP      .V/V                                                :Volume of Shale from SP
~A        DEPTH           ASFL           CILD           DPHI             DT             GR        GR_NORM            ILD             SP        SP_NORM         VSH_GR         VSH_SP
# ...
      4342.5000         0.8358       1463.248         31.856       138.5496        61.5594       78.47614         0.6069         -55.26       -0.13134      0.9675773      0.9979794
      4343.0000         0.8437       1471.707         33.337       138.0286        60.7587       77.32719          0.605       -55.1003     0.02714157      0.9431316              1
      4343.5000         0.8512       1475.951        34.0164       137.1206        60.4144       76.83312         0.6004       -54.9407      0.1855278      0.9326196              1
      4344.0000         0.8457       1480.199        32.8531       136.5459        60.7593       77.32804         0.5957       -54.9365      0.1885147      0.9431498              1
      4344.5000         0.8402       1484.445        31.4087       137.1533        61.7172       78.70258          0.591       -54.9683      0.1555023      0.9723952              1
      4345.0000         0.8359       1488.691        30.4617        137.426        63.0872       80.66845          0.586            -55      0.1225853              1              1
      4345.5000         0.8345       1492.939        30.3636       137.6011        64.3536       82.48567         0.5762       -55.0318     0.08957291              1              1
      4346.0000         0.8332       1497.186        30.4262       137.7434        64.3967       82.54752         0.5663       -55.0635      0.0566597              1              1
      4346.5000         0.8337       1498.217         29.841       137.7146        63.8538       81.76849         0.5564       -55.0953     0.02364349              1              1
      4347.0000         0.8376       1498.295        29.2238       137.5378        63.3111       80.98975         0.5465       -55.0995     0.01823044              1              1
      4347.5000         0.8416       1498.375        29.2137       137.8579        62.7684       80.21099         0.5367       -55.0433     0.07321548              1              1
      4348.0000         0.8456       1498.453        29.7828       138.9778        62.2258       79.43239         0.5268       -54.9871      0.1282043      0.9879231              1
      4348.5000         0.8456       1498.531        30.5373       139.8289        61.6828       78.65321         0.5308       -54.9308      0.1832848      0.9713449              1
      4349.0000         0.8456       1498.609        30.8198        139.719        63.0665       80.63876         0.5352       -54.8745      0.2383728              1              1
      4349.5000         0.8455       1498.688        30.9278       139.3347        66.1427       85.05295         0.5396       -54.8182      0.2934608              1              1
      4350.0000         0.8414       1498.766        30.5505       138.1968        68.6205       88.60846         0.5441        -54.762      0.3484421              1              1
      4350.5000         0.8373       1498.844        29.1505       137.0835        70.3551       91.09752         0.5608       -54.6711      0.4381294              1              1
      4351.0000         0.8332       1498.922        29.5744       136.4062        69.9517       90.51866         0.5849       -54.5562      0.5518188              1              1
      4351.5000         0.8321       1499.873        31.0733       137.5186         69.548       89.93936         0.6089       -54.4413      0.6655045              1              1
      4352.0000         0.8374       1501.127        31.5743       138.5608        69.1445       89.36037         0.6329       -54.3265      0.7790871              1              1
      4352.5000         0.8427       1492.232        30.9456       139.6453        68.2902       88.13449          0.659       -54.2115      0.8928757              1              1
      4353.0000          0.848       1466.537         30.105       139.5564        66.9836        86.2596         0.6855       -54.0814       1.021759              1              1
      4353.5000         0.8533       1438.895        29.4187       138.2585        65.6783       84.38655         0.7119       -53.9032       1.198746              1              1
      4354.0000         0.8586       1393.934        28.6319       136.3167        64.3717       82.51164         0.7384       -53.7249       1.375832              1              1
      4354.5000         0.8691       1348.996        26.8932       133.4958        63.0884       80.67018          0.765       -53.4865       1.613018              1              1
      4355.0000         0.8949       1304.033        25.3935       131.2856        61.8416       78.88108         0.7941       -53.8217         1.2766      0.9761932              1
      4355.5000         0.9554       1259.096        24.8669       128.6367        60.5947       77.09186         0.8232       -54.2607      0.8363876      0.9381247              1
      4356.0000         0.9781       1216.154         25.501        127.104        59.4594       75.46275         0.8475       -54.7126      0.3832741      0.9034628              1
      4356.5000         0.9817       1189.449        28.4586       126.6555        58.7733       74.47823         0.8356       -55.1642    -0.06953812      0.8825154      0.9989302
      4357.0000         0.9697       1162.742        29.3496       127.1869        59.5569       75.60265         0.8237       -55.6115      -0.518055      0.9064394      0.9920299
      4357.5000         0.9576       1147.049        29.7415       128.6665        60.3412        76.7281          0.799        -56.056      -0.963768       0.930385      0.9851728
      4358.0000         0.9441       1161.561        30.0449        129.646        61.1249       77.85266         0.7704       -56.2484      -1.157383       0.954312      0.9821941
      4358.5000         0.9216       1188.709        29.8257       130.7114        61.9305       79.00865         0.7418       -56.3097      -1.219898      0.9789075      0.9812323
      4359.0000         0.8992       1217.879        29.0986       131.7505        62.8525       80.33168         0.7131        -56.233      -1.144413              1      0.9823936
      4359.5000         0.8815       1247.049        28.9877        132.842        63.7739       81.65383         0.6845       -56.0943      -1.006924              1      0.9845089
      4360.0000         0.8759       1276.219        29.7073       133.7324        64.6289       82.88071         0.6687       -55.9556     -0.8694382              1       0.986624
      4360.5000         0.8708       1305.389        30.3147       134.8481        64.2157        82.2878         0.6661       -55.8169     -0.7319527              1      0.9887392
      4361.0000         0.8685       1334.559        30.7444       136.4316        63.8023       81.69458         0.6634       -55.6782     -0.5944672              1      0.9908543
      4361.5000         0.8662       1363.703         30.873       137.0293        63.3891       81.10167         0.6608       -55.5395     -0.4569817              1      0.9929695
      4362.0000         0.8638       1387.219        30.2675        136.718        62.9732       80.50487         0.6582       -55.4008     -0.3194962              1      0.9950847
      4362.5000         0.8614       1404.479        28.3189       136.4927        62.3638       79.63042         0.6555        -55.329      -0.248909      0.9921365      0.9961706
      4363.0000         0.8546       1421.736        28.2183       136.1201         61.755       78.75681         0.6567       -55.2798     -0.2009239      0.9735491      0.9969088
      4363.5000         0.8478       1438.994        28.2069       135.7903        61.1456       77.88235         0.6727       -55.2307      -0.153038      0.9549437      0.9976456
      4364.0000         0.8411       1456.264        27.6787       136.3708        60.5363       77.00805         0.6887       -55.1815     -0.1050529      0.9363415      0.9983838
      4364.5000         0.8343       1467.037        27.9391       136.9111        59.9274        76.1343         0.7047       -55.1324    -0.05716705      0.9177511      0.9991205
