#------------------------------------------------------------------------------
# Created by    : vladimir.rabinovich
# Created on    : 09/19/2023 17:20:48
#------------------------------------------------------------------------------
~Version Information Section
VERS.           2.0     :   CWLS log ASCII Standard - VERSION 2.0
WRAP.           NO      :   One line per depth step
~Well Information Section
#MNEM       .UNIT                                         VALUE :DESCRIPTION
#------------------------------------------------------------------------------
STRT        .FT                                             495 :START DEPTH
STOP        .FT                                            6623 :STOP DEPTH
STEP        .FT                                             0.5 :STEP      
NULL        .                                           -999.25 :NULL      
COMP        .                                      SHELL OIL CO :COMPANY   
WELL        .                                     ST TR 00691-L :WELL      
FLD         .                                           WILDCAT :FIELD     
LOC         .                                                   :LOCATION  
CNTY        .                      MATAGORDA ISLAND LARGE BLOCK :LOCATION  
STAT        .                                             TEXAS :STATE     
CTRY        .                                     UNITED STATES :COUNTRY   
SRVC        .                                                   :SERVICE COMPANY
DATE        .                             9/13/2023 11:12:05 AM :LOG DATE  
API         .                                    42703000200000 :API NUMBER
UWI         .                                    42703000200000 :UNIQUE WELL ID
XCOORD      .                                  411465.852171861 :SURFACE X 
YCOORD      .                                  10158718.0598508 :SURFACE Y 
LAT         .                                        27.9414781 :LATITUDE  
LON         .                                       -96.8060481 :LONGITUDE 
ELEV        .FT                                              11 :ELEVATION VALUE
ELEV_TYPE   .                                                KB :ELEVATION REFERENCE TYPE
~Curve Information Section
#MNEM       .UNIT                                      API CODE :CURVE DESCRIPTION
#------------------------------------------------------------------------------
DEPT        .FT                                                 :DEPTH     
ASN         .OHMM                                               :          
CILD        .OHMM                                               :          
ILD         .OHMM                                               :          
SP          .MV                                                 :          
SP_NORM     .MV                                                 :SP Normalized
VSH_SP      .V/V                                                :Volume of Shale from SP
~A        DEPTH            ASN           CILD            ILD             SP        SP_NORM         VSH_SP
# ...
      3725.0000         0.9737       1268.129         0.7087       -52.3105        -7.9422      0.8476359
      3725.5000         0.9786       1248.293         0.7402       -52.5173          -8.15      0.8423077
      3726.0000         0.9805       1227.473         0.7731       -52.9559        -8.5895      0.8310385
      3726.5000         0.9824       1202.994         0.8059       -53.4555        -9.0901      0.8182026
      3727.0000         0.9894       1175.529         0.8364       -53.9551        -9.5907      0.8053666
      3727.5000         0.9972       1147.832         0.8512        -54.436       -10.0725      0.7930128
      3728.0000         1.0051       1129.518         0.8483       -54.7131       -10.3506      0.7858821
      3728.5000          1.017       1115.318         0.8091       -54.9903       -10.6287      0.7787513
      3729.0000         0.8304       1119.176         0.7579       -54.5536        -10.193      0.7899231
      3729.5000          0.795       1449.092         0.6588        -53.934        -9.5744      0.8057846
      3730.0000         0.7793        1483.41         0.5596       -53.1032        -8.7445      0.8270641
      3730.5000         0.7694       1554.281         0.5154       -53.7009        -9.3432      0.8117128
      3731.0000         0.7595         1632.4         0.4728        -54.813       -10.4562      0.7831744
      3731.5000         0.7484       2017.141         0.4375       -55.7798        -11.424       0.758359
      3732.0000         0.7363       2058.336         0.4217       -56.7472       -12.3924      0.7335282
      3732.5000         0.7244       2100.047         0.4059        -57.533       -13.1791      0.7133564
      3733.0000         0.7172        2132.77         0.4046       -57.9199        -13.567      0.7034103
      3733.5000           0.71       2163.672         0.4106       -58.2326       -13.8806      0.6953692
      3734.0000         0.7064       2187.957         0.4275       -58.5234       -14.1724      0.6878872
      3734.5000         0.7041        2141.66         0.4443       -58.7153       -14.3653       0.682941
      3735.0000         0.7166       2061.309         0.4611       -58.9072       -14.5581      0.6779975
      3735.5000         0.7322       1994.379         0.4841       -58.9507       -14.6026      0.6768564
      3736.0000         0.7774       1958.139         0.5096       -58.8328       -14.4856      0.6798564
      3736.5000         0.8198       1755.424         0.6031       -58.7149       -14.3687      0.6828538
      3737.0000         0.8671       1552.611         0.7178        -58.597       -14.2518      0.6858513
      3737.5000         0.9848       1196.754         0.8522       -58.4791       -14.1348      0.6888513
      3738.0000         1.2988       1153.494         0.9659       -58.4545       -14.1112      0.6894564
      3738.5000         1.3866       1123.131         0.8964       -58.4802       -14.1378      0.6887743
      3739.0000         1.5934       1095.617         0.8268        -63.251       -18.9096      0.5664206
      3739.5000         1.6161       1057.074         0.7716       -66.0022       -21.6618      0.4958513
      3740.0000          1.535       1084.711         0.7179        -67.613       -23.2735      0.4545256
      3740.5000         1.3296       1207.611         0.6639       -68.9855        -24.647      0.4193077
      3741.0000          1.005        2171.73         0.6051       -70.0385       -25.7009      0.3922846
      3741.5000         0.9744        2463.57         0.5464       -70.9181       -26.5815      0.3697051
      3742.0000         0.9453       2732.316         0.4972        -71.483       -27.1474      0.3551949
      3742.5000         0.8296       2821.242         0.4512       -72.1162       -27.7815      0.3389359
      3743.0000         0.7867        2906.93         0.4072       -72.6879       -28.3542      0.3242513
      3743.5000         0.7738       2955.199         0.3691        -73.316       -28.9832      0.3081231
      3744.0000         0.7637       2974.188         0.3556       -73.5328        -29.201      0.3025385
      3744.5000         0.7551       2925.254         0.3582       -73.2012       -28.8703      0.3110179
      3745.0000         0.7506       2828.711         0.3894       -72.6729        -28.343      0.3245384
      3745.5000         0.7685       2645.355         0.4206       -71.8571       -27.5282      0.3454308
      3746.0000         0.8032       2461.996         0.4517       -71.0413       -26.7133      0.3663256
      3746.5000         0.8518       2278.543         0.4824        -70.149        -25.822      0.3891795
      3747.0000         0.9286       2068.898         0.5126       -69.2703       -24.9442      0.4116872
      3747.5000         0.9847       2022.102         0.5427       -68.4545       -24.1294      0.4325795
      3748.0000         1.0187       1897.266         0.5729       -67.4852       -23.1611      0.4574077
      3748.5000         1.1084       1846.809         0.5932       -66.9835       -22.6603      0.4702487
      3749.0000          1.156       1796.326          0.607       -67.4948       -23.1726      0.4571128
      3749.5000          1.236       1745.869         0.6207       -68.8645       -24.5432      0.4219692
      3750.0000         1.1787        1695.41         0.6344       -70.8262       -26.5059      0.3716436
      3750.5000          1.068       1582.703         0.6277       -72.5739       -28.2546      0.3268051
      3751.0000         1.0036        1600.98         0.6206       -69.2092       -24.8908      0.4130564
      3751.5000         0.9817        1619.27         0.6136       -66.7806       -22.4632      0.4753026
      3752.0000         0.9715       1634.402         0.6082       -65.4558       -21.1393      0.5092487
      3752.5000         1.0039       1647.133         0.6136       -64.3229       -20.0074      0.5382718
      3753.0000         1.0039       1633.088         0.6327       -62.8563       -18.5418      0.5758513
      3753.5000         0.9686       1546.225         0.6524       -61.0486        -16.735      0.6221794
      3754.0000         0.9335       1467.025         0.6742       -59.1958       -14.8832      0.6696615
      3754.5000         0.9029       1387.824         0.6959       -52.6449        -8.3332      0.8376102
      3755.0000         0.9762       1314.201         0.7176       -51.2571        -6.9464      0.8731692
      3755.5000         0.9851       1271.164         0.7393       -50.7578        -6.4481      0.8859462
      3756.0000         1.0049       1231.613         0.7628       -50.3771        -6.0683      0.8956846
      3756.5000         1.0466       1193.068         0.7867       -49.9319        -5.6241      0.9070743
      3757.0000         1.0815       1160.814         0.8105       -49.4871        -5.1802      0.9184564
      3757.5000         1.0992       1136.445         0.8344       -48.9569         -4.651      0.9320256
      3758.0000         1.1082       1121.055         0.8449       -49.0475        -4.7425      0.9296795
      3758.5000         1.1062       1108.484         0.8507       -49.7789        -5.4749         0.9109
      3759.0000         1.0717       1099.014         0.8566        -50.616         -6.313      0.8894103
      3759.5000         1.0329        1092.75         0.8624       -51.2983        -6.9962      0.8718923
      3760.0000         1.0034        1200.93         0.8569        -51.623        -7.3219       0.863541
      3760.5000         0.9789       1252.395         0.8308       -51.6794        -7.3792      0.8620718
      3761.0000         0.9637       1329.162         0.8012       -51.5535        -7.2543      0.8652744
      3761.5000         0.9513       1363.701         0.7579       -51.2167        -6.9185      0.8738846
      3762.0000         0.9412       1393.795         0.7231       -50.8214        -6.5241      0.8839974
      3762.5000         0.9447       1427.523         0.7094       -50.4263          -6.13      0.8941026
