#------------------------------------------------------------------------------
# Created by    : vladimir.rabinovich
# Created on    : 09/19/2023 17:21:35
#------------------------------------------------------------------------------
~Version Information Section
VERS.           2.0     :   CWLS log ASCII Standard - VERSION 2.0
WRAP.           NO      :   One line per depth step
~Well Information Section
#MNEM       .UNIT                                         VALUE :DESCRIPTION
#------------------------------------------------------------------------------
STRT        .FT                                            4200 :START DEPTH
STOP        .FT                                            8641 :STOP DEPTH
STEP        .FT                                             0.5 :STEP      
NULL        .                                           -999.25 :NULL      
COMP        .                                       HUNT OIL CO :COMPANY   
WELL        .                               OCS G25526 ST00BP00 :WELL      
FLD         .                                           WILDCAT :FIELD     
LOC         .                                                   :LOCATION  
CNTY        .                             GALVESTON LARGE BLOCK :LOCATION  
STAT        .                                             TEXAS :STATE     
CTRY        .                                     UNITED STATES :COUNTRY   
SRVC        .                                                   :SERVICE COMPANY
DATE        .                             9/13/2023 11:19:33 AM :LOG DATE  
API         .                                    42706404520000 :API NUMBER
UWI         .                                    42706404520000 :UNIQUE WELL ID
XCOORD      .                                  1090250.84236946 :SURFACE X 
YCOORD      .                                  10532258.5226608 :SURFACE Y 
LAT         .                                         29.010895 :LATITUDE  
LON         .                                        -94.721682 :LONGITUDE 
ELEV        .FT                                             108 :ELEVATION VALUE
ELEV_TYPE   .                                                KB :ELEVATION REFERENCE TYPE
~Curve Information Section
#MNEM       .UNIT                                      API CODE :CURVE DESCRIPTION
#------------------------------------------------------------------------------
DEPT        .FT                                                 :DEPTH     
CALI        .IN                                                 :          
DCAL        .IN                                                 :          
DFL         .OHMM                                               :          
DLOD        .LB                                                 :          
DPHI        .DEC                                                :          
DRHO        .G/C3                                               :          
GR          .GAPI                                               :          
GR_NORM     .GAPI                                               :GammaRay Normalized
HDCN        .MMHO                                               :          
HO24        .OHMM                                               :          
HO30        .OHMM                                               :          
HO40        .OHMM                                               :          
HO60        .OHMM                                               :          
HO90        .OHMM                                               :          
HT24        .OHMM                                               :          
HT30        .OHMM                                               :          
HT40        .OHMM                                               :          
HT60        .OHMM                                               :          
HT90        .OHMM                                               :          
NPHI        .DEC                                                :          
RHOB        .G/C3                                               :          
RWA         .OHMM                                               :          
SP_NORM     .MV                                                 :SP Normalized
SPA         .MV                                                 :          
TENS        .LBS                                                :          
VSH_GR      .V/V                                                :Volume of Shale from GR
VSH_SP      .V/V                                                :Volume of Shale from SP
~A        DEPTH           CALI           DCAL            DFL           DLOD           DPHI           DRHO             GR        GR_NORM           HDCN           HO24           HO30           HO40           HO60           HO90           HT24           HT30           HT40           HT60           HT90           NPHI           RHOB            RWA        SP_NORM            SPA           TENS         VSH_GR         VSH_SP
# ...
      8630.0000          12.25              0         0.7127       1787.376         0.5058        -0.0782        145.964       80.27832       1398.946         0.7289         0.7264         0.7245         0.7221         0.7191         0.7207         0.7192         0.7181         0.7166         0.7148         0.4097         1.8155         0.2378       5.821884       155.2945       4435.222              1              1
      8630.5000          12.25              0         0.6902       1775.147         0.5058        -0.0782        145.964       80.27832       1417.693          0.735         0.7275         0.7217         0.7145         0.7059          0.726         0.7207         0.7167         0.7115         0.7054         0.4097         1.8155         0.2348       5.647518       155.2176       4401.271              1              1
      8631.0000          12.25              0         0.6907       1752.726         0.5058        -0.0782        145.964       80.27832       1433.914          0.734          0.725         0.7181         0.7094         0.6991         0.7235         0.7168         0.7117         0.7052         0.6974         0.4097         1.8155          0.232       5.030435       154.9455       4355.546              1              1
      8631.5000          12.25              0         0.6869       1677.309         0.5058        -0.0782        145.964       80.27832       1450.393         0.7239         0.7167         0.7111         0.7042         0.6958          0.711         0.7055         0.7013         0.6959         0.6895         0.4097         1.8155         0.2292       5.017078       154.9396       4311.017              1              1
      8632.0000          12.25              0         0.7009        1640.62         0.5058        -0.0782        145.964       80.27832       1475.376         0.6978         0.6938         0.6907         0.6867          0.682         0.6856         0.6836         0.6821         0.6802         0.6778         0.4097         1.8155         0.2252       5.714614       155.2472       4297.368              1              1
      8632.5000          12.25              0         0.6792       1665.079         0.5058        -0.0782        145.964       80.27832       1513.432         0.6637         0.6656         0.6671          0.669         0.6714           0.65         0.6526         0.6547         0.6574         0.6608         0.4097         1.8155         0.2198       6.304948       155.5075       4329.613              1              1
      8633.0000          12.25              0         0.6681       1689.539         0.5058        -0.0782        145.964       80.27832       1553.854         0.5962         0.6051         0.6122         0.6216         0.6335         0.6244         0.6291         0.6328         0.6376         0.6436         0.4097         1.8155          0.215       5.996285       155.3714       4380.968              1              1
      8633.5000          12.25              0         0.6699       1793.491         0.5058        -0.0782        145.964       80.27832       1556.647         0.5998         0.6053         0.6098         0.6155         0.6227         0.6323         0.6348         0.6367         0.6393         0.6424         0.4097         1.8155         0.2149       5.580387        155.188       4423.962              1              1
      8634.0000          12.25              0         0.6866       1836.295         0.5058        -0.0782        145.964       80.27832       1510.679         0.6977         0.6908         0.6856         0.6789          0.671         0.6716         0.6691         0.6673         0.6649          0.662         0.4097         1.8155         0.2203       4.574154       154.7443       4425.838              1              1
      8634.5000          12.25              0         0.6951       1817.951         0.5058        -0.0782        145.964       80.27832       1462.104         0.7414           0.73         0.7214         0.7106         0.6979         0.7114         0.7043         0.6989         0.6921         0.6839         0.4097         1.8155         0.2269       4.373005       154.6556         4406.9              1              1
      8635.0000          12.25              0         0.6879       1779.223         0.5058        -0.0782        145.964       80.27832       1438.456         0.7359         0.7268         0.7198          0.711         0.7006         0.7273          0.719         0.7127         0.7047         0.6952         0.4097         1.8155         0.2309       4.896209       154.8863       4410.825              1              1
      8635.5000          12.25              0         0.6849       1734.381         0.5058        -0.0782        145.964       80.27832       1430.787          0.734         0.7259         0.7197         0.7119         0.7026         0.7256         0.7187         0.7135         0.7068         0.6989         0.4097         1.8155         0.2324       5.500107       155.1526       4428.397              1              1
      8636.0000          12.25              0         0.6963       1797.568         0.5058        -0.0782        145.964       80.27832       1427.512         0.7247         0.7193         0.7152         0.7099         0.7036         0.7164         0.7124         0.7093         0.7053         0.7005         0.4097         1.8155          0.233       5.580387        155.188       4451.601              1              1
      8636.5000          12.25              0         0.6868       1826.104         0.5058        -0.0782        145.964       80.27832        1425.48         0.7072         0.7066          0.706         0.7054         0.7046         0.7039         0.7033         0.7029         0.7023         0.7015         0.4097         1.8155         0.2334       4.963305       154.9159       4455.354              1              1
      8637.0000          12.25              0         0.6838       1815.912         0.5058        -0.0782        145.964       80.27832       1423.458         0.6929         0.6959         0.6983         0.7014         0.7053          0.693         0.6953         0.6972         0.6996         0.7025         0.4097         1.8155         0.2337       4.480276       154.7029       4449.554              1              1
      8637.5000          12.25              0         0.7032       1811.836         0.5058        -0.0782        145.964       80.27832       1421.887         0.6891         0.6932         0.6964         0.7006         0.7058         0.6868         0.6909          0.694         0.6982         0.7033         0.4097         1.8155          0.234       4.319266       154.6319       4450.236              1              1
      8638.0000          12.25              0          0.687       1811.836         0.5058        -0.0782        145.964       80.27832       1420.801         0.6872         0.6919         0.6956         0.7005         0.7065         0.6845         0.6892          0.693         0.6978         0.7038         0.4097         1.8155         0.2341       4.493667       154.7088        4462.69              1              1
      8638.5000          12.25              0         0.6874       1817.951         0.5058        -0.0782        145.964       80.27832       1420.115         0.6865         0.6915         0.6954         0.7005         0.7068         0.6843         0.6891          0.693          0.698         0.7042         0.4097         1.8155         0.2342       4.681426       154.7916        4465.42              1              1
      8639.0000          12.25              0         0.6997        1854.64         0.5058        -0.0782        145.964       80.27832       1420.636         0.6889         0.6932         0.6966         0.7009         0.7064         0.6854         0.6899         0.6935         0.6981         0.7039         0.4097         1.8155         0.2341       5.057219       154.9573       4446.482              1              1
      8639.5000          12.25              0         0.6864       1809.797         0.5058        -0.0782        145.964       80.27832        1422.32         0.6904         0.6943         0.6974         0.7013         0.7062         0.6871          0.691         0.6941         0.6981         0.7031         0.4097         1.8155         0.2339       5.473116       155.1407        4412.36              1              1
