#------------------------------------------------------------------------------
# Created by    : vladimir.rabinovich
# Created on    : 09/19/2023 17:20:45
#------------------------------------------------------------------------------
~Version Information Section
VERS.           2.0     :   CWLS log ASCII Standard - VERSION 2.0
WRAP.           NO      :   One line per depth step
~Well Information Section
#MNEM       .UNIT                                         VALUE :DESCRIPTION
#------------------------------------------------------------------------------
STRT        .FT                                            2010 :START DEPTH
STOP        .FT                                            7000 :STOP DEPTH
STEP        .FT                                             0.5 :STEP      
NULL        .                                           -999.25 :NULL      
COMP        .                                    TEXAS GULF INC :COMPANY   
WELL        .                                ST OF TEX TR 693-L :WELL      
FLD         .                                           WILDCAT :FIELD     
LOC         .                                                   :LOCATION  
CNTY        .                      MATAGORDA ISLAND LARGE BLOCK :LOCATION  
STAT        .                                             TEXAS :STATE     
CTRY        .                                     UNITED STATES :COUNTRY   
SRVC        .                                                   :SERVICE COMPANY
DATE        .                             9/13/2023 11:12:01 AM :LOG DATE  
API         .                                    42703300330000 :API NUMBER
UWI         .                                    42703300330000 :UNIQUE WELL ID
XCOORD      .                                  377893.250269135 :SURFACE X 
YCOORD      .                                  10151490.3803449 :SURFACE Y 
LAT         .                                        27.9187241 :LATITUDE  
LON         .                                       -96.9091122 :LONGITUDE 
ELEV        .FT                                              70 :ELEVATION VALUE
ELEV_TYPE   .                                                KB :ELEVATION REFERENCE TYPE
~Curve Information Section
#MNEM       .UNIT                                      API CODE :CURVE DESCRIPTION
#------------------------------------------------------------------------------
DEPT        .FT                                                 :DEPTH     
ASN         .OHMM                                               :          
CILD        .MMHO                                               :          
ILD         .OHMM                                               :          
SP          .MV                                                 :          
SP_NORM     .MV                                                 :SP Normalized
VSH_SP      .V/V                                                :Volume of Shale from SP
~A        DEPTH            ASN           CILD            ILD             SP        SP_NORM         VSH_SP
# ...
      6950.0000         0.8885       2131.789         0.4877       -40.0542        -2.3183      0.9956397
      6950.5000         0.8837       2131.016         0.4782        -39.616        -1.8801              1
      6951.0000         0.8799       2130.246         0.4714       -39.5709         -1.835              1
      6951.5000         0.9136       2131.945         0.4677       -39.5256        -1.7897              1
      6952.0000         0.8857       2150.125          0.464       -39.4804        -1.7445              1
      6952.5000         0.8713       2184.965         0.4603       -39.5444        -1.8085              1
      6953.0000         0.8568       2219.805         0.4566       -39.6528         -1.917              1
      6953.5000           0.86       2254.645         0.4529       -39.7613        -2.0254       0.999652
      6954.0000         0.8682        2286.91         0.4492       -39.8697        -2.1339      0.9981657
      6954.5000         0.8609       2310.195         0.4455        -39.978        -2.2421      0.9966835
      6955.0000         0.8536       2333.457         0.4418       -40.0864        -2.3505      0.9951986
      6955.5000         0.8463       2356.738         0.4381       -40.1949         -2.459      0.9937123
      6956.0000          0.839           2380         0.4345       -40.3033        -2.5674      0.9922274
      6956.5000         0.8318       2396.594          0.431       -40.3539         -2.618      0.9915342
      6957.0000          0.826       2410.906         0.4283        -40.396        -2.6601      0.9909576
      6957.5000         0.8253       2425.207         0.4256       -40.4382        -2.7024      0.9903781
      6958.0000         0.8246        2439.52         0.4229       -40.4803        -2.7444      0.9898027
      6958.5000         0.8297        2453.82         0.4202       -40.5224        -2.7865       0.989226
      6959.0000         0.8376       2468.133         0.4175       -40.5646        -2.8288      0.9886466
      6959.5000         0.8337       2481.137         0.4148       -40.6067        -2.8708      0.9880712
      6960.0000         0.8389       2492.566         0.4121       -40.2166        -2.4807      0.9934151
      6960.5000          0.859       2497.145         0.4094       -39.8092        -2.0733      0.9989959
      6961.0000         0.8452       2488.773         0.4067       -39.4025        -1.6666              1
      6961.5000         0.8313       2480.387          0.404        -38.918        -1.1821              1
      6962.0000         0.8283       2475.598         0.4033       -38.3925        -0.6567              1
      6962.5000         0.8257       2478.301         0.4043       -38.8907        -1.1549              1
      6963.0000         0.8232           2481         0.4054       -39.7041        -1.9683              1
      6963.5000         0.8206       2483.703         0.4064       -39.4783        -1.7424              1
      6964.0000         0.8202       2486.406         0.4075       -38.8167        -1.0808              1
      6964.5000         0.8348       2489.102         0.4085       -38.1456        -0.4097              1
      6965.0000         0.8495       2457.238         0.4096       -38.3863        -0.6504              1
      6965.5000         0.8642       2418.707         0.4106        -38.868        -1.1321              1
      6966.0000         0.8652       2380.176         0.4117       -39.2162        -1.4804              1
      6966.5000         0.8648       2350.602         0.4128       -39.5648        -1.8289              1
      6967.0000         0.8644       2327.742         0.4162       -39.0212        -1.2853              1
      6967.5000         0.8639       2304.879         0.4257       -38.2377        -0.5019              1
      6968.0000         0.8673       2282.047         0.4352       -37.5895         0.1464              1
      6968.5000         0.8864       2259.184         0.4447       -37.4721         0.2638              1
      6969.0000          0.894       2239.145         0.4401       -37.3549          0.381              1
      6969.5000         0.8589       2358.563         0.4299        -37.145         0.5909              1
      6970.0000         0.8235       2455.691         0.4196       -36.5443         1.1916              1
      6970.5000         0.8144       2493.824         0.4094       -35.9435         1.7924              1
      6971.0000         0.8232        2525.32         0.4032       -35.3605         2.3754              1
      6971.5000         0.8319       2525.969         0.4097       -35.6096         2.1263              1
      6972.0000         0.8406       2486.141         0.4162       -35.8633         1.8726              1
      6972.5000         0.8494       2441.168         0.4227       -36.1689          1.567              1
      6973.0000         0.8613       2396.246         0.4315       -36.4743         1.2616              1
      6973.5000         0.8846       2343.289         0.4459         -36.78         0.9559              1
      6974.0000         0.9079       2247.754         0.4602       -37.0856         0.6502              1
      6974.5000         0.9287           2164         0.4746       -37.3913         0.3446              1
      6975.0000         0.9383       2101.512          0.489       -37.6116         0.1243              1
      6975.5000         0.9305       2044.262         0.5017       -37.6537         0.0821              1
      6976.0000         0.9228       2001.834         0.5126       -37.4603         0.2756              1
      6976.5000          0.915       2009.072         0.5235       -36.8285         0.9074              1
      6977.0000         0.9086       2036.074         0.5209       -36.7448         0.9911              1
      6977.5000         0.9022       2063.078         0.5127       -36.9449          0.791              1
      6978.0000         0.8959       2093.973         0.5045       -37.0872         0.6487              1
      6978.5000         0.9019       2127.766         0.4963       -37.2293         0.5065              1
      6979.0000         0.9166       2161.504         0.4881       -37.3714         0.3645              1
      6979.5000         0.8594       2195.297         0.4799       -37.5136         0.2223              1
      6980.0000         0.8319       2229.289         0.4721       -37.6558         0.0801              1
      6980.5000         0.8207       2278.051         0.4643       -37.7979         -0.062              1
      6981.0000         0.8094       2326.816         0.4565       -37.9399         -0.204              1
      6981.5000         0.7981       2375.582         0.4487       -38.0822        -0.3463              1
      6982.0000         0.8008       2418.309         0.4409       -38.1541        -0.4182              1
      6982.5000         0.8056       2457.938         0.4331       -38.0687        -0.3328              1
      6983.0000         0.8165       2449.055         0.4253       -37.9835        -0.2477              1
      6983.5000         0.8349       2418.707         0.4249       -37.8521        -0.1162              1
      6984.0000         0.8533        2388.41         0.4332       -37.3465         0.3894              1
      6984.5000         0.8717       2358.113         0.4415       -36.8403         0.8955              1
      6985.0000         0.8892       2231.684         0.4499       -37.1407         0.5951              1
      6985.5000         0.9066        2142.59         0.4582       -37.5741         0.1618              1
      6986.0000          0.924       2082.594         0.4665        -38.007        -0.2711              1
      6986.5000         0.9389       2026.842         0.4749       -38.4398        -0.7039              1
      6987.0000         0.9507       1979.475         0.4832       -38.5244        -0.7885              1
      6987.5000         0.9625       1932.156         0.4915       -38.5449         -0.809              1
