#------------------------------------------------------------------------------
# Created by    : vladimir.rabinovich
# Created on    : 09/19/2023 17:20:24
#------------------------------------------------------------------------------
~Version Information Section
VERS.           2.0     :   CWLS log ASCII Standard - VERSION 2.0
WRAP.           NO      :   One line per depth step
~Well Information Section
#MNEM       .UNIT                                         VALUE :DESCRIPTION
#------------------------------------------------------------------------------
STRT        .FT                                            3071 :START DEPTH
STOP        .FT                                           14991 :STOP DEPTH
STEP        .FT                                             0.5 :STEP      
NULL        .                                           -999.25 :NULL      
COMP        .                                        TEXACO USA :COMPANY   
WELL        .                                     ST TR 00012-L :WELL      
FLD         .                                           WILDCAT :FIELD     
LOC         .                                                   :LOCATION  
CNTY        .                           HIGH ISLAND LARGE BLOCK :LOCATION  
STAT        .                                             TEXAS :STATE     
CTRY        .                                     UNITED STATES :COUNTRY   
SRVC        .                                                   :SERVICE COMPANY
DATE        .                             9/13/2023 11:19:15 AM :LOG DATE  
API         .                                    42708000680000 :API NUMBER
UWI         .                                    42708000680000 :UNIQUE WELL ID
XCOORD      .                                  1354682.00685938 :SURFACE X 
YCOORD      .                                  10733491.7088446 :SURFACE Y 
LAT         .                                        29.5724948 :LATITUDE  
LON         .                                       -93.8991324 :LONGITUDE 
ELEV        .FT                                              44 :ELEVATION VALUE
ELEV_TYPE   .                                                KB :ELEVATION REFERENCE TYPE
~Curve Information Section
#MNEM       .UNIT                                      API CODE :CURVE DESCRIPTION
#------------------------------------------------------------------------------
DEPT        .FT                                                 :DEPTH     
ASN         .OHMM                                               :          
CILD        .MMHO                                               :          
ILD         .OHMM                                               :          
SP          .MV                                                 :          
SP_NORM     .MV                                                 :SP Normalized
VSH_SP      .V/V                                                :Volume of Shale from SP
~A        DEPTH            ASN           CILD            ILD             SP        SP_NORM         VSH_SP
      3071.0000         0.1875        1997.48         0.1578        -91.333      -34.72923      0.1773359
      3071.5000         0.1949       2007.795         0.1843       -91.1093      -34.50553       0.182792
      3072.0000         0.2023       2021.994         0.2107       -90.8856      -34.28183      0.1882481
      3072.5000         0.2548       2056.195         0.2371        -90.662      -34.05823      0.1937017
      3073.0000         0.3865       2096.965         0.2579       -90.4554      -33.85163      0.1987408
      3073.5000         0.6797       2325.445         0.2726       -90.2826      -33.67883      0.2029554
      3074.0000         0.7252       3037.121         0.2874       -90.1096      -33.50583       0.207175
      3074.5000         0.7646       3527.051         0.3021       -89.9368      -33.33303      0.2113896
      3075.0000         0.8008       3584.301         0.3169       -89.7638      -33.16003       0.215609
      3075.5000         0.8354       3595.156         0.3316       -89.8351      -33.23133      0.2138701
      3076.0000         0.8668        3490.57         0.3287       -90.1985      -33.59473      0.2050066
      3076.5000         0.8901       3189.176         0.3184        -90.562      -33.95823      0.1961408
      3077.0000         0.8869       3027.625          0.308       -90.9255      -34.32173      0.1872749
      3077.5000         0.8745       2807.875         0.2977       -91.2567      -34.65293      0.1791969
      3078.0000         0.8621       2652.305         0.2874       -91.5471      -34.94333       0.172114
      3078.5000         0.8497       2554.496         0.2771       -91.8378      -35.23403      0.1650237
      3079.0000         0.8373       2485.094         0.2724       -92.1282      -35.52443      0.1579408
      3079.5000         0.8258       2438.215         0.2697       -91.4717      -34.86793      0.1739529
      3080.0000         0.8163       2391.313         0.2669       -90.5786      -33.97483      0.1957359
      3080.5000         0.8069       2379.238         0.2642       -89.6862      -33.08243      0.2175017
      3081.0000         0.7974       2484.473         0.2614       -89.0382      -32.43443      0.2333066
      3081.5000          0.788       2827.258         0.2587       -89.5905      -32.98673      0.2198359
      3082.0000         0.7785       2918.566         0.2576       -90.1566      -33.55283      0.2060285
      3082.5000         0.7691        2972.59         0.2677       -90.7593      -34.15553      0.1913286
      3083.0000         0.7696       3022.012         0.2779       -91.3619      -34.75813       0.176631
      3083.5000         0.7746       3056.926          0.288       -91.9642      -35.36043      0.1619407
      3084.0000         0.7796       3087.855         0.2981       -92.5669      -35.96313      0.1472407
      3084.5000         0.7846       2839.223         0.3082       -91.3057      -34.70193      0.1780017
      3085.0000         0.7896       2590.691         0.3183       -89.0282      -32.42443      0.2335506
      3085.5000         0.7982       2460.688         0.3285       -86.3589      -29.75513      0.2986554
      3086.0000         0.8075       2366.043         0.3386       -83.6896      -27.08583      0.3637603
      3086.5000         0.8168       2001.707         0.3467        -81.429      -24.82523      0.4188968
      3087.0000         0.8261        1970.33          0.352       -79.7821      -23.17833      0.4590652
      3087.5000         0.8354       1820.832         0.3574       -78.1359      -21.53213      0.4992163
      3088.0000         0.8447       1795.229         0.3627       -76.8524      -20.24863      0.5305212
      3088.5000         0.8539       1769.627         0.3681       -76.5615      -19.95773      0.5376164
      3089.0000         0.8632       1744.025         0.3734       -76.2706      -19.66683      0.5447115
      3089.5000         0.8694       1734.363         0.3788       -76.0563      -19.45253      0.5499384
      3090.0000         0.8742       1724.986         0.3841       -76.0042      -19.40043       0.551209
      3090.5000         0.8741       1715.604         0.3895        -75.952      -19.34823      0.5524821
      3091.0000         0.8615       1706.221         0.3928       -75.8998      -19.29603      0.5537553
      3091.5000         0.8489       1696.838         0.3929        -75.601      -18.99723      0.5610433
      3092.0000         0.8363       1689.754         0.3929       -74.5051      -17.90133      0.5877725
      3092.5000         0.8236       1686.357          0.393       -73.4087      -16.80493      0.6145139
      3093.0000         0.8146       1682.959          0.393       -72.3129      -15.70913      0.6412408
      3093.5000         0.8064       1679.561         0.3931        -71.217      -14.61323      0.6679699
      3094.0000         0.7982       1676.162         0.3931       -70.1212      -13.51743      0.6946968
      3094.5000           0.79       1672.766         0.3931       -69.0248      -12.42103      0.7214382
      3095.0000         0.7819       1669.369         0.3932       -68.0583      -11.45452      0.7450116
      3095.5000         0.7737       1665.971         0.3932       -67.2131      -10.60933      0.7656262
      3096.0000         0.7658       1662.574         0.3933       -66.3673      -9.763531      0.7862554
      3096.5000         0.7598       1659.176         0.3933       -65.5221      -8.918331        0.80687
      3097.0000         0.7537       1658.207         0.3933       -64.6763      -8.072529      0.8274993
      3097.5000         0.7476       1658.703         0.3933       -63.8311      -7.227329      0.8481139
      3098.0000         0.7416       1672.842         0.3933       -62.9853      -6.381527      0.8687432
      3098.5000         0.7355       1693.363         0.3933       -62.1395      -5.535728      0.8893725
      3099.0000         0.7294       1713.885         0.3932       -61.5941       -4.99033      0.9026749
      3099.5000         0.7223       1731.879         0.3932        -61.197      -4.593227      0.9123603
      3100.0000         0.7136       1748.055         0.3932          -60.8      -4.196228      0.9220432
      3100.5000         0.7049       1764.225         0.3932        -60.403      -3.799229      0.9317262
      3101.0000         0.6963       1780.395         0.3932       -60.0059       -3.40213      0.9414114
      3101.5000         0.6876       1796.564         0.3932       -59.6088      -3.005028      0.9510969
      3102.0000         0.6789       1811.518         0.3932       -59.4124      -2.808628      0.9558871
      3102.5000         0.6702       1825.061         0.3933        -60.311       -3.70723        0.93397
      3103.0000         0.6608       1838.609         0.3933       -61.2103      -4.606529      0.9120359
      3103.5000         0.6503       1852.152         0.3933        -62.109       -5.50523      0.8901163
      3104.0000         0.6398       1846.439         0.3933       -62.9959      -6.392128      0.8684847
      3104.5000         0.6293       1832.508         0.3933       -63.8405      -7.234371      0.8479422
      3105.0000         0.6228       1818.576         0.3933       -64.6843      -8.051636      0.8280089
      3105.5000         0.6301       1804.643         0.3933       -65.5289      -8.869694      0.8080562
      3106.0000         0.6373       1790.717         0.3933       -66.3735      -9.687752      0.7881036
      3106.5000         0.6445       1775.115         0.3933       -67.2174      -10.50511       0.768168
      3107.0000         0.6518       1758.205         0.3933        -68.062      -11.32317      0.7482154
      3107.5000          0.659       1741.293          0.398        -68.767      -12.00163      0.7316675
      3108.0000         0.6613       1724.381         0.4058       -69.4056       -12.6137      0.7167391
      3108.5000         0.6581       1707.469         0.4136       -70.0441      -13.22565      0.7018134
