#------------------------------------------------------------------------------
# Created by    : vladimir.rabinovich
# Created on    : 09/19/2023 17:20:23
#------------------------------------------------------------------------------
~Version Information Section
VERS.           2.0     :   CWLS log ASCII Standard - VERSION 2.0
WRAP.           NO      :   One line per depth step
~Well Information Section
#MNEM       .UNIT                                         VALUE :DESCRIPTION
#------------------------------------------------------------------------------
STRT        .FT                                            3094 :START DEPTH
STOP        .FT                                           15705 :STOP DEPTH
STEP        .FT                                             0.5 :STEP      
NULL        .                                           -999.25 :NULL      
COMP        .                                       MONSANTO CO :COMPANY   
WELL        .                                     ST TR 00011-L :WELL      
FLD         .                                           WILDCAT :FIELD     
LOC         .                                                   :LOCATION  
CNTY        .                           HIGH ISLAND LARGE BLOCK :LOCATION  
STAT        .                                             TEXAS :STATE     
CTRY        .                                     UNITED STATES :COUNTRY   
SRVC        .                                                   :SERVICE COMPANY
DATE        .                             9/13/2023 11:19:15 AM :LOG DATE  
API         .                                    42708300660000 :API NUMBER
UWI         .                                    42708300660000 :UNIQUE WELL ID
XCOORD      .                                  1343190.12128624 :SURFACE X 
YCOORD      .                                   10724936.940093 :SURFACE Y 
LAT         .                                        29.5487141 :LATITUDE  
LON         .                                       -93.9350737 :LONGITUDE 
ELEV        .FT                                              49 :ELEVATION VALUE
ELEV_TYPE   .                                                KB :ELEVATION REFERENCE TYPE
~Curve Information Section
#MNEM       .UNIT                                      API CODE :CURVE DESCRIPTION
#------------------------------------------------------------------------------
DEPT        .FT                                                 :DEPTH     
ASN         .OHMM                                               :          
CILD        .MMHO                                               :          
ILD         .OHMM                                               :          
SP_NORM     .MV                                                 :SP Normalized
VSH_SP      .V/V                                                :Volume of Shale from SP
~A        DEPTH            ASN           CILD            ILD        SP_NORM         VSH_SP
# ...
      8110.0000         0.6443       1858.775         0.6015      -10.58179      0.8859311
      8110.5000         0.6292       1905.834          0.565      -15.14572      0.8315986
      8111.0000         0.6141       1952.941         0.5241      -17.62555      0.8020768
      8111.5000          0.599        2010.49         0.4831      -18.92158      0.7866479
      8112.0000          0.583         2392.5         0.4422       -19.7451       0.776844
      8112.5000          0.567         2802.5         0.4013      -19.83153      0.7758151
      8113.0000          0.569       3111.293         0.3613      -19.91796      0.7747862
      8113.5000         0.5747       3357.914         0.3263      -21.52079      0.7557049
      8114.0000         0.5805       3604.137         0.2913      -30.98281      0.6430618
      8114.5000         0.6072       3768.766         0.2563      -41.65814      0.5159745
      8115.0000         0.6379       3906.773         0.2213      -51.68227      0.3966397
      8115.5000         0.6706       3954.375         0.1863       -60.1479      0.2958584
      8116.0000         0.7068         4254.5         0.1971      -66.07312        0.22532
      8116.5000         0.7418       4219.023         0.2282      -71.17465      0.1645875
      8117.0000         0.7464       4100.953         0.2592      -72.54708       0.148249
      8117.5000          0.722       4049.199         0.2903      -73.70741      0.1344357
      8118.0000         0.6895       4004.422         0.3214      -71.83673      0.1567056
      8118.5000         0.6217       3997.039         0.3524      -69.43566      0.1852897
      8119.0000          0.582       3724.875          0.374      -66.79559      0.2167192
      8119.5000         0.5541       3356.727         0.3937      -63.05291      0.2612749
      8120.0000         0.5339       2988.574         0.4133      -52.77945       0.383578
      8120.5000         0.5261       2163.898          0.433      -41.11007      0.5224992
      8121.0000         0.5224       2125.453         0.4527       -29.4605      0.6611845
      8121.5000         0.5427       2091.012         0.4706      -19.36953      0.7813151
      8122.0000         0.5693       2083.426         0.4815      -17.52325      0.8032946
      8122.5000         0.5928       2085.586         0.4924      -17.81358      0.7998384
      8123.0000         0.6129       2087.746         0.5034      -18.10391      0.7963821
      8123.5000         0.6331       2089.906         0.5143      -18.59253      0.7905651
      8124.0000         0.6439       2076.512         0.5252      -19.16526      0.7837469
      8124.5000         0.6401       2056.324         0.5277      -19.73809      0.7769275
      8125.0000         0.6241       2036.137          0.528      -16.30492      0.8177986
      8125.5000         0.6081       2018.422         0.5284      -12.50065      0.8630875
      8126.0000          0.592       2005.051         0.5287      -10.03297      0.8924646
      8126.5000         0.5793       2002.738         0.5291        -7.6789      0.9204893
      8127.0000         0.5669       2000.873         0.5294      -5.645329      0.9446985
      8127.5000         0.5545       2000.668         0.5298      -2.721556      0.9795053
      8128.0000         0.5494       2000.463         0.5301     -0.6929817              1
      8128.5000          0.553       1998.555          0.531      0.1331882              1
      8129.0000         0.5565       1990.785         0.5404      0.6999607              1
      8129.5000         0.5601       1983.016         0.5498       1.266634              1
      8130.0000         0.5637       1929.125         0.5591       1.799406              1
      8130.5000         0.5673       1902.332         0.5685       2.280279              1
      8131.0000         0.5709       1892.264         0.5779       2.761951              1
      8131.5000         0.5785       1880.646         0.5873       3.118324              1
      8132.0000         0.5884       1868.709         0.5967       3.429497              1
      8132.5000         0.5983       1842.002         0.6061        3.47765              1
      8133.0000         0.6082       1785.541         0.6173       3.497459              1
      8133.5000          0.624       1729.775         0.6335        3.22027              1
      8134.0000           0.64       1668.689         0.6498       2.831284              1
      8134.5000         0.6563       1652.645          0.666       2.282595              1
      8135.0000         0.6725       1644.529         0.6823       1.486006              1
      8135.5000         0.6907       1641.102          0.682      0.4391174              1
      8136.0000         0.6997       1690.041         0.6728     -0.3931713              1
      8136.5000         0.6816       1746.748         0.6636      -1.309359      0.9963171
      8137.0000         0.6635       1829.285         0.6543       -2.10845      0.9868042
      8137.5000         0.6466       1856.846         0.6451      -2.533836      0.9817401
      8138.0000         0.6286       1875.451         0.6359     -0.5582256              1
      8138.5000         0.6079       1882.676         0.6274      0.8968868              1
      8139.0000         0.5986       1882.807         0.6242       2.109097              1
      8139.5000         0.5955       1879.484          0.621       3.097509              1
      8140.0000          0.594       1876.162         0.6178       3.548922              1
      8140.5000         0.5963       1874.443         0.6146       4.000233              1
      8141.0000         0.5987       1872.977         0.6114       3.859743              1
      8141.5000         0.6096       1871.514         0.6082       3.590956              1
      8142.0000         0.6382       1870.049          0.605       3.321867              1
      8142.5000         0.6403       1868.584         0.6018     -0.2866211              1
      8143.0000         0.6344       1869.592         0.5986      -2.955111      0.9767249
      8143.5000         0.6284        1871.83         0.5954      -4.184498      0.9620893
      8144.0000         0.6225       1867.707         0.5922      -4.895887      0.9536204
      8144.5000         0.6169       1856.883         0.5986      -5.234375      0.9495908
      8145.0000         0.6164       1844.748         0.6112      -4.483965      0.9585242
      8145.5000         0.6159       1831.016         0.6237      -2.964752      0.9766101
      8146.0000         0.6154        1817.26         0.6363      -1.100142      0.9988078
      8146.5000         0.6149       1756.941         0.6489      0.8371716              1
      8147.0000         0.6182       1634.916         0.6615       1.456284              1
      8147.5000         0.6303        1572.42         0.6741       1.802794              1
      8148.0000         0.6425       1537.943         0.6792       2.064905              1
      8148.5000         0.6564       1531.721         0.6734       2.243418              1
      8149.0000         0.6714       1546.293         0.6675       1.992828              1
      8149.5000         0.7379       1571.877         0.6617        1.13464              1
      8150.0000         0.7359       1674.998         0.6559     -0.5350494              1
      8150.5000         0.6996       1755.357         0.6501      -1.925938       0.988977
      8151.0000         0.6559       1829.383         0.6442      -3.494427      0.9703044
      8151.5000          0.626        1896.58         0.6392      -3.908714      0.9653724
      8152.0000         0.6097       1937.688         0.6351      -2.313004       0.984369
      8152.5000         0.5976       1962.541          0.631     -0.4163914              1
      8153.0000         0.5916       2052.117         0.6269       1.080721              1
      8153.5000         0.5857       2069.535         0.6228       2.380531              1
