#------------------------------------------------------------------------------
# Created by    : vladimir.rabinovich
# Created on    : 09/19/2023 17:22:28
#------------------------------------------------------------------------------
~Version Information Section
VERS.           2.0     :   CWLS log ASCII Standard - VERSION 2.0
WRAP.           NO      :   One line per depth step
~Well Information Section
#MNEM       .UNIT                                         VALUE :DESCRIPTION
#------------------------------------------------------------------------------
STRT        .FT                                            2000 :START DEPTH
STOP        .FT                                            7372 :STOP DEPTH
STEP        .FT                                             0.5 :STEP      
NULL        .                                           -999.25 :NULL      
COMP        .                       CORPUS CHRISTI OIL & GAS CO :COMPANY   
WELL        .                                ST TR 00596-L SE/4 :WELL      
FLD         .                                           WILDCAT :FIELD     
LOC         .                                                   :LOCATION  
CNTY        .                      MATAGORDA ISLAND LARGE BLOCK :LOCATION  
STAT        .                                             TEXAS :STATE     
CTRY        .                                     UNITED STATES :COUNTRY   
SRVC        .                                                   :SERVICE COMPANY
DATE        .                             9/13/2023 11:19:13 AM :LOG DATE  
API         .                                    42703300520000 :API NUMBER
UWI         .                                    42703300520000 :UNIQUE WELL ID
XCOORD      .                                  480173.649028781 :SURFACE X 
YCOORD      .                                  10231220.1013933 :SURFACE Y 
LAT         .                                        28.1462983 :LATITUDE  
LON         .                                       -96.6002451 :LONGITUDE 
ELEV        .FT                                              82 :ELEVATION VALUE
ELEV_TYPE   .                                                GL :ELEVATION REFERENCE TYPE
~Curve Information Section
#MNEM       .UNIT                                      API CODE :CURVE DESCRIPTION
#------------------------------------------------------------------------------
DEPT        .FT                                                 :DEPTH     
CILD        .MMHO                                               :          
ILD         .OHMM                                               :          
SN          .OHMM                                               :          
SP          .MV                                                 :          
SP_NORM     .MV                                                 :SP Normalized
VSH_SP      .V/V                                                :Volume of Shale from SP
~A        DEPTH           CILD            ILD             SN             SP        SP_NORM         VSH_SP
# ...
      6256.0000       1510.647         0.5591         1.2945       -27.4731      -4.098799      0.9515813
      6256.5000       1543.952         0.5791         1.3647       -32.8686      -9.456045      0.8678743
      6257.0000       1543.949          0.599         1.4349        -38.264      -14.81319      0.7841688
      6257.5000       1501.708          0.639         1.5051       -43.6595      -20.17044      0.7004619
      6258.0000       1459.466         0.6589         1.5753       -46.8789      -23.35159      0.6507565
      6258.5000       1417.224         0.6789         1.6455       -51.9773      -28.41173      0.5716917
      6259.0000       1374.983         0.6989         1.7157       -57.0757      -33.47188      0.4926269
      6259.5000       1332.741         0.6789         1.7612       -65.8797      -42.23763      0.3556621
      6260.0000       1304.314          0.639         1.7332         -66.68      -42.99968      0.3437551
      6260.5000       1396.519          0.599         1.5381       -71.6802      -47.96162      0.2662247
      6261.0000       1488.724         0.5591          1.246       -73.4805      -49.72367      0.2386926
      6261.5000       1580.929         0.5391         1.2433       -67.3449      -43.54982      0.3351591
      6262.0000       1673.133         0.5192          1.246        -73.881      -50.04766      0.2336303
      6262.5000       1765.338         0.5192           1.25       -60.6737      -36.80211      0.4405921
      6263.0000        1903.34         0.4792          1.261        -57.338      -33.42816        0.49331
      6263.5000       1794.214         0.5573         1.3379       -54.0024       -30.0543      0.5460265
      6264.0000       1685.087         0.5934         1.3489       -50.6668      -26.68045       0.598743
      6264.5000       1575.961         0.6345         1.3618       -43.2821       -19.2575      0.7147266
      6265.0000       1466.834         0.6817         1.3698       -39.6429      -15.58004      0.7721868
      6265.5000       1357.708         0.7365         1.3299       -36.0036      -11.90809      0.8295611
      6266.0000       1248.581         0.8009         1.3213       -32.3644      -8.275959      0.8863131
      6266.5000       1144.524         0.8737         1.3179       -28.7252      -4.643833      0.9430651
      6267.0000       1110.842         0.9002          1.286       -25.0859      -1.011606      0.9998187
      6267.5000        1077.16         0.9284          1.282       -21.6837        2.38352              1
      6268.0000       1043.479         0.9583          1.294        -25.318      -1.257853      0.9959711
      6268.5000       1009.797         0.9903         1.3099       -29.2843      -5.231224      0.9338871
      6269.0000       976.1152         1.0245         1.3579       -29.0843      -5.038298      0.9369016
      6269.5000       942.4334         1.0611         1.3938       -28.2845      -4.245571       0.949288
      6270.0000       908.7517         1.1004         1.4297       -27.1158      -3.083944      0.9674383
      6270.5000       875.0699         1.1428         1.4857        -26.885      -2.860218      0.9709341
      6271.0000       824.9907         1.2121         1.4979       -27.0853      -3.067591      0.9676939
      6271.5000       824.9881         1.1781         1.5336       -27.4864      -3.475763      0.9613162
      6272.0000       824.9868         1.1782         1.5695       -27.8876      -3.884035      0.9549369
      6272.5000       841.4639         1.1782         1.6015       -28.2862      -4.289709      0.9485983
      6273.0000       848.9414         1.1782         1.6135       -31.0863      -7.096882      0.9047362
      6273.5000       887.7121         1.1582         1.6095       -32.0865      -8.104153      0.8889976
      6274.0000       926.4828         1.1382         1.4817       -32.2868      -8.311527      0.8857574
      6274.5000       980.7199         1.1382         1.4338        -32.287        -8.3188      0.8856437
      6275.0000       972.7323         1.0983         1.4378       -32.6873      -8.726175      0.8792785
      6275.5000       954.2222         1.0783         1.4417       -33.0875      -9.133448      0.8729149
      6276.0000       928.7896         1.0783         1.4457       -33.2887      -9.341721      0.8696606
      6276.5000       936.7772         1.0675         1.4577       -33.6882      -9.748295      0.8633079
      6277.0000       970.9982         1.0299         1.4537       -34.4885      -10.55566      0.8506927
      6277.5000       1016.642         0.9836         1.4378       -35.0885      -11.16274      0.8412072
      6278.0000       1028.725         0.9721         1.3983       -36.4788      -12.56011      0.8193733
      6278.5000       1056.576         0.9465         1.3588        -37.289      -13.37739      0.8066033
      6279.0000       1160.033          0.862         1.3193       -38.4893      -14.58476      0.7877382
      6279.5000       1263.489         0.7915         1.2798       -39.0802      -15.18273      0.7783948
      6280.0000       1366.946         0.7316         1.2403       -39.2898       -15.3994      0.7750093
      6280.5000       1470.403         0.6801         1.2008       -39.8857      -16.00238      0.7655879
      6281.0000        1573.86         0.6354         1.1613       -41.4903      -17.61405      0.7404055
      6281.5000       1677.317         0.5962         1.1219       -80.2907      -56.42152      0.1340387
      6282.0000       1780.773         0.5616         1.0824       -86.8909      -63.02879      0.0308001
      6282.5000       1998.176         0.5005         1.0424       -85.8912      -62.03616     0.04630995
      6283.0000       2038.115         0.4906         0.9465       -84.8914      -61.04344     0.06182122
      6283.5000       2346.344         0.4262         0.9306       -84.6917      -60.85082     0.06483096
      6284.0000       2654.574         0.3767         0.9026       -84.8919      -61.05809      0.0615924
      6284.5000       2962.804         0.1598         0.9026       -84.8922      -61.06546     0.06147724
      6285.0000       3316.126         0.2033         0.9171       -84.8925      -61.07284     0.06136191
      6285.5000       3061.279         0.2396         0.9306       -85.4927      -61.68011     0.05187333
      6286.0000       2806.432         0.2596         1.1091       -86.6929      -62.88738     0.03300965
      6286.5000       2551.585         0.2995         1.2877       -86.8932      -63.09476     0.02976942
      6287.0000       2296.738         0.4354         1.4662       -86.0934      -62.30202     0.04215586
      6287.5000       1999.066         0.5002         1.6448       -83.4976      -59.71329     0.08260477
      6288.0000       1859.813         0.5377         1.8234       -80.9018      -57.12457      0.1230536
      6288.5000       1720.559         0.5812          1.957        -78.306      -54.53584      0.1635025
      6289.0000       1581.306         0.6324         2.0369       -75.7102      -51.94711      0.2039514
      6289.5000       1442.052         0.6935         2.2525       -73.1144      -49.35839      0.2444001
      6290.0000       1302.798         0.7676          2.468       -70.5186      -46.76966       0.284849
      6290.5000       1152.343         0.8678          2.616       -67.9229      -44.18103      0.3252963
      6291.0000       948.6455         1.0541         2.5249       -64.8955      -41.16071      0.3724889
      6291.5000       940.8395         1.0629         2.4563       -66.8955      -43.16778      0.3411284
      6292.0000       916.6903         1.0909         2.2793       -67.1486      -43.42795      0.3370633
      6292.5000       901.9988         1.1086         2.1024       -67.4016      -43.68803      0.3329995
      6293.0000       887.3074         1.1982          1.993       -67.6547       -43.9482      0.3289343
      6293.5000       872.6159         1.2182          1.973       -69.6965      -45.99708      0.2969207
