#------------------------------------------------------------------------------
# Created by    : vladimir.rabinovich
# Created on    : 09/19/2023 17:22:29
#------------------------------------------------------------------------------
~Version Information Section
VERS.           2.0     :   CWLS log ASCII Standard - VERSION 2.0
WRAP.           NO      :   One line per depth step
~Well Information Section
#MNEM       .UNIT                                         VALUE :DESCRIPTION
#------------------------------------------------------------------------------
STRT        .FT                                             272 :START DEPTH
STOP        .FT                                            9222 :STOP DEPTH
STEP        .FT                                             0.5 :STEP      
NULL        .                                           -999.25 :NULL      
COMP        .                   MCMORAN OFFSHORE EXPLORATION CO :COMPANY   
WELL        .                               OCS G03108 ST00BP00 :WELL      
FLD         .                       MATAGORDA ISLAND BLOCK 0700 :FIELD     
LOC         .                                                   :LOCATION  
CNTY        .                      MATAGORDA ISLAND LARGE BLOCK :LOCATION  
STAT        .                                             TEXAS :STATE     
CTRY        .                                     UNITED STATES :COUNTRY   
SRVC        .                                                   :SERVICE COMPANY
DATE        .                             9/13/2023 11:12:09 AM :LOG DATE  
API         .                                    42703400850000 :API NUMBER
UWI         .                                    42703400850000 :UNIQUE WELL ID
XCOORD      .                                  483045.974763742 :SURFACE X 
YCOORD      .                                  10146137.6323278 :SURFACE Y 
LAT         .                                         27.912878 :LATITUDE  
LON         .                                       -96.5835889 :LONGITUDE 
ELEV        .FT                                              85 :ELEVATION VALUE
ELEV_TYPE   .                                                KB :ELEVATION REFERENCE TYPE
~Curve Information Section
#MNEM       .UNIT                                      API CODE :CURVE DESCRIPTION
#------------------------------------------------------------------------------
DEPT        .FT                                                 :DEPTH     
CILD        .MMHO                                               :          
DT          .US/F                                               :          
GR          .GAPI                                               :          
GR_NORM     .GAPI                                               :GammaRay Normalized
ILD         .OHMM                                               :          
ILM         .OHMM                                               :          
SFL         .OHMM                                               :          
SP          .MV                                                 :          
SP_NORM     .MV                                                 :SP Normalized
VSH_GR      .V/V                                                :Volume of Shale from GR
VSH_SP      .V/V                                                :Volume of Shale from SP
~A        DEPTH           CILD             DT             GR        GR_NORM            ILD            ILM            SFL             SP        SP_NORM         VSH_GR         VSH_SP
# ...
      1487.0000       2458.301        -999.25        34.3845       40.56964         0.4013         0.5143         0.4582       -41.9278       -12.2482      0.1610561         0.2886
      1487.5000       2503.957        -999.25        33.5843       39.45523          0.395         0.5025         0.4541       -42.6709       -12.9868      0.1373453      0.2317846
      1488.0000       2516.527        -999.25        32.2634       37.61592         0.3928         0.4965         0.4513       -43.6378       -13.9492     0.09821109      0.1577539
      1488.5000       2484.926        -999.25        31.1682       36.09081         0.3943         0.5003         0.4509       -44.2665       -14.5734     0.06576197      0.1097385
      1489.0000       2458.621        -999.25        30.7509       35.50946         0.3969         0.5068           0.45       -43.9091       -14.2115     0.05339269      0.1375769
      1489.5000       2429.613        -999.25        30.8406       35.63392         0.4008         0.5181         0.4473       -43.2404       -13.5383     0.05604082      0.1893616
      1490.0000       2394.641        -999.25        32.0875       37.36922         0.4083         0.5304         0.4458       -42.4781       -12.7715     0.09296223      0.2483462
      1490.5000       2356.625        -999.25        34.6387       40.92046         0.4187         0.5409         0.4458       -43.5593       -13.8482      0.1685203      0.1655231
      1491.0000       2315.438        -999.25        36.2766       43.20023         0.4292         0.5513         0.4479       -43.9683       -14.2527      0.2170262      0.1344077
      1491.5000       2270.039        -999.25        36.8239       43.96174          0.437         0.5569         0.4507       -43.4276       -13.7076      0.2332285      0.1763385
      1492.0000       2224.762        -999.25         35.777       42.50388         0.4435          0.559         0.4548       -42.8244       -13.0999      0.2022103      0.2230846
      1492.5000       2192.938        -999.25        33.7809        39.7246         0.4483          0.559         0.4545       -42.1677       -12.4387      0.1430766      0.2739462
      1493.0000       2169.703        -999.25        32.2048       37.53003         0.4505         0.5579         0.4452       -42.0897       -12.3562     0.09638352      0.2802923
      1493.5000       2159.129        -999.25         32.173        37.4852         0.4509          0.556         0.4277       -41.9376       -12.1996     0.09542968      0.2923384
      1494.0000        2178.52        -999.25        33.4882       39.31573         0.4504         0.5527         0.4087       -41.9202       -12.1777      0.1343772      0.2940231
      1494.5000       2204.543        -999.25        34.9129        41.2987         0.4486         0.5479         0.3907       -43.2007       -13.4537       0.176568      0.1958692
      1495.0000       2227.582        -999.25        34.8428        41.2007         0.4455         0.5415         0.3762       -44.7744       -15.0229      0.1744829     0.07516157
      1495.5000       2251.938        -999.25        33.5439       39.39202         0.4427          0.535         0.3676       -46.0021       -16.2461      0.1360004              0
      1496.0000        2280.82        -999.25        32.7012       38.21844         0.4398         0.5294         0.3628       -45.5516       -15.7911      0.1110307     0.01606927
      1496.5000       2301.898        -999.25         32.046       37.30574         0.4367         0.5268         0.3656       -44.4193       -14.6543      0.0916115      0.1035154
      1497.0000       2316.316        -999.25        31.6893       36.80875         0.4336         0.5273         0.3781       -43.6315        -13.862     0.08103724      0.1644615
      1497.5000       2322.051        -999.25        31.7388       36.87724         0.4325         0.5299         0.3923       -42.9589       -13.1849     0.08249453      0.2165461
      1498.0000       2297.996        -999.25        32.1345        37.4277         0.4346         0.5318         0.4057       -42.1237       -12.3452     0.09420639      0.2811385
      1498.5000       2234.129        -999.25        32.8177       38.37839         0.4413         0.5331         0.4171       -41.0924       -11.3094      0.1144339      0.3608154
      1499.0000       2178.164        -999.25        33.4153       39.20993         0.4491          0.536         0.4246       -41.1324       -11.3449      0.1321261      0.3580846
      1499.5000       2139.234        -999.25        32.9166       38.51524         0.4574         0.5434         0.4275       -42.2384       -12.4464      0.1173455      0.2733539
      1500.0000       2100.035        -999.25        32.1172        37.4018         0.4661         0.5559         0.4291       -43.0171       -13.2206     0.09365528         0.2138
      1500.5000        2080.82        -999.25        31.7466       36.88546         0.4726         0.5656         0.4302       -42.6775       -12.8765     0.08266936      0.2402692
      1501.0000        2086.66        -999.25        31.9764       37.20495         0.4772         0.5715         0.4309       -42.4343       -12.6288     0.08946707      0.2593231
      1501.5000       2121.508        -999.25        32.6334       38.11917         0.4749         0.5688         0.4302       -42.5403       -12.7303      0.1089186      0.2515154
      1502.0000       2218.895        -999.25        33.2273       38.94556         0.4589          0.555         0.4287       -42.7098       -12.8954      0.1265012      0.2388154
      1502.5000       2343.398        -999.25        33.0342       38.67632          0.432         0.5393         0.4256       -42.8778       -13.0589      0.1207727      0.2262385
      1503.0000       2455.352        -999.25        31.9827       37.21206         0.4079         0.5206         0.4214        -42.975       -13.1516     0.08961828      0.2191077
      1503.5000       2554.832        -999.25        30.8455       35.62835         0.3896         0.5018         0.4166       -42.9912       -13.1633     0.05592233      0.2182077
      1504.0000       2619.168        -999.25        30.3843       34.98588         0.3783         0.4903         0.4091       -42.9791       -13.1467     0.04225272      0.2194846
      1504.5000       2648.652        -999.25         30.328       34.90708         0.3729         0.4818         0.3995       -42.8304       -12.9935     0.04057612      0.2312693
      1505.0000       2648.402        -999.25        32.1155       37.39512         0.3779         0.4776         0.3903       -42.6954        -12.854     0.09351316          0.242
      1505.5000       2621.879        -999.25        35.1387       41.60344         0.3861         0.4771         0.3966       -42.6895       -12.8436      0.1830519         0.2428
      1506.0000       2567.898        -999.25        36.5656       43.58948          0.391         0.4865         0.4178       -41.6281       -11.7777      0.2253081      0.3247923
      1506.5000       2502.109        -999.25          37.23         44.514         0.3997         0.4974         0.4411       -40.2643       -10.4094      0.2449788      0.4300461
      1507.0000        2431.66        -999.25        37.3684       44.70612         0.4106         0.5081         0.4673       -39.0433        -9.1839      0.2490664      0.5243154
      1507.5000        2324.98        -999.25        39.3373        47.4467         0.4244         0.5184         0.4964       -37.7928        -7.9289      0.3073766      0.6208538
      1508.0000       2230.504        -999.25        43.8126       53.67656         0.4428         0.5292          0.501       -36.4252        -6.5568      0.4399267         0.7264
      1508.5000       2148.109        -999.25        53.8376        67.6324         0.4613         0.5395         0.4639        -35.175        -5.3021      0.7368596      0.8229154
      1509.0000       2082.852        -999.25        59.3586       75.31802         0.4734         0.5476         0.4359       -34.2686        -4.3912      0.9003835      0.8929846
