#------------------------------------------------------------------------------
# Created by    : vladimir.rabinovich
# Created on    : 09/19/2023 17:21:31
#------------------------------------------------------------------------------
~Version Information Section
VERS.           2.0     :   CWLS log ASCII Standard - VERSION 2.0
WRAP.           NO      :   One line per depth step
~Well Information Section
#MNEM       .UNIT                                         VALUE :DESCRIPTION
#------------------------------------------------------------------------------
STRT        .FT                                              40 :START DEPTH
STOP        .FT                                           13401 :STOP DEPTH
STEP        .FT                                             0.5 :STEP      
NULL        .                                           -999.25 :NULL      
COMP        .                                        TEXACO USA :COMPANY   
WELL        .                               OCS G01759 ST00BP00 :WELL      
FLD         .                                           WILDCAT :FIELD     
LOC         .                                                   :LOCATION  
CNTY        .                             GALVESTON LARGE BLOCK :LOCATION  
STAT        .                                             TEXAS :STATE     
CTRY        .                                     UNITED STATES :COUNTRY   
SRVC        .                                                   :SERVICE COMPANY
DATE        .                             9/13/2023 11:19:24 AM :LOG DATE  
API         .                                    42706001440000 :API NUMBER
UWI         .                                    42706001440000 :UNIQUE WELL ID
XCOORD      .                                   1131482.4965331 :SURFACE X 
YCOORD      .                                  10562344.6824913 :SURFACE Y 
LAT         .                                         29.095227 :LATITUDE  
LON         .                                        -94.593967 :LONGITUDE 
ELEV        .FT                                              83 :ELEVATION VALUE
ELEV_TYPE   .                                                KB :ELEVATION REFERENCE TYPE
~Curve Information Section
#MNEM       .UNIT                                      API CODE :CURVE DESCRIPTION
#------------------------------------------------------------------------------
DEPT        .FT                                                 :DEPTH     
CALI        .IN                                                 :          
DT          .US/F                                               :          
GR          .GAPI                                               :          
GR_NORM     .GAPI                                               :GammaRay Normalized
RHOB        .G/C3                                               :          
SP          .MV                                                 :          
SP_NORM     .MV                                                 :SP Normalized
VSH_GR      .V/V                                                :Volume of Shale from GR
VSH_SP      .V/V                                                :Volume of Shale from SP
~A        DEPTH           CALI             DT             GR        GR_NORM           RHOB             SP        SP_NORM         VSH_GR         VSH_SP
# ...
      4015.0000        13.5471        95.8925        29.2604        46.7859         2.1676        -999.25        -999.25       0.293317        -999.25
      4015.5000        14.4265        95.7375        29.9845       48.01484         2.1561        -999.25        -999.25      0.3194647        -999.25
      4016.0000        14.4347        97.9253        30.9812       49.70543         2.1425        -999.25        -999.25      0.3554347        -999.25
      4016.5000         14.191       105.6696        29.4329       47.08604         2.1451        -999.25        -999.25      0.2997029        -999.25
      4017.0000        13.9649       106.8893        26.8011       42.63173         2.1428        -999.25        -999.25      0.2049304        -999.25
      4017.5000        13.7134       111.3131        24.8532       39.33562         2.1462        -999.25        -999.25      0.1348004        -999.25
      4018.0000        13.4277       113.2831         23.363       36.81462         2.1708        -999.25        -999.25     0.08116215        -999.25
      4018.5000        13.3628       104.6531        23.2379       36.60543         2.1987        -999.25        -999.25     0.07671129        -999.25
      4019.0000         13.317        92.8915        23.4445       36.95798         2.2127        -999.25        -999.25     0.08421228        -999.25
      4019.5000        12.8056        85.5115        23.8509        37.6489         2.1974        -999.25        -999.25     0.09891266        -999.25
      4020.0000        12.5617        85.6893        24.1096       38.08967         2.1514        -999.25        -999.25      0.1082909        -999.25
      4020.5000        12.4315        93.2594        24.2666       38.35823         2.1324        -999.25        -999.25      0.1140048        -999.25
      4021.0000        12.4918       103.7915        26.4165       42.00176         2.1191        -999.25        -999.25      0.1915269        -999.25
      4021.5000        12.6034       112.6757        30.0618       48.17779         2.1146        -999.25        -999.25      0.3229317        -999.25
      4022.0000        12.1474       118.5189        31.4048       50.45484         2.1134        -999.25        -999.25      0.3713795        -999.25
      4022.5000        11.8761       120.4193        31.4735       50.57385         2.1119        -999.25        -999.25      0.3739118        -999.25
      4023.0000        11.7325       120.2977        28.5536       45.63165         2.1087        -999.25        -999.25      0.2687586        -999.25
      4023.5000        11.8565       122.3766        26.2848       41.79208         2.1055        -999.25        -999.25      0.1870655        -999.25
      4024.0000        12.1059       123.4263        24.8808       39.41707         2.1085        -999.25        -999.25      0.1365335        -999.25
      4024.5000          12.45       106.3472        24.9137       39.47545         2.1154        -999.25        -999.25      0.1377755        -999.25
      4025.0000        12.6949        76.0575        25.5061       40.48135         2.1246        -999.25        -999.25      0.1591777        -999.25
      4025.5000        12.8409        75.3185        26.7783       42.63852         2.1475        -999.25        -999.25      0.2050748        -999.25
      4026.0000        12.6125        75.2886         28.568       45.67205         2.1805        -999.25        -999.25      0.2696181        -999.25
      4026.5000        12.4525        75.2285        31.2393        50.1986         2.2057        -999.25        -999.25      0.3659276        -999.25
      4027.0000        12.4324        75.1759        31.4292       50.52286         2.2005        -999.25        -999.25      0.3728268        -999.25
      4027.5000        12.5477        75.4718        30.4529       48.87216         2.1794        -999.25        -999.25      0.3377055        -999.25
      4028.0000        12.6857       103.6947        30.0508       48.19386          2.199        -999.25        -999.25      0.3232737        -999.25
      4028.5000        12.8416       116.2538        30.1036       48.28596         2.2134        -999.25        -999.25      0.3252331        -999.25
      4029.0000         13.074       117.7028        29.8066       47.78565          2.186        -999.25        -999.25      0.3145883        -999.25
      4029.5000        12.8013       118.7725        28.2002       45.06787         2.1616        -999.25        -999.25      0.2567632        -999.25
      4030.0000        12.3352        119.738        26.1194       41.54669         2.1443        -999.25        -999.25      0.1818445        -999.25
      4030.5000        12.1154       118.9147         27.654       44.14822         2.1376        -999.25        -999.25      0.2371961        -999.25
      4031.0000        11.8694       117.9756        29.3946       47.09861         2.1342        -999.25        -999.25      0.2999704        -999.25
      4031.5000        11.5871       120.3074        29.8441       47.86251         2.1322        -999.25        -999.25      0.3162237        -999.25
      4032.0000        11.4398        122.932        29.9432         48.033         2.1344        -999.25        -999.25      0.3198512        -999.25
      4032.5000        11.7263        125.686        27.5929       44.05542         2.1481        -999.25        -999.25      0.2352217        -999.25
      4033.0000        12.2054       129.2629        29.7611       47.72996         2.1725        -999.25        -999.25      0.3134033        -999.25
      4033.5000        12.3928        132.104        30.8231       49.53113         2.2222        -999.25        -999.25      0.3517262        -999.25
      4034.0000        12.3681       132.3872         30.172       48.43116         2.2314        -999.25        -999.25      0.3283226        -999.25
      4034.5000         12.486       129.5364         30.998       49.83266         2.2367        -999.25        -999.25      0.3581418        -999.25
      4035.0000        12.6194        125.507         31.915       51.38829         2.2471        -999.25        -999.25      0.3912403        -999.25
      4035.5000        12.5079       124.1462         32.808       52.90326         2.2497        -999.25        -999.25      0.4234736        -999.25
      4036.0000        12.3121       122.6537        33.1473       53.48054         2.2545        -999.25        -999.25      0.4357561        -999.25
      4036.5000        12.3097       121.6857        33.2537       53.66341         2.2361        -999.25        -999.25      0.4396469        -999.25
      4037.0000        12.3464       124.1438        33.1704         53.525           2.21        -999.25        -999.25      0.4367021        -999.25
      4037.5000        12.4386       124.3918        32.2079       51.89766         2.1732        -999.25        -999.25      0.4020779        -999.25
      4038.0000        12.6017       124.0791        31.0195       49.88777         2.1498        -999.25        -999.25      0.3593142        -999.25
      4038.5000        12.7215       124.7283        31.0889       50.00797         2.1504        -999.25        -999.25      0.3618717        -999.25
      4039.0000        12.7888       125.1238        30.8051       49.53003         2.1655        -999.25        -999.25      0.3517027        -999.25
      4039.5000        12.7045       125.0277        30.4583       48.94538         2.1828        -999.25        -999.25      0.3392635        -999.25
      4040.0000        12.6566       126.2826        30.0774         48.303         2.2146        -999.25        -999.25      0.3255958        -999.25
      4040.5000        12.6976       126.0974        31.1052       50.04626         2.1588        -999.25        -999.25      0.3626864        -999.25
      4041.0000        12.6623       122.9924         33.077       53.38818         2.1046        -999.25        -999.25      0.4337911        -999.25
