#------------------------------------------------------------------------------
# Created by    : vladimir.rabinovich
# Created on    : 09/19/2023 17:20:04
#------------------------------------------------------------------------------
~Version Information Section
VERS.           2.0     :   CWLS log ASCII Standard - VERSION 2.0
WRAP.           NO      :   One line per depth step
~Well Information Section
#MNEM       .UNIT                                         VALUE :DESCRIPTION
#------------------------------------------------------------------------------
STRT        .FT                                             900 :START DEPTH
STOP        .FT                                            8286 :STOP DEPTH
STEP        .FT                                             0.5 :STEP      
NULL        .                                           -999.25 :NULL      
COMP        .                                       ALLIED CORP :COMPANY   
WELL        .                               OCS G04069 ST00BP00 :WELL      
FLD         .                                           WILDCAT :FIELD     
LOC         .                                                   :LOCATION  
CNTY        .                             GALVESTON LARGE BLOCK :LOCATION  
STAT        .                                             TEXAS :STATE     
CTRY        .                                     UNITED STATES :COUNTRY   
SRVC        .                                                   :SERVICE COMPANY
DATE        .                             9/13/2023 11:18:53 AM :LOG DATE  
API         .                                    42706400840000 :API NUMBER
UWI         .                                    42706400840000 :UNIQUE WELL ID
XCOORD      .                                  987200.391396966 :SURFACE X 
YCOORD      .                                   10401886.486665 :SURFACE Y 
LAT         .                                         28.647914 :LATITUDE  
LON         .                                        -95.037018 :LONGITUDE 
ELEV        .FT                                              83 :ELEVATION VALUE
ELEV_TYPE   .                                                KB :ELEVATION REFERENCE TYPE
~Curve Information Section
#MNEM       .UNIT                                      API CODE :CURVE DESCRIPTION
#------------------------------------------------------------------------------
DEPT        .FT                                                 :DEPTH     
ASFL        .OHMM                                               :          
CILD        .MMHO                                               :          
DPHI        .%                                                  :          
DT          .US/F                                               :          
GR          .GAPI                                               :          
GR_NORM     .GAPI                                               :GammaRay Normalized
ILD         .OHMM                                               :          
SP          .MV                                                 :          
SP_NORM     .MV                                                 :SP Normalized
VSH_GR      .V/V                                                :Volume of Shale from GR
VSH_SP      .V/V                                                :Volume of Shale from SP
~A        DEPTH           ASFL           CILD           DPHI             DT             GR        GR_NORM            ILD             SP        SP_NORM         VSH_GR         VSH_SP
# ...
      3847.5000         0.8455       1511.826        35.8209       148.5767        64.0713       82.08058          0.682        -51.924       4.458073              1              1
      3848.0000         0.8474       1520.086        36.2177       148.2935         63.103       80.69113         0.6778       -51.8395       4.538239              1              1
      3848.5000         0.8494       1528.178        36.6545       147.9424        62.1353       79.30252         0.6726        -51.647        4.72641        0.98516              1
      3849.0000         0.8489       1535.934        37.1769       147.7634         61.167       77.91306         0.6671       -51.4547       4.914379      0.9555971              1
      3849.5000          0.846       1543.688        37.0416       147.6301         60.936       77.58159         0.6616         -51.24       5.124748      0.9485444              1
      3850.0000          0.843       1551.441        36.6804       147.3667        61.1089       77.82968          0.656       -50.8542       5.506218       0.953823              1
      3850.5000         0.8401       1561.383        36.0909       148.0476        61.8166       78.84521         0.6505       -50.5018       5.854286        0.97543              1
      3851.0000         0.8327       1572.314        36.1387       148.7925        62.8093       80.26969         0.6432       -50.4208       5.930958              1              1
      3851.5000         0.8251       1583.248        37.7556       149.2891         63.802       81.69415         0.6347       -50.3398       6.007626              1              1
      3852.0000         0.8175       1587.367        37.9055       149.5986        64.7947       83.11863         0.6307       -50.2948       6.048294              1              1
      3852.5000         0.8099       1562.621        35.9908       150.1743        65.7953       84.55444         0.6413       -50.3242       6.014565              1              1
      3853.0000         0.8021       1516.008        31.1113       150.9778        66.8386       86.05152         0.6518       -50.3536       5.980835              1              1
      3853.5000         0.7906        1469.42        29.1219       151.8171        66.0684       84.94632         0.6832        -50.715       5.615105              1              1
      3854.0000          0.889       1422.807        29.5328       152.9668        63.6344       81.45366         0.7256       -51.6815       4.644276              1              1
      3854.5000         0.9446       1376.195        31.2657       152.2388        61.2005       77.96113         0.7681       -54.1343       2.187141      0.9566197              1
      3855.0000         0.9938       1333.426        31.7979       149.4463        58.8494       74.58743         0.8102        -56.506     -0.1888885       0.884839       0.997094
      3855.5000         1.0325        1295.73        30.9404       140.9197        56.6349       71.40973         0.8417       -58.4293      -2.116516      0.8172283      0.9674382
      3856.0000         1.0483       1258.063        28.6236       132.0645        54.4203       68.23189          0.872       -60.6719      -4.361847      0.7496147      0.9328946
      3856.5000         1.0346       1220.367        28.1501       126.9323        52.6275       65.65932         0.8668       -61.5354      -5.226559      0.6948791      0.9195914
      3857.0000         1.0209       1182.674        29.5088       124.4365        50.9456       63.24587         0.8617        -60.986      -4.678371      0.6435292      0.9280251
      3857.5000         0.9741       1169.506        31.3077        122.744        51.7104       64.34332         0.8565       -60.4373       -4.13089      0.6668792      0.9364479
      3858.0000         0.9268       1158.967        32.1697       122.7845        53.0163       66.21724         0.8506         -59.77      -3.464802      0.7067498      0.9466953
      3858.5000         0.9026       1181.023        32.5696       123.1498        54.4618       68.29144         0.8335       -59.0058      -2.701813      0.7508818      0.9584336
      3859.0000         0.8797       1205.043        32.1292       125.7061        55.9061       70.36395         0.8164        -58.301       -1.99823      0.7949777       0.969258
      3859.5000          0.856       1229.053        30.9307       130.1609        57.3503        72.4363         0.7994       -57.6536      -1.352043      0.8390703      0.9791993
      3860.0000         0.8531       1253.061         30.524       135.2585        58.5728       74.19052         0.7823       -57.0847      -0.784359      0.8763941      0.9879329
      3860.5000         0.8605       1277.068        30.4243       144.2917        59.3126       75.25209         0.7652        -56.524     -0.2248688      0.8989807      0.9965405
      3861.0000         0.8679       1294.334          29.61       146.7009         60.053       76.31454         0.7482       -55.9022      0.3957138      0.9215859              1
      3861.5000         0.8765       1300.609        27.3644       146.8101        60.7934       77.37698         0.7392       -55.6343      0.6623993       0.944191              1
      3862.0000         0.8867       1306.885         26.878       146.2214        61.5332       78.43854         0.7328       -55.8575      0.4379883      0.9667774              1
      3862.5000         0.8903       1313.162        27.5668       145.0891        62.0914       79.23953         0.7265       -56.0809      0.2133713      0.9838198              1
      3863.0000          0.886       1319.955        28.4062       143.4785        62.5488       79.89589         0.7201       -56.3042    -0.01114273      0.9977849      0.9998286
      3863.5000         0.8817       1329.342        29.6227       141.7566        63.0061       80.55207         0.7137       -56.2769     0.01494217              1              1
      3864.0000         0.8757       1338.723        30.3176       140.6182        63.3085       80.98601         0.7074       -56.2277     0.06293106              1              1
      3864.5000          0.866       1348.109        30.4802       141.1157        63.4034        81.1222            0.7       -56.1784      0.1110153              1              1
      3865.0000         0.8562       1359.293         30.861       141.9915        63.2205       80.85973         0.6925       -56.0068      0.2813988              1              1
      3865.5000         0.8465       1374.088        31.1587       143.0601        62.9831       80.51909         0.6851       -55.8273      0.4596863              1              1
      3866.0000         0.8437       1388.871        30.7066       144.1597        62.7457       80.17842         0.6777       -55.6479      0.6378708              1              1
      3866.5000         0.8515       1397.357         30.183       145.2881        62.5082       79.83763         0.6841       -56.0082      0.2763557      0.9965454              1
      3867.0000         0.8594       1386.801        30.0178       146.3042        61.8477       78.88983         0.6978       -56.3973     -0.1139565      0.9763794      0.9982468
      3867.5000         0.8672       1367.953        30.8196       146.8865         60.777       77.35344         0.7116       -56.7864     -0.5042725      0.9436902       0.992242
      3868.0000         0.8838       1349.094        30.8685       147.4661        59.7056       75.81604         0.7253       -57.7754      -1.494484      0.9109796      0.9770079
      3868.5000         0.9028       1330.234        29.2109       147.6174        58.6343       74.27878         0.7435         -59.33      -3.050301      0.8782719      0.9530723
      3869.0000         0.9343       1311.389        29.9601        146.759        56.5496       71.28732         0.7639       -60.2837      -4.005211      0.8146239      0.9383814
      3869.5000         0.9923       1292.529        31.9568       140.6428        53.9755       67.59363         0.7843       -61.3904      -5.113129      0.7360346      0.9213365
