#------------------------------------------------------------------------------
# Created by    : vladimir.rabinovich
# Created on    : 09/19/2023 17:22:17
#------------------------------------------------------------------------------
~Version Information Section
VERS.           2.0     :   CWLS log ASCII Standard - VERSION 2.0
WRAP.           NO      :   One line per depth step
~Well Information Section
#MNEM       .UNIT                                         VALUE :DESCRIPTION
#------------------------------------------------------------------------------
STRT        .FT                                             996 :START DEPTH
STOP        .FT                                            8436 :STOP DEPTH
STEP        .FT                                             0.5 :STEP      
NULL        .                                           -999.25 :NULL      
COMP        .                                    TDC ENERGY LLC :COMPANY   
WELL        .                               OCS G03738 ST00BP00 :WELL      
FLD         .                              GALVESTON BLOCK 0255 :FIELD     
LOC         .                                                   :LOCATION  
CNTY        .                             GALVESTON LARGE BLOCK :LOCATION  
STAT        .                                             TEXAS :STATE     
CTRY        .                                     UNITED STATES :COUNTRY   
SRVC        .                                                   :SERVICE COMPANY
DATE        .                             9/13/2023 11:18:53 AM :LOG DATE  
API         .                                    42706400460000 :API NUMBER
UWI         .                                    42706400460000 :UNIQUE WELL ID
XCOORD      .                                   1080542.6436948 :SURFACE X 
YCOORD      .                                  10548065.2081286 :SURFACE Y 
LAT         .                                        29.0539695 :LATITUDE  
LON         .                                       -94.7527854 :LONGITUDE 
ELEV        .FT                                              94 :ELEVATION VALUE
ELEV_TYPE   .                                                KB :ELEVATION REFERENCE TYPE
~Curve Information Section
#MNEM       .UNIT                                      API CODE :CURVE DESCRIPTION
#------------------------------------------------------------------------------
DEPT        .FT                                                 :DEPTH     
CALI        .IN                                                 :          
CILD        .MMHO                                               :          
DT          .US/F                                               :          
GR          .GAPI                                               :          
GR_NORM     .GAPI                                               :GammaRay Normalized
ILD         .OHMM                                               :          
ILM         .OHMM                                               :          
RHOB        .G/C3                                               :          
SFL         .OHMM                                               :          
SP          .MV                                                 :          
SP_NORM     .MV                                                 :SP Normalized
VSH_GR      .V/V                                                :Volume of Shale from GR
VSH_SP      .V/V                                                :Volume of Shale from SP
~A        DEPTH           CALI           CILD             DT             GR        GR_NORM            ILD            ILM           RHOB            SFL             SP        SP_NORM         VSH_GR         VSH_SP
# ...
      2478.0000        13.2458       1462.484       154.0376          74.53       88.08121         0.6801        -999.25          1.928         0.7213       -50.1742         1.5942              1              1
      2478.5000        12.8917       1436.648       155.3911        73.9062       87.21359         0.6912        -999.25         1.9754         0.7309       -49.9626       1.803158              1              1
      2479.0000        12.7516        1412.32       156.4912         73.061       86.03929         0.6991        -999.25         2.0502         0.7401       -49.9601       1.803024              1              1
      2479.5000        12.7045        1388.18       156.9465        72.2217       84.87317         0.7038        -999.25         2.0936         0.7482       -50.2887       1.471783              1              1
      2480.0000        12.6876       1364.484        156.562         71.062       83.26323         0.7075        -999.25         2.0995         0.7566       -50.5221       1.235748              1              1
      2480.5000        12.7182       1345.129       155.6812        69.9414       81.70745         0.7107        -999.25         2.0913         0.7655       -50.6182       1.137012              1              1
      2481.0000        12.7391        1332.07       154.9717        68.9617       80.34685          0.713        -999.25         2.0828         0.7732       -50.3149       1.437672              1              1
      2481.5000        12.6329       1322.615       154.6306        68.1777       79.25732         0.7131        -999.25         2.0737         0.7806        -50.112       1.637936      0.9841982              1
      2482.0000        12.4688       1317.256       154.5645        67.5422        78.3735         0.7131        -999.25         2.0669         0.7876       -50.0046       1.742699      0.9653935              1
      2482.5000        12.3787       1321.465        155.312        67.9548       78.94151         0.7131        -999.25         2.0814         0.7883       -49.8071       1.937561      0.9774789              1
      2483.0000         12.355       1328.533       156.5391        68.5981       79.82906         0.7132        -999.25         2.0846         0.7851       -49.5339       2.208122       0.996363              1
      2483.5000        12.2908       1334.883       157.6128         69.129       80.56094         0.7132        -999.25         2.0777         0.7709        -49.072       2.667389              1              1
      2484.0000         12.268       1337.555       158.1189        69.0942       80.50921         0.7123        -999.25         2.0711         0.7575       -48.5989       3.137848              1              1
      2484.5000        12.2495       1338.871        158.189        68.3672       79.49864         0.7098        -999.25         2.0734         0.7529       -48.0933       3.640812      0.9893328              1
      2485.0000        12.2311       1340.189       158.2783        67.7129       78.58878         0.7069        -999.25         2.0756         0.7553       -47.5166        4.21487      0.9699739              1
      2485.5000        12.1869       1348.703        158.353        67.5344       78.33799         0.7025        -999.25         2.0751         0.7643       -47.1234       4.605434      0.9646381              1
      2486.0000         12.098       1356.957       158.3984        67.4349       78.19663         0.6981        -999.25         2.0557         0.7729       -46.7915         4.9347      0.9616305              1
      2486.5000         11.959        1362.17       158.4417        67.4193       78.17148         0.6971        -999.25         2.0592         0.7799       -46.4407        5.28286      0.9610953              1
      2487.0000        11.9078       1367.125         158.53        67.6013       78.42007         0.6961        -999.25          2.079         0.7829       -46.1444       5.576523      0.9663844              1
      2487.5000        11.9982       1371.783       158.5996        67.9421        78.8886         0.6936        -999.25         2.0921         0.7796       -45.8932       5.825089      0.9763533              1
      2488.0000        12.1248       1376.201       157.9907        68.3855       79.49928         0.6872        -999.25         2.0867         0.7657        -45.762       5.953648      0.9893463              1
      2488.5000        12.2646       1380.371       156.7725        68.8582       80.15052         0.6817        -999.25         2.0892         0.7484         -45.64       6.073013              1              1
      2489.0000         12.347       1384.195       155.7339        69.3501       80.82837         0.6794        -999.25         2.1016         0.7336       -45.7544       5.955978              1              1
      2489.5000         12.349       1385.926       154.4653        69.9221       81.61717         0.6832        -999.25         2.0922          0.726       -46.3552       5.352535              1              1
      2490.0000        12.3105       1386.711       152.9692        70.4941       82.40598         0.6952        -999.25           2.09         0.7256       -47.3599         4.3452              1              1
      2490.5000        12.3257       1386.213       151.8096        71.1096       83.25503         0.7136        -999.25         2.0918         0.7305       -48.0999       3.602562              1              1
      2491.0000         12.343       1380.277       150.9053        71.7095       84.08249         0.7314        -999.25         2.0821         0.7395       -48.0281       3.671726              1              1
      2491.5000        12.3981       1371.727       149.9658        72.1624       84.70631         0.7473        -999.25         2.0772         0.7487       -47.0635        4.63369              1              1
      2492.0000        12.4579       1359.313       149.1521        71.9442       84.40052         0.7578        -999.25         2.0645         0.7571       -46.1453       5.549248              1              1
      2492.5000        12.4272       1345.297       148.4561        71.6113       83.93586         0.7613        -999.25         2.0466         0.7618         -45.73       5.961914              1              1
      2493.0000        12.3802       1321.375       148.0071        71.2784        83.4712         0.7638        -999.25         2.0326         0.7665       -45.4919       6.197376              1              1
      2493.5000        12.3332       1310.291       147.6501        70.9457       83.00682         0.7658        -999.25         2.0419          0.771        -45.277       6.409637              1              1
      2494.0000        12.2533       1307.984       147.3787        70.6128       82.54216         0.7672        -999.25         2.0552         0.7729       -45.1405       6.543503              1              1
      2494.5000        12.1535       1305.678       147.2361        70.4894       82.36771         0.7648        -999.25         2.0374         0.7736       -45.1681       6.513268              1              1
      2495.0000        12.0525        1304.92       147.1091        70.7091        82.6685         0.7615        -999.25         2.0317         0.7729       -45.4197       6.259026              1              1
      2495.5000        11.9508       1305.678       147.0522        71.2075       83.35535         0.7575        -999.25         2.0468         0.7722       -46.1089       5.567192              1              1
      2496.0000        11.9287       1304.178       147.2078        71.8198       84.19997         0.7601        -999.25         2.0618         0.7715       -47.2388        4.43465              1              1
      2496.5000        11.9706       1301.984       147.5879        72.6179       85.30196         0.7639        -999.25         2.0556         0.7712       -48.3242       3.346615              1              1
