#------------------------------------------------------------------------------
# Created by    : vladimir.rabinovich
# Created on    : 09/19/2023 17:20:04
#------------------------------------------------------------------------------
~Version Information Section
VERS.           2.0     :   CWLS log ASCII Standard - VERSION 2.0
WRAP.           NO      :   One line per depth step
~Well Information Section
#MNEM       .UNIT                                         VALUE :DESCRIPTION
#------------------------------------------------------------------------------
STRT        .FT                                             627 :START DEPTH
STOP        .FT                                            8077 :STOP DEPTH
STEP        .FT                                             0.5 :STEP      
NULL        .                                           -999.25 :NULL      
COMP        .                                    MOBIL OIL CORP :COMPANY   
WELL        .                               OCS G02338 ST00BP00 :WELL      
FLD         .                                           WILDCAT :FIELD     
LOC         .                                                   :LOCATION  
CNTY        .                             GALVESTON LARGE BLOCK :LOCATION  
STAT        .                                             TEXAS :STATE     
CTRY        .                                     UNITED STATES :COUNTRY   
SRVC        .                                                   :SERVICE COMPANY
DATE        .                             9/13/2023 11:18:53 AM :LOG DATE  
API         .                                    42706400220000 :API NUMBER
UWI         .                                    42706400220000 :UNIQUE WELL ID
XCOORD      .                                  948421.875172236 :SURFACE X 
YCOORD      .                                   10402667.405867 :SURFACE Y 
LAT         .                                         28.648189 :LATITUDE  
LON         .                                        -95.157922 :LONGITUDE 
ELEV        .FT                                              76 :ELEVATION VALUE
ELEV_TYPE   .                                                KB :ELEVATION REFERENCE TYPE
~Curve Information Section
#MNEM       .UNIT                                      API CODE :CURVE DESCRIPTION
#------------------------------------------------------------------------------
DEPT        .FT                                                 :DEPTH     
ASFL        .OHMM                                               :          
CALI        .IN                                                 :          
CILD        .MMHO                                               :          
DT          .US/F                                               :          
DT_1        .US/F                                               :          
GR          .GAPI                                               :          
GR_NORM     .GAPI                                               :GammaRay Normalized
ILD         .OHMM                                               :          
SFL         .OHMM                                               :          
SP          .MV                                                 :          
SP_NORM     .MV                                                 :SP Normalized
VSH_GR      .V/V                                                :Volume of Shale from GR
VSH_SP      .V/V                                                :Volume of Shale from SP
~A        DEPTH           ASFL           CALI           CILD             DT           DT_1             GR        GR_NORM            ILD            SFL             SP        SP_NORM         VSH_GR         VSH_SP
# ...
       665.0000        -999.25        -999.25        -999.25        -999.25        -999.25        20.4427       61.13803        -999.25        -999.25        -999.25        -999.25      0.5986815        -999.25
       665.5000        -999.25        -999.25        -999.25        -999.25        -999.25         20.158       60.63304        -999.25        -999.25        -999.25        -999.25       0.587937        -999.25
       666.0000        -999.25        -999.25        -999.25        -999.25        -999.25        20.2712        60.7048        -999.25        -999.25        -999.25        -999.25      0.5894639        -999.25
       666.5000        -999.25        -999.25        -999.25        -999.25        -999.25        21.0979       61.81081        -999.25        -999.25        -999.25        -999.25       0.612996        -999.25
       667.0000        -999.25        -999.25        -999.25        -999.25        -999.25        22.8738       64.29276        -999.25        -999.25        -999.25        -999.25      0.6658033        -999.25
       667.5000        -999.25        -999.25        -999.25        -999.25        -999.25        24.6358       66.75452        -999.25        -999.25        -999.25        -999.25      0.7181814        -999.25
       668.0000         0.5927        -999.25       823.3672        -999.25       182.4197        26.0687       68.73926          1.354         0.8919       -83.0809       3.534103      0.7604097              1
       668.5000         0.6489        -999.25       860.2236        -999.25       197.5881        27.2987       70.42989         1.0016         1.0352       -87.3591       1.716469      0.7963806              1
       669.0000         0.7146        -999.25       892.4775        -999.25       203.2253         28.192       71.63245         0.9594         1.1453       -90.2607       1.275444      0.8219669              1
       669.5000         1.1153        -999.25       917.3896        -999.25       196.7063        28.7669       72.37347         1.0099         1.2117       -91.8931       2.103607      0.8377335              1
       670.0000          1.177        -999.25       896.7627        -999.25       190.1682        28.8043       72.33536         1.0038         1.1615       -94.1459       2.311371      0.8369225              1
       670.5000          1.168        -999.25       876.1348        -999.25       185.2563        28.4017       71.65944         1.0615         1.0499       -96.5441       1.620193      0.8225412              1
       671.0000         1.1589        -999.25       855.5107        -999.25       176.2268        27.6143       70.42575         1.2263         0.9742       -98.7521     -0.6463928      0.7962925              1
       671.5000         1.1498        -999.25       834.8838        -999.25       159.6394        27.5764       70.27848         1.2112          0.952      -100.3267      -2.279579      0.7931592      0.9844678
       672.0000         1.1408        -999.25       821.5195        -999.25       148.0415        30.9706       74.99812         1.1601         0.9992      -101.4462      -3.457657      0.8935769       0.919019
       672.5000          1.144        -999.25       809.4932        -999.25       145.9419        34.1326       78.75066         1.1438         1.0765       -99.6346      -1.704643      0.9734182              1
       673.0000         1.1475        -999.25       791.6123        -999.25       156.8496         37.127        82.2603         1.3134         1.1718       -98.0687     -0.1973343              1              1
       673.5000         1.1661        -999.25       763.4648        -999.25       172.2588        39.4241       84.75914         1.4632         1.1795        -97.026      0.7867813              1              1
       674.0000         1.1858        -999.25       734.2939        -999.25       184.4463        40.4893       85.47228         1.5974         1.1251       -96.5272       1.226997              1              1
       674.5000         1.2238        -999.25       686.7852        -999.25       186.9661        40.9581       85.32094         1.6939         1.1761       -96.8278      0.8678131              1              1
       675.0000         1.2463        -999.25       642.5273        -999.25       187.3555        41.0873       84.67729          1.781         1.2225       -96.4194       1.217628              1              1
       675.5000          1.269        -999.25       602.3096        -999.25       185.9915        40.9824       83.69431          1.799         1.2623       -95.6465       1.931946              1              1
       676.0000         1.2939        -999.25       563.9912        -999.25        183.822        40.7141       82.47449         1.8172         1.3048       -96.3885       1.131363              1              1
       676.5000         1.3188        -999.25       549.4668        -999.25        180.426         40.228       80.93895          1.803         1.3314       -97.3486      0.1126709              1              1
       677.0000         1.3437        -999.25       534.9424        -999.25       170.6753        39.7418       79.75433         1.7766         1.3094       -98.3292     -0.9265137       0.994773              1
       677.5000         1.3591        -999.25       520.4199        -999.25       165.5608        39.1451        78.5687         1.7728         1.2589       -98.9611      -1.616997      0.9695469              1
       678.0000         1.3719        -999.25       505.8955        -999.25       161.2261        38.5318       77.35898         1.8002         1.3091       -99.4214      -2.135887       0.943808      0.9924507
       678.5000         1.3812        -999.25       492.4141        -999.25       158.4673        37.9155       76.14494         1.8296         1.3042       -99.7087      -2.481766      0.9179773      0.9732352
       679.0000         1.3889        -999.25       490.0718        -999.25       156.6482        37.2957       74.92578         1.8628         1.2675       -99.7686       -2.60025      0.8920379      0.9666528
       679.5000         1.3965        -999.25       487.7295        -999.25       155.4141        37.7659       75.28667          1.899         1.2442       -99.2521      -2.142334      0.8997163      0.9920925
       680.0000         1.4041        -999.25       485.3867        -999.25        157.603        38.6981       76.31722         1.9543         1.2831       -98.3251      -1.273926       0.921643              1
       680.5000         1.4121        -999.25       483.0449        -999.25       165.8445        39.7366       77.50188         1.9206           1.35       -97.8721      -0.879509      0.9468486              1
       681.0000         1.4233        -999.25       485.6006        -999.25       178.9849        40.7752       78.68668         1.8815         1.4471       -98.4117      -1.477692      0.9720569              1
       681.5000         1.4345        -999.25       490.1792        -999.25       183.8914        41.8723       79.95628         1.8437         1.4456       -99.4478      -2.572372      0.9990697      0.9682015
       682.0000         1.4456        -999.25       494.7578        -999.25       188.5269        43.0007       81.27126         1.8069         1.3708          -99.8      -2.983162              1      0.9453799
       682.5000         1.4556        -999.25       499.3364        -999.25       189.9021        44.1685       82.64332         1.7708         1.3103       -98.8655      -2.107246              1      0.9940419
       683.0000         1.4444        -999.25       503.9146        -999.25       188.9617        43.0364       80.68159         1.7358         1.2671        -98.417      -1.717331              1              1
       683.5000         1.4308        -999.25       508.4932        -999.25        189.071        41.4055        77.9968         1.7023          1.232       -98.9221      -2.281013      0.9573786      0.9843881
