#------------------------------------------------------------------------------
# Created by    : vladimir.rabinovich
# Created on    : 09/19/2023 17:22:29
#------------------------------------------------------------------------------
~Version Information Section
VERS.           2.0     :   CWLS log ASCII Standard - VERSION 2.0
WRAP.           NO      :   One line per depth step
~Well Information Section
#MNEM       .UNIT                                         VALUE :DESCRIPTION
#------------------------------------------------------------------------------
STRT        .FT                                             272 :START DEPTH
STOP        .FT                                            9222 :STOP DEPTH
STEP        .FT                                             0.5 :STEP      
NULL        .                                           -999.25 :NULL      
COMP        .                   MCMORAN OFFSHORE EXPLORATION CO :COMPANY   
WELL        .                               OCS G03108 ST00BP00 :WELL      
FLD         .                       MATAGORDA ISLAND BLOCK 0700 :FIELD     
LOC         .                                                   :LOCATION  
CNTY        .                      MATAGORDA ISLAND LARGE BLOCK :LOCATION  
STAT        .                                             TEXAS :STATE     
CTRY        .                                     UNITED STATES :COUNTRY   
SRVC        .                                                   :SERVICE COMPANY
DATE        .                             9/13/2023 11:12:09 AM :LOG DATE  
API         .                                    42703400850000 :API NUMBER
UWI         .                                    42703400850000 :UNIQUE WELL ID
XCOORD      .                                  483045.974763742 :SURFACE X 
YCOORD      .                                  10146137.6323278 :SURFACE Y 
LAT         .                                         27.912878 :LATITUDE  
LON         .                                       -96.5835889 :LONGITUDE 
ELEV        .FT                                              85 :ELEVATION VALUE
ELEV_TYPE   .                                                KB :ELEVATION REFERENCE TYPE
~Curve Information Section
#MNEM       .UNIT                                      API CODE :CURVE DESCRIPTION
#------------------------------------------------------------------------------
DEPT        .FT                                                 :DEPTH     
CILD        .MMHO                                               :          
DT          .US/F                                               :          
GR          .GAPI                                               :          
GR_NORM     .GAPI                                               :GammaRay Normalized
ILD         .OHMM                                               :          
ILM         .OHMM                                               :          
SFL         .OHMM                                               :          
SP          .MV                                                 :          
SP_NORM     .MV                                                 :SP Normalized
VSH_GR      .V/V                                                :Volume of Shale from GR
VSH_SP      .V/V                                                :Volume of Shale from SP
~A        DEPTH           CILD             DT             GR        GR_NORM            ILD            ILM            SFL             SP        SP_NORM         VSH_GR         VSH_SP
# ...
      5042.0000       1389.895       108.8761        -999.25        -999.25         0.7253         0.7325         0.7268       -32.0986        -5.6835        -999.25      0.9364914
      5042.5000       1249.994       113.6942        -999.25        -999.25          0.791         0.7904         0.7205       -32.5277        -6.1126        -999.25      0.9290931
      5043.0000       1173.359       114.1644        -999.25        -999.25         0.8422         0.8446         0.7203       -34.2144        -7.7993        -999.25      0.9000121
      5043.5000       1105.588       112.9058        -999.25        -999.25         0.8771         0.8696         0.7248       -34.6735        -8.2584        -999.25      0.8920966
      5044.0000       1091.936       111.4763        -999.25        -999.25         0.8955         0.8803         0.7464       -33.7971         -7.382        -999.25      0.9072069
      5044.5000       1114.994        110.399        -999.25        -999.25         0.8928         0.8663         0.7695       -33.5523        -7.1372        -999.25      0.9114276
      5045.0000       1142.146       110.6545        -999.25        -999.25         0.8888         0.8432         0.7807        -33.436        -7.0209        -999.25      0.9134328
      5045.5000       1155.699       113.0815        -999.25        -999.25         0.8825         0.8265         0.7719        -33.236        -6.8209        -999.25       0.916881
      5046.0000       1162.314       114.9825        -999.25        -999.25         0.8687         0.8173          0.752       -33.0303        -6.6152        -999.25      0.9204276
      5046.5000       1168.211       115.5145        -999.25        -999.25         0.8502         0.8113         0.7352       -32.9492        -6.5341        -999.25      0.9218259
      5047.0000       1188.855       115.0122        -999.25        -999.25         0.8347         0.8069         0.7325       -32.8675        -6.4524        -999.25      0.9232345
      5047.5000       1214.004       114.1805        -999.25        -999.25         0.8216         0.8043         0.7435       -32.7487        -6.3336        -999.25      0.9252828
      5048.0000       1233.955       114.1119        -999.25        -999.25         0.8149         0.8034         0.7476       -32.6642        -6.2491        -999.25      0.9267396
      5048.5000        1239.92       114.7715        -999.25        -999.25         0.8101         0.8012         0.7387       -33.0997        -6.6846        -999.25      0.9192311
      5049.0000       1246.262        115.485        -999.25        -999.25         0.8075         0.7954         0.7223       -33.7178        -7.3027        -999.25      0.9085742
      5049.5000       1222.135       115.6377        -999.25        -999.25         0.8076         0.7935         0.7111       -34.0353        -7.6202        -999.25         0.9031
      5050.0000       1205.984        114.094        -999.25        -999.25         0.8133         0.7944         0.7409       -33.8705        -7.4554        -999.25      0.9059414
      5050.5000         1192.6       110.4677        -999.25        -999.25         0.8233         0.7981         0.7986       -33.8467        -7.4316        -999.25      0.9063517
      5051.0000       1186.938       108.5846        -999.25        -999.25         0.8342          0.803         0.8371       -33.8058        -7.3907        -999.25      0.9070569
      5051.5000       1178.824       108.8204        -999.25        -999.25          0.849         0.8055         0.8685       -33.8204        -7.4053        -999.25      0.9068052
      5052.0000       1168.855       110.7189        -999.25        -999.25         0.8629         0.7983           0.85       -33.7004        -7.2853        -999.25      0.9088742
      5052.5000       1156.955       112.7375        -999.25        -999.25          0.875         0.7943          0.783       -33.5012        -7.0861        -999.25      0.9123086
      5053.0000       1151.127       113.0085        -999.25        -999.25         0.8676         0.7969         0.7395       -33.6683        -7.2532        -999.25      0.9094276
      5053.5000       1162.395       111.4318        -999.25        -999.25          0.849         0.7997         0.7394       -33.2687        -6.8536        -999.25      0.9163172
      5054.0000       1191.975       110.1404        -999.25        -999.25          0.823         0.8041         0.7461       -32.5149        -6.0998        -999.25      0.9293138
      5054.5000        1221.33        110.589        -999.25        -999.25         0.7958          0.793          0.753       -32.8184        -6.4033        -999.25       0.924081
      5055.0000       1248.137       114.1434        -999.25        -999.25         0.7801         0.7785         0.7298       -33.1218        -6.7067        -999.25        0.91885
      5055.5000       1270.291       118.3365        -999.25        -999.25         0.7686         0.7659         0.7024       -33.3167        -6.9016        -999.25      0.9154897
      5056.0000       1285.488       120.0321        -999.25        -999.25         0.7661         0.7571            0.7       -33.3936        -6.9785        -999.25      0.9141638
      5056.5000       1295.756       120.4033        -999.25        -999.25         0.7637         0.7512         0.6948       -33.3058        -6.8907        -999.25      0.9156776
      5057.0000        1304.66       119.2833        -999.25        -999.25          0.761           0.75         0.6923       -33.0464        -6.6313        -999.25        0.92015
      5057.5000       1310.949       117.8055        -999.25        -999.25         0.7583         0.7572         0.6982       -33.2737        -6.8586        -999.25       0.916231
      5058.0000       1313.189       115.5098        -999.25        -999.25         0.7612          0.762          0.719       -33.0061         -6.591        -999.25      0.9208449
      5058.5000       1310.488       113.0221        -999.25        -999.25         0.7642         0.7657         0.7422       -32.2576        -5.8425        -999.25        0.93375
      5059.0000       1306.076        112.512        -999.25        -999.25          0.769         0.7679         0.7582       -31.8024        -5.3873        -999.25      0.9415983
      5059.5000        1301.26       112.1877        -999.25        -999.25         0.7732         0.7674         0.7631       -31.6798        -5.2647        -999.25      0.9437121
      5060.0000        1292.24       112.7388        -999.25        -999.25         0.7763          0.767         0.7518       -31.5465        -5.1314        -999.25      0.9460104
      5060.5000       1286.908        114.219        -999.25        -999.25         0.7774         0.7654         0.7339       -31.0968        -4.6817        -999.25      0.9537638
      5061.0000       1285.271       115.8922        -999.25        -999.25         0.7759         0.7634         0.7189       -30.5688        -4.1537        -999.25      0.9628673
      5061.5000       1287.326       117.3811        -999.25        -999.25         0.7748         0.7633         0.7105       -30.1622        -3.7471        -999.25      0.9698776
      5062.0000       1290.658       117.3427        -999.25        -999.25          0.774         0.7628         0.6985       -30.6813        -4.2662        -999.25      0.9609276
      5062.5000       1294.143       115.3835        -999.25        -999.25         0.7775         0.7624         0.6951       -31.5334        -5.1183        -999.25      0.9462362
      5063.0000       1297.049       113.0741        -999.25        -999.25         0.7812         0.7651         0.7154       -32.1054        -5.6903        -999.25      0.9363741
      5063.5000       1297.049       113.1125        -999.25        -999.25         0.7861         0.7721         0.7416        -32.433        -6.0179        -999.25      0.9307259
      5064.0000       1285.143       114.8866        -999.25        -999.25         0.7973         0.7831         0.7538        -32.426        -6.0109        -999.25      0.9308466
