#------------------------------------------------------------------------------
# Created by    : vladimir.rabinovich
# Created on    : 09/19/2023 17:21:04
#------------------------------------------------------------------------------
~Version Information Section
VERS.           2.0     :   CWLS log ASCII Standard - VERSION 2.0
WRAP.           NO      :   One line per depth step
~Well Information Section
#MNEM       .UNIT                                         VALUE :DESCRIPTION
#------------------------------------------------------------------------------
STRT        .FT                                            4500 :START DEPTH
STOP        .FT                                           11014 :STOP DEPTH
STEP        .FT                                             0.5 :STEP      
NULL        .                                           -999.25 :NULL      
COMP        .                              FIELDWOOD ENERGY LLC :COMPANY   
WELL        .                               OCS G06156 ST00BP00 :WELL      
FLD         .                            HIGH ISLAND BLOCK 0116 :FIELD     
LOC         .                                                   :LOCATION  
CNTY        .                           HIGH ISLAND LARGE BLOCK :LOCATION  
STAT        .                                             TEXAS :STATE     
CTRY        .                                     UNITED STATES :COUNTRY   
SRVC        .                                                   :SERVICE COMPANY
DATE        .                             9/13/2023 11:19:57 AM :LOG DATE  
API         .                                    42708404240000 :API NUMBER
UWI         .                                    42708404240000 :UNIQUE WELL ID
XCOORD      .                                  1333979.30181128 :SURFACE X 
YCOORD      .                                  10635798.2403082 :SURFACE Y 
LAT         .                                         29.303317 :LATITUDE  
LON         .                                        -93.961735 :LONGITUDE 
ELEV        .FT                                             101 :ELEVATION VALUE
ELEV_TYPE   .                                                KB :ELEVATION REFERENCE TYPE
~Curve Information Section
#MNEM       .UNIT                                      API CODE :CURVE DESCRIPTION
#------------------------------------------------------------------------------
DEPT        .FT                                                 :DEPTH     
AT10        .OHMM                                               :          
AT20        .OHMM                                               :          
AT30        .OHMM                                               :          
AT60        .OHMM                                               :          
AT90        .OHMM                                               :          
CALI        .IN                                                 :          
DCAL        .IN                                                 :          
DPHI        .DEC                                                :          
DRHO        .G/C3                                               :          
DT2R        .US/F                                               :          
DT4P        .US/F                                               :          
GR          .GAPI                                               :          
GR_NORM     .GAPI                                               :GammaRay Normalized
NPOR        .DEC                                                :          
SP          .MV                                                 :          
SP_NORM     .MV                                                 :SP Normalized
TENS        .LBF                                                :          
VSH_GR      .V/V                                                :Volume of Shale from GR
VSH_SP      .V/V                                                :Volume of Shale from SP
~A        DEPTH           AT10           AT20           AT30           AT60           AT90           CALI           DCAL           DPHI           DRHO           DT2R           DT4P             GR        GR_NORM           NPOR             SP        SP_NORM           TENS         VSH_GR         VSH_SP
# ...
      9292.5000          0.643         0.7115         0.6806         0.7053         0.6149        -999.25         1.5319         0.1439         -0.037       256.0469       108.1169        53.3322       69.70793         0.4031       -49.6811      -0.319678       3449.637      0.7810198      0.9954332
      9293.0000         0.7647         0.8433         0.7917         0.8447         0.8717        -999.25         1.3512         0.1271         -0.031       252.0286       107.3126        47.5253       62.40586         0.3475       -50.4243      -1.410296       3460.113      0.6256566      0.9798529
      9293.5000         0.9067         1.1501         1.1868         1.0043          1.327        -999.25         1.1906          0.111        -0.0259       259.2012       110.6046        41.9149       55.35089         0.2871       -51.1705      -2.505281       3470.664      0.4755509      0.9642103
      9294.0000           1.02         1.1748         1.5209         0.9944         1.3818        -999.25         1.1097         0.1158        -0.0278       269.9766       114.9973        40.8224       53.97709         0.2667       -51.4637      -2.939642       3481.117       0.446321      0.9580051
      9294.5000          0.863         0.9083          0.976         0.8484         0.9681        -999.25         1.1688          0.135        -0.0318       287.1377       118.2886         45.137       59.40262         0.3146       -51.1553      -2.496675       3441.691      0.5617579      0.9643332
      9295.0000         0.6815         0.6956         0.7188          0.688         0.6779        -999.25         1.5269         0.1542        -0.0328       293.1084       121.1792        50.5513         66.211         0.3416       -50.8467      -2.053407        3412.25       0.706617      0.9706656
      9295.5000         0.5932         0.6183         0.5911         0.5951         0.5534        -999.25         1.6856         0.1578        -0.0287        294.687       121.0743         52.962       69.24242         0.3542       -50.5383       -1.61044       3382.805      0.7711154      0.9769937
      9296.0000         0.5624         0.5857         0.5438         0.5495         0.5176        -999.25         1.7845         0.1537        -0.0246       291.8682       119.8707        55.2726       72.14795          0.359       -50.2297      -1.167177        3373.32      0.8329351       0.983326
      9296.5000         0.5408          0.566         0.5297          0.532         0.5032        -999.25         1.9033         0.1507        -0.0186       286.6533       118.1675         58.483       76.18497         0.3627       -49.9213     -0.7242044       3393.777      0.9188293      0.9896542
      9297.0000         0.5293         0.5521         0.5327         0.5364         0.5044        -999.25         2.0021         0.1519        -0.0115       280.6416        116.863        60.2906         78.458         0.3675       -49.9136     -0.7197595       3444.176      0.9671915      0.9897177
      9297.5000          0.533         0.5576         0.5495         0.5477          0.524        -999.25          2.021         0.1519        -0.0095       275.0273       115.2599        60.9976       79.34705         0.3681       -49.9061     -0.7156038       3464.633      0.9861073      0.9897771
      9298.0000         0.5701         0.5946         0.5838         0.5787         0.5573        -999.25         1.9801         0.1496        -0.0054       268.6074       113.1572        59.2001       77.08672         0.3628       -49.8984     -0.7111533       3455.148      0.9380154      0.9898407
      9298.5000         0.6368         0.6351         0.6225         0.6143         0.5936        -999.25          1.979         0.1442        -0.0023        260.603       110.2554        57.7014       75.20213          0.352       -50.1918      -1.145804       3455.645      0.8979176      0.9836314
      9299.0000          0.696         0.6747         0.6671         0.6592         0.6389        -999.25         1.9581         0.1359         0.0007       258.1841        109.051         58.007       75.58642         0.3472        -50.485      -1.580171        3446.16       0.906094      0.9774261
      9299.5000         0.7313         0.7054         0.7017         0.7011         0.6786        -999.25         1.9571         0.1275         0.0008       260.5615       109.0464        58.6137       76.34934         0.3551       -50.4775      -1.576015       3456.637      0.9223264      0.9774855
      9300.0000         0.7464         0.7314         0.7262         0.7285         0.6957        -999.25         1.9361         0.1204         0.0028       261.7402        109.441         58.818       76.60624         0.3521       -50.1689      -1.132747       3457.133      0.9277923      0.9838179
      9300.5000         0.7545         0.7357         0.7345         0.7285         0.6904        -999.25         1.9152          0.118         0.0019       262.1196       109.7356        58.6232       76.36127         0.3383       -49.8605     -0.6897799       3457.629      0.9225803       0.990146
      9301.0000         0.7595         0.7321         0.7278         0.7154         0.6701        -999.25         1.8942          0.121        -0.0011       262.0991       109.9304        58.8286       76.61956         0.3288       -49.5519     -0.2465177       3478.086      0.9280757      0.9964783
      9301.5000         0.7567           0.72         0.7162         0.7009         0.6614        -999.25         1.8732         0.1312         -0.006       262.0791       110.6255        59.4353       77.38248         0.3324       -49.5444     -0.2423565       3478.582       0.944308      0.9965377
      9302.0000         0.7395         0.7029         0.6967         0.6871         0.6554        -999.25         1.9001          0.137        -0.0112       262.1377       112.1383        59.3192       77.23648         0.3502       -49.8696     -0.7233866       3485.008      0.9412017      0.9896659
      9302.5000         0.7216         0.6846         0.6776          0.679         0.6501        -999.25         1.9011         0.1358        -0.0082       262.1377       113.0367         58.517       76.22773         0.3579       -49.8696      -0.730168       3484.469      0.9197389       0.989569
      9303.0000         0.7135         0.6761         0.6707         0.6694         0.6459        -999.25         1.9222          0.131        -0.0072        262.937       113.8364        57.6154       75.09399         0.3501       -49.8696     -0.7369439       3464.016      0.8956167      0.9894722
      9303.5000         0.7058         0.6661          0.667         0.6596         0.6414        -999.25         1.9231         0.1255        -0.0032       264.9351       114.6353        58.0155       75.59711         0.3483       -49.8696     -0.7437253       3473.504      0.9063214      0.9893754
      9304.0000         0.6931         0.6504         0.6647         0.6428          0.634        -999.25         1.9241         0.1225        -0.0022       267.7334       115.0352        59.3186       77.23573         0.3519         -50.02     -0.9698431       3482.996      0.9411858      0.9861451
      9304.5000         0.6654         0.6314         0.6455         0.6245         0.6193        -999.25         1.9251         0.1225        -0.0022       271.7324       114.5354        59.5186       77.48722         0.3548       -50.1705        -1.1961        3492.48      0.9465366      0.9829128
      9305.0000         0.6337         0.6108         0.6244         0.6093          0.597        -999.25         1.9061         0.1248        -0.0012        276.123       114.7352        59.3189       77.23611          0.353       -49.8696      -0.764064       3491.988      0.9411939      0.9890848
      9305.5000         0.6114         0.5972          0.601         0.5966         0.5715        -999.25         1.9071         0.1272        -0.0002       278.9209       115.2352        58.9183       76.73236         0.3458       -49.5687     -0.3320336        3481.52      0.9304758      0.9952567
