#------------------------------------------------------------------------------
# Created by    : vladimir.rabinovich
# Created on    : 09/19/2023 17:20:05
#------------------------------------------------------------------------------
~Version Information Section
VERS.           2.0     :   CWLS log ASCII Standard - VERSION 2.0
WRAP.           NO      :   One line per depth step
~Well Information Section
#MNEM       .UNIT                                         VALUE :DESCRIPTION
#------------------------------------------------------------------------------
STRT        .FT                                             712 :START DEPTH
STOP        .FT                                            9469 :STOP DEPTH
STEP        .FT                                             0.5 :STEP      
NULL        .                                           -999.25 :NULL      
COMP        .                                 MESA PETROLEUM CO :COMPANY   
WELL        .                                ST TR 00279-L SW/4 :WELL      
FLD         .                                           WILDCAT :FIELD     
LOC         .                                                   :LOCATION  
CNTY        .                             GALVESTON LARGE BLOCK :LOCATION  
STAT        .                                             TEXAS :STATE     
CTRY        .                                     UNITED STATES :COUNTRY   
SRVC        .                                                   :SERVICE COMPANY
DATE        .                             9/13/2023 11:18:53 AM :LOG DATE  
API         .                                    42706300950000 :API NUMBER
UWI         .                                    42706300950000 :UNIQUE WELL ID
XCOORD      .                                  947289.050530544 :SURFACE X 
YCOORD      .                                  10490529.0152507 :SURFACE Y 
LAT         .                                         28.889695 :LATITUDE  
LON         .                                        -95.166438 :LONGITUDE 
ELEV        .FT                                              84 :ELEVATION VALUE
ELEV_TYPE   .                                                KB :ELEVATION REFERENCE TYPE
~Curve Information Section
#MNEM       .UNIT                                      API CODE :CURVE DESCRIPTION
#------------------------------------------------------------------------------
DEPT        .FT                                                 :DEPTH     
ASFL        .OHMM                                               :          
CILD        .MMHO                                               :          
GR          .GAPI                                               :          
GR_NORM     .GAPI                                               :GammaRay Normalized
ILD         .OHMM                                               :          
SP          .MV                                                 :          
SP_NORM     .MV                                                 :SP Normalized
VSH_GR      .V/V                                                :Volume of Shale from GR
VSH_SP      .V/V                                                :Volume of Shale from SP
~A        DEPTH           ASFL           CILD             GR        GR_NORM            ILD             SP        SP_NORM         VSH_GR         VSH_SP
# ...
      3044.0000         0.8071       1248.949        54.3605       74.86774         0.8102       -33.4583     0.04919052      0.8908031              1
      3044.5000         0.8086       1250.809        53.9894       74.42082         0.8011       -33.9221     -0.4304008      0.8812941      0.9942613
      3045.0000         0.8101        1252.67        53.6857       74.05537         0.7919       -34.3863     -0.9103928      0.8735186      0.9878615
      3045.5000         0.8117       1254.531        53.6217       73.97968         0.7831       -34.8505      -1.390381      0.8719081      0.9814616
      3046.0000         0.8144       1256.393        53.6885       74.06214         0.7845       -35.3146      -1.870277      0.8736626       0.975063
      3046.5000           0.82       1258.254        53.6563       74.02491         0.7859       -35.6396      -2.211063      0.8728704      0.9705191
      3047.0000         0.8256       1255.289        53.4453       73.77151         0.7872       -35.9628      -2.550056       0.867479      0.9659992
      3047.5000         0.8312       1252.211        52.7977       72.99033         0.7886       -36.0925      -2.695549      0.8508582      0.9640594
      3048.0000         0.8368       1249.131        52.1497       72.20866           0.79       -35.4482      -2.067039      0.8342267      0.9724395
      3048.5000         0.8423       1246.051         51.502       71.42735         0.7914       -34.8036      -1.438232      0.8176031      0.9808236
      3049.0000         0.8479       1242.973        51.0142       70.83934         0.7927       -34.4989      -1.149323      0.8050923      0.9846757
      3049.5000         0.8563       1239.895        50.5471       70.27635         0.7941       -34.5689      -1.235115      0.7931139      0.9835318
      3050.0000          0.865        1233.74        50.0801       69.71349         0.7955       -34.8145      -1.496506      0.7811382      0.9800466
      3050.5000         0.8738       1227.504        49.9474       69.55476         0.7969       -35.1476      -1.845394      0.7777609      0.9753947
      3051.0000          0.882       1221.262        49.9563       69.56734         0.7982       -35.7484       -2.46199      0.7780284      0.9671735
      3051.5000         0.8825       1215.025        49.9652       69.57979         0.7996       -36.3492      -3.078579      0.7782934      0.9589523
      3052.0000         0.8829       1208.787        49.9741       69.59224         0.8036         -36.95      -3.695171      0.7785583       0.950731
      3052.5000         0.8834       1202.545         49.983       69.60469         0.8077       -37.4718      -4.232765      0.7788232      0.9435631
      3053.0000         0.8836       1196.309        49.9752       69.59695         0.8118       -37.9534      -4.730152      0.7786586      0.9369313
      3053.5000         0.8781       1196.467        49.9616       69.58221         0.8159       -38.4351      -5.227646      0.7783448       0.930298
      3054.0000         0.8727       1196.826        49.9479       69.56734           0.82       -38.9163      -5.724636      0.7780284      0.9236715
      3054.5000         0.8672       1197.188        49.9343       69.55259         0.8241       -39.3979      -6.222027      0.7777147      0.9170396
      3055.0000         0.8617       1197.549        49.9207       69.53784         0.8282       -39.8796      -6.719521      0.7774009      0.9104064
      3055.5000         0.8562        1197.91        49.7905       69.38214         0.8323       -40.1973      -7.053009      0.7740881      0.9059599
      3056.0000         0.8508       1199.037        49.4652       68.99056         0.8364       -40.4951        -7.3666      0.7657567      0.9017786
      3056.5000         0.8491       1201.508        49.1401       68.59925         0.8405        -40.793      -7.680294      0.7574309      0.8975961
      3057.0000         0.8484       1203.979        48.8149        68.2078         0.8446       -41.0908      -7.993885      0.7491022      0.8934149
      3057.5000         0.8476       1206.449        48.4897       67.81637         0.8487       -41.3886      -8.307476      0.7407738      0.8892336
      3058.0000         0.8542        1208.92        48.1086       67.35735         0.8528       -41.6864      -8.621067      0.7310073      0.8850524
      3058.5000         0.8607       1211.389        47.5087       66.63382         0.8569       -42.0484      -8.998859      0.7156132      0.8800152
      3059.0000         0.8673       1213.859        46.9092       65.91078         0.8612       -42.5399      -9.506153      0.7002294      0.8732513
      3059.5000         0.8739        1210.25        46.3093       65.18726         0.8664       -42.4249       -9.40694      0.6848354      0.8745741
      3060.0000         0.8804       1204.662        45.7235        64.4809         0.8716        -40.284      -7.281834      0.6698063      0.9029089
      3060.5000          0.894       1199.076        45.1858       63.83257         0.8768       -39.5226      -6.536221       0.656012      0.9128504
      3061.0000         0.9095        1193.49        44.6484        63.1846          0.882       -39.2053      -6.234715      0.6422256      0.9168705
      3061.5000          0.925       1187.902        44.1368       62.56782         0.8872        -38.888      -5.933208      0.6291026      0.9208906
      3062.0000         0.9364       1182.316        43.7087       62.05198         0.8924       -38.5707      -5.631699      0.6181272      0.9249107
      3062.5000         0.9465       1176.732        43.2808       61.53638         0.8976       -38.2535      -5.330292      0.6071571      0.9289294
      3063.0000         0.9566       1171.146        42.8528       61.02067         0.9028       -37.7739      -4.866478      0.5961845      0.9351136
      3063.5000         0.9668       1165.561        42.7347        60.8796          0.908       -37.2546      -4.362972      0.5931829      0.9418271
      3064.0000         0.9768       1153.689        42.6699       60.80295         0.9132       -36.7356      -3.859764      0.5915521      0.9485365
      3064.5000         0.9862       1136.689         43.717       62.07048         0.9184       -36.2162      -3.356155      0.6185209      0.9552513
      3065.0000         0.9956       1119.688        45.0418       63.67372         0.9259       -34.2006      -1.356346      0.6526324      0.9819154
      3065.5000          1.005       1102.688        46.1248       64.98464         0.9345       -33.2426      -0.414135      0.6805243      0.9944782
      3066.0000         1.0144       1085.688        46.6401       65.60928         0.9431       -32.7659       0.046772      0.6938145              1
      3066.5000         1.0175        1072.07        47.1558       66.23441         0.9517       -32.7392     0.05767822       0.707115              1
      3067.0000         1.0143       1061.174        47.6711       66.85904         0.9603       -32.7125     0.06858826      0.7204051              1
      3067.5000         1.0091       1050.279        48.3696       67.70515         0.9689       -32.6857     0.08193207      0.7384074              1
      3068.0000         1.0039       1039.383        49.4346       68.99432         0.9727        -32.659       0.104866      0.7658367              1
      3068.5000         0.9953       1038.209         50.452       70.22594         0.9705       -32.5648      0.1953049      0.7920414              1
      3069.0000         0.9797       1037.498        51.2208       71.15703         0.9684       -32.4423       0.314045      0.8118517              1
      3069.5000         0.9641       1050.051        51.3303       71.29121         0.9662       -32.3042      0.4483795      0.8147067              1
      3070.0000         0.9486       1063.268        50.9527       70.83643         0.9641       -32.0562      0.6926193      0.8050305              1
