#------------------------------------------------------------------------------
# Created by    : vladimir.rabinovich
# Created on    : 09/19/2023 17:19:45
#------------------------------------------------------------------------------
~Version Information Section
VERS.           2.0     :   CWLS log ASCII Standard - VERSION 2.0
WRAP.           NO      :   One line per depth step
~Well Information Section
#MNEM       .UNIT                                         VALUE :DESCRIPTION
#------------------------------------------------------------------------------
STRT        .FT                                            3127 :START DEPTH
STOP        .FT                                           13892 :STOP DEPTH
STEP        .FT                                             0.5 :STEP      
NULL        .                                           -999.25 :NULL      
COMP        .                                       MONSANTO CO :COMPANY   
WELL        .                                     ST TR 00010-L :WELL      
FLD         .                                           WILDCAT :FIELD     
LOC         .                                                   :LOCATION  
CNTY        .                           HIGH ISLAND LARGE BLOCK :LOCATION  
STAT        .                                             TEXAS :STATE     
CTRY        .                                     UNITED STATES :COUNTRY   
SRVC        .                                                   :SERVICE COMPANY
DATE        .                             9/13/2023 11:19:15 AM :LOG DATE  
API         .                                    42708300750000 :API NUMBER
UWI         .                                    42708300750000 :UNIQUE WELL ID
XCOORD      .                                  1327265.43976741 :SURFACE X 
YCOORD      .                                  10725214.5969587 :SURFACE Y 
LAT         .                                        29.5491158 :LATITUDE  
LON         .                                       -93.9851741 :LONGITUDE 
ELEV        .FT                                              54 :ELEVATION VALUE
ELEV_TYPE   .                                                KB :ELEVATION REFERENCE TYPE
~Curve Information Section
#MNEM       .UNIT                                      API CODE :CURVE DESCRIPTION
#------------------------------------------------------------------------------
DEPT        .FT                                                 :DEPTH     
ASFL        .OHMM                                               :          
CILD        .MMHO                                               :          
ILD         .OHMM                                               :          
SP          .MV                                                 :          
SP_NORM     .MV                                                 :SP Normalized
VSH_SP      .V/V                                                :Volume of Shale from SP
~A        DEPTH           ASFL           CILD            ILD             SP        SP_NORM         VSH_SP
# ...
      5255.0000          0.932       4855.164        -999.25      -125.5313      -82.05307      0.0350825
      5255.5000         0.9265        5062.57        -999.25      -126.4752      -83.00309     0.02377274
      5256.0000         0.9211       5269.969        -999.25      -127.4183      -83.95232     0.01247233
      5256.5000         0.9012       5477.375        -999.25      -128.3623      -84.90247    0.001161121
      5257.0000          0.881       5684.781        -999.25      -129.1042       -85.6505              0
      5257.5000         0.8608       5892.188        -999.25       -129.498      -86.05043              0
      5258.0000         0.8406       6099.586        -999.25      -119.5326      -76.09116      0.1060577
      5258.5000         0.8204       6146.672        -999.25      -115.2701      -71.83479      0.1567287
      5259.0000         0.8004       5267.188        -999.25      -112.0981      -68.66891      0.1944177
      5259.5000         0.7857       5150.578        -999.25      -107.8467      -64.42366      0.2449564
      5260.0000         0.7709       5032.766        -999.25      -102.5896      -59.17269       0.307468
      5260.5000         0.7562       4917.742        -999.25      -103.0206      -59.60982      0.3022641
      5261.0000         0.7595         4835.5        -999.25      -106.1226      -62.71795      0.2652625
      5261.5000         0.7638        4753.25        -999.25      -102.1475      -58.74898      0.3125121
      5262.0000          0.768       4571.867        -999.25       -97.5792      -54.18682      0.3668236
      5262.5000         0.7724       4312.813        -999.25       -93.4972      -50.11095      0.4153458
      5263.0000          0.778       4211.102        -999.25       -89.5332      -46.15308      0.4624633
      5263.5000         0.7837       4131.039        -999.25       -85.6501      -42.27612      0.5086177
      5264.0000         0.7893       4047.203        -999.25       -82.7894      -39.42154      0.5426007
      5264.5000          0.795       3953.832        -999.25        -79.203      -35.84128      0.5852228
      5265.0000         0.8007       3738.879        -999.25       -77.2468      -33.89121       0.608438
      5265.5000         0.8063       3602.199        -999.25        -75.495      -32.14555      0.6292197
      5266.0000          0.812       3512.402        -999.25       -77.7847      -34.44138      0.6018884
      5266.5000          0.812       3422.508        -999.25        -80.754      -37.41681      0.5664666
      5267.0000         0.8079       3332.715        -999.25       -83.7271      -40.39604      0.5309995
      5267.5000         0.8038       3328.242        -999.25       -86.7001      -43.37518      0.4955336
      5268.0000         0.7998       3548.559        -999.25       -89.6694      -46.35061      0.4601118
      5268.5000          0.794       3768.879        -999.25       -91.4894      -48.17674      0.4383721
      5269.0000         0.7846       3970.941        -999.25       -73.1354      -29.82887      0.6567992
      5269.5000         0.7752       3791.723        -999.25       -51.9593      -8.658905      0.9088225
      5270.0000         0.7657       3547.367        -999.25       -49.2478      -5.953533      0.9410294
      5270.5000         0.7563       3303.012        -999.25       -47.1424      -3.854267      0.9660206
      5271.0000         0.7468       3106.832        -999.25       -45.1235      -1.841503      0.9899821
      5271.5000         0.7374       2919.195        -999.25        -43.602     -0.3261337              1
      5272.0000         0.7291       2634.113        -999.25       -42.0823       1.187435              1
      5272.5000         0.7276       2518.098        -999.25       -45.8511      -2.587498      0.9811012
      5273.0000         0.7261       2745.961        -999.25       -51.8488      -8.591331       0.909627
      5273.5000         0.7246       2973.828        -999.25       -59.3348      -16.08347      0.8204349
      5274.0000         0.7309       3201.695        -999.25       -66.6735       -23.4283      0.7329965
      5274.5000         0.7471       3429.563        -999.25       -74.0122      -30.77313       0.645558
      5275.0000         0.7633       3657.426        -999.25       -81.3508      -38.11786      0.5581207
      5275.5000         0.7796       3885.293        -999.25       -88.6896      -45.46279       0.470681
      5276.0000         0.7958       4113.156        -999.25      -101.4585      -58.23783      0.3185973
      5276.5000         0.8125       4325.133        -999.25      -115.8495      -72.63496      0.1472028
      5277.0000         0.8344       4531.539        -999.25      -114.1023      -70.89389      0.1679299
      5277.5000         0.8562       4737.953        -999.25      -111.9656      -68.76332      0.1932938
      5278.0000         0.8597       4944.367        -999.25      -109.8306      -66.63445      0.2186375
      5278.5000         0.8455       5150.773        -999.25      -108.0604      -64.87039      0.2396382
      5279.0000         0.8156       5357.188        -999.25       -109.698      -66.51411      0.2200701
      5279.5000         0.7852       5014.492        -999.25      -112.0116      -68.83385      0.1924542
      5280.0000         0.8099       4593.328        -999.25      -113.3738      -70.20219      0.1761644
      5280.5000         0.8346       4499.461        -999.25      -114.0756      -70.91012      0.1677367
      5281.0000          0.859       4405.586        -999.25       -114.777      -71.61765      0.1593138
      5281.5000         0.8783       4311.719        -999.25      -115.3263      -72.17308      0.1527014
      5282.0000         0.8976       4217.758        -999.25      -113.2181      -70.07101       0.177726
      5282.5000         0.8923       4209.313        -999.25      -110.3888      -67.24785      0.2113351
      5283.0000         0.8808       4403.805        -999.25      -108.1249      -64.99008      0.2382133
      5283.5000         0.8664       4598.094        -999.25      -106.1373      -63.00861      0.2618023
      5284.0000          0.852       4730.305        -999.25      -104.1829      -61.06034      0.2849959
      5284.5000         0.8376       4821.984        -999.25      -102.2506      -59.13418      0.3079264
      5285.0000         0.8232       4913.672        -999.25      -100.8147      -57.70441      0.3249475
      5285.5000         0.8089        5005.25        -999.25       -99.5299      -56.42574      0.3401697
      5286.0000         0.7997       5096.938        -999.25       -97.9679      -54.86988      0.3586919
      5286.5000         0.7945       5184.945        -999.25       -96.3654      -53.27351      0.3776963
      5287.0000         0.7894       4684.711        -999.25       -92.4878      -49.40204      0.4237852
      5287.5000         0.7842       4184.477        -999.25       -76.8047      -33.72507      0.6104158
      5288.0000         0.7791       3771.063        -999.25       -67.8303      -24.75681      0.7171809
      5288.5000          0.774        3492.34        -999.25          -60.3      -17.23264      0.8067544
      5289.0000         0.7736       3213.813        -999.25       -52.7698      -9.708569      0.8963265
      5289.5000         0.7773       2935.289        -999.25       -45.2396      -2.184505      0.9858987
      5290.0000         0.7809       2656.762        -999.25       -43.4122     -0.3632355              1
      5290.5000         0.7846       2378.238        -999.25       -54.1918      -11.14897      0.8791789
      5291.0000         0.8065        2501.41        -999.25       -64.9788       -21.9421      0.7506893
      5291.5000         0.8392       2707.023        -999.25       -75.7657      -32.73513      0.6222008
      5292.0000         0.8719       2912.641        -999.25       -86.5527      -43.52826      0.4937112
      5292.5000         0.8997       3118.258        -999.25       -78.9193      -35.90099       0.584512
