#------------------------------------------------------------------------------
# Created by    : vladimir.rabinovich
# Created on    : 09/19/2023 17:21:24
#------------------------------------------------------------------------------
~Version Information Section
VERS.           2.0     :   CWLS log ASCII Standard - VERSION 2.0
WRAP.           NO      :   One line per depth step
~Well Information Section
#MNEM       .UNIT                                         VALUE :DESCRIPTION
#------------------------------------------------------------------------------
STRT        .FT                                            4234 :START DEPTH
STOP        .FT                                            7516 :STOP DEPTH
STEP        .FT                                             0.5 :STEP      
NULL        .                                           -999.25 :NULL      
COMP        .                          SEAGULL ENERGY E & P INC :COMPANY   
WELL        .                               OCS G11311 ST00BP00 :WELL      
FLD         .                                           WILDCAT :FIELD     
LOC         .                                                   :LOCATION  
CNTY        .                             GALVESTON LARGE BLOCK :LOCATION  
STAT        .                                             TEXAS :STATE     
CTRY        .                                     UNITED STATES :COUNTRY   
SRVC        .                                                   :SERVICE COMPANY
DATE        .                             9/13/2023 11:19:54 AM :LOG DATE  
API         .                                    42706403550000 :API NUMBER
UWI         .                                    42706403550000 :UNIQUE WELL ID
XCOORD      .                                  972569.007613557 :SURFACE X 
YCOORD      .                                  10477919.1442114 :SURFACE Y 
LAT         .                                         28.856272 :LATITUDE  
LON         .                                        -95.086774 :LONGITUDE 
ELEV        .FT                                              94 :ELEVATION VALUE
ELEV_TYPE   .                                                KB :ELEVATION REFERENCE TYPE
~Curve Information Section
#MNEM       .UNIT                                      API CODE :CURVE DESCRIPTION
#------------------------------------------------------------------------------
DEPT        .FT                                                 :DEPTH     
CALI        .IN                                                 :          
DPHI        .%                                                  :          
DRHO        .G/C3                                               :          
DTLN        .US/F                                               :          
GR          .GAPI                                               :          
GR_NORM     .GAPI                                               :GammaRay Normalized
IDPH        .OHMM                                               :          
IMPH        .OHMM                                               :          
NPHI        .%                                                  :          
SFLU        .OHMM                                               :          
SP          .MV                                                 :          
SP_NORM     .MV                                                 :SP Normalized
VSH_GR      .V/V                                                :Volume of Shale from GR
VSH_SP      .V/V                                                :Volume of Shale from SP
~A        DEPTH           CALI           DPHI           DRHO           DTLN             GR        GR_NORM           IDPH           IMPH           NPHI           SFLU             SP        SP_NORM         VSH_GR         VSH_SP
# ...
      6268.0000        10.1918        27.9697        -0.0278        98.2819        37.1097       39.07706         0.4154          0.444         33.323         0.7624      -125.5337      -70.84373      0.1292992              0
      6268.5000        10.1986         28.191        -0.0281        99.0159         37.111       39.07737         0.4129         0.4335        33.4302         0.5946      -125.5319      -70.84882      0.1293058              0
      6269.0000        10.2061        28.2021        -0.0292        99.5983        38.0826       40.02501         0.4096         0.4216         34.297         0.4713       -125.901      -71.20009      0.1494683              0
      6269.5000        10.1908         28.122        -0.0311        99.8221        40.5389        42.4222         0.4064         0.4145        35.5433         0.5251      -125.8815      -71.18866      0.2004723              0
      6270.0000        10.1617        28.1148         -0.031        99.8074        41.1019       42.97091         0.4056         0.4165        35.1533         0.7139      -125.2146      -70.57299      0.2121469              0
      6270.5000         10.119        27.8986         -0.031        99.2272         40.554       42.43503         0.4089         0.4254        33.9857         1.0295      -124.4547      -69.87053      0.2007454    0.001849583
      6271.0000        10.0324        27.4443         -0.031        97.4419        39.7279       41.62755         0.4122         0.4373        31.8329         1.1189      -123.6458      -69.12233      0.1835649     0.01253815
      6271.5000          9.947        26.9529        -0.0302        95.3883        39.2697       41.17924         0.4215         0.4519        31.1397          1.155      -122.8633      -68.39877      0.1740265     0.02287478
      6272.0000         9.9756        26.4203        -0.0292         93.578        39.4494       41.35374         0.4339         0.4674        30.2131         1.2018      -121.9735      -67.57507      0.1777391     0.03464192
      6272.5000        10.0088        25.9285         -0.028        91.7251         39.881       41.77417         0.4459         0.4823         28.076         1.3265      -120.9781      -66.65279      0.1866845     0.04781723
      6273.0000        10.0449        25.3978        -0.0262        90.5956        40.2855       42.16813         0.4604         0.4976        27.9009         1.4063      -119.7738      -65.53556      0.1950667     0.06377771
      6273.5000        10.0969        24.8798        -0.0248        91.5973        40.6964       42.56836         0.4731         0.5135        29.7625         1.3121      -117.4989      -63.41909      0.2035821     0.09401294
      6274.0000        10.1196        23.9838        -0.0223        93.7911         42.787       44.60849         0.4874         0.5299         32.023         1.0904      -113.6683      -59.85064      0.2469891      0.1449909
      6274.5000        10.0971        22.1379        -0.0199        97.3741        47.3987       49.11003         0.4974         0.5468        34.4841         0.7808       -106.256      -52.93926      0.3427666      0.2437248
      6275.0000        10.0614        20.6274        -0.0188        99.2759        56.2155       57.71708         0.5026          0.566        36.5291         0.6729       -98.5195       -45.7253      0.5258952      0.3467814
      6275.5000        10.0476        19.8302        -0.0175        99.1268        61.0153       62.40225         0.4913         0.5842        37.1184         0.7821       -91.2502       -38.9474      0.6255798      0.4436086
      6276.0000        10.0379         20.209        -0.0179        99.3663        62.1509       63.51001         0.4705         0.5906        36.1077         0.9328       -90.1062      -37.88644      0.6491491      0.4587651
      6276.5000         10.026        21.4403        -0.0195       100.4432         60.827       62.21651         0.4537         0.5771        35.8018         0.9609       -92.2974      -39.93833      0.6216279      0.4294524
      6277.0000        10.0435        23.4239        -0.0218       101.6104         56.085       57.58586          0.437         0.5379        35.6609         0.8831       -98.3237      -45.56965      0.5231034       0.349005
      6277.5000        10.0935        25.6396         -0.024       102.4927        48.9443       50.61332         0.4149         0.4741        34.3644         0.7603      -107.3557      -54.00629      0.3747516      0.2284816
      6278.0000        10.1514        27.4764        -0.0233       102.0422           42.2       44.02779          0.398         0.4209        33.5084         0.5956      -116.5836      -62.62577      0.2346338      0.1053461
      6278.5000        10.1808        27.7693        -0.0214        101.443        37.5331       39.47046         0.3824          0.388        33.7562         0.4818       -121.642      -67.35371      0.1376694     0.03780409
      6279.0000        10.2178        27.7666        -0.0199       101.1692        35.5234       37.50741         0.3721         0.3668        33.7678         0.4023      -124.5366      -70.06211     0.09590238              0
      6279.5000        10.2337        27.7483        -0.0202        101.201        36.9711       38.91987         0.3683         0.3616        33.4744         0.3673      -124.9474      -70.45231      0.1259547              0
      6280.0000        10.2399        27.7141        -0.0194       101.6066        39.2744       41.16767         0.3722         0.3731        33.8906         0.3766      -122.0149      -67.72208      0.1737802     0.03254166
      6280.5000        10.2481        27.1097        -0.0172       102.2028        42.5311        44.3463         0.3773         0.4058        36.1669          0.414      -111.6646      -58.06857      0.2414106       0.170449
      6281.0000        10.2619        25.0527        -0.0142       102.7518        51.2275        52.8358         0.3853         0.4544        37.9319         0.4489       -99.6571      -46.86834      0.4220383      0.3304523
      6281.5000        10.2651         22.126         -0.013       103.4746        56.9832       58.45424         0.3973         0.4897        39.2426         0.5549       -91.3369       -39.1096      0.5415795      0.4412915
      6282.0000         10.236        21.4066        -0.0148       103.4069        60.1747       61.56921          0.415         0.5089        41.2142          0.649       -89.3134      -37.22777      0.6078554      0.4681747
      6282.5000        10.1632        23.4479        -0.0187        99.5933        59.2112       60.62757         0.4239         0.5011        41.2688          0.668       -91.6797      -39.44309      0.5878206      0.4365273
      6283.0000        10.1113        26.4809        -0.0212        93.5806        52.8333       54.39977         0.4263         0.4675        36.3345          0.655       -98.1204      -45.46119      0.4553142      0.3505545
      6283.5000        10.1511        27.9239        -0.0221        89.6357        44.4029       46.16807          0.426         0.4331        29.9316         0.5836      -106.0073      -52.82906      0.2801717      0.2452991
      6284.0000        10.2281        27.1561        -0.0195        89.9286        42.5613       44.36913         0.4217         0.4189        30.8942          0.476       -109.256      -55.86795      0.2418963      0.2018864
      6284.5000        10.2995        24.9539        -0.0126        91.6198         46.109       47.83186         0.4144          0.419        34.4632         0.4333      -105.7588      -52.61068      0.3155716      0.2484189
      6285.0000        10.2832        22.1484        -0.0085        95.9927        51.8497       53.43565         0.4088         0.4278        37.9244         0.5089      -100.3425      -47.56224      0.4348011      0.3205395
      6285.5000        10.2028        21.8692        -0.0083       100.5862        56.5453        58.0191         0.4057         0.4442        40.4818         0.6999       -96.2183      -43.71976      0.5323213       0.375432
