#------------------------------------------------------------------------------
# Created by    : vladimir.rabinovich
# Created on    : 09/19/2023 17:22:21
#------------------------------------------------------------------------------
~Version Information Section
VERS.           2.0     :   CWLS log ASCII Standard - VERSION 2.0
WRAP.           NO      :   One line per depth step
~Well Information Section
#MNEM       .UNIT                                         VALUE :DESCRIPTION
#------------------------------------------------------------------------------
STRT        .FT                                            2180 :START DEPTH
STOP        .FT                                            6738 :STOP DEPTH
STEP        .FT                                             0.5 :STEP      
NULL        .                                           -999.25 :NULL      
COMP        .                          SEAGULL ENERGY E & P INC :COMPANY   
WELL        .                               OCS G08131 ST00BP00 :WELL      
FLD         .                              GALVESTON BLOCK 0384 :FIELD     
LOC         .                                                   :LOCATION  
CNTY        .                             GALVESTON LARGE BLOCK :LOCATION  
STAT        .                                             TEXAS :STATE     
CTRY        .                                     UNITED STATES :COUNTRY   
SRVC        .                                                   :SERVICE COMPANY
DATE        .                             9/13/2023 11:19:36 AM :LOG DATE  
API         .                                    42706401890000 :API NUMBER
UWI         .                                    42706401890000 :UNIQUE WELL ID
XCOORD      .                                  986765.057424596 :SURFACE X 
YCOORD      .                                  10402321.6077632 :SURFACE Y 
LAT         .                                          28.64909 :LATITUDE  
LON         .                                        -95.038398 :LONGITUDE 
ELEV        .FT                                             100 :ELEVATION VALUE
ELEV_TYPE   .                                                KB :ELEVATION REFERENCE TYPE
~Curve Information Section
#MNEM       .UNIT                                      API CODE :CURVE DESCRIPTION
#------------------------------------------------------------------------------
DEPT        .FT                                                 :DEPTH     
CALN        .IN                                                 :          
DRHO        .G/CM3                                              :          
GR          .GAPI                                               :          
GR_NORM     .GAPI                                               :GammaRay Normalized
ILD         .OHMM                                               :          
ILM         .OHMM                                               :          
NPSS        .V/V                                                :Neutron Porosity Sandstone
RHOB        .G/CM3                                              :          
SFL         .OHMM                                               :          
SP          .MV                                                 :          
SP_NORM     .MV                                                 :SP Normalized
TENN        .LB                                                 :          
VSH_GR      .V/V                                                :Volume of Shale from GR
VSH_SP      .V/V                                                :Volume of Shale from SP
~A        DEPTH           CALN           DRHO             GR        GR_NORM            ILD            ILM           NPSS           RHOB            SFL             SP        SP_NORM           TENN         VSH_GR         VSH_SP
# ...
      4034.0000        12.2353          0.011           98.2       82.46924          1.088         1.0982         0.4523         2.1837         1.0982        -3.9216      -1.979852       2163.265              1      0.9717164
      4034.5000        12.2353          0.012           98.2       82.46842          1.088         1.1085         0.4506         2.1786         1.1085        -3.9216      -1.979852       2163.265              1      0.9717164
      4035.0000        12.2549          0.008           98.4       82.64761          1.088         1.0982         0.4512         2.1745         1.1295        -3.9216      -1.979852       2163.265              1      0.9717164
      4035.5000        12.2549          0.006           99.2       83.36679          1.088         1.1085         0.4512         2.1724         1.1085        -3.9216      -1.979852       2163.265              1      0.9717164
      4036.0000        12.1569          0.003           99.6       83.72598          1.088         1.0678         0.4512         2.1714         1.1085        -3.7255      -1.783752       2163.265              1      0.9745178
      4036.5000        12.0196          0.002             99       83.18517         1.0778         1.0578         0.4512         2.1684          1.088        -3.5294      -1.587652       2163.265              1      0.9773192
      4037.0000           11.9          0.004           96.4       80.84435         1.0778         1.0578         0.4494         2.1673          1.088        -3.5294      -1.587652       2163.265              1      0.9773192
      4037.5000           11.9          0.006           93.8       78.50353         1.0778         1.0578         0.4469         2.1663          1.088        -3.5294      -1.587652       2163.265      0.9681603      0.9773192
      4038.0000          11.94          0.005             93       77.78271         1.0678         1.0479         0.4494         2.1633          1.088        -3.3333      -1.391552       2163.265      0.9528237      0.9801207
      4038.5000          11.98          0.002           94.4       79.04189         1.0578         1.0382         0.4581         2.1531         1.0578        -3.1373      -1.195552       2163.265      0.9796147      0.9829207
      4039.0000          11.94        -0.0069           98.8       83.00108         1.0382         1.0285         0.4777         2.1433         1.0094        -2.7451     -0.8033524       2163.265              1      0.9885235
      4039.5000          11.92        -0.0078       101.9608       85.84498         1.0189         1.0189         0.4896         2.1375          0.957        -2.7451     -0.8033524       2163.265              1      0.9885235
      4040.0000          11.84        -0.0069       102.9412       86.72652              1         1.0094         0.4986         2.1385         0.9159        -2.7451     -0.8033524       2163.265              1      0.9885235
      4040.5000          11.86        -0.0019       100.1904       84.24998              1              1         0.4986         2.1443         0.9079        -2.7467     -0.8049524       2163.165              1      0.9885007
      4041.0000          11.92         0.0001        97.3843       81.72368              1         0.9913         0.4926         2.1511          0.924        -3.1421      -1.200352       2163.002              1      0.9828521
      4041.5000          11.98         0.0001        96.5745       80.99405              1         0.9826         0.4836         2.1603         0.9655        -3.1452      -1.203452        2122.13              1      0.9828078
      4042.0000        12.0394         0.0012        97.1647       81.52441              1         0.9826         0.4661         2.1665         1.0381         -3.345      -1.403252       2122.008              1      0.9799535
      4042.5000        12.0394         0.0002        97.9549       82.23478              1         0.9826         0.4486         2.1686         1.0877        -3.5452      -1.603452       2162.515              1      0.9770935
      4043.0000          11.96         0.0003        99.3431       83.48334              1         0.9826         0.4425         2.1666         1.0775        -3.5486      -1.606852       2162.354              1      0.9770449
      4043.5000          11.86        -0.0007       100.7236       84.72498              1         0.9826         0.4574         2.1636         1.0575        -3.3548      -1.413052        2162.16              1      0.9798135
      4044.0000          11.78        -0.0006       100.7147       84.71614              1         0.9826         0.5088         2.1596         1.0284        -3.1605      -1.218752           2162              1      0.9825892
      4044.5000          11.76        -0.0016        99.7137       83.81442              1         0.9826         0.5231         2.1535         1.0094        -3.1642      -1.222452       2161.839              1      0.9825364
      4045.0000          11.74        -0.0025        98.1039       82.36478              1         0.9826         0.5219         2.1505          0.974        -3.1673      -1.225552        2121.26              1      0.9824921
      4045.5000          11.74        -0.0044        98.0941       82.35516              1         0.9826         0.5124         2.1476         0.9487        -3.1704      -1.228652       2121.139              1      0.9824478
      4046.0000          11.74        -0.0054        97.8843       82.16551              1         0.9826         0.5142         2.1428         0.9404        -3.1735      -1.231752        2121.02              1      0.9824035
      4046.5000          11.72        -0.0033        97.6745       81.97588              1         0.9826         0.5272         2.1457         0.9487        -3.1766      -1.234852         2161.2              1      0.9823592
      4047.0000          11.74         0.0017        99.0647       83.22624              1         0.9826         0.5325         2.1517          0.974        -3.5772      -1.635452       2120.781              1      0.9766364
      4047.5000          11.74         0.0067       101.4468       85.36932              1         0.9826         0.5266         2.1589         0.9913        -3.3818      -1.440052       2120.662              1      0.9794278
      4048.0000          11.76         0.0088       103.2302       86.97356              1         0.9913         0.5147          2.161         1.0093         -3.186      -1.244252       2160.693              1      0.9822249
      4048.5000          11.78         0.0058        102.825       86.60806              1         0.9913         0.5135          2.157         1.0187        -3.1891      -1.247352       2160.535              1      0.9821807
      4049.0000          11.88         0.0029         101.42       85.34275              1         0.9913         0.5135         2.1499         1.0282        -3.1922      -1.250452       2160.377              1      0.9821364
      4049.5000          11.92         0.0019        99.6137       83.71626         1.0093         0.9826         0.5118          2.148         1.0281         -2.796     -0.8542523        2160.22              1      0.9877964
      4050.0000           11.9          0.002        98.4039       82.62663         1.0093         0.9913           0.51          2.148         1.0093        -2.7987     -0.8569524       2160.063              1      0.9877578
      4050.5000        11.9206          0.003           98.4        82.6223         1.0093         0.9912         0.5123          2.149              1        -2.8038     -0.8620524       2158.948              1       0.987685
      4051.0000        11.8615          0.003           99.2       83.34148         1.0093         0.9912         0.5158          2.149         0.9825        -3.0117      -1.069952       2157.192              1       0.984715
      4051.5000        11.8226          0.005           99.8       83.88067         1.0093         0.9912         0.5199          2.149         0.9824        -3.2179      -1.276152        2155.08              1      0.9817693
