#------------------------------------------------------------------------------
# Created by    : vladimir.rabinovich
# Created on    : 09/19/2023 17:22:54
#------------------------------------------------------------------------------
~Version Information Section
VERS.           2.0     :   CWLS log ASCII Standard - VERSION 2.0
WRAP.           NO      :   One line per depth step
~Well Information Section
#MNEM       .UNIT                                         VALUE :DESCRIPTION
#------------------------------------------------------------------------------
STRT        .FT                                             494 :START DEPTH
STOP        .FT                                            6854 :STOP DEPTH
STEP        .FT                                             0.5 :STEP      
NULL        .                                           -999.25 :NULL      
COMP        .                          HUMBLE OIL & REFINING CO :COMPANY   
WELL        .                                     ST TR 00247-L :WELL      
FLD         .                                           WILDCAT :FIELD     
LOC         .                                                   :LOCATION  
CNTY        .                             GALVESTON LARGE BLOCK :LOCATION  
STAT        .                                             TEXAS :STATE     
CTRY        .                                     UNITED STATES :COUNTRY   
SRVC        .                                                   :SERVICE COMPANY
DATE        .                             9/13/2023 11:19:42 AM :LOG DATE  
API         .                                    42706000180000 :API NUMBER
UWI         .                                    42706000180000 :UNIQUE WELL ID
XCOORD      .                                  979775.061814126 :SURFACE X 
YCOORD      .                                  10543201.0009156 :SURFACE Y 
LAT         .                                        29.0361078 :LATITUDE  
LON         .                                       -95.0678326 :LONGITUDE 
ELEV        .FT                                              11 :ELEVATION VALUE
ELEV_TYPE   .                                                KB :ELEVATION REFERENCE TYPE
~Curve Information Section
#MNEM       .UNIT                                      API CODE :CURVE DESCRIPTION
#------------------------------------------------------------------------------
DEPT        .FT                                                 :DEPTH     
LAT         .OHMM                                               :          
LN          .OHMM                                               :          
SN          .OHMM                                               :          
SP          .MV                                                 :          
SP_NORM     .MV                                                 :SP Normalized
VSH_SP      .V/V                                                :Volume of Shale from SP
~A        DEPTH            LAT             LN             SN             SP        SP_NORM         VSH_SP
# ...
      5966.0000         0.4678         0.6467         0.6089       -43.2424      -4.024612      0.9527404
      5966.5000         0.4542         0.6499         0.6085        -51.501      -12.26049      0.8240548
      5967.0000         0.4407          0.653         0.6082       -59.7506      -20.48737      0.6955099
      5967.5000          0.431         0.6561         0.6078       -68.0092      -28.72325      0.5668242
      5968.0000         0.4286         0.6592         0.6074       -61.6833      -22.37463      0.6660215
      5968.5000         0.4262         0.6623          0.607       -52.4282      -13.09681      0.8109874
      5969.0000         0.4239         0.6656         0.6067       -50.9395      -11.58538      0.8346034
      5969.5000         0.4215         0.6692         0.6066       -48.1949      -8.818066      0.8778427
      5970.0000         0.4191         0.6727         0.6085       -48.2262      -8.826645      0.8777087
      5970.5000         0.4291         0.6763         0.6104       -51.4965      -12.07422      0.8269653
      5971.0000         0.4458         0.6799         0.6123       -54.0667       -14.6217      0.7871609
      5971.5000         0.4625         0.6834         0.6142       -54.1405      -14.67278      0.7863628
      5972.0000         0.4792          0.687         0.6161       -52.0916      -12.60116      0.8187319
      5972.5000         0.4959         0.6905         0.6181       -49.2418      -9.728638       0.863615
      5973.0000         0.5126         0.6941         0.6297       -46.7386      -7.202721      0.9030825
      5973.5000         0.5293         0.6981         0.6412       -44.6606      -5.101994      0.9359064
      5974.0000          0.546         0.7091         0.6528       -43.6126      -4.031273      0.9526364
      5974.5000         0.5667         0.7201         0.6644       -42.7777      -3.173653      0.9660367
      5975.0000          0.588         0.7311         0.6713       -42.1653      -2.538532      0.9759604
      5975.5000         0.6093         0.7421         0.6667       -41.5413      -1.891815      0.9860654
      5976.0000         0.6305          0.753          0.662       -40.3859     -0.7136879              1
      5976.5000         0.6518          0.764         0.6573       -39.0997      0.5952301              1
      5977.0000         0.6731         0.7678         0.6527       -37.8062       1.911453              1
      5977.5000         0.6943         0.7692          0.648        -37.601        2.13937              1
      5978.0000         0.7151         0.7706         0.6434        -37.449       2.314091              1
      5978.5000         0.7358          0.772         0.6572       -37.4047       2.381111              1
      5979.0000         0.7566         0.7735         0.6863       -37.3604       2.448135              1
      5979.5000         0.7716         0.7749         0.7155        -37.316       2.515255              1
      5980.0000         0.7862         0.7763         0.7447       -37.0753       2.778679              1
      5980.5000         0.7959         0.7777          0.774       -36.7725       3.104198              1
      5981.0000         0.7861         0.7792         0.8034       -36.4697       3.429718              1
      5981.5000         0.7763         0.7806         0.8328       -36.2141       3.708042              1
      5982.0000         0.7665          0.782         0.8621       -36.0289       3.915962              1
      5982.5000         0.7567         0.7834         0.8844       -35.8472       4.120384              1
      5983.0000         0.7715         0.7849            0.9       -35.7828       4.207504              1
      5983.5000         0.7976         0.7863         0.9157       -35.7184       4.294624              1
      5984.0000         0.8407         0.7933         0.9314        -35.925       4.110748              1
      5984.5000         0.8838         0.8026         0.9285       -36.4512       3.607269              1
      5985.0000         0.8635         0.8119         0.9124       -37.1894       2.891788              1
      5985.5000         0.8322         0.8153         0.8937       -38.0405       2.063408              1
      5986.0000         0.8039         0.8143         0.8732       -39.2664      0.8602295              1
      5986.5000         0.7756         0.8133         0.8527       -39.2574      0.8919487              1
      5987.0000         0.7473         0.8123         0.8322       -38.4343       1.737774              1
      5987.5000          0.719         0.8112         0.8117       -37.6111       2.583694              1
      5988.0000         0.7057         0.8102         0.7915       -36.6839       3.533615              1
      5988.5000         0.7116         0.8055         0.7854       -35.4916       4.748634              1
      5989.0000         0.7174         0.7958         0.7793       -35.8652       4.397755              1
      5989.5000         0.7208         0.7862         0.7732        -37.639       2.646679              1
      5990.0000         0.7186         0.7765         0.7671       -39.5918      0.7165985              1
      5990.5000         0.7163         0.7669          0.761       -40.7773     -0.4461823              1
      5991.0000         0.7141         0.7572         0.7549        -41.308     -0.9541588              1
      5991.5000         0.7119         0.7476         0.7409       -41.8387      -1.462139      0.9927791
      5992.0000         0.7109         0.7378         0.7229       -42.4036      -2.004318      0.9843075
      5992.5000         0.7104         0.7263          0.705       -42.9745      -2.552494      0.9757423
      5993.0000         0.7098         0.7148         0.6871       -43.6115      -3.166775      0.9661441
      5993.5000         0.7093         0.7034         0.6692       -44.4772      -4.009754      0.9529726
      5994.0000         0.7087         0.6919           0.65       -45.3417      -4.851536      0.9398198
      5994.5000         0.7229         0.6804         0.6192       -46.9489      -6.436012      0.9150623
      5995.0000         0.7439          0.669         0.5885       -50.5134      -9.977791       0.859722
      5995.5000         0.7649         0.6575         0.5577       -49.0807      -8.522369       0.882463
      5996.0000         0.7859         0.6521         0.5269       -47.3471      -6.766048      0.9099055
      5996.5000         0.8051         0.6585         0.4987       -45.4502      -4.846428      0.9398996
      5997.0000         0.8179         0.6649         0.4958       -43.5891      -2.962608      0.9693342
      5997.5000         0.8307         0.6713          0.493       -42.5518      -1.902584      0.9858971
      5998.0000         0.8414         0.6777         0.4901       -42.1475      -1.475563      0.9925693
      5998.5000         0.8307         0.6841         0.5091       -41.7437      -1.049042      0.9992337
      5999.0000           0.82         0.6907         0.5477         -41.34     -0.6226234              1
      5999.5000         0.8093         0.7037         0.5862       -40.9368      -0.196701              1
      6000.0000         0.7986         0.7168         0.6248       -40.5386      0.2242165              1
      6000.5000         0.7865         0.7298         0.6633       -41.1671     -0.3815575              1
      6001.0000         0.7649         0.7387         0.6905       -41.9286      -1.120338      0.9981197
      6001.5000         0.7433         0.7456         0.7118       -42.6901      -1.859119      0.9865763
      6002.0000         0.7218         0.7524         0.7331       -43.4517      -2.597996      0.9750313
      6002.5000         0.7002         0.7519         0.7514       -44.1448      -3.268375      0.9645566
      6003.0000         0.6786         0.7438         0.7413       -44.7916      -3.892452      0.9548054
      6003.5000         0.6735         0.7357         0.7311       -44.8738      -3.951931      0.9538761
