#------------------------------------------------------------------------------
# Created by    : vladimir.rabinovich
# Created on    : 09/19/2023 17:20:45
#------------------------------------------------------------------------------
~Version Information Section
VERS.           2.0     :   CWLS log ASCII Standard - VERSION 2.0
WRAP.           NO      :   One line per depth step
~Well Information Section
#MNEM       .UNIT                                         VALUE :DESCRIPTION
#------------------------------------------------------------------------------
STRT        .FT                                            2110 :START DEPTH
STOP        .FT                                            6746 :STOP DEPTH
STEP        .FT                                             0.5 :STEP      
NULL        .                                           -999.25 :NULL      
COMP        .                       HOUSTON OIL & MINERALS CORP :COMPANY   
WELL        .                                ST TR 00694-L NE/4 :WELL      
FLD         .                                           WILDCAT :FIELD     
LOC         .                                                   :LOCATION  
CNTY        .                      MATAGORDA ISLAND LARGE BLOCK :LOCATION  
STAT        .                                             TEXAS :STATE     
CTRY        .                                     UNITED STATES :COUNTRY   
SRVC        .                                                   :SERVICE COMPANY
DATE        .                             9/13/2023 11:12:01 AM :LOG DATE  
API         .                                    42703302070000 :API NUMBER
UWI         .                                    42703302070000 :UNIQUE WELL ID
XCOORD      .                                  400461.464340365 :SURFACE X 
YCOORD      .                                  10145980.2526086 :SURFACE Y 
LAT         .                                        27.9055609 :LATITUDE  
LON         .                                       -96.8388291 :LONGITUDE 
ELEV        .FT                                              25 :ELEVATION VALUE
ELEV_TYPE   .                                                KB :ELEVATION REFERENCE TYPE
~Curve Information Section
#MNEM       .UNIT                                      API CODE :CURVE DESCRIPTION
#------------------------------------------------------------------------------
DEPT        .FT                                                 :DEPTH     
ASN         .OHMM                                               :          
CILD        .MMHO                                               :          
ILD         .OHMM                                               :          
SP          .MV                                                 :          
SP_NORM     .MV                                                 :SP Normalized
VSH_SP      .V/V                                                :Volume of Shale from SP
~A        DEPTH            ASN           CILD            ILD             SP        SP_NORM         VSH_SP
# ...
      4884.0000         0.8032       2338.184         0.3339       -85.7402       -48.0043      0.1319944
      4884.5000          0.805       2325.559          0.334       -85.6709        -47.935      0.1333019
      4885.0000         0.8069        2312.93          0.334       -85.6091       -47.8732      0.1344679
      4885.5000         0.8087        2300.23          0.334       -85.5475       -47.8116      0.1356302
      4886.0000         0.8107       2287.316         0.3341       -85.4858         -47.75      0.1367925
      4886.5000         0.8126        2301.93         0.3341       -85.4241       -47.6883      0.1379566
      4887.0000         0.8146       2332.945         0.3336       -85.3461       -47.6102      0.1394302
      4887.5000         0.8165       2363.859         0.3322       -85.2347       -47.4989      0.1415302
      4888.0000         0.8184       2390.355         0.3308       -85.1234       -47.3875      0.1436321
      4888.5000         0.8204       2416.824         0.3294       -85.0121       -47.2762      0.1457321
      4889.0000         0.8223       2443.297          0.328       -84.9006       -47.1647      0.1478359
      4889.5000         0.8242       2469.793         0.3266       -84.8065       -47.0707      0.1496094
      4890.0000         0.8262        2490.09         0.3252       -84.7562       -47.0204      0.1505585
      4890.5000         0.8281       2510.352         0.3238       -85.1423       -47.4065      0.1432735
      4891.0000           0.83       2530.629         0.3224       -85.7461       -48.0103      0.1318811
      4891.5000         0.8319       2538.508          0.321       -86.5018       -48.7659      0.1176245
      4892.0000         0.8339       2542.949         0.3196       -86.7281       -48.9923      0.1133529
      4892.5000         0.8362       2547.395          0.318       -86.7272       -48.9914      0.1133698
      4893.0000         0.8384       2545.477         0.3161       -86.7263       -48.9905      0.1133868
      4893.5000         0.8407       2538.848         0.3142       -86.6576       -48.9217      0.1146849
      4894.0000          0.843       2532.219         0.3124        -86.558       -48.8221      0.1165641
      4894.5000         0.8452       2525.594         0.3105       -86.4585       -48.7227      0.1184397
      4895.0000         0.8474       2518.965         0.3086       -86.3589       -48.6231      0.1203189
      4895.5000         0.8494       2513.348         0.3067       -86.2148       -48.4789      0.1230396
      4896.0000         0.8514       2508.043         0.3048       -85.9347       -48.1988      0.1283245
      4896.5000         0.8376       2502.734         0.3029       -85.6547       -47.9188      0.1336075
      4897.0000         0.8228       2498.094         0.3011       -85.3745       -47.6386      0.1388943
      4897.5000         0.8087       2496.859         0.2992       -85.0944       -47.3585      0.1441792
      4898.0000         0.7961       2495.625         0.2973       -84.8142       -47.0784      0.1494642
      4898.5000         0.7835       2502.207         0.2954       -84.4849       -46.7491      0.1556774
      4899.0000          0.778       2514.984         0.2945       -84.1541       -46.4182      0.1619207
      4899.5000           0.78       2527.762         0.2936       -83.8231       -46.0872       0.168166
      4900.0000         0.7863       2549.598         0.2928       -83.4979       -45.7621         0.1743
      4900.5000         0.7925       2571.922          0.292       -83.2224       -45.4865         0.1795
      4901.0000         0.7988       2594.246         0.2912       -82.9467       -45.2108      0.1847019
      4901.5000          0.803       2605.605         0.2903       -82.6991       -44.9632      0.1893736
      4902.0000         0.8051       2607.422         0.2895       -82.8972       -45.1614       0.185634
      4902.5000         0.7966       2609.234         0.2887       -83.0953       -45.3594      0.1818981
      4903.0000         0.7881       2600.129         0.2879       -83.3391       -45.6033      0.1772963
      4903.5000         0.7796       2590.191          0.287       -83.6377       -45.9019      0.1716622
      4904.0000         0.7712       2580.254         0.2862       -83.9365       -46.2006      0.1660264
      4904.5000          0.765       2570.316         0.2854       -84.0752       -46.3394      0.1634075
      4905.0000         0.7637       2562.711         0.2846       -84.1326       -46.3967      0.1623264
      4905.5000         0.7624        2571.52         0.2837       -84.1899       -46.4541      0.1612434
      4906.0000          0.761       2580.336         0.2817       -84.2534       -46.5176      0.1600453
      4906.5000         0.7597       2589.145         0.2797       -84.3352       -46.5993      0.1585038
      4907.0000         0.7569       2597.957         0.2776        -84.417       -46.6811      0.1569604
      4907.5000         0.7527       2606.766         0.2756       -84.4987       -46.7629       0.155417
      4908.0000         0.7485       2615.582         0.2736       -84.5804       -46.8445      0.1538773
      4908.5000         0.7441       2624.297         0.2716       -84.6212       -46.8853      0.1531076
      4909.0000         0.7383       2632.207         0.2695       -84.6072       -46.8713      0.1533717
      4909.5000         0.7324       2629.781         0.2675        -84.593       -46.8572      0.1536377
      4910.0000         0.7265       2616.992         0.2655       -84.4155       -46.6796      0.1569887
      4910.5000         0.7212       2604.203         0.2639       -83.9994       -46.2635      0.1648396
      4911.0000         0.7173       2591.414         0.2632       -83.5833       -45.8474      0.1726906
      4911.5000         0.7133       2578.625         0.2624       -83.1658         -45.43       0.180566
      4912.0000         0.7093       2574.168         0.2616       -82.7416       -45.0057      0.1885717
      4912.5000         0.7074       2570.684         0.2609       -82.7858       -45.0499      0.1877377
      4913.0000         0.7075       2567.199         0.2613       -82.8699       -45.1341       0.186149
      4913.5000         0.7077       2569.023         0.2639       -82.9015       -45.1656      0.1855547
      4914.0000         0.7079       2573.234         0.2666       -82.5096       -44.7737       0.192949
      4914.5000          0.708       2577.449         0.2692       -82.1178       -44.3819      0.2003415
      4915.0000         0.7086       2587.902         0.2718       -81.6693       -43.9334      0.2088038
      4915.5000         0.7106        2601.25         0.2804       -80.2251       -42.4892      0.2360528
      4916.0000         0.7125       2614.594         0.2913       -78.4509        -40.715      0.2695283
      4916.5000         0.7144       2611.914         0.3067       -76.1886       -38.4527      0.3122132
      4917.0000         0.7163       2591.328         0.3266       -74.8116       -37.0757      0.3381944
      4917.5000         0.7183       2570.754         0.3464       -73.6046       -35.8687       0.360968
      4918.0000         0.7266       2545.078         0.3729       -72.6603       -34.9244      0.3787849
      4918.5000         0.7431       2454.793         0.4063       -71.6455       -33.9096      0.3979321
      4919.0000         0.7596        2284.25         0.4397       -70.0569        -32.321      0.4279057
      4919.5000         0.7762       2076.266         0.4823       -68.5006       -30.7648      0.4572679
      4920.0000         0.7927       1868.277         0.5512        -66.902       -29.1661      0.4874321
      4920.5000         0.8093       1660.289         0.6201       -64.9971       -27.2612      0.5233736
      4921.0000         0.8258       1452.303          0.687       -63.4595       -25.7236      0.5523849
      4921.5000          0.911       1244.314         0.7534       -55.7067       -17.9708      0.6986641
