#------------------------------------------------------------------------------
# Created by    : vladimir.rabinovich
# Created on    : 09/19/2023 17:20:33
#------------------------------------------------------------------------------
~Version Information Section
VERS.           2.0     :   CWLS log ASCII Standard - VERSION 2.0
WRAP.           NO      :   One line per depth step
~Well Information Section
#MNEM       .UNIT                                         VALUE :DESCRIPTION
#------------------------------------------------------------------------------
STRT        .FT                                             510 :START DEPTH
STOP        .FT                                            9509 :STOP DEPTH
STEP        .FT                                             0.5 :STEP      
NULL        .                                           -999.25 :NULL      
COMP        .                       BLUE DOLPHIN EXPLORATION CO :COMPANY   
WELL        .                                OCS 00714 ST00BP00 :WELL      
FLD         .                              GALVESTON BLOCK 0288 :FIELD     
LOC         .                                                   :LOCATION  
CNTY        .                             GALVESTON LARGE BLOCK :LOCATION  
STAT        .                                             TEXAS :STATE     
CTRY        .                                     UNITED STATES :COUNTRY   
SRVC        .                                                   :SERVICE COMPANY
DATE        .                             9/13/2023 11:19:25 AM :LOG DATE  
API         .                                    42706000660000 :API NUMBER
UWI         .                                    42706000660000 :UNIQUE WELL ID
XCOORD      .                                  1093932.46617998 :SURFACE X 
YCOORD      .                                  10479390.8980397 :SURFACE Y 
LAT         .                                         28.865655 :LATITUDE  
LON         .                                       -94.7077791 :LONGITUDE 
ELEV        .FT                                              83 :ELEVATION VALUE
ELEV_TYPE   .                                                KB :ELEVATION REFERENCE TYPE
~Curve Information Section
#MNEM       .UNIT                                      API CODE :CURVE DESCRIPTION
#------------------------------------------------------------------------------
DEPT        .FT                                                 :DEPTH     
ASN         .OHMM                                               :          
CALI        .IN                                                 :          
DT          .US/F                                               :          
IL          .OHMM                                               :          
SP          .MV                                                 :          
SP_NORM     .MV                                                 :SP Normalized
VSH_SP      .V/V                                                :Volume of Shale from SP
~A        DEPTH            ASN           CALI             DT             IL             SP        SP_NORM         VSH_SP
# ...
      6506.5000         0.7136        -999.25        -999.25         0.4897       -68.5901      -21.48833       0.303988
      6507.0000         0.6628        -999.25        -999.25         0.4606       -68.6025      -21.49502      0.3037494
      6507.5000         0.6227        -999.25        -999.25         0.4225       -68.1843       -21.0711      0.3188892
      6508.0000         0.5889        -999.25        -999.25         0.3942       -70.1459      -23.02698      0.2490364
      6508.5000          0.562        -999.25        -999.25           0.38       -72.0145      -24.88987      0.1825047
      6509.0000         0.5673        -999.25        -999.25         0.3725         -69.61      -22.47965      0.2685838
      6509.5000         0.5946        -999.25        -999.25         0.3823       -64.3102      -17.17414      0.4580665
      6510.0000         0.6282        -999.25        -999.25         0.4189       -56.3041      -9.162319      0.7442029
      6510.5000         0.6566        -999.25        -999.25         0.4692       -51.1213      -3.973801      0.9295071
      6511.0000         0.6906        -999.25        -999.25         0.5463       -48.8721      -1.718887              1
      6511.5000         0.7609        -999.25        -999.25         0.6528       -47.1385     0.02043152              1
      6512.0000         0.8058        -999.25        -999.25          0.762       -45.7347       1.429947              1
      6512.5000         0.8399        -999.25        -999.25         0.8575       -45.1243       2.046066              1
      6513.0000          0.853        -999.25        -999.25         0.9404       -45.5057        1.67038              1
      6513.5000         0.8581        -999.25        -999.25         0.9155       -46.6624      0.5193977              1
      6514.0000         0.8526        -999.25        -999.25         0.8323        -48.298      -1.110489              1
      6514.5000         0.8381        -999.25        -999.25          0.722       -50.7656      -3.572369       0.943844
      6515.0000         0.8111        -999.25        -999.25         0.6252       -55.1514      -7.952454      0.7874123
      6515.5000         0.7671        -999.25        -999.25         0.5619       -60.9645      -13.75984      0.5800058
      6516.0000         0.7353        -999.25        -999.25         0.5467       -62.6261      -15.41572      0.5208672
      6516.5000         0.7162        -999.25        -999.25         0.5386       -59.6902      -12.47411      0.6259248
      6517.0000         0.7069        -999.25        -999.25         0.5375       -52.8954      -5.673588      0.8688005
      6517.5000         0.7061        -999.25        -999.25         0.5368       -50.4031      -3.175571      0.9580153
      6518.0000         0.7358        -999.25        -999.25         0.5479       -48.3047      -1.071453              1
      6518.5000         0.7936        -999.25        -999.25         0.5976       -46.6173      0.6216621              1
      6519.0000          0.827        -999.25        -999.25         0.6581        -45.388       1.856678              1
      6519.5000         0.8403        -999.25        -999.25         0.7153       -44.7244       2.525993              1
      6520.0000         0.8485        -999.25        -999.25         0.7661       -44.6313       2.624809              1
      6520.5000         0.8565        -999.25        -999.25         0.8034       -44.8114       2.450424              1
      6521.0000         0.8658        -999.25        -999.25         0.8183       -45.1797       2.087845              1
      6521.5000         0.8786        -999.25        -999.25         0.8144        -45.715       1.558258              1
      6522.0000         0.9035        -999.25        -999.25         0.8034        -46.342      0.9369774              1
      6522.5000         0.9128        -999.25        -999.25         0.7911       -46.7195      0.5651894              1
      6523.0000         0.9029        -999.25        -999.25          0.785       -46.1721       1.118309              1
      6523.5000         0.8869        -999.25        -999.25         0.8045       -45.6042       1.691925              1
      6524.0000         0.8862        -999.25        -999.25         0.8225       -45.1611       2.140743              1
      6524.5000         0.8933        -999.25        -999.25          0.838       -45.1938       2.113758              1
      6525.0000         0.8974        -999.25        -999.25         0.8464       -45.3879       1.925373              1
      6525.5000         0.8915        -999.25        -999.25         0.8409       -45.2113       2.107693              1
      6526.0000          0.882        -999.25        -999.25         0.8347       -44.6411       2.683605              1
      6526.5000         0.9076        -999.25        -999.25         0.8277       -44.1081       3.222324              1
      6527.0000         0.9253        -999.25        -999.25         0.8194       -44.2184       3.117741              1
      6527.5000         0.9223        -999.25        -999.25         0.8206       -44.6379       2.703957              1
      6528.0000         0.9112        -999.25        -999.25         0.8227       -44.7039       2.643673              1
      6528.5000         0.8994        -999.25        -999.25         0.8225       -45.0064       2.346889              1
      6529.0000         0.8934        -999.25        -999.25         0.8194       -45.3965       1.962505              1
      6529.5000         0.8064        -999.25        -999.25         0.8094        -45.389       1.975723              1
      6530.0000         0.7764        -999.25        -999.25         0.8236       -47.4402    -0.06976318              1
      6530.5000         0.7796        -999.25        -999.25         0.8206       -47.7278     -0.3516426              1
      6531.0000         0.7832        -999.25        -999.25         0.8178       -48.1072     -0.7253304              1
      6531.5000         0.7824        -999.25        -999.25         0.8166       -48.4388      -1.051212              1
      6532.0000         0.7808        -999.25        -999.25         0.8144         -48.64      -1.246696              1
      6532.5000         0.7786        -999.25        -999.25         0.8083       -48.8609       -1.46188              1
      6533.0000         0.7781        -999.25        -999.25         0.8024       -49.0215      -1.616764              1
      6533.5000         0.7826        -999.25        -999.25         0.8001       -49.3768      -1.966347              1
      6534.0000         0.7894        -999.25        -999.25         0.7977       -49.2279      -1.811729              1
      6534.5000         0.7961        -999.25        -999.25         0.7973       -48.5708      -1.148914              1
      6535.0000         0.7981        -999.25        -999.25         0.7979       -48.0378     -0.6101952              1
      6535.5000         0.7976        -999.25        -999.25         0.8005        -47.769     -0.3356819              1
      6536.0000          0.796        -999.25        -999.25         0.8065       -47.4631    -0.02406311              1
      6536.5000         0.7971        -999.25        -999.25         0.8124        -47.353      0.0917511              1
      6537.0000         0.7985        -999.25        -999.25         0.8165       -47.8008     -0.3503304              1
      6537.5000         0.8005        -999.25        -999.25         0.8196       -47.8575     -0.4013138              1
      6538.0000         0.8023        -999.25        -999.25         0.8227       -47.9171     -0.4551964              1
      6538.5000         0.8156        -999.25        -999.25         0.8229       -48.7455      -1.277882              1
      6539.0000         0.8316        -999.25        -999.25         0.8222       -49.3175      -1.844166              1
      6539.5000         0.8576        -999.25        -999.25         0.8215       -49.4861       -2.00705      0.9997482
