#------------------------------------------------------------------------------
# Created by    : vladimir.rabinovich
# Created on    : 09/19/2023 17:22:39
#------------------------------------------------------------------------------
~Version Information Section
VERS.           2.0     :   CWLS log ASCII Standard - VERSION 2.0
WRAP.           NO      :   One line per depth step
~Well Information Section
#MNEM       .UNIT                                         VALUE :DESCRIPTION
#------------------------------------------------------------------------------
STRT        .FT                                            2600 :START DEPTH
STOP        .FT                                            8208 :STOP DEPTH
STEP        .FT                                             0.5 :STEP      
NULL        .                                           -999.25 :NULL      
COMP        .                          SEAGULL ENERGY E & P INC :COMPANY   
WELL        .                               OCS G09039 ST00BP00 :WELL      
FLD         .                              GALVESTON BLOCK 0273 :FIELD     
LOC         .                                                   :LOCATION  
CNTY        .                             GALVESTON LARGE BLOCK :LOCATION  
STAT        .                                             TEXAS :STATE     
CTRY        .                                     UNITED STATES :COUNTRY   
SRVC        .                                                   :SERVICE COMPANY
DATE        .                             9/13/2023 11:19:54 AM :LOG DATE  
API         .                                    42706403220000 :API NUMBER
UWI         .                                    42706403220000 :UNIQUE WELL ID
XCOORD      .                                  1018306.80056624 :SURFACE X 
YCOORD      .                                  10490966.5196098 :SURFACE Y 
LAT         .                                         28.894284 :LATITUDE  
LON         .                                        -94.944599 :LONGITUDE 
ELEV        .FT                                             103 :ELEVATION VALUE
ELEV_TYPE   .                                                KB :ELEVATION REFERENCE TYPE
~Curve Information Section
#MNEM       .UNIT                                      API CODE :CURVE DESCRIPTION
#------------------------------------------------------------------------------
DEPT        .FT                                                 :DEPTH     
DCAL        .IN                                                 :          
DPHI        .%                                                  :          
DTL         .US/F                                               :          
GR          .GAPI                                               :          
GR_1        .GAPI                                               :          
GR_NORM     .GAPI                                               :GammaRay Normalized
ILD         .OHMM                                               :          
ILM         .OHMM                                               :          
NPHI        .%                                                  :          
SFL         .OHMM                                               :          
SP          .MV                                                 :          
SP_NORM     .MV                                                 :SP Normalized
VSH_GR      .V/V                                                :Volume of Shale from GR
VSH_SP      .V/V                                                :Volume of Shale from SP
~A        DEPTH           DCAL           DPHI            DTL             GR           GR_1        GR_NORM            ILD            ILM           NPHI            SFL             SP        SP_NORM         VSH_GR         VSH_SP
# ...
      7118.0000         2.8709        32.6136       116.5128        50.6276        60.5948       62.46205         0.8013         0.7766        50.1198         0.8482       -44.7452      -7.311397      0.6268522      0.8781434
      7118.5000         2.8595        32.7699       118.5306        50.2378        61.4757       61.99344         0.7868         0.7644        50.0616         0.8465       -44.5161      -7.059034      0.6168817      0.8823494
      7119.0000          2.698        32.6417       119.2119         48.005        62.2797       59.56237         0.7759         0.7599        48.3212         0.8616       -44.3132      -6.834886      0.5651569      0.8860852
      7119.5000         2.7081        31.7431       119.0735        44.2129        60.3193       55.47095         0.7751         0.7555         47.371         0.8449        -44.901      -7.462255      0.4781052      0.8756291
      7120.0000         2.7491        30.7244       119.0219        42.8424        56.8917       53.95807         0.7811         0.7612        47.1494         0.8269       -44.9673      -7.528015      0.4459164      0.8745331
      7120.5000         2.7726        30.3246       119.6077        44.3955        56.1129       55.55829         0.7927         0.7678        46.4365         0.8089       -44.5488      -7.071683      0.4799637      0.8821386
      7121.0000         2.6807        30.3225       120.5359        48.1308        57.3579       59.48215         0.7987         0.7744        45.7296         0.7825       -43.6249      -6.071073        0.56345      0.8988155
      7121.5000         2.5745        30.0871       120.4659        49.5433        61.7808       60.93266         0.8045         0.7813        46.7375         0.7721       -43.4274      -5.852737      0.5943119      0.9024544
      7122.0000         2.4683         29.719       120.0396        50.1428        62.1376       61.51747         0.8038         0.7883        48.8966         0.7748        -43.427      -5.846665      0.6067546      0.9025556
      7122.5000         2.3244        29.5511       119.5259        50.3667         60.056       61.70234         0.8024         0.7923        48.9017         0.8388       -43.8025      -6.245414       0.610688      0.8959098
      7123.0000          2.364        29.7523       118.4413        49.7042        56.4167       60.94336         0.8047         0.7928        48.0832         0.9273       -44.3804      -6.862127      0.5945395      0.8856312
      7123.5000         2.6699        30.1476       116.6559        49.4697        51.3959       60.64011         0.8078         0.7933        47.6539         0.9856       -44.8702      -7.383959      0.5880874       0.876934
      7124.0000         2.8405        30.1042       116.6021        49.4285          50.28       60.54269          0.812         0.7946          47.73         0.9639       -45.2816      -7.821364      0.5860147      0.8696439
      7124.5000         2.6361        29.7574       119.4677        48.8364        51.6653       59.85867         0.8134         0.7972        47.9779         0.9337       -45.4681       -8.01657       0.571461      0.8663905
      7125.0000         2.3563        29.9073       122.0878        46.9761        56.0821       57.82426         0.8118         0.7999        48.6444         0.9304       -45.3528      -7.886757      0.5281757      0.8685541
      7125.5000         2.4777        30.9957       121.4241        45.4662         57.484       56.16295         0.8106         0.8052        50.5157         0.9599       -45.0151       -7.51744      0.4928287      0.8747093
      7126.0000         2.6536        32.1315       119.3462        45.0419        57.9719        55.6576         0.8106         0.8129        52.2403         0.9456       -44.2953      -6.736631      0.4820766      0.8877228
      7126.5000         2.8064        33.2971       116.7062        45.3342        58.6694        55.9153         0.8125         0.8204        52.2551         0.9022       -44.0181      -6.432469      0.4875596      0.8927922
      7127.0000         3.0562          34.51       114.2831        48.1209        59.8419       58.82907         0.8186         0.8214        49.5905         0.8466       -43.8141      -6.207134      0.5495548      0.8965478
      7127.5000         3.2641        35.0431        113.781        49.9152        60.2134       60.68613         0.8263         0.8255        48.0001         0.8224       -43.7953      -6.181244      0.5890665      0.8969793
      7128.0000         3.3558        34.9393       116.0294        49.2768        59.6758        59.9528         0.8358         0.8362        47.2736          0.851       -43.7736      -6.152237      0.5734639      0.8974627
      7128.5000         3.2982        34.2298       119.0387         47.007        59.3478       57.48235         0.8455          0.844        46.8065         0.8941       -43.7069      -6.074766       0.520901      0.8987539
      7129.0000         2.9037        33.5165       120.7479        45.6422         60.051       55.97554         0.8541         0.8487        46.5003         0.9318       -43.6417      -5.998909      0.4888414      0.9000182
      7129.5000         2.0812        32.9368       120.2782        45.8043        62.0761        56.0946         0.8626         0.8516        46.5314         0.9484       -43.5804      -5.927251      0.4913745      0.9012125
      7130.0000         1.9616        32.4578       118.0844        47.6694        63.1594       58.02704         0.8713         0.8446         47.556         0.9304       -43.5858      -5.927427      0.5324903      0.9012095
      7130.5000          2.792        32.8685       115.9343         50.075         63.085       60.53502          0.858         0.8376        50.9458         0.8904       -43.7274      -6.074281      0.5858515       0.898762
      7131.0000         3.2549        33.4958       115.7344        51.2681        60.6539        61.7519          0.844         0.8224        51.8073         0.8827       -43.8822      -6.235344      0.6117426      0.8960776
      7131.5000         3.2345        34.0941       116.7223        50.1761        56.3036       60.53558         0.8242         0.8048        51.2661         0.8858       -44.0591      -6.420211      0.5858635      0.8929965
      7132.0000         3.4583         33.743       117.1802        47.0403         52.027       57.14299         0.8013         0.7935        51.6798         0.9321         -44.36      -6.738616      0.5136806      0.8876897
      7132.5000         3.8644        32.8522       117.3389        43.0065        50.8447        52.7942         0.7953         0.7836        52.9209         0.9672       -44.5206      -6.905928      0.4211531      0.8849012
      7133.0000         3.9574        31.4747       116.6429        40.9464         52.155       50.54702         0.7913         0.7864        52.2521         0.9705       -44.4072      -6.778165      0.3733409      0.8870306
      7133.5000          3.663        30.6387       115.9092        40.9957        55.1667       50.54597          0.794         0.7961        50.6818         0.9513       -44.1343      -6.478632      0.3733186      0.8920228
      7134.0000         2.9739        30.7236       115.1357        43.0632        58.8331       52.69394         0.7993          0.805        49.7769         0.9087       -43.7874      -6.099406      0.4190199      0.8983432
      7134.5000         2.4221        31.3004       114.8707        45.7796        61.6431       55.53285          0.805         0.8127        50.2236         0.8505       -43.5835      -5.874182      0.4794224       0.902097
      7135.0000         2.4683         31.918       115.2684        47.3905        63.1168       57.19462         0.8108         0.8225        50.5148         0.8204       -43.2498      -5.509174      0.5147791      0.9081804
      7135.5000         2.9739         32.612       119.6783        47.4199        62.4993       57.17238         0.8211         0.8347        50.3549         0.8239       -42.8428       -5.06522       0.514306      0.9155797
