#------------------------------------------------------------------------------
# Created by    : vladimir.rabinovich
# Created on    : 09/19/2023 17:19:50
#------------------------------------------------------------------------------
~Version Information Section
VERS.           2.0     :   CWLS log ASCII Standard - VERSION 2.0
WRAP.           NO      :   One line per depth step
~Well Information Section
#MNEM       .UNIT                                         VALUE :DESCRIPTION
#------------------------------------------------------------------------------
STRT        .FT                                             816 :START DEPTH
STOP        .FT                                            7470 :STOP DEPTH
STEP        .FT                                             0.5 :STEP      
NULL        .                                           -999.25 :NULL      
COMP        .                                   KERR-MCGEE CORP :COMPANY   
WELL        .                               OCS G05003 ST00BP00 :WELL      
FLD         .                                 BRAZOS BLOCK 0412 :FIELD     
LOC         .                                                   :LOCATION  
CNTY        .                                BRAZOS LARGE BLOCK :LOCATION  
STAT        .                                             TEXAS :STATE     
CTRY        .                                     UNITED STATES :COUNTRY   
SRVC        .                                                   :SERVICE COMPANY
DATE        .                             9/13/2023 11:19:08 AM :LOG DATE  
API         .                                    42704401140000 :API NUMBER
UWI         .                                    42704401140000 :UNIQUE WELL ID
XCOORD      .                                  819493.037302503 :SURFACE X 
YCOORD      .                                  10380289.6446028 :SURFACE Y 
LAT         .                                         28.579682 :LATITUDE  
LON         .                                        -95.558179 :LONGITUDE 
ELEV        .FT                                              90 :ELEVATION VALUE
ELEV_TYPE   .                                                KB :ELEVATION REFERENCE TYPE
~Curve Information Section
#MNEM       .UNIT                                      API CODE :CURVE DESCRIPTION
#------------------------------------------------------------------------------
DEPT        .FT                                                 :DEPTH     
ASFL        .OHMM                                               :          
CALI        .IN                                                 :          
CILD        .MMHO                                               :          
GR          .GAPI                                               :          
GR_NORM     .GAPI                                               :GammaRay Normalized
ILD         .OHMM                                               :          
ILM         .OHMM                                               :          
RHOB        .G/C3                                               :          
SP          .MV                                                 :          
SP_NORM     .MV                                                 :SP Normalized
VSH_GR      .V/V                                                :Volume of Shale from GR
VSH_SP      .V/V                                                :Volume of Shale from SP
~A        DEPTH           ASFL           CALI           CILD             GR        GR_NORM            ILD            ILM           RHOB             SP        SP_NORM         VSH_GR         VSH_SP
# ...
      7007.0000         1.0479        11.8216       1059.691        -999.25        -999.25         0.9096         0.9264         1.8439       -35.9741       3.613106        -999.25              1
      7007.5000         1.0566        11.8584       1067.453        -999.25        -999.25         0.8967          0.922         1.8861       -35.7045       3.887772        -999.25              1
      7008.0000         1.0651        11.8464       1075.229        -999.25        -999.25         0.8838         0.9196         1.8184       -35.4346       4.162731        -999.25              1
      7008.5000         1.0737        11.8916       1083.373        -999.25        -999.25         0.8709         0.9173         1.8356       -35.2771       4.325298        -999.25              1
      7009.0000         1.0822        11.9908       1094.057        -999.25        -999.25          0.858         0.9157         1.9188        -35.133       4.474461        -999.25              1
      7009.5000         1.0829         12.107       1104.729        -999.25        -999.25         0.8476         0.9141         1.9748       -34.9888       4.623722        -999.25              1
      7010.0000         1.0686        12.2561       1115.412        -999.25        -999.25         0.8388         0.9103         1.9603       -34.8445       4.773087        -999.25              1
      7010.5000         1.0493        12.4148       1126.096        -999.25        -999.25           0.83         0.9056          1.977       -34.7147       4.907951        -999.25              1
      7011.0000         1.0186        12.6089       1136.768        -999.25        -999.25         0.8212         0.9013         2.0889       -34.6456       4.982117        -999.25              1
      7011.5000         1.0025        12.8245       1147.018        -999.25        -999.25         0.8124         0.8971         2.1402       -34.5765       5.056278        -999.25              1
      7012.0000         0.9893        12.9014       1157.094        -999.25        -999.25          0.807         0.8943         2.1101       -34.5663       5.071541        -999.25              1
      7012.5000          0.988        12.8565       1167.172        -999.25        -999.25         0.8056         0.8915         2.0625       -34.7343       4.908607        -999.25              1
      7013.0000         0.9896        12.8221        1171.01        -999.25        -999.25         0.8042         0.8884          2.112       -34.9019       4.746067        -999.25              1
      7013.5000         0.9912        12.8026       1161.143        -999.25        -999.25         0.8028         0.8901         2.1955       -35.0696       4.583435        -999.25              1
      7014.0000              1        12.8024       1151.264        -999.25        -999.25         0.8033         0.8997         2.2585       -35.2699       4.388195        -999.25              1
      7014.5000         1.0124        12.8013       1141.385        -999.25        -999.25         0.8177         0.9204         2.3208       -35.7418        3.92136        -999.25              1
      7015.0000         1.0249        12.7978       1131.518        -999.25        -999.25          0.832         0.9434         2.3806       -36.2131       3.455124        -999.25              1
      7015.5000          1.044        12.7942       1115.895        -999.25        -999.25         0.8464         0.9676          2.435       -36.6843       2.988987        -999.25              1
      7016.0000         1.0651        12.7896       1096.262        -999.25        -999.25         0.8647          0.994         2.4045       -37.1501       2.528252        -999.25              1
      7016.5000         1.0854        12.7791       1076.652        -999.25        -999.25         0.8832         1.0221         2.3483       -37.5853       2.098114        -999.25              1
      7017.0000         1.1055        12.6709       1057.018        -999.25        -999.25         0.9016         1.0136         2.2885       -38.0204       1.668076        -999.25              1
      7017.5000          1.118         12.547        1039.24        -999.25        -999.25         0.9198         0.9943         2.2133       -38.4366       1.256943        -999.25              1
      7018.0000         1.1053        12.4191       1022.306        -999.25        -999.25         0.9349         0.9828         2.1392       -38.8173      0.8813057        -999.25              1
      7018.5000         1.0926        12.2705       1005.394        -999.25        -999.25         0.9223         0.9741         2.1392        -39.198      0.5056686        -999.25              1
      7019.0000         1.0764        12.1326       1009.282        -999.25        -999.25         0.9097         0.9678         2.2064        -39.546      0.1627312        -999.25              1
      7019.5000         1.0603        11.9715       1021.514        -999.25        -999.25         0.8971         0.9585         2.2785       -39.7639    -0.05010605        -999.25              1
      7020.0000         1.0442        11.7705       1036.158        -999.25        -999.25         0.8845         0.9478         2.3116       -39.8863     -0.1674385        -999.25              1
      7020.5000         1.0309        11.5198       1050.803        -999.25        -999.25         0.8728         0.9345         2.2482       -39.8782     -0.1542778        -999.25              1
      7021.0000         1.0233        11.2916       1065.461        -999.25        -999.25          0.862         0.9201         2.1503       -39.8701     -0.1411095        -999.25              1
      7021.5000         1.0156        11.3094       1080.105        -999.25        -999.25         0.8512         0.9072         2.0927       -39.8621     -0.1280479        -999.25              1
      7022.0000          1.008        11.4934        1095.74        -999.25        -999.25         0.8403         0.8952         2.1081       -39.8539     -0.1147881        -999.25              1
      7022.5000         1.0015         11.686       1111.785        -999.25        -999.25         0.8295         0.8839         2.1236       -39.8459     -0.1017227        -999.25              1
      7023.0000         0.9976        11.8112       1127.828        -999.25        -999.25         0.8187          0.874         2.1399       -39.8378     -0.0885582        -999.25              1
      7023.5000         0.9937        11.8578       1142.449        -999.25        -999.25         0.8092          0.865         2.1581       -39.8173     -0.0629921        -999.25              1
      7024.0000         0.9898        11.9055       1153.578        -999.25        -999.25         0.8056         0.8597         2.1785       -39.7736    -0.01423264        -999.25              1
      7024.5000         0.9851        11.9552       1164.707        -999.25        -999.25          0.802         0.8545         2.1869         -39.73     0.03443146        -999.25              1
      7025.0000         0.9755        12.0638        1175.85        -999.25        -999.25         0.7985         0.8508         2.1722       -39.6863     0.08319855        -999.25              1
      7025.5000          0.966        12.2274       1186.768        -999.25        -999.25         0.7949         0.8472         2.1534       -39.6428      0.1317596        -999.25              1
      7026.0000         0.9778        12.4373         1195.1        -999.25        -999.25         0.7913          0.847         2.1408       -39.5991      0.1805267        -999.25              1
      7026.5000         0.9914        12.6287       1203.432        -999.25        -999.25         0.7877         0.8476         2.1307       -39.5555       0.229187        -999.25              1
      7027.0000         1.0049        12.7719       1208.648        -999.25        -999.25         0.7849         0.8477         2.1285       -39.5212      0.2685509        -999.25              1
