#------------------------------------------------------------------------------
# Created by    : vladimir.rabinovich
# Created on    : 09/19/2023 17:19:47
#------------------------------------------------------------------------------
~Version Information Section
VERS.           2.0     :   CWLS log ASCII Standard - VERSION 2.0
WRAP.           NO      :   One line per depth step
~Well Information Section
#MNEM       .UNIT                                         VALUE :DESCRIPTION
#------------------------------------------------------------------------------
STRT        .FT                                            2960 :START DEPTH
STOP        .FT                                           11758 :STOP DEPTH
STEP        .FT                                             0.5 :STEP      
NULL        .                                           -999.25 :NULL      
COMP        .                             CHAMPLIN PETROLEUM CO :COMPANY   
WELL        .                               OCS G06095 ST00BP00 :WELL      
FLD         .                                           WILDCAT :FIELD     
LOC         .                                                   :LOCATION  
CNTY        .                             GALVESTON LARGE BLOCK :LOCATION  
STAT        .                                             TEXAS :STATE     
CTRY        .                                     UNITED STATES :COUNTRY   
SRVC        .                                                   :SERVICE COMPANY
DATE        .                             9/13/2023 11:19:27 AM :LOG DATE  
API         .                                    42706401150000 :API NUMBER
UWI         .                                    42706401150000 :UNIQUE WELL ID
XCOORD      .                                  1057213.14222316 :SURFACE X 
YCOORD      .                                  10507856.7651171 :SURFACE Y 
LAT         .                                        28.9424301 :LATITUDE  
LON         .                                       -94.8238502 :LONGITUDE 
ELEV        .FT                                              89 :ELEVATION VALUE
ELEV_TYPE   .                                                KB :ELEVATION REFERENCE TYPE
~Curve Information Section
#MNEM       .UNIT                                      API CODE :CURVE DESCRIPTION
#------------------------------------------------------------------------------
DEPT        .FT                                                 :DEPTH     
ASFL        .OHMM                                               :          
CILD        .MMHO                                               :          
GR          .GAPI                                               :          
GR_NORM     .GAPI                                               :GammaRay Normalized
ILD         .OHMM                                               :          
SP          .MV                                                 :          
SP_NORM     .MV                                                 :SP Normalized
VSH_GR      .V/V                                                :Volume of Shale from GR
VSH_SP      .V/V                                                :Volume of Shale from SP
~A        DEPTH           ASFL           CILD             GR        GR_NORM            ILD             SP        SP_NORM         VSH_GR         VSH_SP
# ...
     10565.5000         1.9036       509.8594        37.2917       45.49164         1.7376        33.4742       -10.5287      0.2657796      0.8390812
     10566.0000         1.9007       482.2021        36.7102       44.53671         1.7543        34.6612      -11.72146       0.245462      0.8165762
     10566.5000         1.7988       454.9702         36.869       44.79624         1.7697        33.7919      -10.85792      0.2509839      0.8328694
     10567.0000         1.6818       487.8755         37.478       45.79433         1.5903        32.2802      -9.351982      0.2722198      0.8612834
     10567.5000         1.5215       618.2207         38.087       46.79243         1.4127        30.2597      -7.337242      0.2934559      0.8992973
     10568.0000         1.3655       815.6523         38.696       47.79051         1.2849        28.2107      -5.294003      0.3146918       0.937849
     10568.5000         1.2072       980.9365        39.5474       49.18625          1.157        27.3282      -4.417265      0.3443883      0.9543912
     10569.0000         1.0874       1146.598        40.6484       50.99147         1.0376        26.5831      -3.677927      0.3827972       0.968341
     10569.5000         1.0197       1228.861        41.7493       52.79652         0.9384        25.8923      -2.992889      0.4212025      0.9812663
     10570.0000         0.9884       1295.996        42.8503       54.60173         0.9148        25.5472      -2.653551      0.4596114      0.9876689
     10570.5000         0.9571       1347.813        43.9059       56.33246         0.8911        25.2027      -2.314814      0.4964353      0.9940601
     10571.0000         0.9319       1387.668        44.9185       57.99265         0.8674        25.0876      -2.205477      0.5317585      0.9961231
     10571.5000         0.9082       1421.188        45.9095       59.61742         0.8437        25.1262      -2.249838       0.566328      0.9952861
     10572.0000         0.8552       1426.447         44.842        57.8652           0.82        25.1649        -2.2943      0.5290469      0.9944472
     10572.5000          0.847       1418.186        43.0509       54.92592         0.8381        25.2037      -2.338861       0.466509      0.9936064
     10573.0000         0.8389       1409.936        41.7661       52.81723         0.8671        25.2423      -2.383224      0.4216432      0.9927694
     10573.5000         0.8246       1359.727        40.4812       50.70835         0.8963         25.918      -3.064686      0.3767735      0.9799116
     10574.0000         0.8552       1295.523        39.1964       48.59966         0.9254        27.5634      -4.715847      0.3319076      0.9487576
     10574.5000         0.9059       1231.225        37.9115        46.4908         0.9545        29.2113      -6.369509      0.2870382      0.9175565
     10575.0000         0.9582       1167.021        36.6243       44.37817          0.991        32.1703       -9.33427      0.2420886      0.8616176
     10575.5000         1.0352       1084.568        34.4581       40.82352         1.1188        35.4182      -12.58793      0.1664579      0.8002276
     10576.0000         1.1123       995.6865        31.7738       36.41894         1.2467        40.3236       -17.4991     0.07274336      0.7075642
     10576.5000         1.8442       912.8564        30.9571       35.07816         1.3354        49.9433      -27.12456     0.04421616      0.5259518
     10577.0000         1.9288       841.8447        32.1846        37.0909         1.3979         58.542      -35.72902     0.08704043      0.3636034
     10577.5000         2.3879       768.7529        33.4097        39.0997         1.4603        58.4617      -35.65448      0.1297808      0.3650098
     10578.0000         2.4915       693.1084        35.2128       42.05672           1.47        58.3814      -35.57994      0.1926962      0.3664161
     10578.5000         2.5954       652.0713        37.2189       45.34674         1.3972        56.5825       -33.7868      0.2626966       0.400249
     10579.0000         1.9205       682.8018         39.225       48.63679         1.3245        54.6528      -31.86287      0.3326976      0.4365496
     10579.5000         1.6677         741.71        40.6233       50.92972         1.2519        52.7279      -29.94373      0.3814834      0.4727598
     10580.0000          1.415       800.5234        40.2567       50.32733         1.0887        49.7427      -26.96429      0.3686666      0.5289757
     10580.5000         1.3862       859.4316        39.8901       49.72495         0.9096        46.2081      -23.43545        0.35585      0.5955575
     10581.0000         1.4327       918.3398         39.514       49.10698         0.8578        51.7105      -28.94361      0.3427016      0.4916299
     10581.5000         1.5077        977.248        38.1169       46.81404         0.8059        62.8586      -40.09748      0.2939158      0.2811797
     10582.0000         1.5819       1036.063        36.7198       44.52112         0.7541        67.6494      -44.89404      0.2451302      0.1906786
     10582.5000         1.6094       1094.781        35.3227        42.2282         0.7038        68.8984       -46.1488      0.1963446      0.1670038
     10583.0000         1.6515       1170.426        33.9256       39.93526         0.6898        70.2788      -47.53497      0.1475587      0.1408497
     10583.5000         1.7009        1246.07        32.9799       38.38286         0.6757        71.8455      -49.10742      0.1145289      0.1111807
     10584.0000         1.6899       1322.471        32.0711       36.89099         0.6617        74.7136      -51.98129     0.08278696     0.05695688
     10584.5000         1.6038        1399.25        31.2078       35.47377         0.6477        76.7771      -54.05055     0.05263341     0.01791418
     10585.0000         1.5361       1483.027        30.7373       34.70093         0.6337        77.1788      -54.45802     0.03619003     0.01022612
     10585.5000         1.5099       1569.828        30.2669       33.92825         0.6306        77.5144      -54.79937     0.01975007    0.003785475
     10586.0000         1.4838       1656.395        30.0266       33.53307         0.6412        77.1604      -54.45113     0.01134199     0.01035597
     10586.5000         1.4601        1677.34        29.8361       33.21957         0.6519         76.457      -53.75349    0.004671624     0.02351898
     10587.0000         1.4376       1686.889        29.6453       32.90559         0.6625        75.7538      -53.05606              0     0.03667817
     10587.5000         1.4209       1622.023        29.5582       32.76172         0.6731        75.0504      -52.35842              0     0.04984111
     10588.0000         1.4773       1557.064        29.9474       33.39922         0.6838         73.873      -51.18678    0.008493951     0.07194749
     10588.5000         1.5475       1492.199        30.3373       34.03787         0.6944        71.7284      -49.04794     0.02208239       0.112303
     10589.0000         1.6752       1427.238        30.7266       34.67554         0.8873         69.579      -46.90431     0.03564981      0.1527489
     10589.5000         1.8117       1336.654        31.1159       35.31321         1.0041        67.4344      -44.76547     0.04921722      0.1931043
     10590.0000         1.7999       1235.291        31.5052       35.95088         1.0889        64.1865      -41.52333     0.06278464      0.2542768
     10590.5000         1.7104       1137.898        32.7721       38.02826         1.1625        60.2794      -37.62199      0.1069842      0.3278869
     10591.0000         1.6351        1052.23        34.8546       41.44362         1.2327        51.9302      -29.27855      0.1796515      0.4853103
     10591.5000         1.5605       959.7559        36.9419       44.86686         1.2662        36.6123      -13.96642      0.2524864      0.7742186
