#------------------------------------------------------------------------------
# Created by    : vladimir.rabinovich
# Created on    : 09/19/2023 17:22:41
#------------------------------------------------------------------------------
~Version Information Section
VERS.           2.0     :   CWLS log ASCII Standard - VERSION 2.0
WRAP.           NO      :   One line per depth step
~Well Information Section
#MNEM       .UNIT                                         VALUE :DESCRIPTION
#------------------------------------------------------------------------------
STRT        .FT                                            2948 :START DEPTH
STOP        .FT                                            8770 :STOP DEPTH
STEP        .FT                                             0.5 :STEP      
NULL        .                                           -999.25 :NULL      
COMP        .                 BROOKLYN UNION EXPLORATION CO INC :COMPANY   
WELL        .                               OCS G07238 ST00BP00 :WELL      
FLD         .                                           WILDCAT :FIELD     
LOC         .                                                   :LOCATION  
CNTY        .                             GALVESTON LARGE BLOCK :LOCATION  
STAT        .                                             TEXAS :STATE     
CTRY        .                                     UNITED STATES :COUNTRY   
SRVC        .                                                   :SERVICE COMPANY
DATE        .                             9/13/2023 11:19:34 AM :LOG DATE  
API         .                                    42706402470000 :API NUMBER
UWI         .                                    42706402470000 :UNIQUE WELL ID
XCOORD      .                                  1057740.92261072 :SURFACE X 
YCOORD      .                                   10547901.298013 :SURFACE Y 
LAT         .                                         29.052568 :LATITUDE  
LON         .                                        -94.824133 :LONGITUDE 
ELEV        .FT                                              85 :ELEVATION VALUE
ELEV_TYPE   .                                                KB :ELEVATION REFERENCE TYPE
~Curve Information Section
#MNEM       .UNIT                                      API CODE :CURVE DESCRIPTION
#------------------------------------------------------------------------------
DEPT        .FT                                                 :DEPTH     
DCAL        .IN                                                 :          
DT          .US/F                                               :          
GR          .GAPI                                               :          
GR_NORM     .GAPI                                               :GammaRay Normalized
ILD         .OHMM                                               :          
ILM         .OHMM                                               :          
SFL         .OHMM                                               :          
SP          .MV                                                 :          
SP_NORM     .MV                                                 :SP Normalized
VSH_GR      .V/V                                                :Volume of Shale from GR
VSH_SP      .V/V                                                :Volume of Shale from SP
~A        DEPTH           DCAL             DT             GR        GR_NORM            ILD            ILM            SFL             SP        SP_NORM         VSH_GR         VSH_SP
# ...
      3398.0000         1.8211       133.8091         60.124       77.88715         0.8041          0.784         0.7132       -47.5103       2.695633      0.9550456              1
      3398.5000         1.8639       129.6941        61.5343        79.6993         0.8494         0.8202         0.7357       -47.5229       2.678757       0.993602              1
      3399.0000         2.0065       120.3068         60.277        78.0809            0.9         0.8628         0.7714       -47.5146       2.682785      0.9591681              1
      3399.5000         2.2253       113.1498        56.0997       72.70738         0.9543         0.9153         0.8132       -47.3607       2.832409      0.8448379              1
      3400.0000         2.5023       108.1188        52.9124       68.60699              1          0.975         0.8664       -47.0866       3.102234      0.7575955              1
      3400.5000         2.9324       102.9335        51.2371       66.45103         1.0397         1.0394         0.9397       -47.2019       2.982658      0.7117242              1
      3401.0000         3.2206       101.4617        51.5311       66.82763         1.0743         1.0874         1.0484       -47.6505       2.529781      0.7197368              1
      3401.5000         2.9089       100.5461        52.0768        67.5279         1.0969         1.1127         1.1265        -48.843       1.333012      0.7346362              1
      3402.0000         2.5794       101.8132        50.4188       65.39421         1.0605         1.0832         1.1698       -50.9822     -0.8104668      0.6892385      0.9864922
      3402.5000         2.2688       106.8392        48.6178       63.07661         0.9873         1.0317         1.1804       -53.3708      -3.203342       0.639928       0.946611
      3403.0000         2.2571       111.2206        47.6031        61.7702         0.9195         0.9826         1.1722       -55.8557      -5.692516      0.6121319      0.9051247
      3403.5000         2.2705       114.3124        47.3831       61.48579         0.8651         0.9359         1.1266       -58.4184      -8.259491      0.6060807      0.8623418
      3404.0000         2.2776       117.1627        48.7783       63.27853         0.8143         0.8913         1.0707       -61.0193      -10.86466       0.644224      0.8189223
      3404.5000         2.1936       120.0597        50.8818       65.98215         0.7685         0.8527         0.9964       -62.9617      -12.81134      0.7017478      0.7864777
      3405.0000         2.0319       120.6273        52.8926       68.56657         0.7319         0.8248         0.9287       -64.3665      -14.22042      0.7567354       0.762993
      3405.5000         1.9366       121.4513        54.6425       70.81544         0.7028         0.7981         0.8733       -65.1116      -14.96979      0.8045839      0.7505035
      3406.0000         1.9313       122.6891        55.4785       71.88906         0.6739         0.7712         0.8271        -65.278      -15.14046      0.8274269      0.7476589
      3406.5000         2.1364       122.6853        55.8615       72.38011         0.6473         0.7464         0.7963       -65.4247      -15.29144      0.8378747      0.7451428
      3407.0000         2.5267       121.5919        54.6523       70.82356         0.6238         0.7236         0.7757       -65.8256      -15.69661      0.8047566      0.7383898
      3407.5000         2.5886       120.3528        53.3259       69.11629         0.6002         0.7016         0.7679        -66.436      -16.31129      0.7684318      0.7281452
      3408.0000         2.5058       119.3922        52.0786       67.51077         0.5813         0.6807         0.7827       -67.5482      -17.42776      0.7342716      0.7095373
      3408.5000         2.2521       119.2849        49.0289       63.58734         0.5595         0.6633         0.8107       -68.9777      -18.86154      0.6507944      0.6856411
      3409.0000         2.1342       120.5756        44.0714       57.21045         0.5453         0.6461         0.8411       -71.5737      -21.46181      0.5151159      0.6423031
      3409.5000         2.6327       123.6649        42.0667        54.6309         0.5223         0.6179         0.8645       -75.0524      -24.94479      0.4602319      0.5842535
      3410.0000         3.4335       127.4861        40.1335       52.14329         0.4879         0.5926         0.8613       -79.2198      -29.11647      0.4073041      0.5147256
      3410.5000         4.2761       129.6479        39.2806       51.04496         0.4559         0.5684         0.8337       -82.4774      -32.37834      0.3839353       0.460361
      3411.0000         4.6299        131.387        38.5659       50.12435          0.424         0.5421          0.806       -85.7228      -35.62801      0.3643479      0.4061998
      3411.5000         5.0731       135.4272        34.7589       45.22702         0.3747         0.4886         0.7936       -89.3422      -39.25169      0.2601494      0.3458052
      3412.0000         5.8917       142.0925         32.469        42.2807         0.3489         0.4306          0.784       -93.3071      -43.22086      0.1974616      0.2796523
      3412.5000         7.2329       144.8445        31.0272       40.42503         0.3203         0.3981         0.7825        -95.876      -45.79404      0.1579794      0.2367661
      3413.0000         8.3956       149.8262        30.3668       39.57426         0.2864         0.3656         0.7561        -98.361      -48.28331      0.1398778      0.1952781
      3413.5000         8.7767       152.3706        30.3436       39.54293         0.2591         0.3366         0.7288       -101.252      -51.17859      0.1392112      0.1470236
      3414.0000         8.4729       154.0933        31.0457       40.44434          0.239         0.3176         0.7076      -103.1049      -53.03576      0.1583901      0.1160707
      3414.5000         8.1015       152.3613        32.1795       41.90092         0.2266         0.3067         0.7043      -104.4998      -54.43494      0.1893812     0.09275106
      3415.0000         8.0391       150.8669        33.6121       43.74175         0.2223         0.2996         0.7038      -105.7811      -55.72051      0.2285479     0.07132486
      3415.5000         8.2841       150.0869        34.4823       44.85934           0.22         0.2949         0.6878      -106.8674      -56.81109      0.2523265     0.05314852
      3416.0000         8.4294       148.6382        34.4237       44.78249         0.2206          0.295          0.674      -107.3079      -57.25586      0.2506912     0.04573568
      3416.5000         8.2172       147.3936        33.7604       43.92798         0.2241         0.2962         0.6845      -107.5072      -57.45944      0.2325102      0.0423427
      3417.0000         8.1982       146.9585        33.7932       43.96867         0.2274         0.2977         0.6783      -107.4182      -57.37471       0.233376     0.04375483
      3417.5000         8.7298       147.4314        33.7818       43.95251         0.2301         0.2992         0.6607      -107.1387      -57.09949      0.2330322     0.04834188
      3418.0000          8.758       147.6045        33.7213       43.87321          0.231         0.3006         0.6541      -106.7909      -56.75596      0.2313449      0.0540673
      3418.5000          8.468       147.1489        32.9134       42.83274         0.2312         0.3017         0.6634      -106.5663      -56.53563      0.2092073     0.05773945
      3419.0000         8.4462       147.1235        31.8882       41.51284         0.2303         0.3025         0.6787      -107.0303      -57.00391      0.1811242      0.0499349
      3419.5000         8.8128       147.4421        31.4302       40.92235         0.2267         0.3015         0.6973      -107.4645      -57.44239      0.1685607     0.04262689
      3420.0000         9.1289         148.24        30.8756       40.20763         0.2218         0.3001          0.706       -107.834      -57.81616      0.1533539     0.03639736
