#------------------------------------------------------------------------------
# Created by    : vladimir.rabinovich
# Created on    : 09/19/2023 17:20:10
#------------------------------------------------------------------------------
~Version Information Section
VERS.           2.0     :   CWLS log ASCII Standard - VERSION 2.0
WRAP.           NO      :   One line per depth step
~Well Information Section
#MNEM       .UNIT                                         VALUE :DESCRIPTION
#------------------------------------------------------------------------------
STRT        .FT                                             409 :START DEPTH
STOP        .FT                                           13135 :STOP DEPTH
STEP        .FT                                             0.5 :STEP      
NULL        .                                           -999.25 :NULL      
COMP        .                         ATLANTIC RICHFIELD CO THE :COMPANY   
WELL        .                               OCS G04547 ST00BP00 :WELL      
FLD         .                                           WILDCAT :FIELD     
LOC         .                                                   :LOCATION  
CNTY        .                      MATAGORDA ISLAND LARGE BLOCK :LOCATION  
STAT        .                                             TEXAS :STATE     
CTRY        .                                     UNITED STATES :COUNTRY   
SRVC        .                                                   :SERVICE COMPANY
DATE        .                             9/13/2023 11:12:03 AM :LOG DATE  
API         .                                    42703401300000 :API NUMBER
UWI         .                                    42703401300000 :UNIQUE WELL ID
XCOORD      .                                  517134.995430583 :SURFACE X 
YCOORD      .                                  10172294.5320476 :SURFACE Y 
LAT         .                                         27.987424 :LATITUDE  
LON         .                                        -96.480505 :LONGITUDE 
ELEV        .FT                                              99 :ELEVATION VALUE
ELEV_TYPE   .                                                KB :ELEVATION REFERENCE TYPE
~Curve Information Section
#MNEM       .UNIT                                      API CODE :CURVE DESCRIPTION
#------------------------------------------------------------------------------
DEPT        .FT                                                 :DEPTH     
ASFL        .OHMM                                               :          
CILD        .MMHO                                               :          
GR          .GAPI                                               :          
GR_NORM     .GAPI                                               :GammaRay Normalized
ILD         .OHMM                                               :          
SP          .MV                                                 :          
SP_NORM     .MV                                                 :SP Normalized
VSH_GR      .V/V                                                :Volume of Shale from GR
VSH_SP      .V/V                                                :Volume of Shale from SP
~A        DEPTH           ASFL           CILD             GR        GR_NORM            ILD             SP        SP_NORM         VSH_GR         VSH_SP
# ...
      2953.0000         0.7352       1857.393        52.0703       64.25393         0.5348       -50.6885      -5.744846      0.6649772       0.864433
      2953.5000         0.7307       1646.223        64.4197       82.15367         0.5774       -46.8854      -1.939823              1      0.9731479
      2954.0000         0.7232       1557.396        66.1946       84.72516          0.602       -45.5226     -0.5750999              1              1
      2954.5000         0.7134       1479.852        67.2662       86.27715         0.6266       -44.3727      0.5767212              1              1
      2955.0000          0.703       1277.951        68.8888       88.62786         0.6485       -43.5122       1.439144              1              1
      2955.5000         0.6966       1217.764        70.1987       90.52529         0.6688       -44.1684      0.7848663              1              1
      2956.0000         0.6931        1161.18        70.0819       90.35466          0.689       -44.8246      0.1305885              1              1
      2956.5000         0.7081       1122.803        69.1859       89.05454         0.7044       -45.4811      -0.523983              1              1
      2957.0000         0.7234        1084.15        68.2904       87.75514         0.7183       -46.1373      -1.178261              1      0.9949068
      2957.5000         0.7429       1063.313        62.5314       79.40587         0.7166       -47.2549      -2.293941      0.9873589      0.9630302
      2958.0000         0.7678       1054.922        58.7153       73.87292         0.7016       -48.3763      -3.413418      0.8696367      0.9310452
      2958.5000          0.804       1108.986        57.3353       71.87122         0.6678       -49.8393      -4.874493      0.8270472      0.8893002
      2959.0000         0.8507       1177.504        53.2968        66.0159         0.6338       -51.3035      -6.336773       0.702466      0.8475208
      2959.5000         0.8739       1273.438        43.8016       52.25081         0.5999       -53.9668       -8.99815      0.4095917      0.7714815
      2960.0000         0.8796       1452.484        41.5273       48.95277         0.5661       -60.6681      -15.69753      0.3394206      0.5800707
      2960.5000         0.8676       1537.613        40.7978       47.89399          0.533       -67.0752      -22.10271      0.3168933      0.3970655
      2961.0000         0.8454       1854.367        40.5045       47.46751            0.5       -69.6412      -24.66678      0.3078195      0.3238063
      2961.5000         0.8221       2034.471        40.2542       47.10337         0.4669       -71.1001      -26.12376      0.3000717      0.2821784
      2962.0000         0.7929       2258.219         40.039       46.79011         0.4392       -71.4889      -26.51064      0.2934065      0.2711247
      2962.5000         0.7648       2310.961        39.8283       46.48336         0.4126       -71.8621      -26.88191        0.28688      0.2605168
      2963.0000         0.7305       2354.645          39.64       46.20908         0.3927       -71.7076      -26.72549      0.2810442       0.264986
      2963.5000         0.7077       2387.809        39.4517        45.9348         0.3844       -71.3748      -26.39077      0.2752086      0.2745495
      2964.0000         0.6926       2414.133        39.2634       45.66053          0.376       -71.0419      -26.05594      0.2693731      0.2841159
      2964.5000         0.6861       2424.781        39.5087       46.01478         0.3677       -70.7089      -25.72102      0.2769102      0.2936851
      2965.0000         0.6811       2370.223        41.6246       49.08055         0.3662       -70.3037       -25.3139      0.3421393      0.3053171
      2965.5000         0.6779       2344.262        42.9714       51.03147         0.3682       -69.8354      -24.84368      0.3836483      0.3187521
      2966.0000         0.6793       2318.309        44.1984       52.80875         0.3702       -69.3673      -24.37365      0.4214627      0.3321813
      2966.5000         0.6867       2291.445        45.3098       54.41845         0.3723       -68.8994      -23.90383      0.4557118      0.3456049
      2967.0000         0.6941        2264.52          46.43       56.04092         0.3669       -69.0773      -24.07981      0.4902323      0.3405769
      2967.5000          0.698       2274.855        46.8611       56.66448         0.3607       -69.6395      -24.64009      0.5034996      0.3245689
      2968.0000         0.6983       2316.508        45.2148       54.27677         0.3544       -72.8739      -27.87256      0.4526973      0.2322125
      2968.5000         0.6987       2358.184        43.1973       51.35097          0.348       -73.9502      -28.94694      0.3904461       0.201516
      2969.0000         0.6991       2411.191        41.6626       49.12503         0.3406       -74.6456      -29.64042      0.3430858      0.1817024
      2969.5000         0.6922       2559.367        40.2381       47.05882         0.3331       -75.3329      -30.32579      0.2991237      0.1621202
      2970.0000         0.6704       2773.703        39.1155       45.43023         0.3257       -75.8425      -30.83347      0.2644729      0.1476153
      2970.5000         0.6408       2956.641        37.9929       43.80164         0.3183       -76.1688      -31.15784       0.229822      0.1383473
      2971.0000         0.6094       3139.574        36.7867       42.05186         0.3117       -76.4985      -31.48562      0.1925928      0.1289823
      2971.5000         0.5871       3362.555        35.9178       40.79103         0.3061       -76.8926       -31.8778      0.1657667      0.1177771
      2972.0000         0.5784       3504.152        36.5518       41.70871         0.3005       -77.2865      -32.26978      0.1852917      0.1065778
      2972.5000         0.5722       3569.379         37.471       43.03982          0.295       -77.7883      -32.76965      0.2136132     0.09229562
      2973.0000         0.5616       3634.176        38.2841       44.21712         0.2894       -78.4247      -33.40413      0.2386621     0.07416774
      2973.5000         0.5457       3710.613         37.998       43.80107         0.2838       -78.9708      -33.94831      0.2298101     0.05861969
      2974.0000         0.5304       3762.074        37.6589       43.30821         0.2782       -79.4694      -34.44498      0.2193236     0.04442902
      2974.5000         0.5116       3795.695         37.313       42.80548         0.2726       -79.9464      -34.92007      0.2086273     0.03085523
      2975.0000          0.504       3831.875        36.9671       42.30275         0.2678       -80.4191      -35.39084      0.1979309     0.01740461
      2975.5000         0.4963       3788.684        36.9255       42.24113         0.2631        -80.895      -35.86481      0.1966198    0.003862435
      2976.0000         0.4875       3656.262        37.0375       42.40215         0.2584       -80.9878       -35.9557      0.2000457    0.001265826
      2976.5000         0.4784        3537.09        37.3797       42.89686         0.2537        -78.573      -33.53897      0.2105715     0.07031523
      2977.0000         0.4694       3439.188        37.8521       43.58031         0.2531       -74.5616      -29.52565      0.2251129      0.1849815
      2977.5000         0.4687       3246.938        38.3244        44.2636         0.2543        -70.395      -25.35712      0.2396511      0.3040823
      2978.0000         0.4761       3019.828        42.0504        49.6633         0.2555        -68.916       -23.8762      0.3545382      0.3463942
      2978.5000         0.4835       2790.316        47.0544       56.91551         0.2675       -67.7122      -22.67048      0.5088407      0.3808436
      2979.0000         0.5003       2654.098        49.9734       61.14541         0.2893       -64.1064      -19.06276      0.5988386      0.4839213
