#------------------------------------------------------------------------------
# Created by    : vladimir.rabinovich
# Created on    : 09/19/2023 17:22:54
#------------------------------------------------------------------------------
~Version Information Section
VERS.           2.0     :   CWLS log ASCII Standard - VERSION 2.0
WRAP.           NO      :   One line per depth step
~Well Information Section
#MNEM       .UNIT                                         VALUE :DESCRIPTION
#------------------------------------------------------------------------------
STRT        .FT                                             410 :START DEPTH
STOP        .FT                                            7624 :STOP DEPTH
STEP        .FT                                             0.5 :STEP      
NULL        .                                           -999.25 :NULL      
COMP        .                                      SHELL OIL CO :COMPANY   
WELL        .                                     ST TR 00249-L :WELL      
FLD         .                                           WILDCAT :FIELD     
LOC         .                                                   :LOCATION  
CNTY        .                             GALVESTON LARGE BLOCK :LOCATION  
STAT        .                                             TEXAS :STATE     
CTRY        .                                     UNITED STATES :COUNTRY   
SRVC        .                                                   :SERVICE COMPANY
DATE        .                             9/13/2023 11:19:42 AM :LOG DATE  
API         .                                    42706000200000 :API NUMBER
UWI         .                                    42706000200000 :UNIQUE WELL ID
XCOORD      .                                  981084.037319939 :SURFACE X 
YCOORD      .                                  10535303.7769946 :SURFACE Y 
LAT         .                                         29.014458 :LATITUDE  
LON         .                                       -95.0633058 :LONGITUDE 
ELEV        .FT                                              11 :ELEVATION VALUE
ELEV_TYPE   .                                                KB :ELEVATION REFERENCE TYPE
~Curve Information Section
#MNEM       .UNIT                                      API CODE :CURVE DESCRIPTION
#------------------------------------------------------------------------------
DEPT        .FT                                                 :DEPTH     
LAT         .OHMM                                               :          
SN          .OHMM                                               :          
SP          .MV                                                 :          
SP_NORM     .MV                                                 :SP Normalized
VSH_SP      .V/V                                                :Volume of Shale from SP
~A        DEPTH            LAT             SN             SP        SP_NORM         VSH_SP
# ...
      2302.0000         0.2524         0.5054      -138.6277      -43.17056     0.04157829
      2302.5000         0.2545         0.4698      -135.9358      -40.47561      0.1028271
      2303.0000         0.2566         0.4343        -133.75      -38.28675      0.1525738
      2303.5000         0.2586         0.4089      -132.8828       -37.4165      0.1723522
      2304.0000         0.2607         0.4407      -134.5613      -39.09195      0.1342739
      2304.5000         0.2628         0.4726      -135.5393      -40.06691      0.1121157
      2305.0000         0.2692         0.5096      -128.2327      -32.75725      0.2782444
      2305.5000          0.289         0.5484      -123.8896      -28.41111      0.3770202
      2306.0000         0.3088         0.5872      -119.7024      -24.22086      0.4722533
      2306.5000         0.3286         0.6148      -116.5023       -21.0177      0.5450523
      2307.0000         0.3485         0.6205      -119.0377      -23.55005      0.4874989
      2307.5000         0.3683         0.6263       -121.656       -26.1653      0.4280614
      2308.0000         0.3881         0.5942      -122.4012      -26.90746      0.4111942
      2308.5000          0.408         0.5603      -117.7815      -22.28471      0.5162567
      2309.0000         0.4237         0.5263      -109.8907      -14.39085      0.6956624
      2309.5000         0.4388         0.4924      -104.5551        -9.0522      0.8169954
      2310.0000          0.454         0.4757      -100.6653      -5.159348      0.9054694
      2310.5000         0.4692         0.4694       -97.6395      -2.130508      0.9743066
      2311.0000         0.4821         0.4632       -94.4231       1.088943              1
      2311.5000         0.4905          0.457       -92.3235       3.191597              1
      2312.0000         0.4988         0.4515       -92.0208       3.497353              1
      2312.5000         0.5071         0.4572       -92.0605       3.460693              1
      2313.0000         0.5154          0.463       -92.1003       3.423943              1
      2313.5000         0.5184         0.4687       -92.1401       3.387199              1
      2314.0000         0.5122         0.4744       -93.1799       2.350449              1
      2314.5000          0.506         0.4802       -94.2532       1.280205              1
      2315.0000         0.4998         0.4859       -95.3264      0.2100449              1
      2315.5000         0.4936         0.4917       -95.9956     -0.4561005              1
      2316.0000         0.4874          0.496       -96.3727     -0.8301544              1
      2316.5000         0.4812         0.5001       -96.7496      -1.204002      0.9953636
      2317.0000         0.4726         0.5043       -96.8024      -1.253746      0.9942331
      2317.5000          0.461         0.5084       -96.6377      -1.086006      0.9980453
      2318.0000         0.4494         0.5126        -96.473      -0.918251              1
      2318.5000         0.4378         0.5167       -96.3082     -0.7503967              1
      2319.0000         0.4263         0.5179        -95.957     -0.3961487              1
      2319.5000         0.4147         0.5131       -95.3634      0.2004929              1
      2320.0000          0.407         0.5084       -94.7699      0.7970505              1
      2320.5000         0.4068         0.5037       -93.7542       1.815796              1
      2321.0000         0.4067          0.499       -92.6711       2.901955              1
      2321.5000         0.4065         0.4942       -92.1127       3.463402              1
      2322.0000         0.4064         0.4895       -92.8165        2.76265              1
      2322.5000         0.4063         0.4847       -93.5201       2.062096              1
      2323.0000         0.4061          0.497       -94.4896        1.09565              1
      2323.5000         0.4015         0.5136       -97.6167      -2.028397      0.9766273
      2324.0000         0.3941         0.5302      -100.7427      -5.151344      0.9056513
      2324.5000         0.3867         0.5467      -103.9711      -8.376701      0.8323477
      2325.0000         0.3792         0.5791      -107.4403      -11.84285      0.7535716
      2325.5000         0.3718         0.6215      -109.6685        -14.068          0.703
      2326.0000         0.3644         0.6639      -108.7894      -13.18584       0.723049
      2326.5000         0.3569         0.7063      -107.9104       -12.3038      0.7430954
      2327.0000         0.3444         0.7611       -106.731      -11.12135      0.7699692
      2327.5000         0.3312         0.8159      -112.6953       -17.0826      0.6344864
      2328.0000         0.3181          0.842      -117.5221      -21.90635      0.5248557
      2328.5000          0.305         0.8478      -122.2476      -26.62879      0.4175275
      2329.0000         0.2918         0.8432      -125.8868      -30.26495      0.3348874
      2329.5000         0.2787         0.7967      -129.8997       -34.2748      0.2437545
      2330.0000         0.2711         0.7503      -132.5046      -36.87664      0.1846218
      2330.5000         0.2637         0.7038      -133.0334       -37.4024      0.1726728
      2331.0000         0.2562         0.6574      -133.5623      -37.92825      0.1607217
      2331.5000         0.2487         0.6222      -134.3064       -38.6693      0.1438796
      2332.0000         0.2413         0.5922       -133.469      -37.82884      0.1629809
      2332.5000         0.2409         0.5623      -113.0897       -17.4465       0.626216
      2333.0000         0.2615         0.5324      -107.7938      -12.14754      0.7466467
      2333.5000          0.282         0.5289      -105.9678       -10.3185       0.788216
      2334.0000         0.3026         0.5272      -104.4031      -8.750748      0.8238466
      2334.5000         0.3321         0.5255      -103.1703        -7.5149      0.8519341
      2335.0000         0.3629         0.5238      -102.6538      -6.995346      0.8637421
      2335.5000         0.3937         0.5544      -102.6112      -6.949692      0.8647797
      2336.0000         0.4144         0.6098      -102.9648      -7.300247      0.8568125
      2336.5000         0.4243         0.6651      -105.4617      -9.794098      0.8001341
      2337.0000         0.4343         0.7205      -108.1823      -12.51164      0.7383718
      2337.5000         0.4322         0.7722       -110.903      -15.22929       0.676607
      2338.0000         0.4252         0.8207      -124.4648      -28.78804      0.3684536
      2338.5000         0.4183         0.8217      -128.8623       -33.1825      0.2685795
      2339.0000         0.4114         0.7808      -130.1497      -34.46685      0.2393898
      2339.5000         0.4044         0.7399        -131.26      -35.57409      0.2142252
      2340.0000         0.4051          0.699      -130.6287      -34.93974      0.2286424
      2340.5000         0.4115         0.6565      -127.1649       -31.4729      0.3074341
      2341.0000         0.4179          0.613      -122.2095      -26.51445      0.4201261
      2341.5000         0.4243         0.5695      -117.2562       -21.5581      0.5327705
      2342.0000         0.4307         0.5309      -112.1047      -16.40354      0.6499195
      2342.5000         0.4362         0.5687      -114.2883      -18.58409      0.6003616
      2343.0000         0.4388         0.6066      -118.3263      -22.61905       0.508658
      2343.5000         0.4414         0.7528      -122.7041       -26.9938      0.4092319
      2344.0000          0.444         0.9176      -127.7772      -32.06384      0.2940036
      2344.5000         0.4466         1.0823         -132.7      -36.98359      0.1821911
      2345.0000         0.4486         1.2101      -136.2661      -40.54664      0.1012128
      2345.5000         0.4443         1.2663      -138.3335      -42.61099     0.05429563
