#------------------------------------------------------------------------------
# Created by    : vladimir.rabinovich
# Created on    : 09/19/2023 17:20:57
#------------------------------------------------------------------------------
~Version Information Section
VERS.           2.0     :   CWLS log ASCII Standard - VERSION 2.0
WRAP.           NO      :   One line per depth step
~Well Information Section
#MNEM       .UNIT                                         VALUE :DESCRIPTION
#------------------------------------------------------------------------------
STRT        .FT                                             601 :START DEPTH
STOP        .FT                                            9006 :STOP DEPTH
STEP        .FT                                             0.5 :STEP      
NULL        .                                           -999.25 :NULL      
COMP        .                                        SUN OIL CO :COMPANY   
WELL        .                               OCS G01715 ST00BP00 :WELL      
FLD         .                                           WILDCAT :FIELD     
LOC         .                                                   :LOCATION  
CNTY        .                                BRAZOS LARGE BLOCK :LOCATION  
STAT        .                                             TEXAS :STATE     
CTRY        .                                     UNITED STATES :COUNTRY   
SRVC        .                                                   :SERVICE COMPANY
DATE        .                             9/13/2023 11:18:52 AM :LOG DATE  
API         .                                    42704000710000 :API NUMBER
UWI         .                                    42704000710000 :UNIQUE WELL ID
XCOORD      .                                  842225.693118258 :SURFACE X 
YCOORD      .                                  10368215.6352389 :SURFACE Y 
LAT         .                                          28.54781 :LATITUDE  
LON         .                                        -95.486614 :LONGITUDE 
ELEV        .FT                                              79 :ELEVATION VALUE
ELEV_TYPE   .                                                KB :ELEVATION REFERENCE TYPE
~Curve Information Section
#MNEM       .UNIT                                      API CODE :CURVE DESCRIPTION
#------------------------------------------------------------------------------
DEPT        .FT                                                 :DEPTH     
ASN         .OHMM                                               :          
CALI        .IN                                                 :          
CILD        .MMHO                                               :          
DT          .US/F                                               :          
ILD         .OHMM                                               :          
SP          .MV                                                 :          
SP_NORM     .MV                                                 :SP Normalized
VSH_SP      .V/V                                                :Volume of Shale from SP
~A        DEPTH            ASN           CALI           CILD             DT            ILD             SP        SP_NORM         VSH_SP
# ...
      3964.0000         1.0873        15.2895       2035.664       167.8899         0.3148       -86.9003       -37.6573      0.1475047
      3964.5000         0.8765        15.5534       2117.395       154.9197         0.2967       -89.0933      -39.85417     0.09641461
      3965.0000         0.7664          15.65       2308.082       151.6445         0.2862       -90.3323      -41.09704     0.06751074
      3965.5000         0.7312        15.6553        2840.07        158.355         0.2868       -91.0414      -41.81001     0.05093002
      3966.0000          0.722        15.6402       3021.484        170.479         0.3006       -91.0946      -41.86708     0.04960286
      3966.5000         0.7436        15.6301       3202.902       170.6292         0.3239       -90.6179      -41.39425     0.06059886
      3967.0000         0.7924        15.6233       3183.867       167.7222         0.3653        -89.859      -40.63922     0.07815765
      3967.5000         0.8436        15.6165        2784.34       172.9478         0.4056       -89.0555      -39.83959     0.09675376
      3968.0000          0.893        15.6097       2465.313       170.8745         0.4403       -88.3519      -39.13986      0.1130266
      3968.5000         0.9196        15.6042       2406.297         172.73         0.4658       -87.7385      -38.53033      0.1272015
      3969.0000          0.931        15.6037        2319.07       167.2139         0.4829       -87.1403        -37.936      0.1410233
      3969.5000         0.9326        15.6032       2166.109       157.3936         0.4904       -86.5991      -37.39867      0.1535193
      3970.0000         0.9397        15.6028       2124.336       157.5288         0.4976       -86.1292      -36.93265       0.164357
      3970.5000         0.9493        15.6023       2092.105       148.4546         0.5045       -85.8213      -36.62861      0.1714277
      3971.0000           0.95        15.6034       1927.197       151.3667         0.5107       -85.6576      -36.46878      0.1751446
      3971.5000         0.9488        15.6169       1908.834       163.9687         0.5154       -85.5288      -36.34385      0.1780499
      3972.0000         0.9516        15.6305       1902.479       160.2681         0.5142       -85.3871      -36.20602      0.1812553
      3972.5000         0.9547         15.644       1896.119       139.8262         0.5026       -85.3562      -36.17899      0.1818839
      3973.0000         0.9537        15.6576       1896.512       120.5762         0.4832       -85.8763      -36.70296      0.1696986
      3973.5000         0.9413        15.6642       1924.057        121.678         0.4619       -86.5348      -37.36533      0.1542947
      3974.0000          0.926        15.6696       1956.902       135.4895         0.4363       -86.8364      -37.67081      0.1471905
      3974.5000         0.9109        15.6736       1979.223        141.634         0.4121       -86.7924      -37.63067       0.148124
      3975.0000         0.8961        15.6698       1993.004       148.5898         0.3956        -87.066      -37.90815       0.141671
      3975.5000         0.8837        15.4109       1995.973       147.8381         0.3882       -88.6876      -39.53361      0.1038695
      3976.0000         0.8755        15.0509       1998.941       146.8008         0.3835       -89.9406      -40.79048     0.07463996
      3976.5000         0.8722        14.7651       2020.457       150.0532         0.3808       -90.8823      -41.73605     0.05264992
      3977.0000         0.8797        14.7203       2048.441       137.8005         0.3726       -91.3438      -42.20143     0.04182727
      3977.5000         0.8987        14.8353       2213.008       134.7732         0.3618       -91.5547      -42.41619     0.03683268
      3978.0000         0.9172        14.9597       2398.449       131.5283          0.348       -91.6923      -42.55766     0.03354272
      3978.5000           0.91        14.6186       2471.789       127.8513         0.3402       -91.6224      -42.49163     0.03507836
      3979.0000         0.8973        14.4177       2514.324       130.3113         0.3358       -91.6407      -42.51381     0.03456267
      3979.5000         0.8858        14.3074       2587.762       134.6082         0.3355       -91.7587      -42.63567     0.03172861
      3980.0000         0.8817        14.4073       2697.113       139.0149         0.3392       -92.0173      -42.89815     0.02562447
      3980.5000         0.8831        14.6745       2776.367       143.8022         0.3421       -92.2521      -43.13681     0.02007418
      3981.0000          0.885        14.9565       2807.766        142.896         0.3397       -92.4128      -43.30139      0.0162468
      3981.5000         0.8872        14.9872       2825.535       141.6155          0.339       -92.4658      -43.35825     0.01492443
      3982.0000         0.8905        15.0076       2843.309       140.9573          0.341       -92.4584      -43.35472     0.01500649
      3982.5000         0.8928         15.082       2859.188       147.3179         0.3453       -92.4222       -43.3224     0.01575825
      3983.0000         0.8931        15.1808       2860.258       158.3049         0.3488       -92.3625      -43.26657     0.01705658
      3983.5000         0.8887        15.2896       2807.641        151.835         0.3485       -92.2296      -43.13753     0.02005741
      3984.0000         0.8754        15.4093       2758.707       144.9441         0.3464       -92.0764       -42.9882     0.02353012
      3984.5000         0.8623        15.3284       2716.516       138.8276         0.3426       -91.9634      -42.87907     0.02606804
      3985.0000         0.8538        15.2557       2677.516       141.1934         0.3404       -91.9377      -42.85724     0.02657575
      3985.5000           0.85        15.1894       2687.102       145.6802         0.3424       -91.9385      -42.86191     0.02646717
      3986.0000         0.8505        15.3018       2698.641       147.2214         0.3459       -91.9077      -42.83498      0.0270934
      3986.5000         0.8585        15.3123       2718.086       144.5134         0.3504       -91.6218      -42.55296      0.0336521
      3987.0000         0.8852        15.2993       2740.457       147.2478         0.3606       -91.1934      -42.12842     0.04352507
      3987.5000         0.9114        15.2673       2762.828       156.7437          0.371       -90.6846       -41.6235     0.05526751
      3988.0000         0.9361        15.3882       2751.961       159.5217         0.3837       -90.6843      -41.62707     0.05518448
      3988.5000         0.9551        15.6334       2734.004       161.2515         0.3897       -91.0133      -41.95993     0.04744339
      3989.0000         0.9649        14.8362       2687.398       154.8696         0.3831       -91.3953      -42.34581     0.03846962
      3989.5000         0.9596        14.3399       2629.563       149.1106         0.3775       -91.7648      -42.71918     0.02978658
      3990.0000          0.946        14.1086       2514.766       145.2998         0.3692        -92.045      -43.00324     0.02318041
      3990.5000          0.924        14.2069       2457.121       143.1602         0.3598       -92.0372      -42.99932     0.02327169
      3991.0000         0.9037        14.4246       2420.379       144.1829         0.3502       -91.9711      -42.93708     0.02471897
      3991.5000          0.883        14.6346       2407.918       147.2854         0.3384       -91.9146      -42.88445     0.02594296
      3992.0000         0.8629        14.7547       2444.098         148.78         0.3256       -91.9674      -42.94112     0.02462502
      3992.5000         0.8442        14.7791       2502.402       150.7595         0.3151       -92.0435       -43.0211     0.02276514
      3993.0000          0.825        14.8223       2568.828       152.5071         0.3066       -92.1205      -43.10196     0.02088458
