#------------------------------------------------------------------------------
# Created by    : vladimir.rabinovich
# Created on    : 09/19/2023 17:19:44
#------------------------------------------------------------------------------
~Version Information Section
VERS.           2.0     :   CWLS log ASCII Standard - VERSION 2.0
WRAP.           NO      :   One line per depth step
~Well Information Section
#MNEM       .UNIT                                         VALUE :DESCRIPTION
#------------------------------------------------------------------------------
STRT        .FT                                             490 :START DEPTH
STOP        .FT                                           13420 :STOP DEPTH
STEP        .FT                                             0.5 :STEP      
NULL        .                                           -999.25 :NULL      
COMP        .                                 MESA PETROLEUM CO :COMPANY   
WELL        .                                     ST TR 00012-L :WELL      
FLD         .                                           WILDCAT :FIELD     
LOC         .                                                   :LOCATION  
CNTY        .                           HIGH ISLAND LARGE BLOCK :LOCATION  
STAT        .                                             TEXAS :STATE     
CTRY        .                                     UNITED STATES :COUNTRY   
SRVC        .                                                   :SERVICE COMPANY
DATE        .                             9/13/2023 11:19:15 AM :LOG DATE  
API         .                                    42708302120000 :API NUMBER
UWI         .                                    42708302120000 :UNIQUE WELL ID
XCOORD      .                                  1361115.25412243 :SURFACE X 
YCOORD      .                                  10723579.9964947 :SURFACE Y 
LAT         .                                        29.5453665 :LATITUDE  
LON         .                                       -93.8786547 :LONGITUDE 
ELEV        .FT                                              80 :ELEVATION VALUE
ELEV_TYPE   .                                                KB :ELEVATION REFERENCE TYPE
~Curve Information Section
#MNEM       .UNIT                                      API CODE :CURVE DESCRIPTION
#------------------------------------------------------------------------------
DEPT        .FT                                                 :DEPTH     
ASFL        .OHMM                                               :          
CILD        .MMHO                                               :          
GR          .GAPI                                               :          
GR_NORM     .GAPI                                               :GammaRay Normalized
ILD         .OHMM                                               :          
SP          .MV                                                 :          
SP_NORM     .MV                                                 :SP Normalized
VSH_GR      .V/V                                                :Volume of Shale from GR
~A        DEPTH           ASFL           CILD             GR        GR_NORM            ILD             SP        SP_NORM         VSH_GR
       490.0000        -999.25        -999.25        41.2249       61.46437        -999.25        -999.25        -999.25      0.6056249
       490.5000        -999.25        -999.25         40.762       60.47855        -999.25        -999.25        -999.25      0.5846499
       491.0000        -999.25        -999.25        40.2628       59.44622        -999.25        -999.25        -999.25      0.5626856
       491.5000        -999.25        -999.25        39.8613       58.53904        -999.25        -999.25        -999.25      0.5433839
       492.0000        -999.25        -999.25        39.4432       57.61061        -999.25        -999.25        -999.25        0.52363
       492.5000        -999.25        -999.25        39.0744       56.74531        -999.25        -999.25        -999.25      0.5052194
       493.0000        -999.25        -999.25        38.4861       55.59887        -999.25        -999.25        -999.25       0.480827
       493.5000        -999.25        -999.25        37.3348       53.73134        -999.25        -999.25        -999.25      0.4410923
       494.0000        -999.25        -999.25        37.9136       54.07975        -999.25        -999.25        -999.25      0.4485053
       494.5000        -999.25        -999.25        38.3337       54.22489        -999.25        -999.25        -999.25      0.4515934
       495.0000        -999.25        -999.25        38.7055       54.30817        -999.25        -999.25        -999.25      0.4533652
       495.5000        -999.25        -999.25        38.8788       54.13721        -999.25        -999.25        -999.25      0.4497278
       496.0000        -999.25        -999.25        39.0276       53.93486        -999.25        -999.25        -999.25      0.4454226
       496.5000        -999.25        -999.25        39.1491       53.69755        -999.25        -999.25        -999.25      0.4403735
       497.0000        -999.25        -999.25        39.3194       53.52275        -999.25        -999.25        -999.25      0.4366543
       497.5000        -999.25        -999.25        39.5832        53.4677        -999.25        -999.25        -999.25       0.435483
       498.0000         0.3092       122.5854        40.2512       53.93036         0.8537      -158.7678       14.56552      0.4453268
       498.5000         0.3517       144.0117        41.0668       54.58207         0.8591      -161.1682       12.16513      0.4591929
       499.0000         0.3833        158.186        42.3868       55.87982         0.8741      -166.9458       6.387527      0.4868047
       499.5000         0.4396       167.4707         43.476       56.88197         0.9006      -168.4211       4.912231       0.508127
       500.0000         0.5011       176.7559        44.5054       57.80751         1.0271      -168.7759       4.557434      0.5278195
       500.5000         0.5271       186.0405        46.2218       59.61299         1.1315      -170.0244       3.308929      0.5662339
       501.0000          0.564       207.8022        48.1774       61.72482         1.2966      -170.5068       2.826523      0.6111664
       501.5000         0.5781       813.2637        53.9044       68.66716         1.3481       -170.842       2.491333      0.7588757
       502.0000         0.5744       1312.482        57.4152       72.77095         1.4072      -171.0981       2.235229      0.8461905
       502.5000         0.5707       1307.779        56.2032       70.82565         1.4668      -171.3696        1.96373      0.8048011
       503.0000         0.5695       1235.295        54.7951        68.6292         1.5122      -172.1741       1.159225      0.7580681
       503.5000         0.5783       1156.063        53.5569       66.65036         1.5263      -172.1208       1.212524      0.7159651
       504.0000         0.5905       1116.121        52.5125       64.91975         1.5216      -171.4731       1.860229      0.6791435
       504.5000         0.6028       791.7754        51.3244       63.00507         1.5207      -171.0217        2.31163      0.6384057
       505.0000          0.616        778.916        50.1809       61.14752         1.5291      -170.7903        2.54303      0.5988834
       505.5000         0.6298       769.2139        49.1324       59.41165         1.5375      -170.4636       2.869736        0.56195
       506.0000         0.6412       761.0303        48.1309       57.73598         1.5536      -170.2517       3.081635      0.5262975
       506.5000         0.6399       752.8457        47.0219       55.92262         1.5716      -170.1963       3.137024      0.4877154
       507.0000         0.6378       725.8037        46.1806       54.45214         1.5736      -170.1519       3.181427      0.4564284
       507.5000         0.6358       696.2754        46.0978       53.95316         1.5746      -170.1289       3.204422       0.445812
       508.0000         0.6337       673.9609        46.7062       54.33947         1.5615      -170.1497       3.183624      0.4540313
       508.5000         0.6291       663.4463        47.7675       55.30588         1.5484      -170.2039       3.129425      0.4745931
       509.0000          0.624       677.9238        49.5858       57.24187         1.5306      -170.4346       2.898727      0.5157845
       509.5000         0.6163        696.875         50.704       58.28115         1.5108      -171.5667       1.766632      0.5378969
       510.0000         0.6081       712.1592        52.2332       59.84686         1.4911      -172.2312       1.102127      0.5712097
       510.5000            0.6       723.9785        53.7822       61.43792         1.4794      -172.5183       0.815033      0.6050621
       511.0000         0.5918       735.3818        52.4288       59.31152          1.513      -172.8796      0.4537354      0.5598196
       511.5000         0.5837       736.1035        51.0754       57.18513         1.5477      -173.2319      0.1014252      0.5145773
       512.0000         0.5755       727.9199        49.8298       55.19682         1.5472      -173.5278     -0.1944733      0.4722727
       512.5000         0.5645       689.9697        48.6298        53.2669         1.5143      -173.7278     -0.3944702      0.4312106
       513.0000         0.5531       651.3467        48.3077       52.46142          1.494      -174.0925     -0.7591705      0.4140728
       513.5000          0.542       655.4766        49.4359       53.51352         1.4828      -174.3208     -0.9874725      0.4364578
       514.0000          0.531         664.79        50.9733       55.08971         1.4786      -174.6013      -1.267975      0.4699938
       514.5000         0.5152       695.0518        52.0479       56.07316         1.4746      -174.7761      -1.442764      0.4909182
       515.0000         0.4987       705.9873        53.0586       56.97475         1.4709      -174.7881      -1.454773      0.5101011
       515.5000         0.4881       714.8105        54.1091       57.92733          1.458      -174.6323      -1.298965      0.5303687
       516.0000         0.4786       725.6465         55.243       58.98672         1.4382      -174.4766      -1.143265       0.552909
       516.5000         0.4729       737.2041        56.3958       60.07032         1.4145      -173.8906     -0.5572662      0.5759643
       517.0000         0.4673       755.3535         57.525       61.12369         1.3849      -173.5386     -0.2052765      0.5983763
       517.5000          0.465       765.6367         57.787       61.06633         1.3552      -173.3386   -0.005264282       0.597156
       518.0000         0.4674       783.4863         55.895        58.2501         1.3218         -173.2      0.1333313      0.5372362
       518.5000          0.472       808.3018        54.6038       56.20338         1.2765      -173.3396   -0.006271362      0.4936889
       519.0000         0.4834       836.2715         52.972        53.7204         1.2518      -173.4841     -0.1507721      0.4408596
