#------------------------------------------------------------------------------
# Created by    : vladimir.rabinovich
# Created on    : 09/19/2023 17:20:25
#------------------------------------------------------------------------------
~Version Information Section
VERS.           2.0     :   CWLS log ASCII Standard - VERSION 2.0
WRAP.           NO      :   One line per depth step
~Well Information Section
#MNEM       .UNIT                                         VALUE :DESCRIPTION
#------------------------------------------------------------------------------
STRT        .FT                                             396 :START DEPTH
STOP        .FT                                           11006 :STOP DEPTH
STEP        .FT                                             0.5 :STEP      
NULL        .                                           -999.25 :NULL      
COMP        .                                 CALIFORNIA CO THE :COMPANY   
WELL        .                                OCS 00507 ST00BP00 :WELL      
FLD         .                            HIGH ISLAND BLOCK 0052 :FIELD     
LOC         .                                                   :LOCATION  
CNTY        .                           HIGH ISLAND LARGE BLOCK :LOCATION  
STAT        .                                             TEXAS :STATE     
CTRY        .                                     UNITED STATES :COUNTRY   
SRVC        .                                                   :SERVICE COMPANY
DATE        .                             9/13/2023 11:19:15 AM :LOG DATE  
API         .                                    42708000170000 :API NUMBER
UWI         .                                    42708000170000 :UNIQUE WELL ID
XCOORD      .                                  1293108.02889945 :SURFACE X 
YCOORD      .                                   10685731.628563 :SURFACE Y 
LAT         .                                         29.439677 :LATITUDE  
LON         .                                        -94.091453 :LONGITUDE 
ELEV        .FT                                              70 :ELEVATION VALUE
ELEV_TYPE   .                                                KB :ELEVATION REFERENCE TYPE
~Curve Information Section
#MNEM       .UNIT                                      API CODE :CURVE DESCRIPTION
#------------------------------------------------------------------------------
DEPT        .FT                                                 :DEPTH     
ASN         .OHMM                                               :          
CILD        .MMHO                                               :          
ILM         .OHMM                                               :          
SP          .MV                                                 :          
SP_NORM     .MV                                                 :SP Normalized
VSH_SP      .V/V                                                :Volume of Shale from SP
~A        DEPTH            ASN           CILD            ILM             SP        SP_NORM         VSH_SP
# ...
      9554.0000         0.8978       1584.387         0.7219       -35.7313         2.0481              1
      9554.5000         0.9063       1564.936         0.7233       -35.7058          2.079              1
      9555.0000         0.9147       1549.625         0.7247       -35.6804         2.1097              1
      9555.5000         0.9227       1534.313          0.726       -35.6549         2.1405              1
      9556.0000          0.925       1519.002         0.7274       -35.6295         2.1713              1
      9556.5000         0.9272       1504.393         0.7288       -35.7769         2.0292              1
      9557.0000         0.9295       1499.508         0.7302       -36.0599         1.7515              1
      9557.5000         0.9318       1494.623         0.7315       -36.3428          1.474              1
      9558.0000         0.9341       1489.738         0.7329       -36.6252         1.1969              1
      9558.5000         0.9347       1485.949         0.7343       -36.9507         0.8767              1
      9559.0000         0.9336       1497.646         0.7357       -37.3041         0.5287              1
      9559.5000         0.9325       1509.365          0.737       -37.6573         0.1808              1
      9560.0000         0.9313       1521.084         0.7384        -37.677         0.1664              1
      9560.5000         0.9302       1532.779         0.7398       -37.2648          0.584              1
      9561.0000         0.9291       1548.375         0.7412       -36.8526         1.0015              1
      9561.5000         0.9275        1567.74         0.7425       -36.4404          1.419              1
      9562.0000          0.922       1587.104         0.7439       -36.0283         1.8365              1
      9562.5000         0.9165        1606.51         0.7453        -35.687         2.1831              1
      9563.0000          0.911       1605.896         0.7467       -35.3756         2.4998              1
      9563.5000         0.9055       1604.439          0.748       -35.0643         2.8165              1
      9564.0000         0.8999       1602.984         0.7494        -34.753         3.1331              1
      9564.5000         0.8973       1598.318         0.7508       -34.4417         3.4497              1
      9565.0000         0.8955       1577.508         0.7522       -34.1298          3.767              1
      9565.5000         0.8937       1556.656         0.7535       -33.8185         4.0836              1
      9566.0000         0.8919       1535.848         0.7549       -33.7347         4.1727              1
      9566.5000         0.9033       1514.994         0.7563       -33.6522         4.2606              1
      9567.0000         0.9186       1470.879         0.7577       -33.5697         4.3484              1
      9567.5000         0.9338       1405.779          0.759       -34.0159         3.9075              1
      9568.0000         0.9504       1349.354         0.7604       -34.7606         3.1682              1
      9568.5000         0.9743       1303.268         0.7795       -35.5054         2.4287              1
      9569.0000         0.9981       1257.092         0.8009       -36.3199         1.6195              1
      9569.5000         1.0219       1212.145         0.8223       -37.3297         0.6151              1
      9570.0000         1.0468       1168.861         0.8438       -38.3416        -0.3915              1
      9570.5000         1.0782       1125.666         0.8652       -39.3061        -1.3507              1
      9571.0000         1.1096       1081.684         0.8868       -39.7766        -1.8158              1
      9571.5000          1.141       1037.436         0.9087       -40.2466        -2.2805      0.9955476
      9572.0000         1.1573       1007.625         0.9306       -40.6446        -2.6732      0.9893143
      9572.5000         1.1723        993.168         0.9525       -40.4609        -2.4841      0.9923159
      9573.0000         1.1872       978.6895         0.9744       -40.2771         -2.295      0.9953175
      9573.5000         1.1922        981.624         0.9963       -40.0934         -2.106      0.9983175
      9574.0000         1.1932       987.0342         1.0093       -39.9097         -1.917              1
      9574.5000         1.1942       992.4453         1.0137       -39.9745        -1.9764              1
      9575.0000         1.1952       999.8486         1.0181       -40.2275        -2.2241      0.9964429
      9575.5000         1.1961       1009.289         1.0225       -40.4799        -2.4712      0.9925206
      9576.0000         1.1971       1018.731          1.027       -41.1953        -3.1812      0.9812508
      9576.5000         1.2075       1028.182         1.0161       -42.0262        -4.0068       0.968146
      9577.0000         1.2185       1037.623         0.9995       -42.8582        -4.8335      0.9550238
      9577.5000         1.2296       1047.063         0.9829       -43.6902        -5.6601      0.9419032
      9578.0000         1.2407       1053.525         0.9663       -44.2769        -6.2415      0.9326746
      9578.5000         1.2539       1057.457         0.9497       -44.5418        -6.5011      0.9285539
      9579.0000          1.268       1061.395         0.9331       -44.8068        -6.7607      0.9244334
      9579.5000         1.2778       1065.326         0.9204       -44.9246        -6.8732      0.9226476
      9580.0000         1.2729       1082.518         0.9145       -44.6301        -6.5734      0.9274064
      9580.5000         1.2539       1088.543         0.9086       -44.3362        -6.2741      0.9321572
      9581.0000         1.2373       1094.436         0.9027       -44.0419        -5.9745      0.9369127
      9581.5000         1.2261       1103.242         0.8968        -43.748        -5.6753      0.9416619
      9582.0000         1.2182       1106.879         0.8909       -43.7523        -5.6742      0.9416794
      9582.5000         1.2141       1109.838         0.8873       -44.0217        -5.9383      0.9374873
      9583.0000         1.2099       1112.795         0.8873        -44.291        -6.2023      0.9332968
      9583.5000         1.2095       1111.729         0.8873       -44.5604        -6.4663      0.9291064
      9584.0000         1.2092       1109.566         0.8873       -44.8346        -6.7352      0.9248381
      9584.5000         1.2088        1106.77         0.8873       -45.1176        -7.0129      0.9204302
      9585.0000         1.2085       1094.561         0.8873       -45.4005        -7.2904      0.9160254
      9585.5000         1.2123       1097.189         0.8873        -45.683        -7.5676      0.9116254
      9586.0000         1.2161       1099.824         0.8873       -45.7113        -7.5906      0.9112603
      9586.5000         1.2112       1109.727         0.8839       -45.3793        -7.2532      0.9166158
      9587.0000         1.2031       1120.156         0.8798       -45.0467        -6.9153      0.9219794
      9587.5000         1.1912       1133.826         0.8756       -44.7059        -6.5692       0.927473
      9588.0000          1.178       1152.143         0.8681       -44.2343        -6.0922      0.9350445
      9588.5000         1.1641       1172.693         0.8563       -43.7627        -5.6153      0.9426143
      9589.0000         1.1496       1199.025         0.8445       -43.2916        -5.1389      0.9501762
      9589.5000         1.1345       1227.551         0.8328         -42.82        -4.6619      0.9577476
      9590.0000         1.1226       1249.395          0.825       -42.5981        -4.4347       0.961354
      9590.5000         1.1087       1246.271         0.8179       -42.8806        -4.7119      0.9569539
      9591.0000         1.0957         1251.9         0.8108       -43.1635        -4.9894      0.9525492
      9591.5000         1.0938       1248.063         0.8038       -43.4459        -5.2665      0.9481508
