#------------------------------------------------------------------------------
# Created by    : vladimir.rabinovich
# Created on    : 09/19/2023 17:20:24
#------------------------------------------------------------------------------
~Version Information Section
VERS.           2.0     :   CWLS log ASCII Standard - VERSION 2.0
WRAP.           NO      :   One line per depth step
~Well Information Section
#MNEM       .UNIT                                         VALUE :DESCRIPTION
#------------------------------------------------------------------------------
STRT        .FT                                            2979 :START DEPTH
STOP        .FT                                           11003 :STOP DEPTH
STEP        .FT                                             0.5 :STEP      
NULL        .                                           -999.25 :NULL      
COMP        .                                        TEXACO USA :COMPANY   
WELL        .                               OCS G01821 ST00BP00 :WELL      
FLD         .                                           WILDCAT :FIELD     
LOC         .                                                   :LOCATION  
CNTY        .                           HIGH ISLAND LARGE BLOCK :LOCATION  
STAT        .                                             TEXAS :STATE     
CTRY        .                                     UNITED STATES :COUNTRY   
SRVC        .                                                   :SERVICE COMPANY
DATE        .                             9/13/2023 11:19:15 AM :LOG DATE  
API         .                                    42708300170000 :API NUMBER
UWI         .                                    42708300170000 :UNIQUE WELL ID
XCOORD      .                                  1345073.13508324 :SURFACE X 
YCOORD      .                                  10640242.4404634 :SURFACE Y 
LAT         .                                         29.315788 :LATITUDE  
LON         .                                        -93.927032 :LONGITUDE 
ELEV        .FT                                              74 :ELEVATION VALUE
ELEV_TYPE   .                                                KB :ELEVATION REFERENCE TYPE
~Curve Information Section
#MNEM       .UNIT                                      API CODE :CURVE DESCRIPTION
#------------------------------------------------------------------------------
DEPT        .FT                                                 :DEPTH     
ASN         .OHMM                                               :          
CILD        .MMHO                                               :          
ILD         .OHMM                                               :          
SP          .MV                                                 :          
SP_NORM     .MV                                                 :SP Normalized
VSH_SP      .V/V                                                :Volume of Shale from SP
~A        DEPTH            ASN           CILD            ILD             SP        SP_NORM         VSH_SP
# ...
      8831.0000         0.8512       1367.492         0.6522       -35.8029      -3.075626      0.9665222
      8831.5000         0.8521         1372.4         0.6571       -35.8674      -3.140129      0.9654818
      8832.0000         0.8518       1377.301         0.6639       -35.4434      -2.716129      0.9723205
      8832.5000         0.8516       1382.209         0.6708       -35.0721       -2.34483      0.9783092
      8833.0000         0.8512       1382.264         0.6776        -34.783      -2.055729      0.9829721
      8833.5000         0.8474       1376.691         0.6844       -34.4938      -1.766529      0.9876366
      8834.0000         0.8437       1371.123         0.6913       -34.2047      -1.477428      0.9922996
      8834.5000         0.8411       1358.139         0.6981       -33.9155      -1.188229       0.996964
      8835.0000         0.8522       1336.891         0.7049       -33.7936      -1.066326      0.9989302
      8835.5000         0.8632       1315.643         0.7011       -33.8904      -1.163128      0.9973689
      8836.0000         0.8742       1294.395         0.6925       -33.9874      -1.260128      0.9958044
      8836.5000         0.8871        1277.58         0.6838       -34.0842       -1.35693      0.9942431
      8837.0000         0.9003       1261.836         0.6752       -34.1812      -1.453926      0.9926786
      8837.5000         0.9134       1246.117         0.6666        -34.278      -1.550728      0.9911173
      8838.0000         0.9265       1230.375          0.657       -34.3986      -1.671329      0.9891721
      8838.5000         0.9374       1214.457         0.6413       -34.5307      -1.803429      0.9870415
      8839.0000         0.9035       1198.166         0.6256        -34.663      -1.935726      0.9849076
      8839.5000         0.8723       1251.996         0.6098       -34.7952      -2.067928      0.9827753
      8840.0000         0.8411       1316.863         0.5941       -34.9276      -2.200329      0.9806399
      8840.5000         0.8197       1377.943         0.5784       -35.0598      -2.332527      0.9785076
      8841.0000         0.8059       1438.922         0.5627       -35.1921      -2.464828      0.9763737
      8841.5000         0.7921       1500.002         0.5469       -35.3244       -2.59713      0.9742398
      8842.0000         0.7783       1560.982         0.5312       -35.4565      -2.729229      0.9721092
      8842.5000         0.7646       1616.283         0.5155         -35.36      -2.632729      0.9736657
      8843.0000         0.7508       1646.922         0.5124       -35.1141      -2.386829      0.9776318
      8843.5000         0.7395       1671.135         0.5094       -34.7549       -2.02763      0.9834253
      8844.0000           0.73       1684.313         0.5063       -34.3951      -1.667828      0.9892286
      8844.5000         0.7204       1695.959         0.5033       -34.0359      -1.308628      0.9950221
      8845.0000         0.7109       1696.119         0.5003       -33.8243      -1.097027      0.9984351
      8845.5000         0.7013       1677.238         0.4973       -33.6571     -0.9298286              1
      8846.0000         0.6917       1658.381         0.4943        -33.605     -0.8777275              1
      8846.5000         0.7013       1634.816         0.4913       -33.7355      -1.008228      0.9998673
      8847.0000         0.7144       1611.227         0.4882        -33.866      -1.138729      0.9977624
      8847.5000         0.7279       1587.611         0.4892       -33.9964      -1.269127      0.9956592
      8848.0000         0.7414       1564.021         0.4922        -34.127      -1.399727      0.9935528
      8848.5000         0.7549       1540.406         0.4953        -34.258      -1.530727      0.9914399
      8849.0000         0.7684       1510.266         0.4983        -34.389      -1.661728       0.989327
      8849.5000          0.782       1461.143         0.5013       -34.5201      -1.792828      0.9872125
      8850.0000         0.7955       1415.756         0.5044       -34.6511      -1.923828      0.9850996
      8850.5000          0.809        1373.26         0.5074       -34.7822      -2.054928       0.982985
      8851.0000         0.8223       1355.162         0.5104        -34.913      -2.185726      0.9808754
      8851.5000         0.8356       1362.771         0.5135       -35.0441       -2.31683      0.9787608
      8852.0000         0.8488       1374.504         0.5165       -35.1751      -2.447826       0.976648
      8852.5000          0.862       1388.131         0.5195       -35.3062      -2.578926      0.9745334
      8853.0000         0.8752       1401.756         0.5225       -35.3879      -2.660629      0.9732156
      8853.5000          0.851       1415.383         0.5237       -35.4459      -2.718628      0.9722802
      8854.0000         0.8018       1427.576         0.5248       -35.5037      -2.776428      0.9713479
      8854.5000         0.7991       1427.289         0.5258       -35.5617      -2.834427      0.9704125
      8855.0000         0.8274       1404.396         0.5269       -35.6197      -2.892429      0.9694769
      8855.5000         0.8445       1381.504         0.5279       -35.6777      -2.950428      0.9685415
      8856.0000         0.8616       1358.588          0.529       -35.7355      -3.008228      0.9676092
      8856.5000         0.8788       1329.068           0.53       -35.7935      -3.066227      0.9666737
      8857.0000         0.8943       1297.582         0.5311       -35.8515      -3.124229      0.9657382
      8857.5000         0.9033       1266.096         0.5321       -35.9095      -3.182228      0.9648028
      8858.0000         0.9007       1241.061         0.5331       -35.9511      -3.223827      0.9641318
      8858.5000         0.8904       1228.357         0.5342       -35.9617      -3.234428      0.9639608
      8859.0000         0.8802       1338.684         0.5352       -35.9724      -3.245129      0.9637883
      8859.5000           0.87       1392.092         0.5363        -35.983       -3.25573      0.9636173
      8860.0000         0.8598       1433.193         0.5373       -35.9937      -3.266426      0.9634448
      8860.5000         0.8496        1464.48         0.5384       -36.0044      -3.277126      0.9632722
      8861.0000         0.8393       1483.885         0.5394        -36.015      -3.287727      0.9631011
      8861.5000         0.8268       1497.412         0.5405       -36.0257      -3.298428      0.9629286
      8862.0000         0.8144       1510.912         0.5415       -36.0364      -3.309128       0.962756
      8862.5000          0.802       1523.467         0.5428        -36.047      -3.319729       0.962585
      8863.0000         0.7896       1531.439         0.5443       -36.0577      -3.330429      0.9624124
      8863.5000         0.7839       1505.184         0.5458       -36.0667      -3.339428      0.9622673
      8864.0000          0.786       1478.979         0.5473       -36.0148      -3.287529      0.9631044
      8864.5000         0.7912       1452.773         0.5488       -35.9628      -3.235527      0.9639431
      8865.0000         0.7963       1433.068         0.5503       -35.9109      -3.183628      0.9647802
      8865.5000         0.8015       1419.443         0.5518       -35.8591      -3.131828      0.9656157
      8866.0000         0.8079       1405.793         0.5533       -35.8071      -3.079826      0.9664544
      8866.5000         0.8144       1392.166         0.5547       -35.7552      -3.027927      0.9672915
      8867.0000         0.8208       1378.516         0.5562       -35.7032      -2.975929      0.9681302
      8867.5000         0.8272       1377.662         0.5577       -35.6514      -2.924129      0.9689656
      8868.0000          0.832       1383.111         0.5592       -35.5995      -2.872227      0.9698028
      8868.5000         0.8279       1388.566         0.5607       -35.5475      -2.820229      0.9706415
