#------------------------------------------------------------------------------
# Created by    : vladimir.rabinovich
# Created on    : 09/19/2023 17:20:02
#------------------------------------------------------------------------------
~Version Information Section
VERS.           2.0     :   CWLS log ASCII Standard - VERSION 2.0
WRAP.           NO      :   One line per depth step
~Well Information Section
#MNEM       .UNIT                                         VALUE :DESCRIPTION
#------------------------------------------------------------------------------
STRT        .FT                                             994 :START DEPTH
STOP        .FT                                           14137 :STOP DEPTH
STEP        .FT                                             0.5 :STEP      
NULL        .                                           -999.25 :NULL      
COMP        .                                   MARATHON OIL CO :COMPANY   
WELL        .                                     ST TR 00841-L :WELL      
FLD         .                                           WILDCAT :FIELD     
LOC         .                                                   :LOCATION  
CNTY        .                        MUSTANG ISLAND LARGE BLOCK :LOCATION  
STAT        .                                             TEXAS :STATE     
CTRY        .                                     UNITED STATES :COUNTRY   
SRVC        .                                                   :SERVICE COMPANY
DATE        .                             9/13/2023 11:18:55 AM :LOG DATE  
API         .                                    42702301400000 :API NUMBER
UWI         .                                    42702301400000 :UNIQUE WELL ID
XCOORD      .                                  272565.632686387 :SURFACE X 
YCOORD      .                                  9953986.84876921 :SURFACE Y 
LAT         .                                         27.367086 :LATITUDE  
LON         .                                       -97.2136853 :LONGITUDE 
ELEV        .FT                                              88 :ELEVATION VALUE
ELEV_TYPE   .                                                KB :ELEVATION REFERENCE TYPE
~Curve Information Section
#MNEM       .UNIT                                      API CODE :CURVE DESCRIPTION
#------------------------------------------------------------------------------
DEPT        .FT                                                 :DEPTH     
ASFL        .OHMM                                               :          
CILD        .MMHO                                               :          
GR          .GAPI                                               :          
GR_NORM     .GAPI                                               :GammaRay Normalized
ILD         .OHMM                                               :          
SP          .MV                                                 :          
SP_NORM     .MV                                                 :SP Normalized
VSH_GR      .V/V                                                :Volume of Shale from GR
VSH_SP      .V/V                                                :Volume of Shale from SP
~A        DEPTH           ASFL           CILD             GR        GR_NORM            ILD             SP        SP_NORM         VSH_GR         VSH_SP
# ...
     12362.5000         0.5444       2251.715         87.809       93.83259         0.4424       -44.6871     0.03726578              1              1
     12363.0000         0.5536       2235.543         85.212       89.01678         0.4419       -44.8036    -0.07806015              1              1
     12363.5000         0.5605       2255.051        85.0015       88.63182         0.4415       -45.2198      -0.493084              1              1
     12364.0000         0.5673       2290.879        85.6855       89.90756         0.4399        -45.636     -0.9081116              1              1
     12364.5000         0.5734       2322.676        86.3708       91.18571         0.4369       -46.0522      -1.323135              1       0.990496
     12365.0000         0.5523       2343.676        87.0551       92.46205         0.4339       -46.3289       -1.59866              1      0.9823924
     12365.5000         0.5314       2364.625        87.7404        93.7402         0.4309       -46.4584      -1.726982              1      0.9786181
     12366.0000         0.5189       2385.625        88.4257       95.01837         0.4279        -46.588      -1.855408              1      0.9748409
     12366.5000         0.5064       2406.574        88.2177       94.63801         0.4249        -46.718       -1.98423              1      0.9710521
     12367.0000          0.494       2427.527        87.7428       93.76215         0.4219       -46.8475      -2.112556              1      0.9672778
     12367.5000         0.4881        2445.48        87.2693       92.88888         0.4189       -46.9771      -2.240982              1      0.9635005
     12368.0000         0.4915       2445.645        86.7946       92.01337         0.4159       -47.1068      -2.369507              1      0.9597204
     12368.5000         0.4887       2445.805        86.3198       91.13768         0.4129       -47.0989      -2.360432              1      0.9599873
     12369.0000         0.4843       2445.969        85.8451       90.26217         0.4099       -46.5015      -1.761856              1      0.9775925
     12369.5000           0.48       2446.133        85.4276       89.49287         0.4069       -46.1027      -1.361881              1      0.9893565
     12370.0000         0.4759        2442.68        85.0956        88.8823          0.404       -45.7039     -0.9619064              1              1
     12370.5000         0.4721       2432.477         84.764       88.27248         0.4029       -45.3052      -0.562027              1              1
     12371.0000         0.4738        2422.25         84.432       87.66191         0.4017       -45.0968     -0.3524551              1              1
     12371.5000         0.4814       2412.023        84.5728       87.92913         0.4005       -45.2397     -0.4941788              1              1
     12372.0000          0.489       2399.832        85.1809       89.06398         0.3994       -45.3828     -0.6361046              1              1
     12372.5000         0.4966       2398.465        86.1964       90.95523         0.3982       -45.5276     -0.7797279              1              1
     12373.0000         0.4931       2437.078         87.308       93.02486          0.397       -45.6809     -0.9318542              1              1
     12373.5000         0.4858       2475.598         88.417       95.08967         0.3959       -45.8339      -1.083679              1      0.9975389
     12374.0000         0.4785       2514.211        88.7136       95.64616         0.3947       -45.9871      -1.235703              1      0.9930676
     12374.5000         0.4711       2553.723        87.2032       92.84778         0.3935       -45.9662      -1.213631              1      0.9937167
     12375.0000         0.4638       2596.918        85.6906       90.04527         0.3924       -45.7045     -0.9507523              1              1
     12375.5000         0.4565       2640.211        84.1803       87.24707         0.3915       -45.4435     -0.6885757              1              1
     12376.0000          0.448       2683.402        82.8943       84.86531         0.3914       -45.1818     -0.4257011              1              1
     12376.5000         0.4325       2711.219        81.6333       82.52992         0.3914       -44.9896     -0.2323265              1              1
     12377.0000         0.4256       2713.906        80.3722        80.1944         0.3913         -44.86     -0.1015511              1              1
     12377.5000         0.4409       2695.895        79.1959       78.01627         0.3912       -44.7307     0.02892303      0.9577931              1
     12378.0000         0.4509       2665.938         80.103       79.70625         0.3912       -44.6011      0.1596985      0.9937499              1
     12378.5000         0.4608       2636.027        83.4351       85.89848         0.3911       -44.4149      0.3470726              1              1
     12379.0000         0.4563       2606.121        84.7285       88.30567          0.391       -43.9027      0.8604507              1              1
     12379.5000         0.4512       2576.164        84.1205        87.1827          0.391       -44.1438      0.6205254              1              1
     12380.0000         0.4468       2546.258        83.1635       85.41174         0.3909       -44.3764      0.3890991              1              1
     12380.5000         0.4424       2514.609        82.2239        83.6731         0.3908        -44.421      0.3456764              1              1
     12381.0000          0.453       2481.516        81.2843       81.93444         0.3907       -44.4479      0.3199539              1              1
     12381.5000         0.4643       2448.375        80.3473       80.20062         0.3903       -44.1146      0.6544266              1              1
     12382.0000         0.4755       2415.234        79.4077         78.462         0.3898       -43.7806      0.9896011      0.9672766              1
     12382.5000         0.4867        2429.02        78.6849       77.12585         0.3894       -43.4473       1.324078       0.938848              1
     12383.0000         0.4971       2466.637        78.0681       75.98653          0.389       -44.3176      0.4549522      0.9146071              1
     12383.5000         0.5071       2504.258        77.4526       74.84961         0.3885        -46.127      -1.353271      0.8904172      0.9896097
     12384.0000         0.5107       2541.879        76.8358       73.71029         0.3881        -48.041      -3.266098      0.8661764      0.9333501
     12384.5000         0.4907       2582.188        76.2202       72.57318         0.3877       -48.4111      -3.635021      0.8419826      0.9224994
     12385.0000         0.4792       2622.594        75.7317       71.67205         0.3873       -48.0049       -3.22765      0.8228096      0.9344809
     12385.5000         0.4683       2662.902        75.2943       70.86581         0.3868       -47.5612      -2.782768      0.8056556      0.9475656
     12386.0000         0.4575       2703.207         76.123       72.41021         0.3864       -47.1151      -2.335495      0.8385151      0.9607207
     12386.5000         0.4559       2734.063        77.3068       74.61391          0.386       -46.6691      -1.888321      0.8854024      0.9738729
     12387.0000         0.4577       2732.992          78.66       77.13211         0.3855       -46.2217      -1.439743      0.9389811      0.9870664
     12387.5000         0.4569       2721.098        80.3447       80.26578         0.3851       -45.7756     -0.9924698              1              1
     12388.0000         0.4562       2712.004         82.032       83.40424         0.3847       -45.3624     -0.5780945              1              1
     12388.5000         0.4554       2703.906        82.9703       85.15215         0.3843        -45.315     -0.5295181              1              1
