#------------------------------------------------------------------------------
# Created by    : vladimir.rabinovich
# Created on    : 09/19/2023 17:20:36
#------------------------------------------------------------------------------
~Version Information Section
VERS.           2.0     :   CWLS log ASCII Standard - VERSION 2.0
WRAP.           NO      :   One line per depth step
~Well Information Section
#MNEM       .UNIT                                         VALUE :DESCRIPTION
#------------------------------------------------------------------------------
STRT        .FT                                             510 :START DEPTH
STOP        .FT                                            7943 :STOP DEPTH
STEP        .FT                                             0.5 :STEP      
NULL        .                                           -999.25 :NULL      
COMP        .                       BLUE DOLPHIN EXPLORATION CO :COMPANY   
WELL        .                                OCS 00709 ST00BP00 :WELL      
FLD         .                                FEDERAL BLOCK 0288 :FIELD     
LOC         .                                                   :LOCATION  
CNTY        .                             GALVESTON LARGE BLOCK :LOCATION  
STAT        .                                             TEXAS :STATE     
CTRY        .                                     UNITED STATES :COUNTRY   
SRVC        .                                                   :SERVICE COMPANY
DATE        .                             9/13/2023 11:19:25 AM :LOG DATE  
API         .                                    42706000400000 :API NUMBER
UWI         .                                    42706000400000 :UNIQUE WELL ID
XCOORD      .                                   1098851.8122004 :SURFACE X 
YCOORD      .                                  10485233.3471489 :SURFACE Y 
LAT         .                                         28.881916 :LATITUDE  
LON         .                                        -94.692672 :LONGITUDE 
ELEV        .FT                                              93 :ELEVATION VALUE
ELEV_TYPE   .                                                KB :ELEVATION REFERENCE TYPE
~Curve Information Section
#MNEM       .UNIT                                      API CODE :CURVE DESCRIPTION
#------------------------------------------------------------------------------
DEPT        .FT                                                 :DEPTH     
ASN         .OHMM                                               :          
GR          .GAPI                                               :          
ILD         .OHMM                                               :          
NEUT        .NAPI                                               :          
SP          .MV                                                 :          
SP_NORM     .MV                                                 :SP Normalized
VSH_SP      .V/V                                                :Volume of Shale from SP
~A        DEPTH            ASN             GR            ILD           NEUT             SP        SP_NORM         VSH_SP
# ...
      1481.5000         0.9157        -999.25         0.7048        -999.25        -53.934     -0.8347359              1
      1482.0000         0.9139        -999.25         0.6975        -999.25       -53.9492     -0.8508606              1
      1482.5000         0.9222        -999.25         0.6998        -999.25       -53.6378     -0.5403824              1
      1483.0000         0.9343        -999.25         0.7094        -999.25       -53.1298    -0.03330231              1
      1483.5000         0.9462        -999.25         0.7347        -999.25       -52.6617      0.4338722              1
      1484.0000         0.9545        -999.25         0.7584        -999.25       -52.2844      0.8102493              1
      1484.5000         0.9639        -999.25         0.7781        -999.25       -52.2595      0.8342323              1
      1485.0000         0.9814        -999.25         0.7989        -999.25       -51.9044       1.188408              1
      1485.5000         1.0015        -999.25         0.8239        -999.25       -52.2888      0.8030891              1
      1486.0000         1.0247        -999.25          0.847        -999.25       -52.2208      0.8701668              1
      1486.5000         1.0477        -999.25         0.8687        -999.25       -52.0042       1.085842              1
      1487.0000         1.0684        -999.25         0.8841        -999.25       -52.4224      0.6667213              1
      1487.5000         1.0808        -999.25         0.8936        -999.25       -52.9325      0.1557007              1
      1488.0000         1.0841        -999.25         0.8927        -999.25       -53.3356     -0.2483253              1
      1488.5000         1.0772        -999.25         0.8859        -999.25       -53.6706     -0.5842438              1
      1489.0000         1.0688        -999.25         0.8772        -999.25       -53.9355     -0.8500671              1
      1489.5000         1.0629        -999.25         0.8853        -999.25       -53.8766     -0.7920876              1
      1490.0000          1.066        -999.25         0.8935        -999.25       -54.2191      -1.135509              1
      1490.5000         1.0784        -999.25         0.9016        -999.25       -54.4585      -1.375832              1
      1491.0000         1.0999        -999.25         0.9232        -999.25       -54.2157      -1.133953              1
      1491.5000          1.127        -999.25         0.9635        -999.25       -53.6636     -0.5827751              1
      1492.0000         1.1554        -999.25         1.0129        -999.25       -53.1559     -0.0759964              1
      1492.5000         1.1819        -999.25         1.0659        -999.25       -53.0379     0.04108047              1
      1493.0000         1.2097        -999.25         1.1182        -999.25       -52.8547       0.223362              1
      1493.5000         1.2343        -999.25         1.1644        -999.25       -52.7859      0.2912369              1
      1494.0000         1.2509        -999.25          1.196        -999.25       -52.8104      0.2658157              1
      1494.5000         1.2636        -999.25         1.2134        -999.25       -52.6741      0.4011955              1
      1495.0000         1.2693        -999.25         1.1861        -999.25       -52.5723      0.5020714              1
      1495.5000         1.2687        -999.25         1.1448        -999.25       -52.3807       0.692749              1
      1496.0000         1.2601        -999.25         1.0994        -999.25       -52.5245       0.548027              1
      1496.5000         1.2425        -999.25         1.0539        -999.25       -52.3207      0.7509041              1
      1497.0000         1.2159        -999.25         1.0121        -999.25       -52.6965      0.3741875              1
      1497.5000         1.1852        -999.25         0.9725        -999.25       -53.0594     0.01036453              1
      1498.0000         1.1532        -999.25         0.9308        -999.25       -53.3387     -0.2698593              1
      1498.5000         1.1266        -999.25         0.8887        -999.25       -53.5222     -0.4542809              1
      1499.0000         1.1044        -999.25         0.8493        -999.25       -53.5665     -0.4995041              1
      1499.5000         1.0852        -999.25         0.8106        -999.25       -53.3913     -0.3252258              1
      1500.0000         1.0708        -999.25         0.7835        -999.25       -53.0039     0.06125641              1
      1500.5000          1.064        -999.25         0.7609        -999.25       -53.0658   -0.001567841              1
      1501.0000          1.049        -999.25         0.7473        -999.25       -53.3815     -0.3181915              1
      1501.5000         1.0355        -999.25         0.7418        -999.25       -53.4846     -0.4222107              1
      1502.0000         1.0253        -999.25         0.7436        -999.25       -53.3968     -0.3353348              1
      1502.5000         1.0201        -999.25         0.7505        -999.25       -53.1527    -0.09215546              1
      1503.0000         1.0276        -999.25         0.7647        -999.25       -53.0871    -0.02747726              1
      1503.5000          1.042        -999.25         0.7862        -999.25       -53.2815     -0.2228012              1
      1504.0000          1.063        -999.25         0.8159        -999.25       -52.6174      0.4403763              1
      1504.5000         1.0908        -999.25         0.8769        -999.25       -51.9064       1.150459              1
      1505.0000         1.1257        -999.25         0.9159        -999.25       -51.5928       1.463135              1
      1505.5000         1.1594        -999.25         0.9553        -999.25       -51.5633       1.491711              1
      1506.0000         1.1873        -999.25         0.9934        -999.25       -51.9319       1.122192              1
      1506.5000          1.212        -999.25         1.0205        -999.25       -52.6563      0.3968697              1
      1507.0000         1.2325        -999.25         1.0416        -999.25       -53.4565     -0.4042511              1
      1507.5000         1.2363        -999.25         1.0592        -999.25        -54.009     -0.9576721              1
      1508.0000         1.2342        -999.25         1.0689        -999.25       -54.5142      -1.463795              1
      1508.5000         1.2302        -999.25         1.0717        -999.25        -54.682      -1.632515              1
      1509.0000         1.2254        -999.25         1.0653        -999.25       -55.0882      -2.039639      0.9933936
      1509.5000         1.2204        -999.25         1.0486        -999.25       -55.0435      -1.995861              1
      1510.0000         1.2058        -999.25         1.0192        -999.25       -54.5887      -1.541981              1
      1510.5000         1.1809        -999.25         0.9898        -999.25        -54.763      -1.717205              1
      1511.0000         1.1545        -999.25         0.9597        -999.25        -55.048      -2.003128      0.9994786
      1511.5000         1.1247        -999.25         0.9258        -999.25         -55.22      -2.176048      0.9706586
      1512.0000         1.0943        -999.25         0.8898        -999.25        -55.168      -2.124969      0.9791718
      1512.5000         1.0676        -999.25          0.852        -999.25       -54.9013      -1.859192              1
      1513.0000         1.0321        -999.25         0.8029        -999.25       -54.4311      -1.389912              1
      1513.5000         0.9963        -999.25         0.7535        -999.25        -53.944     -0.9037361              1
      1514.0000         0.9577        -999.25         0.7118        -999.25       -53.5106     -0.4712601              1
      1514.5000         0.9246        -999.25         0.6735        -999.25       -53.1649     -0.1264801              1
