#------------------------------------------------------------------------------
# Created by    : vladimir.rabinovich
# Created on    : 09/19/2023 17:20:01
#------------------------------------------------------------------------------
~Version Information Section
VERS.           2.0     :   CWLS log ASCII Standard - VERSION 2.0
WRAP.           NO      :   One line per depth step
~Well Information Section
#MNEM       .UNIT                                         VALUE :DESCRIPTION
#------------------------------------------------------------------------------
STRT        .FT                                            3496 :START DEPTH
STOP        .FT                                           13495 :STOP DEPTH
STEP        .FT                                             0.5 :STEP      
NULL        .                                           -999.25 :NULL      
COMP        .                      TEXAS EASTERN EXPLORATION CO :COMPANY   
WELL        .                                ST TR 00798-L NE/4 :WELL      
FLD         .                                           WILDCAT :FIELD     
LOC         .                                                   :LOCATION  
CNTY        .                        MUSTANG ISLAND LARGE BLOCK :LOCATION  
STAT        .                                             TEXAS :STATE     
CTRY        .                                     UNITED STATES :COUNTRY   
SRVC        .                                                   :SERVICE COMPANY
DATE        .                             9/13/2023 11:18:55 AM :LOG DATE  
API         .                                    42702302040000 :API NUMBER
UWI         .                                    42702302040000 :UNIQUE WELL ID
XCOORD      .                                  329124.923046376 :SURFACE X 
YCOORD      .                                  10022065.1107101 :SURFACE Y 
LAT         .                                        27.5591082 :LATITUDE  
LON         .                                       -97.0466418 :LONGITUDE 
ELEV        .FT                                              82 :ELEVATION VALUE
ELEV_TYPE   .                                                KB :ELEVATION REFERENCE TYPE
~Curve Information Section
#MNEM       .UNIT                                      API CODE :CURVE DESCRIPTION
#------------------------------------------------------------------------------
DEPT        .FT                                                 :DEPTH     
ASFL        .OHMM                                               :          
CILD        .MMHO                                               :          
GR          .GAPI                                               :          
GR_NORM     .GAPI                                               :GammaRay Normalized
ILD         .OHMM                                               :          
SFL         .OHMM                                               :          
SP          .MV                                                 :          
SP_NORM     .MV                                                 :SP Normalized
VSH_GR      .V/V                                                :Volume of Shale from GR
VSH_SP      .V/V                                                :Volume of Shale from SP
~A        DEPTH           ASFL           CILD             GR        GR_NORM            ILD            SFL             SP        SP_NORM         VSH_GR         VSH_SP
# ...
      8812.5000         0.6032       2179.465        55.9012       72.77766         0.4728         0.6071       -41.7506     -0.8149261      0.8463331              1
      8813.0000         0.6204       2101.246        54.9808       71.60204         0.4812         0.6171       -41.8948     -0.9591255      0.8213199              1
      8813.5000         0.6337       2079.262        55.4343       72.18615         0.4869         0.6277       -41.6887     -0.7530289      0.8337479              1
      8814.0000         0.6433       2068.668        56.5389       73.60421         0.4926         0.6403       -41.4592     -0.5235291      0.8639194              1
      8814.5000         0.6462        2071.23        57.3499       74.64622         0.4967         0.6406       -41.2034     -0.2677269      0.8860897              1
      8815.0000         0.6373       2077.938        57.9803       75.45693         0.4999         0.6336        -40.847     0.08867264       0.903339              1
      8815.5000         0.6284       2084.629        58.5443       76.18258         0.5032         0.6263       -40.4907       0.444973      0.9187783              1
      8816.0000         0.6188       2092.746        59.0984       76.89552         0.5061          0.619       -40.1343      0.8013725      0.9339473              1
      8816.5000          0.609       2101.086        59.2852       77.13805         0.5077         0.6116       -39.8351       1.100574      0.9391075              1
      8817.0000         0.6065       2083.152        58.7053       76.39857         0.5092         0.6045       -39.5614       1.374271      0.9233739              1
      8817.5000         0.6094       2050.688        58.0245       75.52985         0.5125         0.6029       -39.6268       1.308872      0.9048904              1
      8818.0000         0.6232       1946.494        57.2074       74.48655         0.5161         0.6014       -39.9703       0.965374      0.8826925              1
      8818.5000         0.6431       1886.814        56.3903       73.44326         0.5263         0.6023         -40.46      0.4756737      0.8604949              1
      8819.0000         0.6671       1822.029        55.7599       72.63909         0.5365         0.6188       -41.3889      -0.453228      0.8433849              1
      8819.5000         0.6957       1778.906         55.191        71.9137         0.5364         0.6354        -42.058      -1.122326       0.827951      0.9982272
      8820.0000         0.7125       1739.449        54.9317       71.58483         0.5355         0.6596       -42.5169      -1.581226      0.8209538      0.9915764
      8820.5000         0.7274       1710.377        55.9172       72.85036         0.5233         0.6836       -42.7215      -1.785828      0.8478799      0.9886112
      8821.0000         0.7385       1739.797         57.318       74.64778          0.511         0.7009       -42.8137      -1.878029       0.886123      0.9872749
      8821.5000         0.7253       1831.002        56.9321       74.15678         0.4988         0.6958       -42.7598      -1.824127      0.8756761      0.9880561
      8822.0000         0.6765       1922.207        56.3436       73.40628          0.488         0.6785        -42.715      -1.779327      0.8597081      0.9887054
      8822.5000          0.646       2013.412        56.8768       74.09248         0.4775         0.6563       -42.7164      -1.780727       0.874308      0.9886851
      8823.0000         0.6266       2104.617        57.7984       75.27615         0.4671         0.6342       -42.7177      -1.782028      0.8994924      0.9886662
      8823.5000         0.6111        2195.82        58.8515       76.62824         0.4638         0.6184       -42.7191      -1.783428      0.9282605       0.988646
      8824.0000         0.6018       2287.027        58.4036       76.05782         0.4637         0.6101       -42.7205      -1.784828      0.9161239      0.9886257
      8824.5000         0.5951       2323.953        57.9563       75.48819          0.466         0.6017       -42.7219      -1.786228       0.904004      0.9886054
      8825.0000         0.5943        2343.34         57.509       74.91853         0.4703         0.5998       -42.8573      -1.921627      0.8918836      0.9866431
      8825.5000         0.5992       2345.266        57.7751       75.26263         0.4745         0.6027       -43.0649      -2.129227      0.8992049      0.9836344
      8826.0000          0.604       2338.008        58.5394       76.24482         0.4798         0.6056       -43.1682      -2.232529      0.9201025      0.9821373
      8826.5000         0.6088       2321.797        59.3024       77.22534         0.4854         0.6085       -43.0137      -2.078026      0.9409647      0.9843764
      8827.0000         0.6136        2273.84        60.0225       78.15092         0.4909         0.6106       -42.8594      -1.923729       0.960658      0.9866126
      8827.5000         0.6187       2231.957        59.9131       78.01407         0.4938         0.6124        -42.528      -1.592327      0.9577461      0.9914156
      8828.0000         0.6235       2185.113         58.747       76.52377         0.4923         0.6142       -42.1802      -1.244526      0.9260375      0.9964561
      8828.5000         0.6282       2150.168        57.7714       75.27745         0.4909          0.616       -41.8331     -0.8974266      0.8995202              1
      8829.0000         0.6332       2138.211        57.1078       74.43077         0.4881         0.6132       -41.5068     -0.5711288      0.8815058              1
      8829.5000         0.6387       2149.004        57.7407       75.24467         0.4821         0.6079       -41.3572     -0.4215279      0.8988227              1
      8830.0000         0.6418       2171.633        59.7731       77.85107         0.4761          0.604       -41.4459     -0.5102272       0.954278              1
      8830.5000         0.6349       2194.234        62.1937       80.95468         0.4693         0.6027       -41.5347     -0.5990257              1              1
      8831.0000         0.6103       2237.605         63.194       82.23915         0.4619         0.6014       -41.6233     -0.6876259              1              1
      8831.5000         0.6005       2280.582        61.8915       80.57414         0.4546         0.6001       -41.7145     -0.7788277              1              1
      8832.0000         0.5958       2422.547         60.589       78.90915         0.4472         0.5978       -41.8099     -0.8742256      0.9767904              1
      8832.5000         0.5904       2475.535        59.3946        77.3826         0.4406         0.5954       -41.9055     -0.9698257      0.9443106              1
      8833.0000         0.5845        2500.84        58.2076       75.86552         0.4342         0.5929       -41.8756     -0.9399261      0.9120324              1
      8833.5000         0.5761        2532.34        57.4273       74.86937         0.4278         0.5904       -41.8262     -0.8905258      0.8908377              1
      8834.0000         0.5678       2562.871        56.6888       73.92673         0.4214         0.5877       -41.7769     -0.8412285      0.8707816              1
      8834.5000         0.5598       2588.996        56.0154        73.0675         0.4165          0.585       -41.6116     -0.6759262         0.8525              1
      8835.0000         0.5518       2615.066        55.5596       72.48696         0.4154         0.5805        -41.411     -0.4753265      0.8401481              1
      8835.5000         0.5449       2644.016        59.3995       77.40845         0.4142         0.5719       -41.2318     -0.2961273      0.9448608              1
      8836.0000         0.5398       2673.211        65.3369       85.01646         0.4131         0.5633       -41.1226     -0.1869278              1              1
      8836.5000         0.5348        2697.25        68.3156       88.83491          0.412         0.5547       -41.0325    -0.09682846              1              1
