#------------------------------------------------------------------------------
# Created by    : vladimir.rabinovich
# Created on    : 09/19/2023 17:22:50
#------------------------------------------------------------------------------
~Version Information Section
VERS.           2.0     :   CWLS log ASCII Standard - VERSION 2.0
WRAP.           NO      :   One line per depth step
~Well Information Section
#MNEM       .UNIT                                         VALUE :DESCRIPTION
#------------------------------------------------------------------------------
STRT        .FT                                            1142 :START DEPTH
STOP        .FT                                           15630 :STOP DEPTH
STEP        .FT                                             0.5 :STEP      
NULL        .                                           -999.25 :NULL      
COMP        .                                     PRIMARY FUELS :COMPANY   
WELL        .                                ST TR 00520-L SE/4 :WELL      
FLD         .                                          EL GORDO :FIELD     
LOC         .                                                   :LOCATION  
CNTY        .                      MATAGORDA ISLAND LARGE BLOCK :LOCATION  
STAT        .                                             TEXAS :STATE     
CTRY        .                                     UNITED STATES :COUNTRY   
SRVC        .                                                   :SERVICE COMPANY
DATE        .                             9/13/2023 11:19:05 AM :LOG DATE  
API         .                                    42703303520000 :API NUMBER
UWI         .                                    42703303520000 :UNIQUE WELL ID
XCOORD      .                                  629148.716839967 :SURFACE X 
YCOORD      .                                   10306131.761235 :SURFACE Y 
LAT         .                                        28.3634759 :LATITUDE  
LON         .                                       -96.1446235 :LONGITUDE 
ELEV        .FT                                             101 :ELEVATION VALUE
ELEV_TYPE   .                                                KB :ELEVATION REFERENCE TYPE
~Curve Information Section
#MNEM       .UNIT                                      API CODE :CURVE DESCRIPTION
#------------------------------------------------------------------------------
DEPT        .FT                                                 :DEPTH     
DT          .US/F                                               :          
ILD         .OHMM                                               :          
SP          .MV                                                 :          
SP_NORM     .MV                                                 :SP Normalized
VSH_SP      .V/V                                                :Volume of Shale from SP
~A        DEPTH             DT            ILD             SP        SP_NORM         VSH_SP
# ...
      8842.0000       118.9021         0.8725        90.8263      0.9362411              1
      8842.5000       118.6145         0.8673        91.0883       1.195038              1
      8843.0000       118.6194         0.8682        91.3446       1.448135              1
      8843.5000       118.9636         0.8766           91.6        1.70034              1
      8844.0000       119.7413          0.885        91.8278       1.924934              1
      8844.5000       120.4878         0.9063        91.9556       2.049538              1
      8845.0000        120.134         0.9287        92.0833       2.174034              1
      8845.5000        117.078         0.9516        91.9855       2.073036              1
      8846.0000       114.4385         0.9735        91.8153       1.899643              1
      8846.5000       112.2582         0.9948        91.6385       1.719635              1
      8847.0000       110.7327         1.0167        91.4192       1.497139              1
      8847.5000       111.1008         1.0368        91.2158       1.290535              1
      8848.0000       111.8517         1.0545        91.2294       1.300941              1
      8848.5000       112.6709         1.0724        91.2429       1.311241              1
      8849.0000       113.4487         1.0835        91.0717       1.136841              1
      8849.5000       114.1814         1.0867        90.8447      0.9066467              1
      8850.0000       114.9153         1.0898        90.6178      0.6765366              1
      8850.5000       114.4348          1.092        90.2152      0.2707443              1
      8851.0000       113.9644         1.0879        89.5808     -0.3668518              1
      8851.5000       115.7332         1.0838        88.9935     -0.9573593              1
      8852.0000       118.3477         1.0894        88.4208      -1.533257      0.9932499
      8852.5000       120.4502         1.0998        87.9645       -1.99276      0.9874334
      8853.0000       122.5779         1.1005        87.5972      -2.363258      0.9827436
      8853.5000       123.0897         1.0932        87.4443      -2.519363      0.9807675
      8854.0000       120.7864         1.0792        87.5502      -2.416656      0.9820676
      8854.5000       117.5848         1.0676        88.1857      -1.784355      0.9900715
      8855.0000       114.3331         1.0575        88.6338      -1.339462       0.995703
      8855.5000       112.2607         1.0558        88.7147      -1.261757      0.9966866
      8856.0000       110.8356         1.0742        88.6373      -1.342361      0.9956663
      8856.5000       112.0273         1.0924        88.4304       -1.55246      0.9930068
      8857.0000       112.3606         1.1106        88.2935      -1.692551      0.9912335
      8857.5000       111.8492          1.129        88.2777      -1.711555       0.990993
      8858.0000       110.7227         1.1338         88.262      -1.730453      0.9907538
      8858.5000       109.4255         1.1289        88.1237      -1.871956      0.9889626
      8859.0000       108.4468         1.1315        87.9127      -2.086159      0.9862512
      8859.5000       108.9023         1.1456        87.7018      -2.300255      0.9835411
      8860.0000       110.0465         1.1596         87.418      -2.587257      0.9799081
      8860.5000       110.7339         1.1694        87.0281      -2.980354      0.9749323
      8861.0000        111.089         1.1616        86.6376      -3.374054      0.9699487
      8861.5000       110.5132         1.1509        86.2478      -3.767052       0.964974
      8862.0000       110.4504         1.1368        85.5721      -4.445953      0.9563803
      8862.5000       111.4979         1.1229        84.7297      -5.291557      0.9456765
      8863.0000       113.1288         1.1127        83.8873      -6.137154      0.9349728
      8863.5000        114.549         1.1066        82.6552      -7.372459       0.919336
      8864.0000       114.8623         1.1039        81.3164      -8.714455      0.9023487
      8864.5000       113.5679         1.1072        78.6188      -11.41525      0.8681614
      8865.0000        112.188         1.0856        72.4866      -17.55065      0.7904981
      8865.5000        110.808          1.054        66.7153      -23.32515      0.7174032
      8866.0000       109.7969         0.9992        59.4048      -30.63885      0.6248246
      8866.5000        109.137         0.9392        51.8737      -38.17315      0.5294538
      8867.0000       108.4771          0.883         44.182      -45.86805        0.43205
      8867.5000       108.4257         0.8335        36.6458      -53.40745      0.3366145
      8868.0000       108.7944         0.7883        32.9855      -57.07095      0.2902412
      8868.5000       109.0815         0.7454        29.4707      -60.58895      0.2457094
      8869.0000       109.1619         0.7088        26.3369      -63.72595      0.2060006
      8869.5000       108.7994         0.6746        24.5193      -65.54675      0.1829526
      8870.0000       108.1119         0.6491        24.6734      -65.39585      0.1848626
      8870.5000       107.4246         0.6315        25.4669      -64.60555      0.1948665
      8871.0000       107.1356         0.6153         25.711      -64.36465      0.1979158
      8871.5000       106.9962         0.6136        25.9282      -64.15065      0.2006247
      8872.0000       108.5824          0.612        27.2419      -62.84015      0.2172133
      8872.5000       113.1188         0.6135        29.3954      -60.68985      0.2444323
      8873.0000       116.4758         0.6207        30.9279      -59.16055      0.2637906
      8873.5000       118.0667          0.628        31.1372      -58.95445      0.2663993
      8874.0000       117.2111         0.6353         30.963      -59.13185      0.2641538
      8874.5000       115.1987         0.6437        30.8941      -59.20395      0.2632412
      8875.0000       113.2041          0.654        30.8545      -59.24675      0.2626994
      8875.5000       112.1591         0.6645        31.2406      -58.86385      0.2675463
      8876.0000       112.8704         0.6752        32.0153      -58.09235       0.277312
      8876.5000       113.4268         0.6836        33.0319      -57.07895      0.2901399
      8877.0000       113.9838         0.6902        34.1137      -56.00034      0.3037931
      8877.5000       114.0264         0.6969        35.1867      -54.93055      0.3173348
      8878.0000       113.7551          0.698        36.2073      -53.91315      0.3302133
      8878.5000       113.4199         0.6963        35.8185      -54.30515      0.3252513
      8879.0000       112.6509         0.6947        34.2917      -55.83515      0.3058842
      8879.5000       111.8818         0.6836        31.2306      -58.89944      0.2670956
      8880.0000       111.1005         0.6711        23.7807      -66.35255      0.1727526
      8880.5000       111.5436          0.661        21.2698      -68.86665      0.1409285
      8881.0000       112.3622         0.6558        18.5634      -71.57625      0.1066298
      8881.5000       112.9254          0.654        16.1377      -74.00514     0.07588428
      8882.0000       112.4073         0.6484        14.9824      -75.16364     0.06121971
      8882.5000        111.782         0.6421        12.5026      -77.64664     0.02978931
      8883.0000       111.0619          0.631        10.5079      -79.64455    0.004499411
      8883.5000       110.2654         0.6215         8.5808      -81.57484              0
      8884.0000       109.4324         0.6153         7.0447      -83.11414              0
      8884.5000       108.8973         0.6095         6.3249      -83.83714              0
      8885.0000       108.6129         0.6055         7.2126      -82.95264              0
      8885.5000       108.6647         0.6018         9.6534      -80.51505              0
