#------------------------------------------------------------------------------
# Created by    : vladimir.rabinovich
# Created on    : 09/19/2023 17:20:39
#------------------------------------------------------------------------------
~Version Information Section
VERS.           2.0     :   CWLS log ASCII Standard - VERSION 2.0
WRAP.           NO      :   One line per depth step
~Well Information Section
#MNEM       .UNIT                                         VALUE :DESCRIPTION
#------------------------------------------------------------------------------
STRT        .FT                                             523 :START DEPTH
STOP        .FT                                           11863 :STOP DEPTH
STEP        .FT                                             0.5 :STEP      
NULL        .                                           -999.25 :NULL      
COMP        .                                      SHELL OIL CO :COMPANY   
WELL        .                                OCS 00727 ST00BP00 :WELL      
FLD         .                                           WILDCAT :FIELD     
LOC         .                                                   :LOCATION  
CNTY        .                             GALVESTON LARGE BLOCK :LOCATION  
STAT        .                                             TEXAS :STATE     
CTRY        .                                     UNITED STATES :COUNTRY   
SRVC        .                                                   :SERVICE COMPANY
DATE        .                             9/13/2023 11:19:42 AM :LOG DATE  
API         .                                    42706000240000 :API NUMBER
UWI         .                                    42706000240000 :UNIQUE WELL ID
XCOORD      .                                  977080.798970248 :SURFACE X 
YCOORD      .                                   10388448.113324 :SURFACE Y 
LAT         .                                         28.610486 :LATITUDE  
LON         .                                        -95.067834 :LONGITUDE 
ELEV        .FT                                              76 :ELEVATION VALUE
ELEV_TYPE   .                                                KB :ELEVATION REFERENCE TYPE
~Curve Information Section
#MNEM       .UNIT                                      API CODE :CURVE DESCRIPTION
#------------------------------------------------------------------------------
DEPT        .FT                                                 :DEPTH     
ASN         .OHMM                                               :          
ILD         .OHMM                                               :          
LN          .OHMM                                               :          
SP          .MV                                                 :          
SP_NORM     .MV                                                 :SP Normalized
VSH_SP      .V/V                                                :Volume of Shale from SP
~A        DEPTH            ASN            ILD             LN             SP        SP_NORM         VSH_SP
# ...
      3525.0000         0.8269         0.7493        -999.25         -35.67      -1.523655       0.981943
      3525.5000         0.8313          0.756        -999.25       -35.5835      -1.437157      0.9849256
      3526.0000         0.8374         0.7628        -999.25        -35.497      -1.350658      0.9879083
      3526.5000         0.8435         0.7695        -999.25       -35.4105      -1.264156      0.9908912
      3527.0000         0.8496         0.7721        -999.25       -35.3241      -1.177757      0.9938704
      3527.5000         0.8557          0.761        -999.25       -35.2108      -1.064457      0.9977773
      3528.0000           0.86           0.75        -999.25       -35.0922      -0.945858              1
      3528.5000         0.8446         0.7404        -999.25       -34.9736     -0.8272552              1
      3529.0000         0.8284         0.7331        -999.25       -34.8549     -0.7085571              1
      3529.5000         0.8121         0.7257        -999.25       -34.7363     -0.5899582              1
      3530.0000         0.7958         0.7183        -999.25       -34.6177     -0.4713554              1
      3530.5000         0.7849          0.711        -999.25       -34.5272     -0.3808556              1
      3531.0000         0.7801         0.7036        -999.25       -34.5829     -0.4365578              1
      3531.5000         0.7752         0.6962        -999.25       -34.6386     -0.4922562              1
      3532.0000         0.7704         0.6889        -999.25       -34.6943     -0.5479584              1
      3532.5000         0.7705         0.6892        -999.25       -34.7501      -0.603756              1
      3533.0000         0.7708         0.6908        -999.25       -34.8058     -0.6594582              1
      3533.5000          0.771         0.6925        -999.25       -34.8616     -0.7152557              1
      3534.0000         0.7713         0.6941        -999.25       -34.9117      -0.765358              1
      3534.5000         0.7716         0.6973        -999.25       -34.9549     -0.8085556              1
      3535.0000         0.7718         0.7067        -999.25       -34.9981      -0.851757              1
      3535.5000         0.7772         0.7162        -999.25       -35.0413     -0.8949585              1
      3536.0000          0.785         0.7257        -999.25       -35.0845     -0.9381561              1
      3536.5000         0.7927         0.7351        -999.25       -35.1276     -0.9812584              1
      3537.0000         0.8004         0.7446        -999.25       -35.1708      -1.024456      0.9991567
      3537.5000         0.8081         0.7564        -999.25       -35.2139      -1.067558      0.9976704
      3538.0000         0.8158         0.7854        -999.25       -35.2571      -1.110756      0.9961808
      3538.5000         0.8235         0.8143        -999.25       -35.3003      -1.153957      0.9946911
      3539.0000         0.8382         0.8432        -999.25       -35.3434      -1.197056       0.993205
      3539.5000         0.8559         0.8683        -999.25       -35.3867      -1.240356      0.9917119
      3540.0000         0.8735          0.885        -999.25       -35.4298      -1.283455      0.9902257
      3540.5000         0.8891         0.9018        -999.25        -35.473      -1.326656       0.988736
      3541.0000          0.904         0.9186        -999.25       -35.5009      -1.354557      0.9877739
      3541.5000         0.9144         0.9148        -999.25       -35.5059      -1.359558      0.9876015
      3542.0000         0.9081         0.8891        -999.25       -35.5109      -1.364555      0.9874291
      3542.5000         0.8886         0.8632        -999.25       -35.5158      -1.369457      0.9872601
      3543.0000         0.8687         0.8279        -999.25       -35.5208      -1.374458      0.9870877
      3543.5000         0.8489         0.7926        -999.25       -35.5258      -1.379456      0.9869153
      3544.0000         0.8291         0.7573        -999.25       -35.5308      -1.384457      0.9867429
      3544.5000         0.8145         0.7221        -999.25       -35.5358      -1.389458      0.9865704
      3545.0000         0.8017         0.6868        -999.25       -35.5407      -1.394356      0.9864015
      3545.5000         0.7889         0.6515        -999.25       -35.5457      -1.399357      0.9862291
      3546.0000          0.776         0.6375        -999.25       -35.5314      -1.385056      0.9867222
      3546.5000         0.7673         0.6358        -999.25       -35.4928      -1.346458      0.9880531
      3547.0000         0.7596         0.6341        -999.25       -35.4541      -1.307758      0.9893876
      3547.5000          0.752         0.6324        -999.25       -35.4155      -1.269157      0.9907187
      3548.0000         0.7493          0.644        -999.25       -35.3768      -1.230457      0.9920532
      3548.5000         0.7601         0.6593        -999.25       -35.3382      -1.191856      0.9933842
      3549.0000         0.7708         0.6747        -999.25       -35.2996      -1.153255      0.9947153
      3549.5000         0.7815         0.6901        -999.25       -35.2609      -1.114555      0.9960498
      3550.0000         0.7922         0.7054        -999.25       -35.2222      -1.075855      0.9973843
      3550.5000         0.8029         0.7208        -999.25       -35.1836      -1.037258      0.9987152
      3551.0000         0.8089         0.7362        -999.25        -35.145     -0.9986572              1
      3551.5000         0.8144         0.7503        -999.25       -35.1063     -0.9599571              1
      3552.0000         0.8199         0.7548        -999.25       -35.0676      -0.921257              1
      3552.5000         0.8254         0.7593        -999.25       -35.0222     -0.8758583              1
      3553.0000         0.8218         0.7638        -999.25       -34.9758     -0.8294563              1
      3553.5000         0.8181         0.7649        -999.25       -34.9293     -0.7829552              1
      3554.0000         0.8149         0.7655        -999.25       -34.8828     -0.7364578              1
      3554.5000         0.8118         0.7661        -999.25       -34.8364     -0.6900558              1
      3555.0000         0.8247         0.7666        -999.25       -34.7899     -0.6435585              1
      3555.5000         0.8414         0.7672        -999.25       -34.7434     -0.5970573              1
      3556.0000         0.8581         0.7678        -999.25       -34.6969     -0.5505562              1
      3556.5000         0.8511         0.7684        -999.25       -34.6505      -0.504158              1
      3557.0000         0.8427         0.7689        -999.25       -34.6039     -0.4575577              1
      3557.5000         0.8362         0.7679        -999.25       -34.5575     -0.4111557              1
      3558.0000         0.8297         0.7664        -999.25       -34.5944     -0.4480553              1
      3558.5000         0.8243         0.7649        -999.25        -34.665     -0.5186577              1
      3559.0000          0.826         0.7634        -999.25       -34.7357     -0.5893555              1
      3559.5000         0.8277         0.7646        -999.25       -34.8062     -0.6598549              1
      3560.0000         0.8293         0.7686        -999.25       -34.8769     -0.7305565              1
      3560.5000         0.8348         0.7726        -999.25       -34.9474     -0.8010559              1
      3561.0000         0.8418         0.7766        -999.25       -34.9699      -0.823555              1
      3561.5000          0.849         0.7897        -999.25        -34.919     -0.7726555              1
      3562.0000         0.8561         0.8045        -999.25        -34.868     -0.7216568              1
      3562.5000         0.8632         0.8192        -999.25       -34.8171     -0.6707573              1
