#------------------------------------------------------------------------------
# Created by    : vladimir.rabinovich
# Created on    : 09/19/2023 17:20:01
#------------------------------------------------------------------------------
~Version Information Section
VERS.           2.0     :   CWLS log ASCII Standard - VERSION 2.0
WRAP.           NO      :   One line per depth step
~Well Information Section
#MNEM       .UNIT                                         VALUE :DESCRIPTION
#------------------------------------------------------------------------------
STRT        .FT                                            3496 :START DEPTH
STOP        .FT                                           13495 :STOP DEPTH
STEP        .FT                                             0.5 :STEP      
NULL        .                                           -999.25 :NULL      
COMP        .                      TEXAS EASTERN EXPLORATION CO :COMPANY   
WELL        .                                ST TR 00798-L NE/4 :WELL      
FLD         .                                           WILDCAT :FIELD     
LOC         .                                                   :LOCATION  
CNTY        .                        MUSTANG ISLAND LARGE BLOCK :LOCATION  
STAT        .                                             TEXAS :STATE     
CTRY        .                                     UNITED STATES :COUNTRY   
SRVC        .                                                   :SERVICE COMPANY
DATE        .                             9/13/2023 11:18:55 AM :LOG DATE  
API         .                                    42702302040000 :API NUMBER
UWI         .                                    42702302040000 :UNIQUE WELL ID
XCOORD      .                                  329124.923046376 :SURFACE X 
YCOORD      .                                  10022065.1107101 :SURFACE Y 
LAT         .                                        27.5591082 :LATITUDE  
LON         .                                       -97.0466418 :LONGITUDE 
ELEV        .FT                                              82 :ELEVATION VALUE
ELEV_TYPE   .                                                KB :ELEVATION REFERENCE TYPE
~Curve Information Section
#MNEM       .UNIT                                      API CODE :CURVE DESCRIPTION
#------------------------------------------------------------------------------
DEPT        .FT                                                 :DEPTH     
ASFL        .OHMM                                               :          
CILD        .MMHO                                               :          
GR          .GAPI                                               :          
GR_NORM     .GAPI                                               :GammaRay Normalized
ILD         .OHMM                                               :          
SFL         .OHMM                                               :          
SP          .MV                                                 :          
SP_NORM     .MV                                                 :SP Normalized
VSH_GR      .V/V                                                :Volume of Shale from GR
VSH_SP      .V/V                                                :Volume of Shale from SP
~A        DEPTH           ASFL           CILD             GR        GR_NORM            ILD            SFL             SP        SP_NORM         VSH_GR         VSH_SP
# ...
     10135.5000         1.1495       1029.908        59.4462       67.12968         0.9487         1.1348       -40.8169      0.1187744      0.7261633              1
     10136.0000         1.1637       1017.641        60.3518         68.291         0.9581         1.1465       -40.8418     0.09387207      0.7508724              1
     10136.5000         1.1751       1005.248        61.0928       69.24152         0.9676         1.1581       -40.9951    -0.05942535      0.7710961              1
     10137.0000         1.1864       994.6406        61.8337       70.19189         0.9786         1.1691       -41.1484     -0.2127266      0.7913169              1
     10137.5000         1.1963       986.4687        62.5145       71.06528         0.9902         1.1753       -41.3016     -0.3659286      0.8098997              1
     10138.0000         1.2061       981.7715        62.8669       71.51807         1.0018         1.1814       -41.4973     -0.5616264      0.8195335              1
     10138.5000         1.2145       991.2207        62.7547       71.37579         1.0104         1.1893       -41.6942     -0.7585258      0.8165061              1
     10139.0000          1.221       1001.878        62.6423       71.23325         1.0107         1.1983       -41.8909     -0.9552269      0.8134733              1
     10139.5000         1.2264       1014.047        62.3572       70.86951         1.0064         1.1873       -41.9535      -1.017826      0.8057342      0.9997417
     10140.0000         1.2235       1031.172        62.2468       70.72952         1.0021         1.1635       -41.7753     -0.8396263      0.8027557              1
     10140.5000         1.1369       1048.322         62.306       70.80676         0.9876         1.1359       -41.5517     -0.6160278      0.8043992              1
     10141.0000         1.1056       1068.002        62.2016       70.67447           0.97         1.1082       -41.3182     -0.3825264      0.8015844              1
     10141.5000         1.0815       1089.811         61.835       70.20634         0.9511         1.0827       -41.1102     -0.1745262      0.7916244              1
     10142.0000         1.0733       1111.621        61.2685       69.48219         0.9286         1.0629       -41.0498     -0.1141281      0.7762167              1
     10142.5000         1.0631       1132.688        60.7303       68.79425         0.9061         1.0432       -41.0078     -0.0721283      0.7615798              1
     10143.0000         1.0493       1153.605        60.2203       68.14247          0.887         1.0235       -41.0263    -0.09062576      0.7477121              1
     10143.5000          1.031       1174.523        59.7208       67.50411         0.8679         1.0028       -41.0449     -0.1092262        0.73413              1
     10144.0000         1.0079       1199.902        60.3542       68.31681         0.8465         0.9808       -41.2411     -0.3054276      0.7514215              1
     10144.5000         0.9803        1225.43         61.282       69.50657         0.8239         0.9588       -41.4491     -0.5134277      0.7767355              1
     10145.0000         0.9614       1239.482        62.7271       71.35892         0.8074         0.9394       -41.3634     -0.4277267      0.8161471              1
     10145.5000         0.9498       1250.709        63.9435       72.91833         0.7961         0.9341       -41.2233     -0.2876282      0.8493261              1
     10146.0000         0.9444        1256.26        65.0715       74.36451         0.7855         0.9288       -41.0836     -0.1479263       0.880096              1
     10146.5000         0.9457        1244.24        66.3986        76.0657         0.7883         0.9243        -40.961    -0.02532578      0.9162914              1
     10147.0000         0.9599         1231.6        66.0325       75.59822         0.7911         0.9305       -40.8433     0.09237289      0.9063451              1
     10147.5000         0.9741       1218.961        65.1305       74.44434         0.7918         0.9367       -40.7256      0.2100716      0.8817946              1
     10148.0000         0.9934           1203        63.7027         72.617         0.7887         0.9511       -40.6202      0.3154716      0.8429148              1
     10148.5000         1.0195       1185.701         62.426        70.9832         0.7856         0.9715       -40.5842      0.3514709      0.8081532              1
     10149.0000         1.0403        1169.59        61.6506       69.99148         0.7935         0.9919       -40.5555      0.3801727      0.7870528              1
     10149.5000         1.0553        1160.16        60.9036       69.03611         0.8071         1.0068       -40.6839      0.2517738      0.7667257              1
     10150.0000         1.0669       1166.803        60.3101       68.27736         0.8185         1.0211        -40.812      0.1236725      0.7505821              1
     10150.5000         1.0771       1175.762         59.966       67.83806          0.827         1.0051        -40.854     0.08167267      0.7412353              1
     10151.0000         1.0354       1188.996         60.374       68.36205         0.8238         0.9878       -40.8297      0.1059723      0.7523841              1
     10151.5000         1.0059       1202.256        61.1014       69.29515         0.8207          0.973       -40.8053      0.1303711      0.7722372              1
     10152.0000         0.9871        1214.35        61.9148       70.33839         0.8154         0.9595       -40.7716      0.1640739      0.7944339              1
     10152.5000         0.9748       1225.131        62.6914        71.3345         0.8079          0.946       -40.7289      0.2067719      0.8156276              1
     10153.0000         0.9667       1215.615        63.3292       72.15282         0.8004         0.9419       -40.6862      0.2494736      0.8330388              1
     10153.5000         0.9604       1189.393         63.793       72.74828         0.7989         0.9528       -40.6334      0.3022728      0.8457081              1
     10154.0000          0.997       1164.461        64.1819       73.24783         0.7987         0.9637       -40.5787      0.3569717      0.8563367              1
     10154.5000         1.0312       1143.395        64.4937       73.64861         0.8093         0.9887       -40.5275      0.4081726      0.8648641              1
     10155.0000         1.0585       1122.773        64.3354       73.44727         0.8263         1.0156       -40.5177      0.4179726      0.8605803              1
     10155.5000         1.0812       1104.855        63.5995       72.50613         0.8523         1.0424       -40.6664      0.2692719       0.840556              1
     10156.0000         1.1009       1090.703        62.8647       71.56641         0.8781         1.0657       -41.0325    -0.09682846       0.820562              1
     10156.5000         1.1149       1094.594        62.3996       70.97212         0.8985         1.0882       -41.4331     -0.4974289      0.8079175              1
     10157.0000         1.1227       1114.992        62.1397       70.64066         0.9189         1.0795       -41.7861     -0.8504257       0.800865              1
     10157.5000         1.1133       1150.879        61.9037        70.3398         0.9312          1.063        -41.956      -1.020329      0.7944638      0.9997054
     10158.0000         1.0689       1185.031        61.7256       70.11311           0.94         1.0398       -42.1231      -1.187428      0.7896407      0.9972836
     10158.5000         1.0231       1211.848          62.16       70.67091         0.9467         1.0166        -42.262      -1.326328      0.8015088      0.9952706
     10159.0000         0.9851       1238.664        63.0563       71.82034         0.9405         0.9941       -42.1099      -1.174229      0.8259647       0.997475
     10159.5000         0.9602       1264.688        63.9005       72.90303         0.8947         0.9802       -41.9326     -0.9969254      0.8490006              1
