#------------------------------------------------------------------------------
# Created by    : vladimir.rabinovich
# Created on    : 09/19/2023 17:19:56
#------------------------------------------------------------------------------
~Version Information Section
VERS.           2.0     :   CWLS log ASCII Standard - VERSION 2.0
WRAP.           NO      :   One line per depth step
~Well Information Section
#MNEM       .UNIT                                         VALUE :DESCRIPTION
#------------------------------------------------------------------------------
STRT        .FT                                            3966 :START DEPTH
STOP        .FT                                           12200 :STOP DEPTH
STEP        .FT                                             0.5 :STEP      
NULL        .                                           -999.25 :NULL      
COMP        .                       HOUSTON OIL & MINERALS CORP :COMPANY   
WELL        .                                ST TR 00526-L SW/4 :WELL      
FLD         .                                           CAVALLO :FIELD     
LOC         .                                                   :LOCATION  
CNTY        .                      MATAGORDA ISLAND LARGE BLOCK :LOCATION  
STAT        .                                             TEXAS :STATE     
CTRY        .                                     UNITED STATES :COUNTRY   
SRVC        .                                                   :SERVICE COMPANY
DATE        .                             9/13/2023 11:19:05 AM :LOG DATE  
API         .                                    42703302090000 :API NUMBER
UWI         .                                    42703302090000 :UNIQUE WELL ID
XCOORD      .                                  601997.830501628 :SURFACE X 
YCOORD      .                                  10286578.1750905 :SURFACE Y 
LAT         .                                        28.3077871 :LATITUDE  
LON         .                                       -96.2273179 :LONGITUDE 
ELEV        .FT                                             113 :ELEVATION VALUE
ELEV_TYPE   .                                                KB :ELEVATION REFERENCE TYPE
~Curve Information Section
#MNEM       .UNIT                                      API CODE :CURVE DESCRIPTION
#------------------------------------------------------------------------------
DEPT        .FT                                                 :DEPTH     
ASFL        .OHMM                                               :          
CILD        .MMHO                                               :          
ILD         .OHMM                                               :          
SP          .MV                                                 :          
SP_NORM     .MV                                                 :SP Normalized
VSH_SP      .V/V                                                :Volume of Shale from SP
~A        DEPTH           ASFL           CILD            ILD             SP        SP_NORM         VSH_SP
# ...
      8336.0000         1.0518           2688         0.3137      -113.2882      -67.43179      0.1022731
      8336.5000         1.1562       2823.216         0.2941      -116.1382      -70.28458     0.06372194
      8337.0000         1.0916           2880         0.2549      -116.1382      -70.28737      0.0636842
      8337.5000         1.0239           2688         0.2549      -116.7647      -70.91666     0.05518032
      8338.0000         0.8765           2288         0.2549      -111.6235      -65.77824      0.1246183
      8338.5000         0.7681           2096         0.2549         -102.9      -57.05754      0.2424657
      8339.0000           0.89           2096         0.2941            -96      -50.16033      0.3356712
      8339.5000          1.012           2096         0.3333       -88.8235      -42.98662      0.4326133
      8340.0000          1.012           1896         0.3922       -82.0588       -36.2247      0.5239905
      8340.5000          1.012           1696         0.4314        -74.985      -29.15369      0.6195447
      8341.0000          1.012           1464         0.4706         -68.07      -22.24148       0.712953
      8341.5000          0.996           1424         0.5294        -60.855      -15.02927      0.8104153
      8342.0000          0.898           1384         0.5686       -56.9522      -11.12926      0.8631181
      8342.5000         0.8199           1344         0.6275       -53.0597      -7.239552      0.9156817
      8343.0000         0.7602           1304         0.6667       -52.7535      -6.936142      0.9197819
      8343.5000         0.7602           1240         0.7059       -52.1499      -6.335327       0.927901
      8344.0000         0.7761           1240         0.7647       -51.5476      -5.735817      0.9360025
      8344.5000         0.7801           1232         0.8039       -50.9465      -5.137505      0.9440878
      8345.0000         0.7841           1220         0.8431       -50.3465      -4.540295      0.9521582
      8345.5000          0.812           1216         0.8627       -49.7478      -3.944382       0.960211
      8346.0000          0.843           1208         0.8824       -49.1502      -3.349575       0.968249
      8346.5000         0.8709           1200         0.8824       -48.5538      -2.755962      0.9762708
      8347.0000          0.902       1192.078         0.8824       -47.9586      -2.163551      0.9842764
      8347.5000          0.902       1192.078         0.8824       -47.6601       -1.86784      0.9882724
      8348.0000          0.894       1192.078         0.8824       -47.3622      -1.572731      0.9922604
      8348.5000         0.8821       1192.078          0.902       -47.3599      -1.573219      0.9922538
      8349.0000         0.8629       1192.078          0.902       -47.0629      -1.279007      0.9962296
      8349.5000          0.839       1192.078          0.902       -47.0608      -1.279697      0.9962203
      8350.0000          0.812       1192.078          0.902       -46.7647     -0.9863892              1
      8350.5000          0.812       1192.078         0.9028       -46.1765     -0.4009743              1
      8351.0000          0.808           1200         0.9037       -46.1765     -0.4037628              1
      8351.5000          0.808           1200         0.9046       -46.1765     -0.4065514              1
      8352.0000         0.8239           1208         0.9055       -46.1765     -0.4093399              1
      8352.5000         0.8351           1216         0.8867       -46.4706     -0.7062302              1
      8353.0000          0.847           1224         0.8876       -46.7647       -1.00312      0.9999579
      8353.5000          0.859           1224         0.8687       -46.7647      -1.005913      0.9999201
      8354.0000         0.8749           1224         0.8696       -47.0588      -1.302799      0.9959081
      8354.5000         0.8749           1232         0.8506       -47.3529      -1.599689      0.9918961
      8355.0000         0.8709           1232         0.8317       -47.6471      -1.896675      0.9878828
      8355.5000         0.8135           1232         0.8325       -47.6471      -1.899464      0.9878451
      8356.0000          0.804           1232         0.8135       -46.7647      -1.019855      0.9997317
      8356.5000          0.808           1232         0.8342       -45.8824     -0.1403427              1
      8357.0000         0.8311           1224          0.835       -45.5882      0.1510696              1
      8357.5000          0.859           1216         0.8358            -45      0.7364769              1
      8358.0000         0.8861           1208         0.8367          -44.7       1.033688              1
      8358.5000         0.8861           1200         0.8375          -44.4       1.330898              1
      8359.0000         0.8861       1192.078         0.8583          -44.1       1.628113              1
      8359.5000         0.9139       1176.235         0.8591          -44.1       1.625324              1
      8360.0000         0.9179       1160.392           0.86          -44.1       1.622536              1
      8360.5000          0.839       1144.549           0.86          -44.1       1.619747              1
      8361.0000          0.855       1128.706           0.86          -44.4       1.316952              1
      8361.5000         0.8861       1128.706           0.86       -45.2941       0.420063              1
      8362.0000         0.9219       1128.706           0.86       -46.1765     -0.4651222              1
      8362.5000         0.9219       1128.706           0.86       -47.3529      -1.644314      0.9912931
      8363.0000         0.9219       1128.706           0.84       -48.5294      -2.823601      0.9753568
      8363.5000          0.957       1128.706           0.82       -49.7059      -4.002888      0.9594204
      8364.0000          0.996       1136.627            0.8       -50.8824      -5.182178      0.9434841
      8364.5000          0.996       1144.549           0.78       -52.9412      -7.243767      0.9156248
      8365.0000          0.988       1160.392           0.76       -52.9412      -7.246559      0.9155871
      8365.5000         0.9841           1272           0.74       -52.9412      -7.249348      0.9155493
      8366.0000          0.957           1304           0.72       -53.5294      -7.840336       0.907563
      8366.5000          0.906           1344           0.68       -54.1176      -8.431324      0.8995767
      8367.0000          0.859           1392           0.64       -56.1765      -10.49301      0.8717161
      8367.5000          0.859           1448            0.6       -58.5294       -12.8487      0.8398824
      8368.0000         0.9251           1496           0.56          -60.6      -14.92209      0.8118637
      8368.5000         0.9251           1560           0.52            -63      -17.32488      0.7793935
      8369.0000         0.9251           1632           0.48          -65.1      -19.42767      0.7509775
      8369.5000          0.996           1704           0.44          -67.5      -21.83046      0.7185073
      8370.0000          0.996           1768            0.4          -69.6      -23.93325      0.6900913
      8370.5000          0.992           1840            0.4            -72      -26.33604      0.6576211
      8371.0000          0.988           1912            0.4          -74.1      -28.43882      0.6292051
      8371.5000          0.949           1912            0.4          -76.5      -30.84161      0.5967349
      8372.0000          0.949           1904           0.42         -81.45       -35.7944      0.5298054
      8372.5000          0.957           1848           0.44          -85.5      -39.84719      0.4750379
      8373.0000         1.0478           1792           0.46          -86.1      -40.44998      0.4668922
      8373.5000         1.1402           1728            0.5          -86.7      -41.05277      0.4587464
