#------------------------------------------------------------------------------
# Created by    : vladimir.rabinovich
# Created on    : 09/19/2023 17:19:40
#------------------------------------------------------------------------------
~Version Information Section
VERS.           2.0     :   CWLS log ASCII Standard - VERSION 2.0
WRAP.           NO      :   One line per depth step
~Well Information Section
#MNEM       .UNIT                                         VALUE :DESCRIPTION
#------------------------------------------------------------------------------
STRT        .FT                                            4790 :START DEPTH
STOP        .FT                                           12963 :STOP DEPTH
STEP        .FT                                             0.5 :STEP      
NULL        .                                           -999.25 :NULL      
COMP        .                         ATLANTIC RICHFIELD CO THE :COMPANY   
WELL        .                               OCS G06150 ST00BP00 :WELL      
FLD         .                                           WILDCAT :FIELD     
LOC         .                                                   :LOCATION  
CNTY        .                           HIGH ISLAND LARGE BLOCK :LOCATION  
STAT        .                                             TEXAS :STATE     
CTRY        .                                     UNITED STATES :COUNTRY   
SRVC        .                                                   :SERVICE COMPANY
DATE        .                             9/13/2023 11:19:59 AM :LOG DATE  
API         .                                    42708402440000 :API NUMBER
UWI         .                                    42708402440000 :UNIQUE WELL ID
XCOORD      .                                  1291497.32246636 :SURFACE X 
YCOORD      .                                   10652058.279547 :SURFACE Y 
LAT         .                                         29.347015 :LATITUDE  
LON         .                                        -94.095521 :LONGITUDE 
ELEV        .FT                                             105 :ELEVATION VALUE
ELEV_TYPE   .                                                KB :ELEVATION REFERENCE TYPE
~Curve Information Section
#MNEM       .UNIT                                      API CODE :CURVE DESCRIPTION
#------------------------------------------------------------------------------
DEPT        .FT                                                 :DEPTH     
ALL         .OHMM                                               :          
CILD        .MMHO                                               :          
GR          .GAPI                                               :          
GR_NORM     .GAPI                                               :GammaRay Normalized
ILD         .OHMM                                               :          
SP          .MV                                                 :          
SP_NORM     .MV                                                 :SP Normalized
VSH_GR      .V/V                                                :Volume of Shale from GR
VSH_SP      .V/V                                                :Volume of Shale from SP
~A        DEPTH            ALL           CILD             GR        GR_NORM            ILD             SP        SP_NORM         VSH_GR         VSH_SP
# ...
      7016.0000         0.9886       1786.955        54.6255       55.42055         0.5647       -63.0942      -24.69822       0.477033      0.6200274
      7016.5000         0.9679         1777.6         53.194       53.51696         0.5636        -61.535      -23.14046      0.4365311      0.6439929
      7017.0000         0.9471       1768.244        52.4813       52.56922         0.5624       -59.9758       -21.5827      0.4163664      0.6679584
      7017.5000         0.9264         1758.9        52.5518       52.66297         0.5613       -58.4149      -20.02325      0.4183611        0.69195
      7018.0000         0.9057       1749.545         52.808       53.00366         0.5602       -56.6486      -18.25839      0.4256098      0.7191017
      7018.5000         0.8849       1740.188        53.8808       54.43026         0.5591       -53.3416      -14.95283      0.4559629      0.7699565
      7019.0000         0.8642       1730.844        55.5897       56.70273          0.558        -50.658      -12.27067      0.5043135      0.8112204
      7019.5000         0.8435       1721.488        57.7808       59.61643         0.5568       -49.0784      -10.69251       0.566307      0.8354998
      7020.0000         0.8227       1732.619        59.0866       61.35287         0.5557       -47.4971      -9.112656      0.6032525      0.8598053
      7020.5000         0.8018       1748.799        60.3936        63.0909         0.5546       -46.2903      -7.907295      0.6402319      0.8783493
      7021.0000         0.7766        1764.98        61.2407       64.21736         0.5535       -45.5172      -7.135639      0.6641992      0.8902209
      7021.5000         0.7514       1781.162        62.0878       65.34382          0.553       -44.7432      -6.363079      0.6881664      0.9021065
      7022.0000         0.7321       1797.316         62.936       66.47174         0.5535       -44.0475      -5.668823      0.7121647      0.9127873
      7022.5000         0.7275       1813.498        63.7831       67.59821         0.5539       -43.8515      -5.474266      0.7361322      0.9157805
      7023.0000         0.7228        1829.68        64.3497       68.35167         0.5544        -43.906      -5.530201      0.7521632        0.91492
      7023.5000         0.7182       1845.836        64.8348       68.99675         0.5548       -44.1553      -5.780945      0.7658883      0.9110624
      7024.0000         0.7136       1854.199        65.3201       69.64209         0.5553       -44.4047      -6.031788      0.7796189      0.9072033
      7024.5000         0.7089        1842.82        65.8059       70.28811         0.5557       -44.6539      -6.282429       0.793364      0.9033473
      7025.0000         0.7053       1831.453         66.291       70.93319         0.5562       -44.9034      -6.533371      0.8070891      0.8994866
      7025.5000         0.7046       1820.074        66.7738       71.57521         0.5566       -45.1526      -6.784012      0.8207492      0.8956306
      7026.0000         0.7038       1811.178        67.1317       72.05114         0.5571        -45.402      -7.034855      0.8308753      0.8917714
      7026.5000         0.7031       1808.439        67.4899       72.52747         0.5584       -45.6513      -7.285595      0.8410099      0.8879139
      7027.0000         0.7023       1805.699        67.1616        72.0909         0.5609       -45.9008      -7.536537      0.8317212      0.8840533
      7027.5000         0.7016       1802.961        66.3009       70.94635         0.5634         -46.15      -7.787182      0.8073692      0.8801972
      7028.0000         0.6933       1800.219        65.3132       69.63292         0.5659       -46.9996      -8.638222      0.7794238      0.8671043
      7028.5000         0.6805       1797.479        64.3146       68.30499         0.5684       -48.1611      -9.801163        0.75117      0.8492129
      7029.0000         0.6677        1794.74        63.3171       66.97853         0.5709       -49.3226      -10.96411      0.7229475      0.8313214
      7029.5000         0.6549       1791.996        62.3196       65.65207         0.5591       -50.4841      -12.12705      0.6947249        0.81343
      7030.0000          0.672       1789.574        61.3208       64.32388         0.5388       -52.2615      -13.90589      0.6664655      0.7860632
      7030.5000         0.7405       1806.797        60.3233       62.99741         0.5184         -54.64      -16.28583      0.6382428      0.7494488
      7031.0000         0.8335       1824.045        57.9053       59.78199          0.498       -56.9186      -18.56587      0.5698295      0.7143713
      7031.5000         0.9265        1841.27        55.3333       56.36178         0.4775       -58.9956      -20.64431      0.4970591      0.6823952
      7032.0000          0.964       1892.119          53.94       54.50898         0.4548       -61.0708      -22.72095      0.4576379      0.6504468
      7032.5000         0.9511       1998.436         52.866       53.08079          0.432       -63.1478       -24.7994      0.4272509      0.6184708
      7033.0000         0.9381       2104.754        51.7908         51.651         0.4093       -65.4005      -27.05354      0.3968298      0.5837917
      7033.5000         0.9252       2215.734        51.0461       50.66071         0.3866       -68.7185      -30.37298      0.3757599      0.5327234
      7034.0000         0.9123       2427.574         50.514       49.95313         0.3663       -72.0366      -33.69252       0.360705      0.4816535
      7034.5000         0.8963       2812.543        49.9814       49.24489         0.3517       -75.9983      -37.65566      0.3456359      0.4206821
      7035.0000         0.8657       3046.223        49.4493       48.53731         0.3371        -80.389      -42.04781       0.330581      0.3531107
      7035.5000         0.8351        3295.98        48.9629        47.8905         0.3225       -82.6353      -44.29555       0.316819      0.3185301
      7036.0000         0.8046       3468.809        48.5412       47.32972         0.3079       -83.6331      -45.29479      0.3048877       0.303157
      7036.5000          0.774       3541.027        48.1195       46.76896         0.2933       -84.6309      -46.29403      0.2929565      0.2877842
      7037.0000         0.7517       3576.965        48.6133       47.42561         0.2786       -85.6278      -47.29237      0.3069278       0.272425
      7037.5000         0.7401       3605.328        49.2933       48.32986         0.2722       -86.6256      -48.29162      0.3261673       0.257052
      7038.0000         0.7286       3576.465         49.974       49.23504         0.2688       -87.6096      -49.27705      0.3454264      0.2418915
      7038.5000         0.7171       3533.184         50.654        50.1393         0.2653       -88.5417       -50.2106       0.364666      0.2275293
      7039.0000         0.7055       3489.902        51.3346       51.04435         0.2618       -88.9763      -50.64664      0.3839224      0.2208209
      7039.5000          0.694       3446.621        52.0146       51.94861         0.2583       -87.3857      -49.05748      0.4031619      0.2452696
      7040.0000         0.6897       3403.293        52.6749       52.82667         0.2623       -85.1793      -46.85252       0.421844       0.279192
      7040.5000          0.686       3355.492        53.2365       53.57348         0.2694       -82.6565      -44.33117      0.4377336      0.3179821
      7041.0000         0.6822       3305.113        53.7975       54.31949         0.2765       -80.1338       -41.8099      0.4536062      0.3567707
      7041.5000         0.6778       3254.734        53.0756       53.35951         0.2836       -77.8903      -39.56784      0.4331811      0.3912639
      7042.0000         0.6708       3329.535        52.3062       52.33638         0.2907       -80.0006      -41.67959      0.4114123      0.3587755
