#------------------------------------------------------------------------------
# Created by    : vladimir.rabinovich
# Created on    : 09/19/2023 17:22:56
#------------------------------------------------------------------------------
~Version Information Section
VERS.           2.0     :   CWLS log ASCII Standard - VERSION 2.0
WRAP.           NO      :   One line per depth step
~Well Information Section
#MNEM       .UNIT                                         VALUE :DESCRIPTION
#------------------------------------------------------------------------------
STRT        .FT                                             890 :START DEPTH
STOP        .FT                                            9495 :STOP DEPTH
STEP        .FT                                             0.5 :STEP      
NULL        .                                           -999.25 :NULL      
COMP        .                                   MARATHON OIL CO :COMPANY   
WELL        .                               OCS G04138 ST00BP00 :WELL      
FLD         .                                           WILDCAT :FIELD     
LOC         .                                                   :LOCATION  
CNTY        .                      MATAGORDA ISLAND LARGE BLOCK :LOCATION  
STAT        .                                             TEXAS :STATE     
CTRY        .                                     UNITED STATES :COUNTRY   
SRVC        .                                                   :SERVICE COMPANY
DATE        .                             9/13/2023 11:12:11 AM :LOG DATE  
API         .                                    42703402070000 :API NUMBER
UWI         .                                    42703402070000 :UNIQUE WELL ID
XCOORD      .                                  590883.400226114 :SURFACE X 
YCOORD      .                                  10259990.6406746 :SURFACE Y 
LAT         .                                         28.233929 :LATITUDE  
LON         .                                        -96.259589 :LONGITUDE 
ELEV        .FT                                              90 :ELEVATION VALUE
ELEV_TYPE   .                                                KB :ELEVATION REFERENCE TYPE
~Curve Information Section
#MNEM       .UNIT                                      API CODE :CURVE DESCRIPTION
#------------------------------------------------------------------------------
DEPT        .FT                                                 :DEPTH     
SP          .MV                                                 :          
SP_NORM     .MV                                                 :SP Normalized
VSH_SP      .V/V                                                :Volume of Shale from SP
~A        DEPTH             SP        SP_NORM         VSH_SP
       890.0000        60.6435     -0.9416612              1
       890.5000        56.5629       1.234579              1
       891.0000        42.8575      -1.077121              1
       891.5000         42.021       2.746144              1
       892.0000        41.2053        3.49285              1
       892.5000        41.4033      -9.109928      0.5260048
       893.0000        42.2482      -10.09254      0.4604975
       893.5000        43.6876      -11.66965      0.3553568
       894.0000        44.3671      -12.48686      0.3008761
       894.5000        45.0662      -13.32367      0.2450887
       895.0000        45.6791      -14.07428      0.1950479
       895.5000        46.1677      -14.70059      0.1532937
       896.0000        46.4015       -15.0721      0.1285264
       896.5000        46.4835      -15.29181       0.113879
       897.0000        46.4567      -15.40272      0.1064851
       897.5000        46.4298      -15.51353     0.09909783
       898.0000        46.3431      -15.56455      0.0956969
       898.5000        46.2378      -15.59696     0.09353612
       899.0000        46.0765      -15.57337     0.09510879
       899.5000        45.7817      -15.41628      0.1055814
       900.0000        45.4982      -15.27049      0.1153008
       900.5000        45.2355       -15.1455      0.1236333
       901.0000        44.9728      -15.02051      0.1319659
       901.5000        44.7101      -14.89552      0.1402987
       902.0000        44.4839      -14.80703      0.1461979
       902.5000        44.2634      -14.72425       0.151717
       903.0000        44.0428      -14.64136       0.157243
       903.5000        43.7591      -14.49537      0.1669755
       904.0000        43.4323      -14.30628      0.1795816
       904.5000        43.1055      -14.11719      0.1921876
       905.0000        42.7587       -13.9081      0.2061268
       905.5000        42.1855      -13.47261      0.2351593
       906.0000        41.5754      -13.00022      0.2666519
       906.5000        40.4393      -12.00183      0.3332113
       907.0000         39.661      -11.36124      0.3759173
       907.5000        38.8649      -10.70285        0.41981
       908.0000        38.0117      -9.987362      0.4675092
       908.5000        36.7864      -8.899773      0.5400152
       909.0000        35.1971      -7.448187      0.6367875
       909.5000        33.9313      -6.320097      0.7119935
       910.0000        33.0527      -5.579206      0.7613862
       910.5000        31.8004      -4.464617      0.8356922
       911.0000        29.3087      -2.110628      0.9926248
       911.5000        30.3883      -3.327938      0.9114708
       912.0000        32.0143       -5.09165        0.79389
       912.5000        34.2241      -7.439159      0.6373894
       913.0000        36.7487      -10.10147      0.4599019
       913.5000        37.3832      -10.87368      0.4084211
       914.0000        37.9723      -11.60049      0.3599671
       914.5000        38.2322       -11.9981      0.3334597
       915.0000        38.3834      -12.28701      0.3141991
       915.5000        38.4454      -12.48672       0.300885
       916.0000         38.473      -12.65204      0.2898642
       916.5000        38.4453      -12.76205      0.2825301
       917.0000        38.4175      -12.87196      0.2752028
       917.5000        38.3898      -12.98197      0.2678687
       918.0000        38.2645      -12.99438      0.2670414
       918.5000        38.0424      -12.90999      0.2726673
       919.0000        37.6355       -12.6408      0.2906132
       919.5000        37.1747      -12.31771      0.3121524
       920.0000         36.309      -11.58972      0.3606852
       920.5000        35.4427      -10.86113      0.4092578
       921.0000         34.546      -10.10215      0.4598569
       921.5000        33.6653      -9.359154      0.5093898
       922.0000        32.8983      -8.729866      0.5513422
       922.5000        32.1198      -8.089077      0.5940616
       923.0000        31.3081      -7.415087      0.6389942
       923.5000        30.4026      -6.647299      0.6901801
       924.0000        29.2775       -5.65991       0.756006
       924.5000        27.9067      -4.426821       0.838212
       925.0000        26.9379      -3.595732      0.8936179
       925.5000        25.9249      -2.720442      0.9519705
       926.0000        24.8085      -1.741753              1
       926.5000        23.7864     -0.8573627              1
       927.0000        23.0075     -0.2161751              1
       927.5000        21.8998      0.7538147              1
       928.0000        21.2478       1.268103              1
       928.5000        20.5489       1.829292              1
       929.0000         19.617       2.623482              1
       929.5000        21.4794      0.6233711              1
       930.0000        24.4225      -2.457439      0.9695041
       930.5000        26.8691      -5.041752      0.7972165
       931.0000        27.6389      -5.949263      0.7367159
       931.5000        27.4531      -5.796629      0.7468914
       932.0000        27.2672      -5.641653      0.7572231
       932.5000        27.0814      -5.486778      0.7675481
       933.0000        26.9511      -5.387402      0.7741732
       933.5000         26.824      -5.291225       0.780585
       934.0000        26.6968      -5.194952      0.7870032
       934.5000        26.5499      -5.078976       0.794735
       935.0000         26.395         -4.955          0.803
       935.5000        26.2662      -4.857124      0.8095251
       936.0000        26.7864      -5.408249      0.7727834
       936.5000        27.3064      -5.959175       0.736055
       937.0000        27.7546      -6.438299      0.7041134
       937.5000        28.1971      -6.911722      0.6725519
       938.0000        28.6137      -7.359249      0.6427167
       938.5000        28.7552      -7.531672      0.6312219
       939.0000        28.8967      -7.704096       0.619727
       939.5000        29.0382      -7.876522      0.6082318
       940.0000        29.0221      -7.891346      0.6072436
       940.5000        28.9988       -7.89897      0.6067353
       941.0000        28.9756      -7.906694      0.6062204
       941.5000        28.9523      -7.914318      0.6057121
       942.0000        28.8199      -7.812845       0.612477
       942.5000        28.6642      -7.688068      0.6207954
       943.0000        28.5085      -7.563292      0.6291139
       943.5000        28.3395      -7.425219      0.6383188
       944.0000        28.1159      -7.232542      0.6511639
       944.5000        27.8922      -7.039766      0.6640156
       945.0000        27.7108      -6.889292      0.6740472
       945.5000        27.6245      -6.833916       0.677739
       946.0000        27.7218      -6.962139      0.6691907
       946.5000        27.9398      -7.211065      0.6525956
       947.0000        28.4734      -7.775589      0.6149607
       947.5000        29.2198      -8.552916       0.563139
       948.0000        30.1432      -9.507238      0.4995174
       948.5000        31.1843      -10.57926      0.4280492
       949.0000        32.1887      -11.61459      0.3590274
       949.5000        32.8024      -12.25921      0.3160526
       950.0000        33.3629      -12.85064      0.2766243
       950.5000        33.8054      -13.32406      0.2450625
       951.0000        34.2476      -13.79719      0.2135209
       951.5000        34.5317      -14.11221      0.1925194
       952.0000        34.7961      -14.40754       0.172831
       952.5000        34.9778      -14.62016      0.1586562
       953.0000        35.1594      -14.83269      0.1444876
       953.5000         35.299      -15.00321      0.1331194
       954.0000        35.4381      -15.17323      0.1217846
       954.5000        35.4473      -15.21336      0.1191095
       955.0000         35.446      -15.24298      0.1171346
       955.5000        35.3865      -15.21441      0.1190395
