#------------------------------------------------------------------------------
# Created by    : vladimir.rabinovich
# Created on    : 09/19/2023 17:20:36
#------------------------------------------------------------------------------
~Version Information Section
VERS.           2.0     :   CWLS log ASCII Standard - VERSION 2.0
WRAP.           NO      :   One line per depth step
~Well Information Section
#MNEM       .UNIT                                         VALUE :DESCRIPTION
#------------------------------------------------------------------------------
STRT        .FT                                             510 :START DEPTH
STOP        .FT                                            7943 :STOP DEPTH
STEP        .FT                                             0.5 :STEP      
NULL        .                                           -999.25 :NULL      
COMP        .                       BLUE DOLPHIN EXPLORATION CO :COMPANY   
WELL        .                                OCS 00709 ST00BP00 :WELL      
FLD         .                                FEDERAL BLOCK 0288 :FIELD     
LOC         .                                                   :LOCATION  
CNTY        .                             GALVESTON LARGE BLOCK :LOCATION  
STAT        .                                             TEXAS :STATE     
CTRY        .                                     UNITED STATES :COUNTRY   
SRVC        .                                                   :SERVICE COMPANY
DATE        .                             9/13/2023 11:19:25 AM :LOG DATE  
API         .                                    42706000400000 :API NUMBER
UWI         .                                    42706000400000 :UNIQUE WELL ID
XCOORD      .                                   1098851.8122004 :SURFACE X 
YCOORD      .                                  10485233.3471489 :SURFACE Y 
LAT         .                                         28.881916 :LATITUDE  
LON         .                                        -94.692672 :LONGITUDE 
ELEV        .FT                                              93 :ELEVATION VALUE
ELEV_TYPE   .                                                KB :ELEVATION REFERENCE TYPE
~Curve Information Section
#MNEM       .UNIT                                      API CODE :CURVE DESCRIPTION
#------------------------------------------------------------------------------
DEPT        .FT                                                 :DEPTH     
ASN         .OHMM                                               :          
GR          .GAPI                                               :          
ILD         .OHMM                                               :          
NEUT        .NAPI                                               :          
SP          .MV                                                 :          
SP_NORM     .MV                                                 :SP Normalized
VSH_SP      .V/V                                                :Volume of Shale from SP
~A        DEPTH            ASN             GR            ILD           NEUT             SP        SP_NORM         VSH_SP
# ...
      1984.0000         0.5177        -999.25         0.3441        -999.25        -59.026      -6.853176      0.1911373
      1984.5000         0.5186        -999.25         0.3445        -999.25       -58.6919      -6.519993      0.2466679
      1985.0000         0.5206        -999.25         0.3485        -999.25        -58.023      -5.852016      0.3579973
      1985.5000         0.5229        -999.25         0.3536        -999.25        -57.146      -4.975941      0.5040099
      1986.0000         0.5256        -999.25         0.3591        -999.25       -56.3945      -4.225361      0.6291065
      1986.5000         0.5282        -999.25         0.3649        -999.25        -56.598      -4.429783      0.5950362
      1987.0000          0.532        -999.25         0.3706        -999.25       -57.1401      -4.972805      0.5045325
      1987.5000          0.527        -999.25         0.3653        -999.25       -57.8109      -5.644527      0.3925788
      1988.0000         0.5222        -999.25         0.3595        -999.25       -58.5668      -6.401348       0.266442
      1988.5000         0.5201        -999.25         0.3518        -999.25       -59.2284      -7.063873      0.1560211
      1989.0000         0.5235        -999.25         0.3422        -999.25       -59.6049      -7.441292     0.09311803
      1989.5000         0.5287        -999.25         0.3353        -999.25        -60.022      -7.859314     0.02344767
      1990.0000         0.5338        -999.25         0.3339        -999.25       -60.3922      -8.230438              0
      1990.5000          0.538        -999.25         0.3333        -999.25       -60.2067      -8.045856              0
      1991.0000         0.5395        -999.25         0.3337        -999.25       -59.9499      -7.789982     0.03500303
      1991.5000         0.5405        -999.25         0.3348        -999.25       -59.8298      -7.670803     0.05486615
      1992.0000         0.5392        -999.25          0.337        -999.25       -59.9278      -7.769722     0.03837967
      1992.5000         0.5366        -999.25         0.3396        -999.25       -60.0432      -7.886047     0.01899211
      1993.0000         0.5356        -999.25         0.3434        -999.25       -59.8499      -7.693668     0.05105527
      1993.5000         0.5408        -999.25         0.3477        -999.25       -59.2988       -7.14349      0.1427517
      1994.0000         0.5464        -999.25         0.3536        -999.25       -58.5861      -6.431713      0.2613811
      1994.5000         0.5458        -999.25         0.3584        -999.25       -57.8221      -5.668633      0.3885612
      1995.0000         0.5469        -999.25         0.3587        -999.25       -57.1851      -5.032555      0.4945742
      1995.5000         0.5487        -999.25         0.3592        -999.25       -56.9972      -4.845577      0.5257371
      1996.0000         0.5493        -999.25          0.361        -999.25       -56.5524      -4.401695      0.5997174
      1996.5000         0.5489        -999.25         0.3629        -999.25       -56.3066      -4.156818      0.6405303
      1997.0000         0.5488        -999.25         0.3679        -999.25       -56.5476      -4.398743      0.6002095
      1997.5000          0.551        -999.25         0.3737        -999.25        -57.123      -4.975063      0.5041561
      1998.0000         0.5524        -999.25         0.3824        -999.25        -57.597      -5.449986      0.4250024
      1998.5000         0.5523        -999.25          0.391        -999.25       -57.7743      -5.628208      0.3952986
      1999.0000         0.5534        -999.25         0.3925        -999.25       -57.9238      -5.778629      0.3702284
      1999.5000         0.5564        -999.25         0.3891        -999.25        -58.073      -5.928753      0.3452078
      2000.0000         0.5528        -999.25         0.3813        -999.25       -58.7705      -6.627174      0.2288043
      2000.5000         0.5434        -999.25         0.3703        -999.25       -59.1782      -7.035793      0.1607011
      2001.0000         0.5321        -999.25         0.3571        -999.25        -59.245      -7.103516      0.1494141
      2001.5000         0.5212        -999.25         0.3452        -999.25       -59.5638      -7.423241     0.09612656
      2002.0000         0.5112        -999.25         0.3342        -999.25       -59.7074       -7.56776     0.07203992
      2002.5000         0.5039        -999.25         0.3259        -999.25       -59.7375      -7.598782     0.06686974
      2003.0000         0.4979        -999.25         0.3214        -999.25       -59.7822      -7.644405     0.05926577
      2003.5000         0.4931        -999.25         0.3179        -999.25       -59.7086      -7.571724     0.07137934
      2004.0000         0.4928        -999.25         0.3082        -999.25         -59.28      -7.144047      0.1426589
      2004.5000         0.4953        -999.25         0.2991        -999.25       -58.6998       -6.56477       0.239205
      2005.0000         0.4999        -999.25         0.2974        -999.25       -58.7807      -6.646591      0.2255681
      2005.5000         0.5024        -999.25         0.2989        -999.25       -58.4142      -6.281013      0.2864977
      2006.0000         0.4973        -999.25         0.3052        -999.25       -58.1211      -5.988834      0.3351943
      2006.5000         0.4932        -999.25         0.3222        -999.25       -57.6168      -5.485455      0.4190909
      2007.0000         0.4949        -999.25         0.3403        -999.25       -56.9277      -4.797279      0.5337868
      2007.5000         0.5014        -999.25         0.3553        -999.25       -56.5172      -4.387699      0.6020501
      2008.0000         0.5063        -999.25         0.3602        -999.25        -56.453      -4.324421      0.6125965
      2008.5000         0.5047        -999.25         0.3546        -999.25       -56.7441      -4.616444       0.563926
      2009.0000         0.4997        -999.25         0.3489        -999.25       -56.9659      -4.839165      0.5268059
      2009.5000          0.493        -999.25         0.3432        -999.25       -57.2379      -5.112087      0.4813188
      2010.0000         0.4863        -999.25         0.3375        -999.25       -57.6984      -5.573509      0.4044151
      2010.5000         0.4831        -999.25         0.3304        -999.25       -58.5539      -6.429932      0.2616781
      2011.0000         0.4877        -999.25         0.3211        -999.25       -58.8801      -6.757053      0.2071578
      2011.5000         0.4942        -999.25         0.3161        -999.25       -59.3498      -7.227676      0.1287206
      2012.0000         0.5015        -999.25         0.3133        -999.25       -59.4339      -7.312695      0.1145509
      2012.5000         0.5051        -999.25         0.3163        -999.25        -59.014      -6.893719      0.1843802
      2013.0000         0.5063        -999.25         0.3222        -999.25       -59.2974      -7.178043      0.1369928
      2013.5000         0.5087        -999.25         0.3304        -999.25       -59.3951      -7.276661      0.1205565
      2014.0000         0.5132        -999.25         0.3402        -999.25       -59.5436      -7.426083      0.0956529
      2014.5000          0.514        -999.25         0.3451        -999.25       -59.9003      -7.783707     0.03604889
      2015.0000          0.516        -999.25         0.3461        -999.25       -60.2122      -8.096527              0
      2015.5000         0.5163        -999.25          0.344        -999.25       -59.6061      -7.491348     0.08477529
      2016.0000         0.5165        -999.25          0.341        -999.25        -58.781      -6.667171      0.2221381
      2016.5000         0.5168        -999.25         0.3419        -999.25       -58.1613      -6.048393      0.3252678
      2017.0000         0.5163        -999.25         0.3428        -999.25       -57.5057      -5.393715      0.4343809
