#------------------------------------------------------------------------------
# Created by    : vladimir.rabinovich
# Created on    : 09/19/2023 17:21:34
#------------------------------------------------------------------------------
~Version Information Section
VERS.           2.0     :   CWLS log ASCII Standard - VERSION 2.0
WRAP.           NO      :   One line per depth step
~Well Information Section
#MNEM       .UNIT                                         VALUE :DESCRIPTION
#------------------------------------------------------------------------------
STRT        .FT                                            4500 :START DEPTH
STOP        .FT                                            8225 :STOP DEPTH
STEP        .FT                                             0.5 :STEP      
NULL        .                                           -999.25 :NULL      
COMP        .                             WALTER OIL & GAS CORP :COMPANY   
WELL        .                               OCS G08132 ST00BP00 :WELL      
FLD         .                              GALVESTON BLOCK 0385 :FIELD     
LOC         .                                                   :LOCATION  
CNTY        .                             GALVESTON LARGE BLOCK :LOCATION  
STAT        .                                             TEXAS :STATE     
CTRY        .                                     UNITED STATES :COUNTRY   
SRVC        .                                                   :SERVICE COMPANY
DATE        .                             9/13/2023 11:19:34 AM :LOG DATE  
API         .                                    42706402490000 :API NUMBER
UWI         .                                    42706402490000 :UNIQUE WELL ID
XCOORD      .                                  1009947.10754335 :SURFACE X 
YCOORD      .                                  10405011.8756564 :SURFACE Y 
LAT         .                                         28.657556 :LATITUDE  
LON         .                                        -94.966279 :LONGITUDE 
ELEV        .FT                                             101 :ELEVATION VALUE
ELEV_TYPE   .                                                KB :ELEVATION REFERENCE TYPE
~Curve Information Section
#MNEM       .UNIT                                      API CODE :CURVE DESCRIPTION
#------------------------------------------------------------------------------
DEPT        .FT                                                 :DEPTH     
CALI        .IN                                                 :          
DPHI        .%                                                  :          
DRHO        .G/C3                                               :          
GR          .GAPI                                               :          
GR_NORM     .GAPI                                               :GammaRay Normalized
ILD         .OHMM                                               :          
ILM         .OHMM                                               :          
NPHI        .%                                                  :          
SFL         .OHMM                                               :          
SP          .MV                                                 :          
SP_NORM     .MV                                                 :SP Normalized
VSH_GR      .V/V                                                :Volume of Shale from GR
VSH_SP      .V/V                                                :Volume of Shale from SP
~A        DEPTH           CALI           DPHI           DRHO             GR        GR_NORM            ILD            ILM           NPHI            SFL             SP        SP_NORM         VSH_GR         VSH_SP
# ...
      4861.0000        10.1556        26.9796        -0.0176        90.9297       83.61469         0.8196         0.8148         40.972         0.8582        -84.926     -0.8431613              1      0.9859473
      4861.5000        10.1228        27.2752        -0.0175        89.7274       82.36436         0.8136         0.8099        41.7601         0.8667       -85.1259      -1.082944              1      0.9819509
      4862.0000        10.1005        27.1604        -0.0169        86.7694       79.28519         0.8066         0.8051        42.6323         0.8625       -85.1224      -1.085428      0.9847912      0.9819095
      4862.5000        10.0858        27.2945        -0.0149        85.1523       77.60278         0.7996         0.7959         43.368         0.8375       -84.7292     -0.6332677      0.9489954      0.9894456
      4863.0000        10.0759        27.4776        -0.0128        86.6719       79.18777         0.7891         0.7864        43.5676         0.8051       -84.5514     -0.4323997      0.9827186      0.9927933
      4863.5000        10.0712        27.6765        -0.0122        89.4701       82.10464         0.7778         0.7771        43.0501         0.7847        -84.723      -0.639169              1      0.9893472
      4864.0000        10.0668        27.6991        -0.0116        92.4955       85.25817         0.7671         0.7675        43.0049         0.7729       -84.9401     -0.8990237              1      0.9850163
      4864.5000        10.0701        27.6124        -0.0113        94.3859       87.22942         0.7577         0.7579        43.3242          0.784       -85.0702      -1.057372              1      0.9823771
      4865.0000        10.0733        27.3906        -0.0115        93.4448       86.25117         0.7485         0.7489        43.6254         0.7977       -84.8044     -0.7538401              1       0.987436
      4865.5000        10.0698        27.0888        -0.0116        92.4006       85.16553         0.7469         0.7422        43.9061         0.8195       -84.5385     -0.4501928              1      0.9924968
      4866.0000        10.0592        26.7432        -0.0118        92.4255       85.19355         0.7453         0.7356        44.1664         0.8411       -84.4094     -0.3061485              1      0.9948975
      4866.5000        10.0487        26.3714        -0.0119        93.6997       86.52292         0.7402         0.7413        44.2875         0.8616       -84.5081     -0.4278692              1      0.9928688
      4867.0000        10.0274         26.195        -0.0121        93.1476       85.94989         0.7319         0.7479        43.9189         0.8605       -84.6067     -0.5494563              1      0.9908424
      4867.5000        10.0044        26.3755        -0.0123        90.5892       83.28696         0.7221         0.7391         42.924         0.8476        -84.692     -0.6555468              1      0.9890742
      4868.0000         9.9977        26.8251        -0.0124        88.5557       81.17081         0.7101         0.7166        42.1352         0.8207       -84.5394     -0.4840787              1       0.991932
      4868.5000        10.0004        27.3259        -0.0126        87.2791       79.84309         0.6974         0.6873        42.7243         0.7786        -84.387      -0.312851      0.9966614      0.9947858
      4869.0000        10.0055        27.8098        -0.0127        86.5934       79.13089         0.6817         0.6745        43.9743         0.7437       -84.2601     -0.1713702      0.9815083      0.9971438
      4869.5000        10.0118         27.904        -0.0126        86.6588       79.20109         0.6669         0.6617        45.1525         0.7172       -84.1361    -0.03327179      0.9830019      0.9994455
      4870.0000        10.0168        27.9703        -0.0126        88.1434       80.74963         0.6548         0.6485        45.9985         0.7074        -84.067      0.0407753              1              1
      4870.5000        10.0099        27.6004        -0.0125        91.6561       84.41076         0.6433         0.6376        46.3378         0.7017       -84.1284    -0.03742854              1      0.9993762
      4871.0000         10.003        27.5083        -0.0126        96.3879        89.3418         0.6429         0.6296        45.7637         0.7062       -84.1898     -0.1156235              1      0.9980729
      4871.5000          9.994        27.6326        -0.0127        98.7201       91.77325         0.6419         0.6288        45.7577         0.7107       -83.8767      0.2430852              1              1
      4872.0000         9.9745        27.9962        -0.0129        98.6139        91.6647          0.643         0.6306        47.0376         0.7178       -83.4338      0.7532349              1              1
      4872.5000         9.9551          27.98         -0.013         95.526        88.4502         0.6511         0.6354        48.4327         0.7263       -83.1685       1.056179              1              1
      4873.0000         9.9571        27.6382        -0.0131        92.4281        85.2253         0.6593         0.6417        49.1492         0.7349       -83.5841      0.5647481              1              1
      4873.5000         9.9623        27.0525        -0.0132        89.6375        82.3205         0.6688         0.6488        48.8928         0.7422       -83.9462      0.1357307              1              1
      4874.0000         9.9759        26.6106        -0.0132         88.502       81.13976         0.6786         0.6564        48.3325         0.7494       -84.1899     -0.1551615              1       0.997414
      4874.5000         9.9894        26.6429        -0.0132        89.7836       82.47684         0.6885         0.6641        48.0121         0.7515       -84.4338     -0.4462675              1      0.9925622
      4875.0000         9.9825        26.9403        -0.0131        91.1702       83.92328         0.6983         0.6724        47.0907         0.7489       -84.4463     -0.4674161              1      0.9922097
      4875.5000         9.9705        27.1905         -0.013        92.0255       84.81629         0.7082         0.6807        44.8668         0.7394       -84.2502     -0.2452037              1      0.9959133
      4876.0000         9.9606        27.3929         -0.013        91.5774        84.3516         0.7181         0.6891        43.2292         0.7257       -84.0543     -0.0232226              1      0.9996129
      4876.5000         9.9527        27.2649         -0.013        90.7535       83.49545         0.7269         0.6978         44.189          0.727       -83.8558      0.2017937              1              1
      4877.0000         9.9455         27.077         -0.013        89.4489       82.13856         0.7343         0.7066        45.0081         0.7365       -83.6377      0.4496676              1              1
      4877.5000         9.9488        26.7725        -0.0131        88.2653       80.90771         0.7417         0.7161        44.5833         0.7621       -83.4072      0.7120145              1              1
      4878.0000          9.952        26.4886        -0.0126        87.2253       79.82646         0.7486         0.7261        43.0385          0.813       -83.2019      0.9449704      0.9963077              1
      4878.5000         9.9572        26.2369         -0.012        86.3965        78.9652          0.753         0.7359        42.0286         0.8488       -83.0872       1.072219      0.9779831              1
      4879.0000         9.9642        26.1946        -0.0115        87.6088       80.23009         0.7575         0.7431        42.7094         0.8376        -83.349      0.7602132              1              1
      4879.5000           9.97        26.3265         -0.011        90.0471       82.77206          0.762         0.7505        43.9077         0.7893       -83.5803      0.4837939              1              1
