#------------------------------------------------------------------------------
# Created by    : vladimir.rabinovich
# Created on    : 09/19/2023 17:21:44
#------------------------------------------------------------------------------
~Version Information Section
VERS.           2.0     :   CWLS log ASCII Standard - VERSION 2.0
WRAP.           NO      :   One line per depth step
~Well Information Section
#MNEM       .UNIT                                         VALUE :DESCRIPTION
#------------------------------------------------------------------------------
STRT        .FT                                            3434 :START DEPTH
STOP        .FT                                            9802 :STOP DEPTH
STEP        .FT                                             0.5 :STEP      
NULL        .                                           -999.25 :NULL      
COMP        .                                  UMC PETROLEUM CO :COMPANY   
WELL        .                               OCS G11352 ST00BP00 :WELL      
FLD         .                            HIGH ISLAND BLOCK 0093 :FIELD     
LOC         .                                                   :LOCATION  
CNTY        .                           HIGH ISLAND LARGE BLOCK :LOCATION  
STAT        .                                             TEXAS :STATE     
CTRY        .                                     UNITED STATES :COUNTRY   
SRVC        .                                                   :SERVICE COMPANY
DATE        .                             9/13/2023 11:19:57 AM :LOG DATE  
API         .                                    42708403880000 :API NUMBER
UWI         .                                    42708403880000 :UNIQUE WELL ID
XCOORD      .                                  1243413.75648782 :SURFACE X 
YCOORD      .                                  10663707.7269925 :SURFACE Y 
LAT         .                                         29.377731 :LATITUDE  
LON         .                                        -94.246854 :LONGITUDE 
ELEV        .FT                                              85 :ELEVATION VALUE
ELEV_TYPE   .                                                KB :ELEVATION REFERENCE TYPE
~Curve Information Section
#MNEM       .UNIT                                      API CODE :CURVE DESCRIPTION
#------------------------------------------------------------------------------
DEPT        .FT                                                 :DEPTH     
CALI        .IN                                                 :          
CALI_1      .IN                                                 :          
DPHI        .%                                                  :          
DRHO        .G/C3                                               :          
DT          .US/F                                               :          
GR          .GAPI                                               :          
GR_1        .GAPI                                               :          
GR_NORM     .GAPI                                               :GammaRay Normalized
ILD         .OHMM                                               :          
ILM         .OHMM                                               :          
NPHI        .%                                                  :          
RFOC        .OHMM                                               :          
SP          .MV                                                 :          
SP_NORM     .MV                                                 :SP Normalized
VSH_GR      .V/V                                                :Volume of Shale from GR
VSH_SP      .V/V                                                :Volume of Shale from SP
~A        DEPTH           CALI         CALI_1           DPHI           DRHO             DT             GR           GR_1        GR_NORM            ILD            ILM           NPHI           RFOC             SP        SP_NORM         VSH_GR         VSH_SP
# ...
      3498.0000        -999.25        -999.25        -999.25        -999.25        -999.25        29.3676        -999.25       58.30522        -999.25        -999.25        -999.25        -999.25        -999.25        -999.25      0.5384089        -999.25
      3498.5000        -999.25        -999.25        -999.25        -999.25        -999.25        31.3207        -999.25       61.77125        -999.25        -999.25        -999.25        -999.25        -999.25        -999.25      0.6121543        -999.25
      3499.0000        -999.25        -999.25        -999.25        -999.25        -999.25         31.647        -999.25        62.2327        -999.25        -999.25        -999.25        -999.25        -999.25        -999.25      0.6219723        -999.25
      3499.5000        -999.25        -999.25        -999.25        -999.25        -999.25        31.3898        -999.25       61.61648        -999.25        -999.25        -999.25        -999.25        -999.25        -999.25      0.6088612        -999.25
      3500.0000        -999.25        14.6273        -999.25        -999.25       155.5242        30.7964        -999.25       60.37931          1.557         0.6038        -999.25         0.4809       -44.5438     -0.5438004      0.5825385      0.9901127
      3500.5000        -999.25        15.2497        -999.25        -999.25       160.7607         29.905        -999.25       58.59175         0.6717         0.5012        -999.25         0.5306       -47.0497      -3.049702      0.5445054      0.9445509
      3501.0000        -999.25         15.539        -999.25        -999.25       163.6987        29.2197        -999.25       57.18486         0.4994         0.4528        -999.25         0.5743       -49.1409        -5.1409      0.5145715      0.9065291
      3501.5000        -999.25        15.6888        -999.25        -999.25       164.1638        28.9758        -999.25       56.59318          0.469         0.4292        -999.25         0.6086       -51.3397      -7.339699      0.5019826      0.8665509
      3502.0000        -999.25        15.7513        -999.25        -999.25       155.7598        30.7605        -999.25        59.7482         0.4626         0.4303        -999.25         0.6357       -54.6901       -10.6901      0.5691106      0.8056345
      3502.5000        -999.25        15.7661        -999.25        -999.25       143.7969        32.9395        -999.25       63.63147         0.4643         0.4692        -999.25         0.6593       -58.4786       -14.4786      0.6517333      0.7367527
      3503.0000        -999.25        15.7618        -999.25        -999.25       134.2817        34.0316        -999.25       65.50729         0.4706         0.5192        -999.25         0.6823       -62.7278       -18.7278      0.6916445      0.6594946
      3503.5000        -999.25        15.7495        -999.25        -999.25       126.8282        33.1562        -999.25        63.7493         0.4772         0.5436        -999.25          0.704       -67.8486       -23.8486      0.6542405       0.566389
      3504.0000        -999.25        15.7389        -999.25        -999.25       125.1567        31.3894        -999.25       60.34494          0.479         0.5483        -999.25         0.7228       -72.9669       -28.9669      0.5818073       0.473329
      3504.5000        -999.25        15.7559        -999.25        -999.25       126.4584        29.6487        -999.25       56.98881         0.4425         0.5432        -999.25         0.7378       -76.5499       -32.5499      0.5104002      0.4081837
      3505.0000        -999.25        15.7746        -999.25        -999.25       128.3455        27.9079        -999.25       53.63245         0.4156         0.5151        -999.25         0.7476       -79.9597       -35.9597      0.4389884      0.3461872
      3505.5000        -999.25         15.793        -999.25        -999.25       129.5442        25.9901        -999.25       49.94923         0.3918         0.4762        -999.25         0.7451       -82.5461       -38.5461      0.3606218      0.2991619
      3506.0000        -999.25        15.8133        -999.25        -999.25         127.39          24.31        -999.25         46.705         0.3688         0.4451        -999.25          0.724       -84.3519       -40.3519      0.2915957      0.2663291
      3506.5000        -999.25        15.8301        -999.25        -999.25       124.3191        23.7856        -999.25       45.59529         0.3468         0.4262        -999.25         0.6992       -84.8878       -40.8878      0.2679848      0.2565854
      3507.0000        -999.25        15.8483        -999.25        -999.25       122.2388        24.6447        -999.25       47.04077         0.3301         0.4072        -999.25         0.6739       -85.0087       -41.0087      0.2987397      0.2543873
      3507.5000        -999.25        15.8685        -999.25        -999.25       120.8524         24.899        -999.25       47.36924         0.3175         0.3905        -999.25         0.6494       -84.7811       -40.7811      0.3057286      0.2585255
      3508.0000        -999.25        15.8862        -999.25        -999.25       120.5553        24.8732        -999.25       47.18039         0.3108         0.3796        -999.25         0.6303       -84.2834       -40.2834      0.3017104      0.2675745
      3508.5000        -999.25        15.8818        -999.25        -999.25       121.8839          24.83        -999.25        46.9594         0.3114         0.3776        -999.25         0.6218       -83.3762       -39.3762      0.2970085      0.2840691
      3509.0000        -999.25        15.8433        -999.25        -999.25       124.9172        25.5419        -999.25       48.13303         0.3199         0.3783        -999.25         0.6227       -81.7736       -37.7736      0.3219794      0.3132073
      3509.5000        -999.25        15.7708        -999.25        -999.25       129.8303        25.6776        -999.25       48.24247         0.3334         0.3868        -999.25         0.6273       -80.0043       -36.0043      0.3243078      0.3453763
      3510.0000        -999.25         15.649        -999.25        -999.25       135.4255        25.7387        -999.25       48.21411          0.349         0.4008        -999.25         0.6363       -78.0753       -34.0753      0.3237045      0.3804491
      3510.5000        -999.25        15.5227        -999.25        -999.25       141.0181         26.364        -999.25       49.22778         0.3609         0.4166        -999.25         0.6421       -76.4126       -32.4126       0.345272      0.4106801
      3511.0000        -999.25        15.4214        -999.25        -999.25       146.2898        27.3873        -999.25       50.97656         0.3689         0.4349        -999.25         0.6439       -75.4598       -31.4598        0.38248      0.4280036
      3511.5000        -999.25        15.3489        -999.25        -999.25       150.4556        27.4736        -999.25       50.99475          0.374         0.4409        -999.25          0.649       -74.9623       -30.9623      0.3828669       0.437049
      3512.0000        -999.25        15.3699        -999.25        -999.25       153.6958        26.8209        -999.25       49.64805         0.3766         0.4336        -999.25         0.6664       -75.1281       -31.1281      0.3542138      0.4340346
      3512.5000        -999.25        15.4829        -999.25        -999.25       151.0349        26.2738        -999.25        48.4964         0.3761         0.4243        -999.25         0.6833        -75.843        -31.843      0.3297105      0.4210363
      3513.0000        -999.25        15.6404        -999.25        -999.25       145.3645          26.33        -999.25         48.459         0.3734         0.4149        -999.25         0.6648       -76.7958       -32.7958      0.3289148      0.4037127
      3513.5000        -999.25         15.754        -999.25        -999.25       138.9968        26.4431        -999.25       48.52668         0.3655         0.4025        -999.25         0.6348       -77.0439       -33.0439       0.330355      0.3992018
