#------------------------------------------------------------------------------
# Created by    : vladimir.rabinovich
# Created on    : 09/19/2023 17:20:05
#------------------------------------------------------------------------------
~Version Information Section
VERS.           2.0     :   CWLS log ASCII Standard - VERSION 2.0
WRAP.           NO      :   One line per depth step
~Well Information Section
#MNEM       .UNIT                                         VALUE :DESCRIPTION
#------------------------------------------------------------------------------
STRT        .FT                                             712 :START DEPTH
STOP        .FT                                            9469 :STOP DEPTH
STEP        .FT                                             0.5 :STEP      
NULL        .                                           -999.25 :NULL      
COMP        .                                 MESA PETROLEUM CO :COMPANY   
WELL        .                                ST TR 00279-L SW/4 :WELL      
FLD         .                                           WILDCAT :FIELD     
LOC         .                                                   :LOCATION  
CNTY        .                             GALVESTON LARGE BLOCK :LOCATION  
STAT        .                                             TEXAS :STATE     
CTRY        .                                     UNITED STATES :COUNTRY   
SRVC        .                                                   :SERVICE COMPANY
DATE        .                             9/13/2023 11:18:53 AM :LOG DATE  
API         .                                    42706300950000 :API NUMBER
UWI         .                                    42706300950000 :UNIQUE WELL ID
XCOORD      .                                  947289.050530544 :SURFACE X 
YCOORD      .                                  10490529.0152507 :SURFACE Y 
LAT         .                                         28.889695 :LATITUDE  
LON         .                                        -95.166438 :LONGITUDE 
ELEV        .FT                                              84 :ELEVATION VALUE
ELEV_TYPE   .                                                KB :ELEVATION REFERENCE TYPE
~Curve Information Section
#MNEM       .UNIT                                      API CODE :CURVE DESCRIPTION
#------------------------------------------------------------------------------
DEPT        .FT                                                 :DEPTH     
ASFL        .OHMM                                               :          
CILD        .MMHO                                               :          
GR          .GAPI                                               :          
GR_NORM     .GAPI                                               :GammaRay Normalized
ILD         .OHMM                                               :          
SP          .MV                                                 :          
SP_NORM     .MV                                                 :SP Normalized
VSH_GR      .V/V                                                :Volume of Shale from GR
VSH_SP      .V/V                                                :Volume of Shale from SP
~A        DEPTH           ASFL           CILD             GR        GR_NORM            ILD             SP        SP_NORM         VSH_GR         VSH_SP
# ...
      9430.5000         0.4177       2860.246        72.5115       74.92538         0.5553       -56.5641      -19.27596      0.8920295      0.7429872
      9431.0000         0.4164        2891.07        73.7654       76.50858          0.555       -55.2904      -18.00227      0.9257146      0.7599698
      9431.5000          0.415       2921.844        75.0219       78.09508         0.5548       -54.4119      -17.12376      0.9594697      0.7716832
      9432.0000         0.4137       2952.668        76.7496       80.27651         0.5546       -53.6539      -16.36576              1      0.7817898
      9432.5000         0.4124       2984.973        77.8031       81.60669         0.5544       -53.3759      -16.08776              1      0.7854965
      9433.0000         0.4114        3018.02        77.6923        81.4668         0.5538       -53.6094      -16.32127              1      0.7823831
      9433.5000         0.4105       2983.688          77.53       81.26187         0.5527       -54.4425      -17.15437              1      0.7712751
      9434.0000         0.4095       2949.309         77.365       81.05354         0.5517       -55.2737      -17.98557              1      0.7601925
      9434.5000         0.4086        2914.93         76.912       80.48157         0.5506       -56.1068      -18.81866              1      0.7490845
      9435.0000         0.4076       2880.598         76.459       79.90959         0.5495        -56.938      -19.64986      0.9980764      0.7380018
      9435.5000         0.4077       2790.992        76.0061       79.33775         0.5484       -57.7711      -20.48296      0.9859096      0.7268938
      9436.0000         0.4102       2656.039        75.5531       78.76579         0.5473       -58.6024      -21.31427      0.9737401      0.7158098
      9436.5000         0.4127         2577.5        75.1002       78.19395         0.5462       -60.3351      -23.04696      0.9615734      0.6927072
      9437.0000         0.4151       2524.645        74.6472       77.62197         0.5451       -60.9961      -23.70797      0.9494036      0.6838938
      9437.5000         0.4176       2471.789        74.1949       77.05088         0.5441       -60.0056      -22.71746      0.9372528      0.6971005
      9438.0000         0.4199       2437.457        73.7419       76.47891          0.543       -59.2392      -21.95107      0.9250832      0.7073191
      9438.5000          0.422       2408.313        73.5079       76.18346         0.5419       -58.4719      -21.18377      0.9187971      0.7175498
      9439.0000         0.4241       2411.078        73.5181       76.19634         0.5408       -57.7054      -20.41726      0.9190711      0.7277699
      9439.5000         0.4262       2445.363        73.5282       76.20909         0.5397       -57.1218      -19.83366      0.9193423      0.7355511
      9440.0000         0.4283       2479.645        73.5383       76.22184         0.5386       -56.8344      -19.54626      0.9196136      0.7393832
      9440.5000         0.4304       2513.926        73.5616       76.25127         0.5384       -56.5469      -19.25877      0.9202397      0.7432165
      9441.0000         0.4325       2548.254        73.6119       76.31477         0.5384       -56.2549      -18.96677      0.9215909      0.7471098
      9441.5000         0.4346       2589.105        73.6622       76.37828         0.5384       -55.9513      -18.66317      0.9229422      0.7511578
      9442.0000         0.4343       2630.352        73.7126       76.44193         0.5384       -55.6481      -18.35997      0.9242963      0.7552004
      9442.5000         0.4322       2671.598        73.7629       76.50543         0.5384        -55.345      -18.05687      0.9256475      0.7592418
      9443.0000          0.431       2712.797        73.7205        76.4519         0.5384       -55.0414      -17.75327      0.9245085      0.7632898
      9443.5000         0.4318       2751.031        73.6068       76.30834         0.5384       -54.7382      -17.45007      0.9214541      0.7673324
      9444.0000         0.4326        2784.57        73.4933       76.16502         0.5384       -54.4351      -17.14697      0.9184048      0.7713738
      9444.5000         0.4334       2818.109        73.3795       76.02134         0.5384       -54.1315      -16.84336      0.9153476      0.7754218
      9445.0000         0.4342       2851.602         73.266       75.87802         0.5384        -54.261      -16.97287      0.9122983      0.7736951
      9445.5000          0.435        2883.66        73.1523       75.73447         0.5384       -54.4744      -17.18626      0.9092439      0.7708498
      9446.0000         0.4358       2911.027        73.0386       75.59091         0.5383       -55.0553      -17.76717      0.9061896      0.7631044
      9446.5000         0.4359       2938.344        72.9729       75.50796         0.5376        -56.329      -19.04086      0.9044246      0.7461218
      9447.0000         0.4351       2965.707        73.0168       75.56338          0.537       -57.6027      -20.31456      0.9056038      0.7291391
      9447.5000         0.4343       2995.645        73.0608       75.61894         0.5363       -57.1463      -19.85817       0.906786      0.7352245
      9448.0000         0.4335       3026.566        73.1046       75.67423         0.5356       -56.3253      -19.03716      0.9079624      0.7461712
      9448.5000         0.4326       3057.438        73.1486        75.7298         0.5349       -55.3793      -18.09116      0.9091446      0.7587845
      9449.0000         0.4318       3088.164        73.2924       75.91136         0.5343       -54.4314      -17.14326      0.9130077      0.7714232
      9449.5000          0.431       3117.949        73.4698       76.13535         0.5336       -54.1278      -16.83966      0.9177735      0.7754712
      9450.0000         0.4302       3147.738         73.647       76.35909         0.5329       -55.2608      -17.97266      0.9225339      0.7603645
      9450.5000         0.4283       3133.039        73.8243       76.58295         0.5322       -54.9868      -17.69867      0.9272969      0.7640178
      9451.0000          0.426        3114.59        74.0017       76.80695         0.5315       -53.9093      -16.62117      0.9320627      0.7783844
      9451.5000         0.4236        3100.34        74.1599       77.00669         0.5309       -52.8318      -15.54366      0.9363126      0.7927511
      9452.0000         0.4213        3086.09        74.2191       77.08144         0.5297       -51.7544      -14.46626      0.9379029      0.8071165
      9452.5000          0.419        3071.84        74.2783        77.1562          0.528        -50.179      -12.89087      0.9394935      0.8281218
      9453.0000         0.4167       3057.586        74.2677        77.1428         0.5263       -48.4166      -11.12846      0.9392085      0.8516205
      9453.5000         0.4146       3056.203        74.1782       77.02979         0.5246       -46.9105      -9.622364      0.9368041      0.8717018
      9454.0000         0.4132       3067.938        74.0889       76.91704         0.5229       -46.0867      -8.798565      0.9344051      0.8826858
      9454.5000         0.4119       3081.891        73.9996       76.80429         0.5212       -45.2629      -7.974766      0.9320062      0.8936698
      9455.0000         0.4106       3103.973        73.9102       76.69141         0.5195        -44.439      -7.150864      0.9296045      0.9046552
      9455.5000         0.4092       3126.051        73.8208       76.57854         0.5178       -43.6133      -6.325165      0.9272029      0.9156645
      9456.0000         0.4079       3148.133        73.7314       76.46566         0.5161       -43.0422      -5.754063      0.9248013      0.9232792
      9456.5000         0.4065       3169.434        73.6414       76.35202         0.5144        -42.559      -5.270863      0.9223834      0.9297218
