#------------------------------------------------------------------------------
# Created by    : vladimir.rabinovich
# Created on    : 09/19/2023 17:20:57
#------------------------------------------------------------------------------
~Version Information Section
VERS.           2.0     :   CWLS log ASCII Standard - VERSION 2.0
WRAP.           NO      :   One line per depth step
~Well Information Section
#MNEM       .UNIT                                         VALUE :DESCRIPTION
#------------------------------------------------------------------------------
STRT        .FT                                             598 :START DEPTH
STOP        .FT                                           10008 :STOP DEPTH
STEP        .FT                                             0.5 :STEP      
NULL        .                                           -999.25 :NULL      
COMP        .                                        SUN OIL CO :COMPANY   
WELL        .                               OCS G01712 ST00BP00 :WELL      
FLD         .                                           WILDCAT :FIELD     
LOC         .                                                   :LOCATION  
CNTY        .                                BRAZOS LARGE BLOCK :LOCATION  
STAT        .                                             TEXAS :STATE     
CTRY        .                                     UNITED STATES :COUNTRY   
SRVC        .                                                   :SERVICE COMPANY
DATE        .                             9/13/2023 11:18:52 AM :LOG DATE  
API         .                                    42704300120000 :API NUMBER
UWI         .                                    42704300120000 :UNIQUE WELL ID
XCOORD      .                                   818594.06951761 :SURFACE X 
YCOORD      .                                  10373365.4427938 :SURFACE Y 
LAT         .                                         28.560597 :LATITUDE  
LON         .                                        -95.560517 :LONGITUDE 
ELEV        .FT                                              89 :ELEVATION VALUE
ELEV_TYPE   .                                                KB :ELEVATION REFERENCE TYPE
~Curve Information Section
#MNEM       .UNIT                                      API CODE :CURVE DESCRIPTION
#------------------------------------------------------------------------------
DEPT        .FT                                                 :DEPTH     
ASN         .OHMM                                               :          
CALI        .IN                                                 :          
CILD        .MMHO                                               :          
ILD         .OHMM                                               :          
SP          .MV                                                 :          
SP_NORM     .MV                                                 :SP Normalized
VSH_SP      .V/V                                                :Volume of Shale from SP
~A        DEPTH            ASN           CALI           CILD            ILD             SP        SP_NORM         VSH_SP
# ...
      8102.0000         0.5623         8.7288       2762.684         0.3261       -57.4641      -1.975407              1
      8102.5000         0.5621         8.7137       2760.438         0.3264       -57.4949      -1.963619              1
      8103.0000          0.562         8.6863       2758.246         0.3267       -57.5259      -1.952034              1
      8103.5000         0.5619          8.664       2769.406          0.327       -57.5564      -1.939949              1
      8104.0000         0.5621         8.6521       2784.098         0.3274       -57.5845      -1.925461              1
      8104.5000         0.5623         8.6423       2798.785         0.3277       -57.6125      -1.910877              1
      8105.0000         0.5625         8.6356       2813.496          0.328       -57.6407      -1.896492              1
      8105.5000         0.5627         8.6501       2828.184         0.3283       -57.6688      -1.882004              1
      8106.0000         0.5629         8.6648       2874.559         0.3286       -57.6968       -1.86742              1
      8106.5000         0.5631          8.685       2880.574         0.3287       -57.7927      -1.920734              1
      8107.0000         0.5633         8.7052        2860.02          0.328       -57.9155      -2.000946      0.9999662
      8107.5000         0.5636         8.7252       2839.492         0.3273       -58.0383      -2.081161      0.9971014
      8108.0000         0.5639          8.745       2818.965         0.3266       -58.1611      -2.161373      0.9942366
      8108.5000         0.5642         8.7617       2799.703         0.3259       -58.2838      -2.241486      0.9913755
      8109.0000         0.5645         8.7759       2781.063         0.3252       -58.8187      -2.733803      0.9737927
      8109.5000         0.5648         8.7901       2762.449         0.3245        -59.385      -3.257515      0.9550887
      8110.0000         0.5652           8.79       2743.809         0.3238       -60.3433      -4.173233      0.9223846
      8110.5000         0.5655         8.7876       2729.145         0.3231       -60.2184      -4.005745      0.9283662
      8111.0000         0.5658         8.7661       2715.949         0.3224       -60.0898       -3.83456        0.93448
      8111.5000         0.5661         8.7366       2706.879         0.3216       -59.9611      -3.663277      0.9405972
      8112.0000         0.5664         8.7274       2726.461         0.3202       -59.8325      -3.492088      0.9467111
      8112.5000         0.5668          8.722        2746.07         0.3187       -59.7037      -3.320702      0.9528321
      8113.0000         0.5671         8.7268       2765.977         0.3173       -59.5751      -3.149517      0.9589458
      8113.5000         0.5676         8.7332       2786.508         0.3158       -59.4465      -2.978329      0.9650597
      8114.0000         0.5681         8.7556       2807.012         0.3144       -59.3244      -2.813644      0.9709412
      8114.5000         0.5685         8.7761        2807.52         0.3129       -59.2077      -2.654358      0.9766301
      8115.0000          0.569         8.7877       2796.695         0.3115       -59.0911      -2.495171      0.9823154
      8115.5000         0.5695         8.7992       2785.887         0.3112       -58.9746       -2.33609      0.9879968
      8116.0000           0.57         8.8078       2775.063         0.3124        -58.858      -2.176903       0.993682
      8116.5000         0.5704         8.8159       2761.504         0.3136       -58.7413      -2.017612       0.999371
      8117.0000         0.5709         8.8236       2747.836         0.3148       -58.6248      -1.858532              1
      8117.5000         0.5714         8.8283       2734.191          0.316       -58.5082      -1.699345              1
      8118.0000         0.5718          8.833       2720.523         0.3172       -58.3917      -1.540257              1
      8118.5000         0.5723         8.8271       2706.703         0.3183        -58.283      -1.388973              1
      8119.0000         0.5728         8.8197       2692.563         0.3193       -58.1938      -1.257187              1
      8119.5000         0.5733         8.8219       2678.395         0.3186       -58.1047      -1.125496              1
      8120.0000         0.5737         8.8329       2664.254         0.3179       -58.0153      -0.993515              1
      8120.5000         0.5742         8.8461        2650.09         0.3172       -57.9261     -0.8617287              1
      8121.0000         0.5747         8.8618       2635.102         0.3165       -57.8369     -0.7299423              1
      8121.5000         0.5751         8.8774       2619.371         0.3158       -57.7476     -0.6075516              1
      8122.0000         0.5756         8.8947       2603.613         0.3154       -57.6584     -0.5362625              1
      8122.5000         0.5761         8.9123       2590.543          0.315       -57.5396     -0.4353752              1
      8123.0000         0.5766         8.9203        2597.75         0.3146       -57.4047     -0.3183861              1
      8123.5000          0.577         8.9211       2629.512         0.3142         -57.27     -0.2015953              1
      8124.0000         0.5775          8.922       2661.273         0.3138       -57.1352    -0.08470917              1
      8124.5000          0.578          8.912       2680.582         0.3134       -57.0004     0.03218079              1
      8125.0000         0.5784         8.8998       2699.324          0.313       -56.8608      0.1538696              1
      8125.5000         0.5787         8.8887       2718.035         0.3126       -56.7183      0.2784576              1
      8126.0000         0.5788          8.894           2737         0.3122       -56.5756      0.4032478              1
      8126.5000         0.5789         8.8989       2749.711         0.3118       -56.4331      0.5278358              1
      8127.0000          0.579         8.8924       2745.215         0.3114       -56.2904      0.6526222              1
      8127.5000         0.5791         8.8858       2739.008          0.311       -56.1877      0.7374153              1
      8128.0000         0.5792         8.8818        2732.57         0.3106        -56.114      0.7932053              1
      8128.5000         0.5793         8.8778       2726.121         0.3102       -56.0403      0.8489914              1
      8129.0000         0.5794         8.8738       2719.684         0.3098       -55.9666      0.9047813              1
      8129.5000         0.5795         8.8604       2713.234         0.3094       -55.9855      0.8679695              1
      8130.0000         0.5796         8.8369       2706.332          0.309       -56.0338      0.8017578              1
      8130.5000         0.5796         8.8134       2697.645         0.3086       -56.0821      0.7355461              1
      8131.0000         0.5798         8.7897       2675.215         0.3082       -56.1303      0.6694374              1
      8131.5000         0.5802         8.7651       2675.238         0.3078       -56.2012      0.5806236              1
      8132.0000         0.5806         8.7404       2689.582         0.3074       -56.2792      0.4847107              1
      8132.5000         0.5811         8.7157       2703.945          0.307       -56.3571      0.3889008              1
      8133.0000         0.5815         8.6983       2722.883         0.3066       -56.4352      0.2928886              1
      8133.5000         0.5819         8.6822       2744.926         0.3062       -56.6429     0.06727982              1
      8134.0000         0.5823         8.6662       2751.414         0.3058        -56.869     -0.1767311              1
      8134.5000         0.5828         8.6549       2740.117         0.3054       -56.9918     -0.3174438              1
      8135.0000         0.5832         8.6437       2730.414         0.3051       -57.1144     -0.4579544              1
