#------------------------------------------------------------------------------
# Created by    : vladimir.rabinovich
# Created on    : 09/19/2023 17:20:35
#------------------------------------------------------------------------------
~Version Information Section
VERS.           2.0     :   CWLS log ASCII Standard - VERSION 2.0
WRAP.           NO      :   One line per depth step
~Well Information Section
#MNEM       .UNIT                                         VALUE :DESCRIPTION
#------------------------------------------------------------------------------
STRT        .FT                                             504 :START DEPTH
STOP        .FT                                            9361 :STOP DEPTH
STEP        .FT                                             0.5 :STEP      
NULL        .                                           -999.25 :NULL      
COMP        .                                      SHELL OIL CO :COMPANY   
WELL        .                                OCS 00704 ST00BP00 :WELL      
FLD         .                                           WILDCAT :FIELD     
LOC         .                                                   :LOCATION  
CNTY        .                             GALVESTON LARGE BLOCK :LOCATION  
STAT        .                                             TEXAS :STATE     
CTRY        .                                     UNITED STATES :COUNTRY   
SRVC        .                                                   :SERVICE COMPANY
DATE        .                             9/13/2023 11:19:25 AM :LOG DATE  
API         .                                    42706000430000 :API NUMBER
UWI         .                                    42706000430000 :UNIQUE WELL ID
XCOORD      .                                  1136254.96267488 :SURFACE X 
YCOORD      .                                  10526383.5552877 :SURFACE Y 
LAT         .                                         28.996505 :LATITUDE  
LON         .                                        -94.577519 :LONGITUDE 
ELEV        .FT                                              42 :ELEVATION VALUE
ELEV_TYPE   .                                                KB :ELEVATION REFERENCE TYPE
~Curve Information Section
#MNEM       .UNIT                                      API CODE :CURVE DESCRIPTION
#------------------------------------------------------------------------------
DEPT        .FT                                                 :DEPTH     
ASN         .OHMM                                               :          
DT          .US/F                                               :          
LN          .OHMM                                               :          
SP          .MV                                                 :          
SP_NORM     .MV                                                 :SP Normalized
VSH_SP      .V/V                                                :Volume of Shale from SP
~A        DEPTH            ASN             DT             LN             SP        SP_NORM         VSH_SP
# ...
      2860.0000         0.9791        -999.25         1.6856       -60.0557     -0.3910141              1
      2860.5000         0.9789        -999.25         1.6871       -60.0917     -0.4330521              1
      2861.0000         0.9788        -999.25         1.6885       -59.9896     -0.3369865              1
      2861.5000         0.9786        -999.25           1.69       -59.8875      -0.240921              1
      2862.0000         0.9785        -999.25         1.6918       -59.7854     -0.1448517              1
      2862.5000         0.9773        -999.25         1.6938       -59.8982     -0.2636871              1
      2863.0000         0.9742        -999.25         1.6958       -60.0453     -0.4168205              1
      2863.5000         0.9711        -999.25         1.6978       -60.1924     -0.5699577              1
      2864.0000         0.9679        -999.25         1.6999        -60.449      -0.832592              1
      2864.5000         0.9648        -999.25         1.7019       -60.7341      -1.123726              1
      2865.0000         0.9616        -999.25         1.7039       -60.3221     -0.7177582              1
      2865.5000         0.9585        -999.25         1.7059       -59.7764      -0.178093              1
      2866.0000         0.9554        -999.25         1.7079       -59.3284      0.2638741              1
      2866.5000         0.9528        -999.25         1.7099       -58.8809      0.7053375              1
      2867.0000         0.9503        -999.25         1.7119       -58.7291      0.8511047              1
      2867.5000         0.9479        -999.25         1.7139       -58.6137      0.9604683              1
      2868.0000         0.9454        -999.25         1.7123       -58.4984       1.069736              1
      2868.5000          0.943        -999.25         1.7097       -58.6533       0.908802              1
      2869.0000         0.9405        -999.25         1.7071       -58.8165      0.7395668              1
      2869.5000         0.9381        -999.25         1.7045       -58.9797      0.5703354              1
      2870.0000         0.9356        -999.25         1.7019       -59.1429      0.4011002              1
      2870.5000         0.9333        -999.25         1.6993        -59.306      0.2319641              1
      2871.0000         0.9334        -999.25         1.6967       -59.5175       0.014431              1
      2871.5000         0.9336        -999.25         1.6941       -59.7565     -0.2306023              1
      2872.0000         0.9338        -999.25         1.6915       -59.9563     -0.4364357              1
      2872.5000          0.934        -999.25         1.6889       -59.9095     -0.3956718              1
      2873.0000         0.9341        -999.25         1.6863       -59.8627      -0.354908              1
      2873.5000         0.9343        -999.25         1.6833        -59.803     -0.3012428              1
      2874.0000         0.9345        -999.25          1.678       -59.7337     -0.2379723              1
      2874.5000         0.9347        -999.25         1.6728       -59.6644     -0.1747055              1
      2875.0000         0.9348        -999.25         1.6675        -59.553    -0.06934357              1
      2875.5000         0.9365        -999.25         1.6622       -59.3057      0.1719246              1
      2876.0000         0.9384        -999.25         1.6569       -59.0582      0.4133873              1
      2876.5000         0.9403        -999.25         1.6517       -58.8109      0.6546516              1
      2877.0000         0.9422        -999.25         1.6464       -58.4977      0.9618225              1
      2877.5000         0.9441        -999.25         1.6411        -57.982       1.471489              1
      2878.0000         0.9461        -999.25         1.6358       -57.5651       1.882351              1
      2878.5000          0.948        -999.25         1.6306       -58.4602      0.9812164              1
      2879.0000         0.9499        -999.25         1.6253       -59.3547     0.08068466              1
      2879.5000         0.9518        -999.25           1.62       -59.9502     -0.5208511              1
      2880.0000         0.9533        -999.25          1.615       -60.4033     -0.9799843              1
      2880.5000          0.954        -999.25         1.6149       -60.8566       -1.43932              1
      2881.0000         0.9547        -999.25         1.6149       -61.3096      -1.898354      0.9704923
      2881.5000         0.9554        -999.25         1.6148       -61.3542      -1.948986      0.9667418
      2882.0000         0.9561        -999.25         1.6147       -61.2747      -1.875523      0.9721835
      2882.5000         0.9542        -999.25         1.6147       -61.1949      -1.801754      0.9776478
      2883.0000         0.9504        -999.25         1.6146       -61.1152      -1.728088      0.9831046
      2883.5000         0.9465        -999.25         1.6142       -60.9658      -1.584724      0.9937241
      2884.0000         0.9427        -999.25         1.6132       -60.7332      -1.358158              1
      2884.5000         0.9389        -999.25         1.6123       -60.5006      -1.131592              1
      2885.0000         0.9351        -999.25         1.6113       -60.2679     -0.9049263              1
      2885.5000         0.9313        -999.25         1.6104       -60.1749     -0.8179588              1
      2886.0000         0.9275        -999.25         1.6111       -60.1093     -0.7583923              1
      2886.5000         0.9237        -999.25         1.6139       -60.0436     -0.6987267              1
      2887.0000         0.9206        -999.25         1.6167       -59.9353     -0.5964622              1
      2887.5000         0.9177        -999.25         1.6194       -59.7268     -0.3939972              1
      2888.0000         0.9148        -999.25         1.6222       -59.5184     -0.1916313              1
      2888.5000         0.9119        -999.25          1.625       -59.3099     0.01083755              1
      2889.0000         0.9091        -999.25         1.6278       -59.1014      0.2133026              1
      2889.5000         0.9062        -999.25         1.6306       -58.8973      0.4113655              1
      2890.0000         0.9033        -999.25         1.6334       -58.6936      0.6090317              1
      2890.5000         0.9004        -999.25         1.6362       -58.4898       0.806797              1
      2891.0000         0.8975        -999.25          1.639       -58.6723      0.6182632              1
      2891.5000         0.8961        -999.25         1.6418       -58.9323      0.3522301              1
      2892.0000         0.8956        -999.25         1.6446        -59.303    -0.02450562              1
      2892.5000         0.8951        -999.25         1.6474       -59.7709     -0.4984398              1
      2893.0000         0.8946        -999.25         1.6502        -60.239     -0.9725723              1
      2893.5000         0.8941        -999.25          1.653       -60.6862      -1.425808              1
      2894.0000         0.8936        -999.25         1.6526       -60.6813      -1.426945              1
      2894.5000         0.8931        -999.25         1.6518       -60.6764      -1.428074              1
      2895.0000         0.8931        -999.25          1.651       -60.6716       -1.42931              1
      2895.5000         0.8954        -999.25         1.6502       -60.6667      -1.430443              1
      2896.0000         0.8977        -999.25         1.6494        -60.553      -1.322781              1
      2896.5000         0.8999        -999.25         1.6486       -60.3862      -1.162014              1
      2897.0000         0.9022        -999.25         1.6478       -60.2195       -1.00135              1
      2897.5000         0.9045        -999.25          1.647       -60.0529     -0.8407784              1
