#------------------------------------------------------------------------------
# Created by    : vladimir.rabinovich
# Created on    : 09/19/2023 17:20:38
#------------------------------------------------------------------------------
~Version Information Section
VERS.           2.0     :   CWLS log ASCII Standard - VERSION 2.0
WRAP.           NO      :   One line per depth step
~Well Information Section
#MNEM       .UNIT                                         VALUE :DESCRIPTION
#------------------------------------------------------------------------------
STRT        .FT                                             510 :START DEPTH
STOP        .FT                                            8711 :STOP DEPTH
STEP        .FT                                             0.5 :STEP      
NULL        .                                           -999.25 :NULL      
COMP        .                                      SHELL OIL CO :COMPANY   
WELL        .                                OCS 00708 ST00BP00 :WELL      
FLD         .                                           WILDCAT :FIELD     
LOC         .                                                   :LOCATION  
CNTY        .                             GALVESTON LARGE BLOCK :LOCATION  
STAT        .                                             TEXAS :STATE     
CTRY        .                                     UNITED STATES :COUNTRY   
SRVC        .                                                   :SERVICE COMPANY
DATE        .                             9/13/2023 11:19:25 AM :LOG DATE  
API         .                                    42706000300000 :API NUMBER
UWI         .                                    42706000300000 :UNIQUE WELL ID
XCOORD      .                                  1082576.09526943 :SURFACE X 
YCOORD      .                                  10493698.2734572 :SURFACE Y 
LAT         .                                         28.904546 :LATITUDE  
LON         .                                        -94.743912 :LONGITUDE 
ELEV        .FT                                              92 :ELEVATION VALUE
ELEV_TYPE   .                                                KB :ELEVATION REFERENCE TYPE
~Curve Information Section
#MNEM       .UNIT                                      API CODE :CURVE DESCRIPTION
#------------------------------------------------------------------------------
DEPT        .FT                                                 :DEPTH     
ASN         .OHMM                                               :          
CILD        .MMHO                                               :          
DT          .US/F                                               :          
ILD         .OHMM                                               :          
SP          .MV                                                 :          
SP_NORM     .MV                                                 :SP Normalized
VSH_SP      .V/V                                                :Volume of Shale from SP
~A        DEPTH            ASN           CILD             DT            ILD             SP        SP_NORM         VSH_SP
# ...
      7578.5000         0.9111       1694.855       104.3022         0.6843       -56.6369       -13.8132      0.7487608
      7579.0000         0.8853       1870.783       107.1297         0.6597       -57.9957      -15.17503      0.7220582
      7579.5000         0.8377       1978.926       109.2173          0.635       -61.0065      -18.18886      0.6629635
      7580.0000         0.8147       2018.439       110.2586         0.6339       -69.6919       -26.8773       0.492602
      7580.5000         0.7918       2043.139       110.1345         0.6375        -76.798      -33.98642      0.3532074
      7581.0000         0.7717       2059.602       107.6188         0.6412       -75.8008      -32.99226      0.3727009
      7581.5000         0.7606       2057.297       104.8069         0.6448       -69.2173      -26.41179      0.5017295
      7582.0000         0.7514       2042.131       102.2725         0.6485       -65.3088      -22.50632      0.5783073
      7582.5000         0.7482       1913.578        99.3879         0.6544       -63.3345      -20.53506      0.6169597
      7583.0000         0.7456       1896.381        96.5734         0.6607       -62.1134      -19.31699      0.6408433
      7583.5000         0.7437       1896.119        97.0177         0.6669       -61.5359      -18.74252      0.6521074
      7584.0000         0.7418       1899.193        99.8114         0.6732       -62.0088      -19.21846      0.6427754
      7584.5000         0.7416       1906.129       100.1158         0.6794       -61.8257      -19.03839      0.6463062
      7585.0000         0.7697       1913.076        99.5843         0.6841       -57.4316      -14.64732      0.7324055
      7585.5000         0.7977        1920.01       100.4243         0.6749       -55.4236      -12.64235      0.7717186
      7586.0000         0.8235       1940.133       100.5425         0.6657        -58.759      -15.98079      0.7062591
      7586.5000         0.8334       2003.496        99.6195         0.6564       -64.4626      -21.68742      0.5943643
      7587.0000         0.8433       2011.707        98.0928         0.6472       -68.2682      -25.49606      0.5196852
      7587.5000         0.8494       2026.002         98.826         0.6379       -73.5107      -30.74158      0.4168317
      7588.0000         0.8553        2047.98        101.203         0.6329       -76.4387      -33.67262      0.3593605
      7588.5000         0.8688           2044       104.1268         0.6364       -76.3536      -33.59055      0.3609696
      7589.0000         0.8846       1961.162       105.0367         0.6398        -75.071      -32.31098      0.3860592
      7589.5000         0.8591       1870.246       105.8069         0.6433       -75.1846      -32.42762      0.3837722
      7590.0000         0.8399       1844.406       107.4849         0.6485       -76.2507      -33.49675      0.3628088
      7590.5000         0.8497       1820.951       109.3026         0.6626       -76.5775      -33.82658      0.3563416
      7591.0000         0.8595       1817.221       109.2972         0.6768       -71.4558      -28.70791      0.4567076
      7591.5000         0.8693       1817.461       107.8313         0.6909       -65.1163      -22.37144       0.580952
      7592.0000         0.8791       1824.094       107.6327         0.7051       -63.8001      -21.05827      0.6067005
      7592.5000         0.8856       1830.727       108.4029         0.7069       -67.7219      -24.98311       0.529743
      7593.0000         0.8877        1841.99       106.7579         0.7003       -71.3796      -28.64384      0.4579639
      7593.5000         0.8898           1860       104.7994         0.6865       -73.9048      -31.17207      0.4083907
      7594.0000         0.8924       1875.648       104.2329         0.6727       -72.4609       -29.7312       0.436643
      7594.5000         0.9018       1883.893       105.5083          0.659       -70.6768      -27.95014      0.4715658
      7595.0000         0.9111       1892.137       107.4738         0.6452       -69.7188      -26.99517      0.4902907
      7595.5000         0.9118       1797.314       108.4352         0.6314       -71.7703      -29.04971      0.4500058
      7596.0000          0.893       1737.986       108.3753          0.634        -72.903      -30.18544      0.4277366
      7596.5000         0.8741        1655.48       108.6565         0.6406       -73.9427      -31.22817      0.4072907
      7597.0000         0.8358       1602.863       107.7201          0.663       -72.3467       -29.6352      0.4385254
      7597.5000         0.8504       1509.621       105.7092         0.6853       -68.2592      -25.55074       0.518613
      7598.0000         0.8872       1460.203       103.3713         0.7077       -63.8046      -21.09917      0.6058987
      7598.5000          0.924       1445.572       102.3715         0.7301       -60.0126       -17.3102      0.6801922
      7599.0000          0.946       1430.941        101.337         0.7524        -56.225      -13.52563      0.7543994
      7599.5000         0.9671       1407.875       101.8229         0.7748       -52.4374      -9.741066      0.8286065
      7600.0000         0.9872       1381.209       101.9366         0.7972       -49.2095      -6.516197      0.8918393
      7600.5000         1.0025       1335.975       102.1789         0.8195       -57.8457      -15.15543      0.7224426
      7601.0000         1.0178       1256.377       102.9893         0.8434       -63.1733      -20.48606      0.6179203
      7601.5000          1.033       1208.682       102.7656         0.8675       -64.5612        -21.877      0.5906471
      7602.0000         1.0421       1183.559       101.8794         0.8916       -63.5091      -20.82793       0.611217
      7602.5000         1.0513       1156.826       100.1356         0.9156       -62.0452      -19.36706      0.6398615
      7603.0000         1.0605       1122.127       100.9756         0.9423       -58.3381      -15.66299      0.7124903
      7603.5000         1.0704       1106.166       102.8631         0.9756       -51.0916      -8.419521      0.8545192
      7604.0000         1.0799       1145.326       108.0836         0.9525       -50.6232      -7.954155       0.863644
      7604.5000         1.0651       1204.477       110.6683         0.9226       -50.3019      -7.635887      0.8698846
      7605.0000         1.0532       1270.695       109.7765         0.8905       -49.9807      -7.317722      0.8761231
      7605.5000         1.0428        1398.01       109.4274         0.8561       -49.4434      -6.783455      0.8865989
      7606.0000         1.0324       1418.727       108.1704         0.8218       -50.1206      -7.463688       0.873261
      7606.5000          1.022       1439.264       103.9804         0.7874       -52.6434      -9.989517      0.8237349
      7607.0000          1.013       1445.906       102.3743         0.7531       -55.9385      -13.28765      0.7590657
      7607.5000         1.0059       1382.193        100.838         0.7503        -61.096      -18.44818      0.6578787
      7608.0000         1.0235       1329.396        101.458         0.7618       -65.4052      -22.76041      0.5733252
      7608.5000         1.0462       1287.697         103.72         0.7733       -61.3154      -18.67365      0.6534579
      7609.0000         1.0688       1253.336       104.6762         0.7908        -58.233      -15.59428      0.7138376
      7609.5000          1.089       1224.789        105.618         0.8225       -55.9362      -13.30051      0.7588134
      7610.0000         1.1091       1199.465       106.7312         0.8542       -53.7537      -11.12105      0.8015481
      7610.5000         1.1293       1175.707       109.7841         0.8858       -52.1218       -9.49218      0.8334867
      7611.0000         1.1456       1157.396       111.6206         0.9175        -51.035      -8.408413       0.854737
      7611.5000         1.1603       1163.838       111.2583         0.9414       -50.0053      -7.381744      0.8748677
