#------------------------------------------------------------------------------
# Created by    : vladimir.rabinovich
# Created on    : 09/19/2023 17:22:28
#------------------------------------------------------------------------------
~Version Information Section
VERS.           2.0     :   CWLS log ASCII Standard - VERSION 2.0
WRAP.           NO      :   One line per depth step
~Well Information Section
#MNEM       .UNIT                                         VALUE :DESCRIPTION
#------------------------------------------------------------------------------
STRT        .FT                                            2000 :START DEPTH
STOP        .FT                                            7372 :STOP DEPTH
STEP        .FT                                             0.5 :STEP      
NULL        .                                           -999.25 :NULL      
COMP        .                       CORPUS CHRISTI OIL & GAS CO :COMPANY   
WELL        .                                ST TR 00596-L SE/4 :WELL      
FLD         .                                           WILDCAT :FIELD     
LOC         .                                                   :LOCATION  
CNTY        .                      MATAGORDA ISLAND LARGE BLOCK :LOCATION  
STAT        .                                             TEXAS :STATE     
CTRY        .                                     UNITED STATES :COUNTRY   
SRVC        .                                                   :SERVICE COMPANY
DATE        .                             9/13/2023 11:19:13 AM :LOG DATE  
API         .                                    42703300520000 :API NUMBER
UWI         .                                    42703300520000 :UNIQUE WELL ID
XCOORD      .                                  480173.649028781 :SURFACE X 
YCOORD      .                                  10231220.1013933 :SURFACE Y 
LAT         .                                        28.1462983 :LATITUDE  
LON         .                                       -96.6002451 :LONGITUDE 
ELEV        .FT                                              82 :ELEVATION VALUE
ELEV_TYPE   .                                                GL :ELEVATION REFERENCE TYPE
~Curve Information Section
#MNEM       .UNIT                                      API CODE :CURVE DESCRIPTION
#------------------------------------------------------------------------------
DEPT        .FT                                                 :DEPTH     
CILD        .MMHO                                               :          
ILD         .OHMM                                               :          
SN          .OHMM                                               :          
SP          .MV                                                 :          
SP_NORM     .MV                                                 :SP Normalized
VSH_SP      .V/V                                                :Volume of Shale from SP
~A        DEPTH           CILD            ILD             SN             SP        SP_NORM         VSH_SP
# ...
      4470.0000        2028.16         0.4931         0.9108       -80.1849      -53.96993      0.1039667
      4470.5000       1816.382         0.5505         0.9108       -78.9597      -52.74924      0.1250132
      4471.0000       1735.262         0.5763         0.9267       -77.7345      -51.52853      0.1460598
      4471.5000       1654.141         0.6045         0.9467       -77.1856      -50.98414      0.1554459
      4472.0000       1573.021         0.6357         0.9547       -39.3861      -13.18914      0.8070838
      4472.5000       1323.997         0.7553         0.9986       -38.9861      -12.79364      0.8139028
      4473.0000       1291.381         0.7744         1.0305       -37.3898      -11.20184      0.8413476
      4473.5000       1258.765         0.7944         1.0664       -35.7935      -9.610037      0.8687925
      4474.0000        1226.15         0.8156         1.0943       -30.3871      -4.208139      0.9619286
      4474.5000       1193.534         0.8378         1.1742       -27.3871      -1.212639              1
      4475.0000       1160.918         0.8614         1.2141       -26.9874       -0.81744              1
      4475.5000       1128.303         0.8863           1.23       -26.9876     -0.8221416              1
      4476.0000       1095.687         0.9127          1.246       -26.3879     -0.2269402              1
      4476.5000       1063.071         0.9407          1.246       -26.1881    -0.03164291              1
      4477.0000       992.7506         1.0073          1.242       -25.7883      0.3636589              1
      4477.5000       992.7605         1.0073          1.234       -25.3886      0.7588577              1
      4478.0000       1004.746         0.9953          1.234       -25.1888       0.954155              1
      4478.5000       1008.748         0.9913          1.238       -25.1891      0.9493561              1
      4479.0000        1012.75         0.9874          1.238       -24.9893       1.144655              1
      4479.5000       1020.744         0.9797         1.2459       -24.7898       1.339655              1
      4480.0000       1020.754         0.9797         1.2539       -24.9898       1.135155              1
      4480.5000        1012.78         0.9874         1.2579       -25.1901      0.9303532              1
      4481.0000       1004.806         0.9952         1.2619       -25.3116      0.8043537              1
      4481.5000       996.8315         1.0032         1.2658        -25.433      0.6784515              1
      4482.0000       988.8574         1.0113         1.2698       -25.5545      0.5524521              1
      4482.5000       968.9073         1.0321         1.2698       -25.7911      0.3113518              1
      4483.0000       956.9412          1.045         1.2738       -26.1913    -0.09334946              1
      4483.5000        968.927         1.0321         1.2778       -28.5916       -2.49815      0.9914112
      4484.0000       972.9289         1.0278         1.2818       -29.3918      -3.302851       0.977537
      4484.5000       988.9067         1.0112         1.2977       -29.7921      -3.707651      0.9705577
      4485.0000       992.9086         1.0071         1.3217       -29.7923      -3.712351      0.9704767
      4485.5000       1004.894         1.0393         1.3935       -30.5928      -4.517353      0.9565974
      4486.0000       1004.904         1.0529         1.4166       -31.3931      -5.322153      0.9427215
      4486.5000       965.5211         1.0792         1.4254       -31.9931      -5.926653      0.9322991
      4487.0000       926.1379         1.1989         1.5518       -32.7933      -6.731354       0.918425
      4487.5000       886.7547         1.4184         1.6783       -32.9936      -6.936153      0.9148939
      4488.0000       847.3715         1.4985         1.8326       -36.1938      -10.14086      0.8596404
      4488.5000       807.9884         1.5581         1.8519       -36.4463      -10.39786      0.8552094
      4489.0000       768.6052          1.578         1.8645       -36.6987      -10.65476      0.8507801
      4489.5000        729.222         1.5979         1.9723       -36.9512      -10.91175      0.8463491
      4490.0000       697.6002         1.6178         1.8891       -51.8751      -25.84016      0.5889628
      4490.5000       764.2981         1.3084         1.8059        -54.544      -28.51356      0.5428697
      4491.0000        830.996         1.2034         1.7226       -57.5955      -31.56956        0.49018
      4491.5000       897.6938          1.114         1.6394       -60.7858      -34.76436      0.4350973
      4492.0000       993.0566          1.007         1.5562        -70.596      -44.57906      0.2658783
      4492.5000        1060.92         0.9426          1.473        -73.196      -47.18356      0.2209731
      4493.0000       1171.879         0.8533         1.3898       -78.1965      -52.18856        0.13468
      4493.5000       1282.838         0.7795         1.3066       -78.3965      -52.39306      0.1311542
      4494.0000       1393.796         0.5794         1.2234       -79.9968      -53.99786      0.1034851
      4494.5000       1504.755         0.4796         1.1139       -81.1038      -55.10936     0.08432139
      4495.0000       1615.713         0.4596         1.1014       -81.1973      -55.20737      0.0826316
      4495.5000       1726.672         0.3997         1.0899       -82.9007      -56.91527     0.05318503
      4496.0000       1837.631         0.3597          1.026       -84.6041      -58.62317     0.02373847
      4496.5000       2015.899         0.2798         0.9582       -86.3983      -60.42187              0
      4497.0000       2023.883         0.2798         0.9581       -86.1983      -60.22637              0
      4497.5000       2083.772         0.2598         0.9671       -85.9985      -60.03106              0
      4498.0000       2478.999         0.2597         0.9741       -84.8345      -58.87157     0.01945575
      4498.5000       2431.998         0.2796          1.008        -84.799      -58.84057      0.0199902
      4499.0000       2384.996         0.2995          1.042            -75      -49.04607      0.1888609
      4499.5000       2337.995         0.2995          1.076       -75.1995      -49.25007      0.1853436
      4500.0000       2290.994         0.3194         1.1099       -75.7998      -49.85487      0.1749161
      4500.5000       2243.993         0.3576         1.1439       -76.5256      -50.58517      0.1623247
      4501.0000       2196.828         0.3783         1.1782       -77.2005      -51.26457      0.1506108
      4501.5000       2149.664         0.4191         1.2126       -77.8753      -51.94387      0.1388988
      4502.0000       2102.499          0.439          1.247       -78.5501      -52.62317      0.1271867
      4502.5000       2055.335         0.4989         1.2814       -79.2022      -53.27977       0.115866
      4503.0000       2008.171         0.5388         1.3653       -73.5916      -47.67367       0.212523
      4503.5000       1961.006         0.6585         1.5768        -67.981      -42.06757      0.3091798
      4504.0000       1913.842         0.7384         1.6272       -62.3703      -36.46137      0.4058384
      4504.5000       1176.828         0.8131         1.6775       -56.7597      -30.85527      0.5024953
      4505.0000       1054.914          0.898         1.7365       -51.1491      -25.24918      0.5991521
      4505.5000       932.9995          0.972         1.6966        -45.204      -19.30857      0.7015764
      4506.0000       765.6289         1.0576         1.6442       -42.6956      -16.80467       0.744747
      4506.5000       757.6446         1.2572         1.5919       -40.1872      -14.30078      0.7879177
      4507.0000       832.5026         1.1574         1.5395       -37.6788      -11.79688      0.8310884
      4507.5000       907.3605         1.1021         1.4872       -35.1704      -9.292976      0.8742591
