#------------------------------------------------------------------------------
# Created by    : vladimir.rabinovich
# Created on    : 09/19/2023 17:20:03
#------------------------------------------------------------------------------
~Version Information Section
VERS.           2.0     :   CWLS log ASCII Standard - VERSION 2.0
WRAP.           NO      :   One line per depth step
~Well Information Section
#MNEM       .UNIT                                         VALUE :DESCRIPTION
#------------------------------------------------------------------------------
STRT        .FT                                             945 :START DEPTH
STOP        .FT                                           12004 :STOP DEPTH
STEP        .FT                                             0.5 :STEP      
NULL        .                                           -999.25 :NULL      
COMP        .                                    EXXON CO U S A :COMPANY   
WELL        .                                     ST TR 00819-L :WELL      
FLD         .                                           WILDCAT :FIELD     
LOC         .                                                   :LOCATION  
CNTY        .                        MUSTANG ISLAND LARGE BLOCK :LOCATION  
STAT        .                                             TEXAS :STATE     
CTRY        .                                     UNITED STATES :COUNTRY   
SRVC        .                                                   :SERVICE COMPANY
DATE        .                             9/13/2023 11:18:55 AM :LOG DATE  
API         .                                    42702301310000 :API NUMBER
UWI         .                                    42702301310000 :UNIQUE WELL ID
XCOORD      .                                  274042.524369281 :SURFACE X 
YCOORD      .                                  9990401.22532542 :SURFACE Y 
LAT         .                                        27.4671591 :LATITUDE  
LON         .                                       -97.2129423 :LONGITUDE 
ELEV        .FT                                              93 :ELEVATION VALUE
ELEV_TYPE   .                                                KB :ELEVATION REFERENCE TYPE
~Curve Information Section
#MNEM       .UNIT                                      API CODE :CURVE DESCRIPTION
#------------------------------------------------------------------------------
DEPT        .FT                                                 :DEPTH     
ASFL        .OHMM                                               :          
CILD        .MMHO                                               :          
GR          .GAPI                                               :          
GR_NORM     .GAPI                                               :GammaRay Normalized
ILD         .OHMM                                               :          
SP          .MV                                                 :          
SP_NORM     .MV                                                 :SP Normalized
VSH_GR      .V/V                                                :Volume of Shale from GR
VSH_SP      .V/V                                                :Volume of Shale from SP
~A        DEPTH           ASFL           CILD             GR        GR_NORM            ILD             SP        SP_NORM         VSH_GR         VSH_SP
# ...
      4628.5000         0.9863       1546.902        -999.25        -999.25         0.5259       -51.9332       -27.9328        -999.25      0.5274948
      4629.0000         0.9675       1489.703        -999.25        -999.25         0.5488       -49.4475      -25.44886        -999.25      0.5710726
      4629.5000         0.9499       1437.654        -999.25        -999.25         0.5716       -46.7073      -22.71043        -999.25      0.6191152
      4630.0000         0.9767        1397.49        -999.25        -999.25          0.596       -44.7233       -20.7282        -999.25      0.6538912
      4630.5000         1.0135       1375.799        -999.25        -999.25         0.6224       -41.4913      -17.49797        -999.25      0.7105619
      4631.0000         1.0493       1354.121        -999.25        -999.25         0.6488       -39.2664      -15.27484        -999.25      0.7495643
      4631.5000         1.0786       1328.258        -999.25        -999.25         0.6654       -40.9379       -16.9481        -999.25      0.7202087
      4632.0000         1.1181       1299.088        -999.25        -999.25          0.682       -44.0981      -20.11007        -999.25      0.6647356
      4632.5000         1.1438       1265.684        -999.25        -999.25         0.6968       -42.7367      -18.75044        -999.25      0.6885888
      4633.0000          1.164       1225.299        -999.25        -999.25         0.7104       -41.7094      -17.72491        -999.25      0.7065805
      4633.5000         1.1807       1189.889        -999.25        -999.25          0.724       -40.8149      -16.83217        -999.25      0.7222425
      4634.0000         1.1978       1157.723        -999.25        -999.25         0.7376       -40.1296      -16.14864        -999.25      0.7342343
      4634.5000         1.2004       1129.223        -999.25        -999.25          0.761       -39.6221      -15.64291        -999.25      0.7431068
      4635.0000         1.1951       1101.465        -999.25        -999.25         0.7878       -39.1147      -15.13728        -999.25      0.7519776
      4635.5000         1.1856       1072.123        -999.25        -999.25         0.8146        -38.791      -14.81535        -999.25      0.7576255
      4636.0000         1.1761       1037.926        -999.25        -999.25          0.841       -38.4772      -14.50331        -999.25      0.7630998
      4636.5000         1.1634       1012.644        -999.25        -999.25         0.8662       -38.2771      -14.30498        -999.25      0.7665793
      4637.0000         1.1462       1039.338        -999.25        -999.25         0.8888       -38.7107      -14.74035        -999.25      0.7589412
      4637.5000         1.1296       1080.145        -999.25        -999.25         0.8889       -39.4022      -15.43362        -999.25      0.7467787
      4638.0000          1.113       1120.531        -999.25        -999.25         0.8891       -40.4659      -16.49909        -999.25      0.7280862
      4638.5000         1.0939       1160.199        -999.25        -999.25         0.8765       -41.9064      -17.94135        -999.25      0.7027833
      4639.0000         1.0765       1215.889        -999.25        -999.25         0.8498       -43.6435      -19.68022        -999.25      0.6722768
      4639.5000         1.0878       1279.428        -999.25        -999.25          0.823       -46.6456      -22.68409        -999.25      0.6195774
      4640.0000         1.1041       1333.061        -999.25        -999.25          0.788       -50.5125      -26.55276        -999.25       0.551706
      4640.5000         1.1261        1398.68        -999.25        -999.25         0.7513       -52.9957      -29.03773        -999.25      0.5081101
      4641.0000         1.1545       1462.316        -999.25        -999.25         0.7194       -50.8461      -26.88989        -999.25      0.5457914
      4641.5000         1.1766       1359.209        -999.25        -999.25         0.6888       -48.3566      -24.40216        -999.25      0.5894358
      4642.0000         1.2013       1247.881        -999.25        -999.25         0.6608       -45.3755      -21.42283        -999.25      0.6417048
      4642.5000         1.1865       1181.123        -999.25        -999.25         0.6586       -42.5835       -18.6326        -999.25      0.6906562
      4643.0000         1.0185       1137.344        -999.25        -999.25         0.7008       -40.2436      -16.29446        -999.25      0.7316761
      4643.5000         0.9373        1098.32        -999.25        -999.25         0.7498       -38.7635      -14.81613        -999.25      0.7576118
      4644.0000         0.8925       1055.828        -999.25        -999.25         0.8014       -35.6367       -11.6911        -999.25      0.8124369
      4644.5000         0.9408       1009.376        -999.25        -999.25         0.8573       -33.6241      -9.680265        -999.25      0.8477147
      4645.0000         1.0781       966.4648        -999.25        -999.25          0.915       -34.1307      -10.18863        -999.25      0.8387959
      4645.5000         1.1679        931.377        -999.25        -999.25         0.9598       -36.3903         -12.45        -999.25      0.7991228
      4646.0000         1.3266       896.3145        -999.25        -999.25         0.9994       -37.7863      -13.84777        -999.25      0.7746006
      4646.5000         1.3926       866.0059        -999.25        -999.25         1.0391        -39.301      -15.36423        -999.25      0.7479959
      4647.0000         1.4699       839.5859        -999.25        -999.25         1.0667       -40.0805      -16.14551        -999.25      0.7342893
      4647.5000         1.5058       843.9434        -999.25        -999.25         1.0589       -41.1356      -17.20237        -999.25      0.7157478
      4648.0000         1.5377       872.2705        -999.25        -999.25         0.9788       -43.0604      -19.12894        -999.25      0.6819484
      4648.5000         1.5163       906.8135        -999.25        -999.25          0.898       -49.1584      -25.22871        -999.25       0.574935
      4649.0000         1.4795       947.5215        -999.25        -999.25         0.8061       -53.0229      -29.09497        -999.25      0.5071057
      4649.5000          1.443       993.7266        -999.25        -999.25         0.7578       -55.8891      -31.96294        -999.25      0.4567905
      4650.0000         1.4024        1082.77        -999.25        -999.25         0.7095       -60.6603      -36.73591        -999.25      0.3730542
      4650.5000         1.3426       1231.934        -999.25        -999.25         0.6666       -65.2759      -41.35328        -999.25      0.2920477
      4651.0000         1.2799        1508.67        -999.25        -999.25         0.6279        -67.412      -43.49115        -999.25      0.2545412
      4651.5000         1.1026       1580.084        -999.25        -999.25         0.5899       -69.0254      -45.10631        -999.25      0.2262051
      4652.0000         1.0085       1680.518        -999.25        -999.25         0.5531       -68.9673      -45.04998        -999.25      0.2271933
      4652.5000         1.0048       1760.002        -999.25        -999.25         0.5184        -68.631      -44.71545        -999.25      0.2330623
      4653.0000         1.0165       1878.709        -999.25        -999.25         0.4894       -68.2943      -44.38052        -999.25      0.2389383
      4653.5000         1.0282       1960.373        -999.25        -999.25         0.4604       -67.9606      -44.04858        -999.25      0.2447617
      4654.0000         1.0463       2037.977        -999.25        -999.25         0.4409       -67.6808      -43.77055        -999.25      0.2496394
      4654.5000          1.068       2135.238        -999.25        -999.25         0.4235       -67.3613      -43.45282        -999.25      0.2552137
