#------------------------------------------------------------------------------
# Created by    : vladimir.rabinovich
# Created on    : 09/19/2023 17:20:01
#------------------------------------------------------------------------------
~Version Information Section
VERS.           2.0     :   CWLS log ASCII Standard - VERSION 2.0
WRAP.           NO      :   One line per depth step
~Well Information Section
#MNEM       .UNIT                                         VALUE :DESCRIPTION
#------------------------------------------------------------------------------
STRT        .FT                                            3496 :START DEPTH
STOP        .FT                                           13495 :STOP DEPTH
STEP        .FT                                             0.5 :STEP      
NULL        .                                           -999.25 :NULL      
COMP        .                      TEXAS EASTERN EXPLORATION CO :COMPANY   
WELL        .                                ST TR 00798-L NE/4 :WELL      
FLD         .                                           WILDCAT :FIELD     
LOC         .                                                   :LOCATION  
CNTY        .                        MUSTANG ISLAND LARGE BLOCK :LOCATION  
STAT        .                                             TEXAS :STATE     
CTRY        .                                     UNITED STATES :COUNTRY   
SRVC        .                                                   :SERVICE COMPANY
DATE        .                             9/13/2023 11:18:55 AM :LOG DATE  
API         .                                    42702302040000 :API NUMBER
UWI         .                                    42702302040000 :UNIQUE WELL ID
XCOORD      .                                  329124.923046376 :SURFACE X 
YCOORD      .                                  10022065.1107101 :SURFACE Y 
LAT         .                                        27.5591082 :LATITUDE  
LON         .                                       -97.0466418 :LONGITUDE 
ELEV        .FT                                              82 :ELEVATION VALUE
ELEV_TYPE   .                                                KB :ELEVATION REFERENCE TYPE
~Curve Information Section
#MNEM       .UNIT                                      API CODE :CURVE DESCRIPTION
#------------------------------------------------------------------------------
DEPT        .FT                                                 :DEPTH     
ASFL        .OHMM                                               :          
CILD        .MMHO                                               :          
GR          .GAPI                                               :          
GR_NORM     .GAPI                                               :GammaRay Normalized
ILD         .OHMM                                               :          
SFL         .OHMM                                               :          
SP          .MV                                                 :          
SP_NORM     .MV                                                 :SP Normalized
VSH_GR      .V/V                                                :Volume of Shale from GR
VSH_SP      .V/V                                                :Volume of Shale from SP
~A        DEPTH           ASFL           CILD             GR        GR_NORM            ILD            SFL             SP        SP_NORM         VSH_GR         VSH_SP
# ...
      4819.0000         0.8894       1252.602        79.1713       85.63938         0.8156         0.8034       -49.8811      -2.573368              1      0.9754161
      4819.5000         0.8742       1243.371        80.8491       87.53678          0.809         0.8134        -50.202        -2.8881              1      0.9704984
      4820.0000         0.8642        1232.08         83.024       89.99751         0.8168         0.8363       -50.5502      -3.230137              1      0.9651541
      4820.5000           0.87       1205.092        84.8528       92.06603         0.8295         0.8593       -50.8985      -3.572266              1      0.9598083
      4821.0000         0.9258       1178.102        86.6829       94.13602         0.8614         0.8819       -51.2903      -3.957897              1      0.9537829
      4821.5000          0.962       1150.963        86.6617       94.10815         0.8932         0.9029       -51.7155       -4.37693              1      0.9472355
      4822.0000         0.9905       1101.453         84.564        91.7272         0.9251          0.924       -52.1191      -4.774361              1      0.9410256
      4822.5000          1.013       1085.896        81.5762       88.33762          0.953          0.945       -52.3555      -5.004597              1      0.9374282
      4823.0000         1.0295        1085.41        77.2875       83.47385          0.974         0.9661       -52.2834      -4.926331              1      0.9386511
      4823.5000         1.0401       1084.924        76.9401       83.07632         0.9951         0.9871       -51.9887      -4.625462              1      0.9433522
      4824.0000         1.0365       1084.998         79.156       85.58349         1.0054         1.0067       -51.5331      -4.163692              1      0.9505673
      4824.5000         1.0329       1085.092        81.7953       88.57047         1.0081         1.0242       -50.8123      -3.436726              1      0.9619262
      4825.0000         1.0396       1085.188         84.295       91.39925         1.0108         1.0416        -50.277      -2.895256              1      0.9703866
      4825.5000          1.053       1069.809        81.7057       88.46124         0.9896         1.0591       -51.4273      -4.039391              1      0.9525095
      4826.0000         1.0738       1052.029        77.0471       83.17829         0.9642         1.0765       -52.1138      -4.719723              1      0.9418793
      4826.5000         1.1066       1067.139        72.9016       78.47681         0.9387         1.0955       -52.2886      -4.888355      0.9675918      0.9392444
      4827.0000         1.1363       1089.535         71.186       76.52885         0.9147         1.1195       -52.4634      -5.056988      0.9261457      0.9366096
      4827.5000         1.1336       1150.814        70.1584       75.36054         0.8954         1.1134       -52.6381      -5.225517      0.9012882      0.9339763
      4828.0000         1.1045       1213.582        69.3467       74.43687          0.876         1.0684       -52.8179      -5.399155      0.8816355      0.9312632
      4828.5000         1.0615       1269.996        68.6284       73.61905         0.8567         1.0233       -52.9974      -5.572483      0.8642351       0.928555
      4829.0000         1.0201       1316.873        69.1519       74.20841         0.8373         0.9759       -53.1772      -5.746117      0.8767747      0.9258419
      4829.5000         0.9883       1363.752        71.7562       77.15572         0.8226         0.9013       -53.3569      -5.919647      0.9394835      0.9231305
      4830.0000         0.8873       1406.434        73.5887       79.22843         0.8206         0.8385        -53.773      -6.329578      0.9835836      0.9167253
      4830.5000         0.8501        1446.16        72.7111       78.23009         0.8186         0.8078       -54.2869      -6.837311      0.9623423       0.908792
      4831.0000         0.8218       1482.959        71.1064       76.40782         0.8166         0.7879       -55.8467      -8.390945      0.9235707      0.8845165
      4831.5000          0.847       1501.723         69.516       74.60173         0.8147         0.8145       -56.7649      -9.302979      0.8851432       0.870266
      4832.0000         0.8722       1487.676        68.6931       73.66538         0.8089         0.8411       -57.5915      -10.12341      0.8652209      0.8574467
      4832.5000         0.8974       1447.477        68.6794         73.646         0.8022         0.8677       -58.3752      -10.90094      0.8648086      0.8452978
      4833.0000         0.9218       1404.322        69.2894        74.3334         0.7955         0.8943       -59.1159      -11.63547       0.879434      0.8338208
      4833.5000         0.9454        1361.17        69.8472       74.96162         0.7887         0.9209       -59.6845      -12.19791      0.8928005      0.8250327
      4834.0000         0.9657       1317.916        70.0243       75.15847         0.7798         0.9526       -60.1697      -12.67694      0.8969887      0.8175478
      4834.5000          0.985       1274.664          69.52       74.58315         0.7689          0.988       -60.5989      -13.09997      0.8847477      0.8109379
      4835.0000         1.0041       1276.277        69.0162       74.00839          0.758          0.998       -60.5401        -13.035       0.872519      0.8119531
      4835.5000         1.0168       1313.496        68.5431       73.46841         0.7471         0.9615       -59.3599      -11.84864      0.8610301      0.8304901
      4836.0000          0.954        1350.74         69.625       74.69055         0.7362         0.9249       -58.1797      -10.66227       0.887033      0.8490271
      4836.5000         0.9068       1387.984        71.9454       77.31616         0.7234         0.8884       -56.3298      -8.806202      0.9428971      0.8780281
      4837.0000         0.8214       1426.074        74.7366       80.47526         0.7098         0.8352       -53.4179      -5.888134              1      0.9236229
      4837.5000         0.7586       1464.188        78.2174       84.41581         0.6963         0.7813       -52.0572      -4.521267              1      0.9449802
      4838.0000         0.7276       1502.324        80.3723       86.85387         0.6841          0.736       -51.3676      -3.825497              1      0.9558516
      4838.5000          0.716       1528.844        81.5948       88.23535         0.6736         0.7044       -51.2155      -3.667229              1      0.9583246
      4839.0000         0.7072       1554.219        82.3729       89.11321         0.6657         0.6909       -51.1495      -3.595062              1      0.9594522
      4839.5000         0.7052       1578.365        83.1124       89.94734         0.6751          0.696       -51.1833      -3.622696              1      0.9590204
      4840.0000         0.7123       1593.723        83.8979       90.83361         0.6846         0.7012       -51.2171      -3.650326              1      0.9585887
      4840.5000         0.7194       1538.354        85.7317        92.9078         0.6941         0.7069       -51.3968       -3.82386              1      0.9558772
      4841.0000         0.7274       1504.162        88.1169       95.60683         0.7035          0.713       -51.5709      -3.991791              1      0.9532533
      4841.5000         0.7412       1469.973        81.1703       87.73118          0.713         0.7191       -51.4225      -3.837223              1      0.9556684
      4842.0000          0.747       1435.781        76.5094       82.44563         0.7178         0.7252       -51.0793      -3.487858              1      0.9611272
      4842.5000         0.7459       1401.592        75.4443       81.23482         0.7214         0.7313       -50.5521      -2.954491              1      0.9694611
      4843.0000          0.744        1382.92        74.6805       80.36543         0.7251         0.7374       -50.0245      -2.420723              1      0.9778012
