#------------------------------------------------------------------------------
# Created by    : vladimir.rabinovich
# Created on    : 09/19/2023 17:20:37
#------------------------------------------------------------------------------
~Version Information Section
VERS.           2.0     :   CWLS log ASCII Standard - VERSION 2.0
WRAP.           NO      :   One line per depth step
~Well Information Section
#MNEM       .UNIT                                         VALUE :DESCRIPTION
#------------------------------------------------------------------------------
STRT        .FT                                             495 :START DEPTH
STOP        .FT                                            7007 :STOP DEPTH
STEP        .FT                                             0.5 :STEP      
NULL        .                                           -999.25 :NULL      
COMP        .                                      SHELL OIL CO :COMPANY   
WELL        .                                OCS 00718 ST00BP00 :WELL      
FLD         .                                           WILDCAT :FIELD     
LOC         .                                                   :LOCATION  
CNTY        .                             GALVESTON LARGE BLOCK :LOCATION  
STAT        .                                             TEXAS :STATE     
CTRY        .                                     UNITED STATES :COUNTRY   
SRVC        .                                                   :SERVICE COMPANY
DATE        .                             9/13/2023 11:19:25 AM :LOG DATE  
API         .                                    42706000330000 :API NUMBER
UWI         .                                    42706000330000 :UNIQUE WELL ID
XCOORD      .                                  1012682.17104467 :SURFACE X 
YCOORD      .                                  10442833.5651685 :SURFACE Y 
LAT         .                                         28.761679 :LATITUDE  
LON         .                                        -94.959691 :LONGITUDE 
ELEV        .FT                                              75 :ELEVATION VALUE
ELEV_TYPE   .                                                KB :ELEVATION REFERENCE TYPE
~Curve Information Section
#MNEM       .UNIT                                      API CODE :CURVE DESCRIPTION
#------------------------------------------------------------------------------
DEPT        .FT                                                 :DEPTH     
ASN         .OHMM                                               :          
CILD        .MMHO                                               :          
DT          .US/F                                               :          
ILD         .OHMM                                               :          
LAT         .OHMM                                               :          
LN          .OHMM                                               :          
SP          .MV                                                 :          
SP_NORM     .MV                                                 :SP Normalized
VSH_SP      .V/V                                                :Volume of Shale from SP
~A        DEPTH            ASN           CILD             DT            ILD            LAT             LN             SP        SP_NORM         VSH_SP
# ...
      1369.5000         0.9898        -999.25        -999.25        -999.25         1.2763         1.0626       -76.7582      -17.90773      0.4030758
      1370.0000         0.9836        -999.25        -999.25        -999.25         1.2499         1.1188       -77.6263      -19.32084      0.3559719
      1370.5000         0.9738        -999.25        -999.25        -999.25         1.2246         1.2105       -78.3301       -20.4672      0.3177599
      1371.0000         0.9642        -999.25        -999.25        -999.25         1.2043         1.1572       -78.8514      -21.31725      0.2894249
      1371.5000         0.9573        -999.25        -999.25        -999.25         1.1882         1.1165       -79.2142      -21.90994      0.2696687
      1372.0000          0.954        -999.25        -999.25        -999.25          1.212         1.0846       -79.1022       -21.7317      0.2756099
      1372.5000         0.9689        -999.25        -999.25        -999.25         1.3002          1.064       -78.9572      -21.49988      0.2833372
      1373.0000         0.9716        -999.25        -999.25        -999.25         1.2205         1.0446       -79.2032      -21.90293      0.2699024
      1373.5000         0.9691        -999.25        -999.25        -999.25         1.1822         1.0311       -79.8241      -22.91468      0.2361772
      1374.0000           0.97        -999.25        -999.25        -999.25         1.1635         1.0193       -79.5868      -22.53301      0.2488997
      1374.5000         0.9694        -999.25        -999.25        -999.25         1.1583         1.0084       -78.7538      -21.18411       0.293863
      1375.0000         0.9539        -999.25        -999.25        -999.25         1.1626         1.0028       -77.5648      -19.25718      0.3580939
      1375.5000         0.9387        -999.25        -999.25        -999.25          1.181         1.0013       -76.2495      -17.12519      0.4291604
      1376.0000         0.9323        -999.25        -999.25        -999.25         1.2022         1.0054       -74.5869      -14.42931       0.519023
      1376.5000         0.9339        -999.25        -999.25        -999.25         1.2116           1.02       -73.5844      -12.80519      0.5731602
      1377.0000          0.946        -999.25        -999.25        -999.25         1.2035         1.0392       -74.9333      -14.99898       0.500034
      1377.5000         0.9621        -999.25        -999.25        -999.25         1.1841         1.0602       -76.5044      -17.55355      0.4148817
      1378.0000         0.9729        -999.25        -999.25        -999.25         1.1556         1.0824       -77.7638      -19.60202      0.3465995
      1378.5000         0.9765        -999.25        -999.25        -999.25         1.1196         1.1127       -78.2018      -20.31679      0.3227736
      1379.0000         0.9779        -999.25        -999.25        -999.25         1.0817         1.1562       -78.1586      -20.25028      0.3249905
      1379.5000         0.9809        -999.25        -999.25        -999.25         1.0448         1.1894        -77.585      -19.32256      0.3559146
      1380.0000         1.0035        -999.25        -999.25        -999.25         1.0223         1.2019       -76.6613       -17.8264      0.4057866
      1380.5000         1.0314        -999.25        -999.25        -999.25         1.0349         1.1958       -75.6221       -16.1427      0.4619099
      1381.0000         1.0608        -999.25        -999.25        -999.25          1.086         1.1794       -74.1797      -13.80434      0.5398552
      1381.5000         1.0922        -999.25        -999.25        -999.25          1.145         1.1607       -72.4443      -10.99025      0.6336583
      1382.0000         1.1159        -999.25        -999.25        -999.25         1.2076         1.1424       -69.2144      -5.749585      0.8083472
      1382.5000         1.1269        -999.25        -999.25        -999.25         1.2858         1.1325       -67.4893      -2.952215      0.9015929
      1383.0000          1.128        -999.25        -999.25        -999.25         1.3639         1.1267       -66.7106      -1.691478      0.9436174
      1383.5000         1.1328        -999.25        -999.25        -999.25         1.4345         1.1174       -66.0289      -0.588238       0.980392
      1384.0000         1.1461        -999.25        -999.25        -999.25         1.4949         1.1196       -65.4943      0.2761446              1
      1384.5000         1.1622        -999.25        -999.25        -999.25         1.5454         1.1253       -65.4644      0.3210745              1
      1385.0000          1.177        -999.25        -999.25        -999.25         1.5783         1.1315       -65.8604     -0.3255092      0.9891497
      1385.5000         1.1876        -999.25        -999.25        -999.25         1.5892         1.1336       -66.3174      -1.071144      0.9642952
      1386.0000         1.1885        -999.25        -999.25        -999.25         1.5862         1.1337        -66.635      -1.590445      0.9469852
      1386.5000          1.182        -999.25        -999.25        -999.25         1.5731         1.1334       -66.7584      -1.794432      0.9401856
      1387.0000         1.1708        -999.25        -999.25        -999.25         1.5508         1.1471       -66.3309      -1.103934      0.9632022
      1387.5000         1.1552        -999.25        -999.25        -999.25         1.5228         1.1811       -65.9272     -0.4520734      0.9849309
      1388.0000         1.1507        -999.25        -999.25        -999.25         1.4879         1.2085       -66.2068     -0.9096717      0.9696776
      1388.5000         1.1518        -999.25        -999.25        -999.25          1.451         1.2204        -66.814      -1.899182       0.936694
      1389.0000         1.1534        -999.25        -999.25        -999.25         1.4227         1.2208       -66.3231      -1.105743      0.9631419
      1389.5000         1.1512        -999.25        -999.25        -999.25         1.4004          1.216       -66.2402     -0.9747561      0.9675081
      1390.0000         1.1441        -999.25        -999.25        -999.25          1.385         1.2007       -66.3373      -1.136043      0.9621319
      1390.5000         1.1345        -999.25        -999.25        -999.25         1.3703         1.1848       -65.9813     -0.5616294       0.981279
      1391.0000         1.1228        -999.25        -999.25        -999.25         1.3573         1.1669       -65.3182        0.51141              1
      1391.5000         1.1112        -999.25        -999.25        -999.25         1.3544         1.1559        -65.101      0.8604558              1
      1392.0000         1.1002        -999.25        -999.25        -999.25         1.3629         1.1501       -65.1835      0.7228665              1
      1392.5000         1.0905        -999.25        -999.25        -999.25         1.3746         1.1475       -65.4332      0.3138277              1
      1393.0000         1.0824        -999.25        -999.25        -999.25         1.3844         1.1472       -65.8805     -0.4160626      0.9861313
      1393.5000         1.0764        -999.25        -999.25        -999.25         1.3808         1.1451       -65.8239     -0.3277761      0.9890741
      1394.0000         1.0709        -999.25        -999.25        -999.25         1.3393         1.1419       -64.9283       1.122763              1
      1394.5000         1.0663        -999.25        -999.25        -999.25         1.3194         1.1385       -64.7874       1.347908              1
      1395.0000         1.0662        -999.25        -999.25        -999.25         1.3309         1.1317       -65.2124      0.6542268              1
      1395.5000         1.0656        -999.25        -999.25        -999.25         1.3386         1.1322       -64.8945       1.166776              1
