#------------------------------------------------------------------------------
# Created by    : vladimir.rabinovich
# Created on    : 09/19/2023 17:22:38
#------------------------------------------------------------------------------
~Version Information Section
VERS.           2.0     :   CWLS log ASCII Standard - VERSION 2.0
WRAP.           NO      :   One line per depth step
~Well Information Section
#MNEM       .UNIT                                         VALUE :DESCRIPTION
#------------------------------------------------------------------------------
STRT        .FT                                             890 :START DEPTH
STOP        .FT                                            9058 :STOP DEPTH
STEP        .FT                                             0.5 :STEP      
NULL        .                                           -999.25 :NULL      
COMP        .                            COASTAL OIL & GAS CORP :COMPANY   
WELL        .                               OCS G01773 ST00BP00 :WELL      
FLD         .                                           WILDCAT :FIELD     
LOC         .                                                   :LOCATION  
CNTY        .                             GALVESTON LARGE BLOCK :LOCATION  
STAT        .                                             TEXAS :STATE     
CTRY        .                                     UNITED STATES :COUNTRY   
SRVC        .                                                   :SERVICE COMPANY
DATE        .                             9/13/2023 11:19:54 AM :LOG DATE  
API         .                                    42706403500000 :API NUMBER
UWI         .                                    42706403500000 :UNIQUE WELL ID
XCOORD      .                                  1074939.13305719 :SURFACE X 
YCOORD      .                                   10531967.363633 :SURFACE Y 
LAT         .                                         29.009472 :LATITUDE  
LON         .                                        -94.769566 :LONGITUDE 
ELEV        .FT                                              83 :ELEVATION VALUE
ELEV_TYPE   .                                                KB :ELEVATION REFERENCE TYPE
~Curve Information Section
#MNEM       .UNIT                                      API CODE :CURVE DESCRIPTION
#------------------------------------------------------------------------------
DEPT        .FT                                                 :DEPTH     
DCAL        .IN                                                 :          
DPSS        .V/V                                                :          
DRHO        .G/CM3                                              :          
DTLF        .US/FT                                              :          
DTLN        .US/FT                                              :          
GR          .GAPI                                               :          
GRS         .GAPI                                               :          
NPSS        .V/V                                                :Neutron Porosity Sandstone
SFL         .OHMM                                               :          
SP          .MV                                                 :          
SP_NORM     .MV                                                 :SP Normalized
SPHI_SAN    .V/V                                                :          
TENS        .LB                                                 :          
VSH_SP      .V/V                                                :Volume of Shale from SP
~A        DEPTH           DCAL           DPSS           DRHO           DTLF           DTLN             GR            GRS           NPSS            SFL             SP        SP_NORM       SPHI_SAN           TENS         VSH_SP
# ...
      3410.0000         0.2301        -999.25        -999.25        -999.25        -999.25        59.1837        -999.25        -999.25         0.7701        -7.9592       -15.8688         0.3552       1812.652      0.7884159
      3410.5000         0.2308        -999.25        -999.25        -999.25        -999.25        60.5882        -999.25        -999.25         0.7627        -4.5918       -12.5014         0.3576         1812.5      0.8333146
      3411.0000         0.2308        -999.25        -999.25        -999.25        -999.25        61.3725        -999.25        -999.25         0.7627        -2.1429       -10.0525         0.3588         1812.5      0.8659666
      3411.5000         0.2308        -999.25        -999.25        -999.25        -999.25        61.9608        -999.25        -999.25         0.7774        -0.6122      -8.521805         0.3588         1812.5       0.886376
      3412.0000         0.2308        -999.25        -999.25        -999.25        -999.25        60.7843        -999.25        -999.25         0.7849            0.6      -7.309605         0.3588         1812.5      0.9025386
      3412.5000         0.2308        -999.25        -999.25        -999.25        -999.25        59.7959        -999.25        -999.25         0.7849            1.2      -6.709604         0.3552         1812.5      0.9105386
      3413.0000         0.2308        -999.25        -999.25        -999.25        -999.25        59.7959        -999.25        -999.25         0.7555            2.4      -5.509604         0.3528         1812.5      0.9265386
      3413.5000         0.2308        -999.25        -999.25        -999.25        -999.25        60.7843        -999.25        -999.25         0.7483            3.3      -4.609605         0.3492         1812.5      0.9385386
      3414.0000         0.2308        -999.25        -999.25        -999.25        -999.25        62.1569        -999.25        -999.25         0.7483            3.3      -4.609605         0.3468         1812.5      0.9385386
      3414.5000         0.2692        -999.25        -999.25        -999.25        -999.25        63.1373        -999.25        -999.25         0.7627              3      -4.909605         0.3468         1812.5      0.9345386
      3415.0000         0.2308        -999.25        -999.25        -999.25        -999.25        64.5098        -999.25        -999.25         0.7924            2.7      -5.209604         0.3492         1812.5      0.9305386
      3415.5000         0.3077        -999.25        -999.25        -999.25        -999.25        66.4706        -999.25        -999.25          0.822            2.7      -5.209604         0.3528         1812.5      0.9305386
      3416.0000         0.3462        -999.25        -999.25        -999.25        -999.25         67.451        -999.25        -999.25          0.822            2.1      -5.809605         0.3564         1812.5      0.9225386
      3416.5000         0.4231        -999.25        -999.25        -999.25        -999.25        67.6471        -999.25        -999.25         0.7849            2.4      -5.509604           0.36         1812.5      0.9265386
      3417.0000            0.5        -999.25        -999.25        -999.25        -999.25        67.6471        -999.25        -999.25         0.7774            2.7      -5.209604         0.3612         1812.5      0.9305386
      3417.5000            0.5        -999.25        -999.25        -999.25        -999.25        67.0588        -999.25        -999.25         0.7555            3.3      -4.609605         0.3636         1812.5      0.9385386
      3418.0000         0.4231        -999.25        -999.25        -999.25        -999.25        64.7059        -999.25        -999.25         0.7342            3.6      -4.309605         0.3648         1812.5      0.9425386
      3418.5000         0.3462        -999.25        -999.25        -999.25        -999.25         62.549        -999.25        -999.25         0.6751            4.2      -3.709605         0.3648         1812.5      0.9505386
      3419.0000         0.3077        -999.25        -999.25        -999.25        -999.25        60.5882        -999.25        -999.25         0.6278            4.5      -3.409605         0.3624         1812.5      0.9545386
      3419.5000         0.3077        -999.25        -999.25        -999.25        -999.25        59.1837        -999.25        -999.25         0.6278            3.6      -4.309605         0.3588       1833.333      0.9425386
      3420.0000         0.2692        -999.25        -999.25        -999.25        -999.25        56.3265        -999.25        -999.25         0.6751            2.1      -5.809605         0.3552       1833.333      0.9225386
      3420.5000         0.2692        -999.25        -999.25        -999.25        -999.25        52.2449        -999.25        -999.25         0.7272        -0.6122      -8.521805         0.3504       1833.333       0.886376
      3421.0000         0.2308        -999.25        -999.25        -999.25        -999.25        50.6122        -999.25        -999.25         0.7849        -3.3673      -11.27691         0.3432         1812.5      0.8496413
      3421.5000         0.1923        -999.25        -999.25        -999.25        -999.25        50.2041        -999.25        -999.25         0.8601        -5.8163       -13.7259          0.336       1833.333      0.8169879
      3422.0000         0.1538        -999.25        -999.25        -999.25        -999.25        49.1837        -999.25        -999.25         0.9174        -8.2653       -16.1749         0.3312       1854.167      0.7843346
      3422.5000         0.1154        -999.25        -999.25        -999.25        -999.25        48.3673        -999.25        -999.25         0.9905        -9.7959      -17.70551         0.3312       1833.333      0.7639266
      3423.0000         0.1154        -999.25        -999.25        -999.25        -999.25        47.3469        -999.25        -999.25          1.046       -11.6327       -19.5423         0.3372       1833.333      0.7394359
      3423.5000         0.1154        -999.25        -999.25        -999.25        -999.25         47.551        -999.25        -999.25          1.046       -13.4694      -21.37901         0.3432       1833.333      0.7149466
      3424.0000         0.1154        -999.25        -999.25        -999.25        -999.25        48.9796        -999.25        -999.25         1.0274       -15.5882       -23.4978         0.3492       1833.333      0.6866959
      3424.5000         0.1154        -999.25        -999.25        -999.25        -999.25        51.4286        -999.25        -999.25         0.9717       -17.0588       -24.9684         0.3528       1833.333      0.6670879
      3425.0000         0.1154        -999.25        -999.25        -999.25        -999.25        52.8571        -999.25        -999.25            0.9       -17.6471      -25.55671         0.3552         1812.5      0.6592439
      3425.5000         0.1154        -999.25        -999.25        -999.25        -999.25        54.2857        -999.25        -999.25         0.8447       -17.6471      -25.55671           0.36       1833.333      0.6592439
      3426.0000         0.1154        -999.25        -999.25        -999.25        -999.25         55.102        -999.25        -999.25            0.8       -16.4706      -24.38021         0.3672       1833.333      0.6749306
      3426.5000         0.1154        -999.25        -999.25        -999.25        -999.25         54.898        -999.25        -999.25         0.7555       -15.2941       -23.2037         0.3732       1833.333      0.6906173
      3427.0000         0.1538        -999.25        -999.25        -999.25        -999.25        54.2857        -999.25        -999.25         0.7555       -14.6939       -22.6035         0.3756       1833.333        0.69862
      3427.5000         0.1538        -999.25        -999.25        -999.25        -999.25        51.6327        -999.25        -999.25         0.7555       -13.7755       -21.6851          0.372       1833.333      0.7108653
