#------------------------------------------------------------------------------
# Created by    : vladimir.rabinovich
# Created on    : 09/19/2023 17:20:23
#------------------------------------------------------------------------------
~Version Information Section
VERS.           2.0     :   CWLS log ASCII Standard - VERSION 2.0
WRAP.           NO      :   One line per depth step
~Well Information Section
#MNEM       .UNIT                                         VALUE :DESCRIPTION
#------------------------------------------------------------------------------
STRT        .FT                                            3094 :START DEPTH
STOP        .FT                                           15705 :STOP DEPTH
STEP        .FT                                             0.5 :STEP      
NULL        .                                           -999.25 :NULL      
COMP        .                                       MONSANTO CO :COMPANY   
WELL        .                                     ST TR 00011-L :WELL      
FLD         .                                           WILDCAT :FIELD     
LOC         .                                                   :LOCATION  
CNTY        .                           HIGH ISLAND LARGE BLOCK :LOCATION  
STAT        .                                             TEXAS :STATE     
CTRY        .                                     UNITED STATES :COUNTRY   
SRVC        .                                                   :SERVICE COMPANY
DATE        .                             9/13/2023 11:19:15 AM :LOG DATE  
API         .                                    42708300660000 :API NUMBER
UWI         .                                    42708300660000 :UNIQUE WELL ID
XCOORD      .                                  1343190.12128624 :SURFACE X 
YCOORD      .                                   10724936.940093 :SURFACE Y 
LAT         .                                        29.5487141 :LATITUDE  
LON         .                                       -93.9350737 :LONGITUDE 
ELEV        .FT                                              49 :ELEVATION VALUE
ELEV_TYPE   .                                                KB :ELEVATION REFERENCE TYPE
~Curve Information Section
#MNEM       .UNIT                                      API CODE :CURVE DESCRIPTION
#------------------------------------------------------------------------------
DEPT        .FT                                                 :DEPTH     
ASN         .OHMM                                               :          
CILD        .MMHO                                               :          
ILD         .OHMM                                               :          
SP_NORM     .MV                                                 :SP Normalized
VSH_SP      .V/V                                                :Volume of Shale from SP
~A        DEPTH            ASN           CILD            ILD        SP_NORM         VSH_SP
# ...
      5602.0000         0.5786       2250.477         0.4761      -2.055237      0.9857401
      5602.5000         0.5753       2221.254         0.4819      -1.522533      0.9929388
      5603.0000         0.5721       2200.703         0.4877     -0.7961349              1
      5603.5000         0.5706       2181.246         0.4903    -0.09263611              1
      5604.0000           0.58       2164.164         0.4929      0.5434647              1
      5604.5000         0.5894       2152.199         0.4955       1.087967              1
      5605.0000         0.5988       2140.246         0.4981      0.9518661              1
      5605.5000         0.6041        2127.66         0.5008     -0.4020348              1
      5606.0000         0.6066        2115.98         0.5034      -1.599834      0.9918941
      5606.5000         0.6144       2124.281          0.506      -2.669037      0.9774454
      5607.0000         0.6438       2119.805         0.5086      -3.650436      0.9641833
      5607.5000         0.6361       2107.109         0.5112      -3.527935      0.9658387
      5608.0000         0.6284        2094.41         0.5152      -2.430237      0.9806725
      5608.5000         0.6207       2081.727         0.5198      -1.332634       0.995505
      5609.0000          0.613       2071.488         0.5244     -0.3116341              1
      5609.5000         0.6053       2061.672         0.5291      0.5694656              1
      5610.0000         0.5983       2051.855         0.5337       1.045963              1
      5610.5000         0.6041       2042.029         0.5383      0.9697647              1
      5611.0000         0.6154       2031.729         0.5429      0.8880653              1
      5611.5000         0.6208       2021.254         0.5461      0.8053665              1
      5612.0000         0.6222        2011.52          0.548      0.7226639              1
      5612.5000         0.6195       2002.637         0.5499      0.6399651              1
      5613.0000         0.6169       1990.988         0.5517      0.5572662              1
      5613.5000         0.6143       1975.395         0.5536      0.6025658              1
      5614.0000         0.6116       1985.236         0.5543      0.7709656              1
      5614.5000         0.6089        2026.66         0.5476      0.9392662              1
      5615.0000         0.6058       2067.734         0.5408       1.107567              1
      5615.5000         0.6026       2102.574          0.534       1.275864              1
      5616.0000         0.5995       2129.137         0.5273       1.444164              1
      5616.5000         0.5917       2147.727         0.5205       2.314264              1
      5617.0000         0.5825       2164.621         0.5096       3.489864              1
      5617.5000         0.5733       2183.285         0.4958       4.278765              1
      5618.0000          0.565       2201.762         0.4821       4.868465              1
      5618.5000         0.5591       2220.035         0.4709       5.169464              1
      5619.0000         0.5531       2210.742         0.4946       5.470764              1
      5619.5000         0.5471       2137.289         0.5184       5.771765              1
      5620.0000         0.5419       2078.496         0.5421       5.922665              1
      5620.5000         0.5537         1997.5         0.5602       6.020466              1
      5621.0000         0.5725       1963.344         0.5749       5.339966              1
      5621.5000         0.5963       1927.688         0.5895       4.379665              1
      5622.0000         0.6204       1882.064          0.599       3.385965              1
      5622.5000         0.6462        1846.43         0.5881       2.327866              1
      5623.0000         0.6636       1865.564         0.5773       2.192366              1
      5623.5000         0.6448       1900.701         0.5665       3.272064              1
      5624.0000         0.6196       1943.342         0.5565       4.905565              1
      5624.5000         0.6019       1972.541         0.5578       5.885666              1
      5625.0000         0.5936       1997.713         0.5591       6.467865              1
      5625.5000         0.5853       2031.313         0.5604       7.049465              1
      5626.0000         0.5856       2036.896         0.5618       7.378065              1
      5626.5000         0.5888        2003.07         0.5645       7.697966              1
      5627.0000         0.5948       1997.664         0.5708       7.230764              1
      5627.5000         0.6033       1956.662         0.5771       5.463665              1
      5628.0000         0.6118       1900.092         0.5833       0.708065              1
      5628.5000         0.6194       1891.078         0.5896      -1.596134      0.9919441
      5629.0000         0.6049        1874.41         0.5958      -3.900333      0.9608063
      5629.5000         0.5904       1837.037         0.6021      -4.459435      0.9532509
      5630.0000         0.5759       1874.311         0.5789      -4.808636      0.9485319
      5630.5000         0.5571       1936.932         0.5437      -5.051537      0.9452495
      5631.0000         0.5643       2000.098         0.5085      -6.390137      0.9271603
      5631.5000         0.5895       2085.801         0.4793      -11.07034      0.8639144
      5632.0000         0.6137       2237.281         0.4581      -20.09404      0.7419725
      5632.5000         0.6358       2388.566          0.437      -29.29113      0.6176874
      5633.0000          0.658       2540.047         0.4158      -38.49793      0.4932712
      5633.5000         0.6766       2691.328         0.3947      -47.69494      0.3689873
      5634.0000         0.6803       2842.813         0.3735      -56.70374      0.2472468
      5634.5000         0.6656       2994.094         0.3524      -61.78374      0.1785982
      5635.0000         0.6509       2982.961         0.3533      -60.27763      0.1989509
      5635.5000         0.6382       2868.703         0.3601      -55.62964      0.2617616
      5636.0000         0.6538       2808.617         0.3765      -52.48643      0.3042374
      5636.5000         0.6694       2711.309         0.3994      -48.36314      0.3599576
      5637.0000          0.685           2614         0.4222      -45.44524      0.3993887
      5637.5000         0.7005       2516.688         0.4451      -42.01733      0.4457117
      5638.0000          0.714       2419.379         0.4637      -38.25034      0.4966171
      5638.5000         0.6697       2403.477          0.474      -34.91783       0.541651
      5639.0000         0.6243       2671.449         0.4843      -33.24734      0.5642252
      5639.5000         0.5761       2939.227         0.4548      -32.01283      0.5809076
      5640.0000         0.5383       3207.004         0.4112      -30.98393      0.5948117
      5640.5000         0.5246        3474.98         0.3848      -34.99344      0.5406292
      5641.0000          0.516       3742.758         0.3585      -41.35644      0.4546427
      5641.5000         0.4728        3943.84         0.3322      -46.97214      0.3787549
      5642.0000         0.4568       3996.793         0.3059      -58.21854      0.2267765
      5642.5000         0.4578       4082.125         0.2863      -63.12393      0.1604874
      5643.0000          0.463           4201         0.3055      -63.25504      0.1587157
      5643.5000         0.4657       4190.164         0.3247      -60.43854      0.1967765
      5644.0000         0.4904       4122.031          0.344      -58.22093      0.2267442
      5644.5000         0.6213       4053.895         0.3741      -59.04014      0.2156738
      5645.0000         0.6965       3999.098         0.4143      -62.25513      0.1722279
      5645.5000         0.7258       3519.711         0.4545      -64.33653      0.1441009
