#------------------------------------------------------------------------------
# Created by    : vladimir.rabinovich
# Created on    : 09/19/2023 17:21:45
#------------------------------------------------------------------------------
~Version Information Section
VERS.           2.0     :   CWLS log ASCII Standard - VERSION 2.0
WRAP.           NO      :   One line per depth step
~Well Information Section
#MNEM       .UNIT                                         VALUE :DESCRIPTION
#------------------------------------------------------------------------------
STRT        .FT                                            4296 :START DEPTH
STOP        .FT                                         10848.5 :STOP DEPTH
STEP        .FT                                             0.5 :STEP      
NULL        .                                           -999.25 :NULL      
COMP        .                                 CHEVRON U S A INC :COMPANY   
WELL        .                               OCS G07271 ST00BP00 :WELL      
FLD         .                                           WILDCAT :FIELD     
LOC         .                                                   :LOCATION  
CNTY        .                           HIGH ISLAND LARGE BLOCK :LOCATION  
STAT        .                                             TEXAS :STATE     
CTRY        .                                     UNITED STATES :COUNTRY   
SRVC        .                                                   :SERVICE COMPANY
DATE        .                             9/13/2023 11:19:59 AM :LOG DATE  
API         .                                    42708403180000 :API NUMBER
UWI         .                                    42708403180000 :UNIQUE WELL ID
XCOORD      .                                  1325118.04890174 :SURFACE X 
YCOORD      .                                  10672078.9744079 :SURFACE Y 
LAT         .                                          29.40291 :LATITUDE  
LON         .                                        -93.990507 :LONGITUDE 
ELEV        .FT                                              89 :ELEVATION VALUE
ELEV_TYPE   .                                                KB :ELEVATION REFERENCE TYPE
~Curve Information Section
#MNEM       .UNIT                                      API CODE :CURVE DESCRIPTION
#------------------------------------------------------------------------------
DEPT        .FT                                                 :DEPTH     
CALI        .IN                                                 :          
DRHO        .G/C3                                               :          
DTLN        .US/F                                               :          
GR          .GAPI                                               :          
GR_1        .GAPI                                               :          
GR_NORM     .GAPI                                               :GammaRay Normalized
ILD         .OHMM                                               :          
ILM         .OHMM                                               :          
NPHI        .%                                                  :          
RHOB        .G/C3                                               :          
SFL         .OHMM                                               :          
SP          .MV                                                 :          
SP_NORM     .MV                                                 :SP Normalized
VSH_GR      .V/V                                                :Volume of Shale from GR
VSH_SP      .V/V                                                :Volume of Shale from SP
~A        DEPTH           CALI           DRHO           DTLN             GR           GR_1        GR_NORM            ILD            ILM           NPHI           RHOB            SFL             SP        SP_NORM         VSH_GR         VSH_SP
# ...
      6217.0000         15.978         0.0093       120.6067        36.6752        65.6085       85.95952         0.6433          0.548        41.3236         2.2722         0.5463       -35.6241      -9.209003              1      0.8684428
      6217.5000        15.8062         0.0074       118.1813        36.8856        67.0082       87.79784          0.645         0.5546        42.0381         2.2575         0.5315        -36.701       -10.2859              1      0.8530585
      6218.0000        15.7072          0.005       113.1874         37.157        66.2269        86.7717         0.6423         0.5614        43.6459         2.2496         0.4911       -38.9927       -12.5776              1        0.82032
      6218.5000        15.6091         0.0021        108.452        37.1586        61.7659       80.91276         0.6295         0.5641        43.2471         2.2449         0.4636       -44.3286      -17.91351              1      0.7440928
      6219.0000        15.5752        -0.0008       105.2476        36.7145        54.7872       71.74715         0.5962         0.5355        41.9285         2.2577         0.4659       -50.2235       -23.8084      0.8244074        0.65988
      6219.5000        15.5514        -0.0048       106.2784        35.4377        46.9055       61.39555          0.531         0.4959        38.1777         2.2771         0.5522       -57.9293       -31.5142      0.6041605      0.5497971
      6220.0000        15.6637        -0.0088       110.7053        33.7497        40.7415       53.29994         0.4563         0.4462        34.4656         2.2864         0.7074        -66.142       -39.7269      0.4319137      0.4324728
      6220.5000        15.6526         -0.019       115.1694        32.1772        34.8989       45.62645         0.3685         0.3742        33.3226         2.2651         0.7526       -74.7644       -48.3493      0.2686478      0.3092957
      6221.0000        15.3255        -0.0336       116.0978        30.8867        32.6071       42.61647         0.2918         0.2999        35.1016         2.2017         0.6209       -85.0265       -58.6114      0.2046057      0.1626943
      6221.5000        15.1632        -0.0385       115.2888        30.2067        30.9802       40.47974         0.2367          0.248        35.9281         2.1393         0.5127        -92.613      -66.19791      0.1591435     0.05431562
      6222.0000        15.1253        -0.0397       114.4973        30.3289        29.0638        37.9628         0.2013         0.2171        36.7887         2.1185         0.4187       -98.6682       -72.2531      0.1055915              0
      6222.5000        15.1351        -0.0382       113.7894        30.9588           27.9        36.4343         0.1734         0.1955        37.6155          2.111         0.3567      -102.6813       -76.2662     0.07307028              0
      6223.0000        15.1515        -0.0352       113.3748        31.6189        27.1166       35.40541         0.1546          0.184         37.448         2.1195         0.3265      -103.9678       -77.5527     0.05117887              0
      6223.5000         15.167        -0.0313       113.3905        32.1953        27.4148       35.79705         0.1407         0.1788        36.5648         2.1256         0.3022      -103.7377       -77.3226     0.05951179              0
      6224.0000        15.1489        -0.0281       113.9645          32.53        28.3092       36.97173         0.1317         0.1745        35.1832         2.1296          0.285      -102.6887      -76.27361     0.08450496              0
      6224.5000        15.1405        -0.0254        114.774        31.9562        29.6944       38.79102         0.1273         0.1715        34.3474         2.1265         0.2773      -101.2336       -74.8185      0.1232131              0
      6225.0000        15.1518        -0.0218       115.1934        30.8457        30.7428       40.16795         0.1238         0.1695        34.8155         2.1211         0.2707       -99.6575       -73.2424      0.1525095              0
      6225.5000        15.1903        -0.0202       114.8113        29.7937        30.2891       39.57207         0.1223         0.1683        35.6138         2.1138         0.2621       -97.9862      -71.57111      0.1398313              0
      6226.0000        15.2332        -0.0226       114.3678        29.0705         30.195       39.44849          0.123         0.1688         36.275         2.1145         0.2524       -96.4305       -70.0154      0.1372018              0
      6226.5000        15.2251        -0.0293       114.2704        29.0829        32.0452       41.87848         0.1278           0.17        35.3181         2.1187         0.2402       -94.9344       -68.5193      0.1889039     0.02115282
      6227.0000         15.185        -0.0377       113.7972        29.3872        34.8842       45.60714         0.1395         0.1729        34.5249         2.1228         0.2284       -93.1477       -66.7326       0.268237     0.04667707
      6227.5000         15.136        -0.0455       110.5262         29.772        36.0817        47.1799          0.172         0.1793        33.9838         2.1226         0.2205       -90.8281      -64.41301      0.3016999     0.07981415
      6228.0000        15.1129        -0.0482       103.7317        30.1747        37.0743       48.48355          0.228         0.1954        33.4961         2.1253         0.2278       -86.3456       -59.9305      0.3294373        0.14385
      6228.5000        15.1263        -0.0478        95.8131        30.3561        38.2006        49.9628          0.312         0.2559        32.7845         2.1437          0.271        -78.036      -51.62091      0.3609107      0.2625585
      6229.0000        15.3076        -0.0443         91.257        30.4837         40.263       52.67149         0.4222         0.4163        31.4384         2.2428         0.4217       -71.1426       -44.7275      0.4185424      0.3610356
      6229.5000        15.7836        -0.0263        93.1421        31.0855        42.7389       55.92327         0.5161         0.5137        29.3481         2.3347         0.8669       -60.9252      -34.51011      0.4877291      0.5069985
      6230.0000        16.2545        -0.0137        96.6935        33.9521        44.5502       58.30218          0.666         0.6046         26.057         2.4094         1.1996       -53.7709       -27.3558      0.5383442      0.6092028
      6230.5000        16.4693        -0.0086       101.3491        39.9886        46.4418       60.78654         0.7746         0.6789        24.6286         2.4472          1.308       -47.9841        -21.569      0.5912029      0.6918713
      6231.0000        16.5007        -0.0043       106.0795        43.2727        50.2618       65.80363         0.8731         0.6974        25.9413         2.4383         1.0246       -43.6802       -17.2651      0.6979495      0.7533557
      6231.5000        16.4334        -0.0022       111.4066        46.1519        54.5959        71.4959         0.9227          0.688        29.4074         2.3949         0.8107       -39.7006       -13.2855      0.8190618      0.8102071
      6232.0000        16.4681        -0.0009       119.5988        47.1798        59.0334       77.32397         0.8953         0.6474        34.1157          2.362          0.691       -36.6507       -10.2356      0.9430633      0.8537771
      6232.5000        16.7681        -0.0001       124.0704        47.0466         62.915       82.42195         0.7501         0.5851        40.4341           2.34         0.5814       -34.5603      -8.145203              1        0.88364
      6233.0000        16.8512        -0.0005       126.9131        47.1105        67.9968       89.09624         0.6265         0.5295        42.6252         2.3114         0.5218       -32.3917      -5.976604              1      0.9146199
      6233.5000        16.8737        -0.0021       128.6365        47.0339        70.0729       91.11355         0.5621         0.5084        45.2656         2.2669         0.5127       -30.5565      -4.141403              1      0.9408371
