#------------------------------------------------------------------------------
# Created by    : vladimir.rabinovich
# Created on    : 09/19/2023 17:22:39
#------------------------------------------------------------------------------
~Version Information Section
VERS.           2.0     :   CWLS log ASCII Standard - VERSION 2.0
WRAP.           NO      :   One line per depth step
~Well Information Section
#MNEM       .UNIT                                         VALUE :DESCRIPTION
#------------------------------------------------------------------------------
STRT        .FT                                            3496 :START DEPTH
STOP        .FT                                          7091.5 :STOP DEPTH
STEP        .FT                                             0.5 :STEP      
NULL        .                                           -999.25 :NULL      
COMP        .                          SEAGULL ENERGY E & P INC :COMPANY   
WELL        .                               OCS G07251 ST00BP00 :WELL      
FLD         .                              GALVESTON BLOCK 0349 :FIELD     
LOC         .                                                   :LOCATION  
CNTY        .                             GALVESTON LARGE BLOCK :LOCATION  
STAT        .                                             TEXAS :STATE     
CTRY        .                                     UNITED STATES :COUNTRY   
SRVC        .                                                   :SERVICE COMPANY
DATE        .                             9/13/2023 11:19:36 AM :LOG DATE  
API         .                                    42706402300000 :API NUMBER
UWI         .                                    42706402300000 :UNIQUE WELL ID
XCOORD      .                                  1015542.86720011 :SURFACE X 
YCOORD      .                                  10434819.2372955 :SURFACE Y 
LAT         .                                         28.739771 :LATITUDE  
LON         .                                        -94.950355 :LONGITUDE 
ELEV        .FT                                              93 :ELEVATION VALUE
ELEV_TYPE   .                                                KB :ELEVATION REFERENCE TYPE
~Curve Information Section
#MNEM       .UNIT                                      API CODE :CURVE DESCRIPTION
#------------------------------------------------------------------------------
DEPT        .FT                                                 :DEPTH     
DCAL        .IN                                                 :          
DPHI        .%                                                  :          
DRHO        .G/C3                                               :          
GR          .GAPI                                               :          
GR_NORM     .GAPI                                               :GammaRay Normalized
ILD         .OHMM                                               :          
ILM         .OHMM                                               :          
NPHI        .%                                                  :          
SGRD        .OHMM                                               :          
SP          .MV                                                 :          
SP_NORM     .MV                                                 :SP Normalized
VSH_GR      .V/V                                                :Volume of Shale from GR
VSH_SP      .V/V                                                :Volume of Shale from SP
~A        DEPTH           DCAL           DPHI           DRHO             GR        GR_NORM            ILD            ILM           NPHI           SGRD             SP        SP_NORM         VSH_GR         VSH_SP
# ...
      5890.0000         0.2748        20.2446        -0.0666         66.682       74.78394          0.743         0.7745        40.2672         0.8936       -54.4443       -5.46471      0.8890199      0.9159275
      5890.5000         0.2757        20.2035        -0.0509        69.7356       78.89037          0.752         0.7743        40.2645         0.8846       -56.4662       -7.48661      0.9763908      0.8848214
      5891.0000         0.2823        20.8203        -0.0372        70.2474       79.58124         0.7614         0.7764         39.565         0.8834       -57.2816       -8.30201      0.9910902      0.8722768
      5891.5000         0.3081        21.2826        -0.0209        69.9839       79.23033         0.7695         0.7835        38.6973         0.8875       -58.2253      -9.245708      0.9836241      0.8577583
      5892.0000         0.3524        21.3977        -0.0072        68.4177        77.1289         0.7745         0.7918        37.7433          0.887       -58.3951      -9.415508      0.9389127      0.8551461
      5892.5000         0.3768        21.7589         0.0035        65.7241       73.51251          0.783         0.8013        37.4778          0.889       -57.9837      -9.004108      0.8619683      0.8614752
      5893.0000         0.3751        22.0608         0.0011        64.0011       71.20038         0.7896         0.8095        37.6604         0.8952       -58.3801      -9.400509       0.812774      0.8553768
      5893.5000         0.3707         21.678        -0.0022        63.2164       70.14909         0.7994         0.8196        37.9567         0.8979       -59.0791      -10.09951      0.7904062      0.8446229
      5894.0000         0.3885        21.5529        -0.0035         62.999       69.86012         0.8109         0.8324        37.9255         0.8979        -59.337      -10.35741      0.7842578      0.8406552
      5894.5000         0.4231        21.5253        -0.0038        63.3315       70.31007         0.8244         0.8482        37.7161         0.8994       -59.1432      -10.16361      0.7938313      0.8436368
      5895.0000         0.4562        21.4417        -0.0026        64.1211       71.37424         0.8403         0.8641        37.6106          0.902       -58.7484       -9.76881      0.8164733      0.8497106
      5895.5000         0.4694        21.1427        -0.0011        65.3678       73.05264         0.8565         0.8777        37.5578         0.9084       -58.1963      -9.216709      0.8521839      0.8582045
      5896.0000         0.4688        20.1073        -0.0003        65.7551       73.57623         0.8743         0.8996        37.6179         0.9195       -57.5773       -8.59771      0.8633241      0.8677275
      5896.5000          0.473        18.8771        -0.0007        65.4615       73.18486         0.8923         0.9255        37.7462         0.9318        -57.361      -8.381409       0.854997      0.8710552
      5897.0000         0.4669        18.0308        -0.0019        66.5883       74.70216         0.9031         0.9513        37.9192         0.9486       -57.7955       -8.81591      0.8872799      0.8643706
      5897.5000         0.4487        17.6552        -0.0034        65.9805       73.88857         0.9045         0.9601        37.9488         0.9703       -58.4476       -9.46801      0.8699695      0.8543383
      5898.0000         0.4258        17.5413        -0.0042        64.3074       71.64349         0.9074         0.9655        37.6387         1.0017        -59.121      -10.14141       0.822202      0.8439783
      5898.5000          0.418        17.6195        -0.0009        63.1595       70.10415         0.9034         0.9525        36.5552         1.0264        -59.735      -10.75541        0.78945      0.8345321
      5899.0000         0.4113        18.2504        -0.0041        62.6906       69.47723           0.89         0.9332        35.3994         1.0207        -59.968      -10.98841      0.7761112      0.8309476
      5899.5000         0.4122        19.1443        -0.0084        62.7106       69.50726         0.8774         0.9144        35.1545         0.9781       -59.7881      -10.80851      0.7767501      0.8337153
      5900.0000         0.4223         20.093        -0.0116        63.5159       70.59251         0.8601         0.8998        35.1573         0.9076       -59.3983      -10.41871      0.7998407      0.8397121
      5900.5000         0.4467        21.2376        -0.0156        64.6234       72.08389         0.8437         0.8853        35.0801         0.8861       -58.7996      -9.820007       0.831572       0.848923
      5901.0000         0.4708        21.7313        -0.0191        64.8483       72.38923         0.8282         0.8739        34.8259         0.8977       -58.2385      -9.258907      0.8380687      0.8575553
      5901.5000         0.4885        21.0027        -0.0207        65.2365       72.91404         0.8147         0.8641        34.7794         0.9246       -57.8337      -8.854107      0.8492349      0.8637829
      5902.0000         0.4925        20.2874        -0.0219        65.5632       73.35619         0.8055         0.8549        34.7162         0.9365       -57.0853      -8.105709      0.8586423      0.8752968
      5902.5000         0.4997        19.7365        -0.0235        66.0267       73.98217         0.7984         0.8456        34.8306          0.929       -55.9248       -6.94521      0.8719611      0.8931506
      5903.0000         0.4972        19.1086        -0.0244         67.865       76.45554         0.7924         0.8376        35.3468         0.9058       -55.7302       -6.75061      0.9245859      0.8961444
      5903.5000         0.4824        19.1756        -0.0248        69.7756       79.02605         0.7874         0.8321        36.2422         0.8728       -56.0893      -7.109707      0.9792776      0.8906199
      5904.0000         0.4644        19.3351        -0.0253        72.2766       82.38992         0.7846         0.8266        36.8945         0.8754         -56.38       -7.40041              1      0.8861476
      5904.5000         0.4516        20.0127        -0.0246        74.7394       85.70247         0.7842         0.8208        37.3426         0.8682       -55.9592       -6.97961              1      0.8926214
      5905.0000         0.4403        19.8731         -0.023        74.5637       85.46951         0.7859         0.8174        37.8214         0.8534       -54.9845       -6.00491              1      0.9076168
      5905.5000         0.4148        20.2079        -0.0131        73.9415        84.6366         0.7871         0.8193        38.1982         0.8403       -54.3342       -5.35461              1      0.9176214
      5906.0000         0.3873        21.4133        -0.0152        73.1132        83.5267         0.7904         0.8202        38.0779         0.8385       -54.0354      -5.055809              1      0.9222183
      5906.5000         0.3688        21.6519        -0.0202        71.1036       80.82946         0.7981         0.8229        37.7494         0.8406       -54.0926       -5.11301              1      0.9213383
      5907.0000         0.3585        20.8796         -0.024        67.8674       76.48398         0.8091         0.8412        37.0558         0.8509       -54.3456      -5.366009       0.925191       0.917446
      5907.5000         0.3557        19.9579        -0.0219        66.2482       74.31131         0.8235         0.8696         36.285          0.871       -54.4128      -5.433208      0.8789641      0.9164122
      5908.0000         0.3671        18.8748        -0.0204        65.0264       72.67268         0.8386         0.9029        35.4999         0.8962       -54.1708      -5.191208      0.8440996      0.9201353
      5908.5000         0.3895        18.0207        -0.0164        63.8073       71.03766         0.8587         0.9274        34.9659         0.9296       -53.6915       -4.71191      0.8093119      0.9275091
