#------------------------------------------------------------------------------
# Created by    : vladimir.rabinovich
# Created on    : 09/19/2023 17:21:54
#------------------------------------------------------------------------------
~Version Information Section
VERS.           2.0     :   CWLS log ASCII Standard - VERSION 2.0
WRAP.           NO      :   One line per depth step
~Well Information Section
#MNEM       .UNIT                                         VALUE :DESCRIPTION
#------------------------------------------------------------------------------
STRT        .FT                                             404 :START DEPTH
STOP        .FT                                            9564 :STOP DEPTH
STEP        .FT                                             0.5 :STEP      
NULL        .                                           -999.25 :NULL      
COMP        .                               AMOCO PRODUCTION CO :COMPANY   
WELL        .                               OCS G03108 ST00BP01 :WELL      
FLD         .                                           WILDCAT :FIELD     
LOC         .                                                   :LOCATION  
CNTY        .                      MATAGORDA ISLAND LARGE BLOCK :LOCATION  
STAT        .                                             TEXAS :STATE     
CTRY        .                                     UNITED STATES :COUNTRY   
SRVC        .                                                   :SERVICE COMPANY
DATE        .                             9/13/2023 11:12:09 AM :LOG DATE  
API         .                                    42703400030000 :API NUMBER
UWI         .                                    42703400030000 :UNIQUE WELL ID
XCOORD      .                                  482242.907024332 :SURFACE X 
YCOORD      .                                  10146341.7942038 :SURFACE Y 
LAT         .                                         27.913374 :LATITUDE  
LON         .                                         -96.58609 :LONGITUDE 
ELEV        .FT                                              95 :ELEVATION VALUE
ELEV_TYPE   .                                                KB :ELEVATION REFERENCE TYPE
~Curve Information Section
#MNEM       .UNIT                                      API CODE :CURVE DESCRIPTION
#------------------------------------------------------------------------------
DEPT        .FT                                                 :DEPTH     
CALI        .IN                                                 :          
CILD        .MMHO                                               :          
GR          .GAPI                                               :          
GR_NORM     .GAPI                                               :GammaRay Normalized
ILD         .OHMM                                               :          
RHOB        .G/C3                                               :          
SFL         .OHMM                                               :          
SP          .MV                                                 :          
SP_NORM     .MV                                                 :SP Normalized
VSH_GR      .V/V                                                :Volume of Shale from GR
VSH_SP      .V/V                                                :Volume of Shale from SP
~A        DEPTH           CALI           CILD             GR        GR_NORM            ILD           RHOB            SFL             SP        SP_NORM         VSH_GR         VSH_SP
# ...
      2204.0000        -999.25        -999.25        66.5973        81.8995         0.5647        -999.25          0.518       -50.4448        -3.5569              1      0.9443964
      2204.5000        -999.25        -999.25        66.7892       82.11522         0.5542        -999.25         0.5234       -50.9434        -4.0572              1      0.9265286
      2205.0000        -999.25        -999.25        66.1899       81.43538         0.5449        -999.25         0.5314        -51.301        -4.4164              1         0.9137
      2205.5000        -999.25        -999.25        64.5563       79.58511         0.5401        -999.25         0.5338        -51.583        -4.7001      0.9911725      0.9035679
      2206.0000        -999.25        -999.25        62.8538       77.65686         0.5427        -999.25         0.5258       -51.7761        -4.8948       0.950146      0.8966143
      2206.5000        -999.25        -999.25        61.3295       75.93018         0.5495        -999.25         0.5229       -52.0562        -5.1765       0.913408      0.8865536
      2207.0000        -999.25        -999.25        60.2795       74.74038         0.5568        -999.25         0.5268       -52.2401        -5.3621      0.8880932       0.879925
      2207.5000        -999.25        -999.25        59.8962       74.30512         0.5642        -999.25         0.5334       -51.9843        -5.1079      0.8788324      0.8890036
      2208.0000        -999.25        -999.25         59.613       73.98315          0.572        -999.25          0.539       -51.7974        -4.9227      0.8719819      0.8956178
      2208.5000        -999.25        -999.25        59.6934       74.07254         0.5806        -999.25         0.5502       -51.7986        -4.9255      0.8738838      0.8955179
      2209.0000        -999.25        -999.25        60.3251       74.78599         0.5901        -999.25         0.5535       -51.9464        -5.0749      0.8890636      0.8901821
      2209.5000        -999.25        -999.25        61.2967        75.8841         0.6008        -999.25         0.5551       -52.0459        -5.1761      0.9124277      0.8865679
      2210.0000        -999.25        -999.25        62.3091        77.0283         0.6052        -999.25         0.5654       -51.9307        -5.0625      0.9367723       0.890625
      2210.5000        -999.25        -999.25        63.1563       77.98563          0.608        -999.25         0.5677       -51.8033        -4.9368       0.957141      0.8951143
      2211.0000        -999.25        -999.25        62.8214       77.60514         0.6082        -999.25         0.5569        -52.088        -5.2231      0.9490455      0.8848893
      2211.5000        -999.25        -999.25        61.3276       75.91297         0.6086        -999.25         0.5486       -51.9471        -5.0838      0.9130419      0.8898643
      2212.0000        -999.25        -999.25        60.0255       74.43787         0.6111        -999.25         0.5489       -51.6171        -4.7555      0.8816567      0.9015893
      2212.5000        -999.25        -999.25        60.2827       74.72748         0.6138        -999.25         0.5554       -51.2463        -4.3863      0.8878187       0.914775
      2213.0000        -999.25        -999.25        60.8642       75.38411         0.6185        -999.25         0.5637       -50.9058        -4.0475      0.9017895       0.926875
      2213.5000        -999.25        -999.25        61.6298       76.24899         0.6225        -999.25         0.5728       -50.6596        -3.8029      0.9201912      0.9356107
      2214.0000        -999.25        -999.25        62.2504       76.94987          0.626        -999.25         0.5834       -50.6046        -3.7495      0.9351035      0.9375179
      2214.5000        -999.25        -999.25        62.3314       77.04006         0.6292        -999.25         0.5877       -50.7162        -3.8628      0.9370226      0.9334714
      2215.0000        -999.25        -999.25        61.5442       76.14758         0.6329        -999.25         0.5688       -50.7869        -3.9351      0.9180335      0.9308893
      2215.5000        -999.25        -999.25        60.6523       75.13671         0.6368        -999.25         0.5755       -50.4704        -3.6203      0.8965257      0.9421321
      2216.0000        -999.25        -999.25        59.4283          73.75          0.639        -999.25         0.5926       -50.0488        -3.2003      0.8670213      0.9571322
      2216.5000        -999.25        -999.25         57.827       71.93616         0.6384        -999.25         0.5972       -49.5799         -2.733       0.828429      0.9738214
      2217.0000        -999.25        -999.25         56.369       70.28462         0.6355        -999.25         0.5854       -49.0988        -2.2536      0.7932898      0.9909428
      2217.5000        -999.25        -999.25        55.2974       69.07039         0.6335        -999.25         0.5744       -48.7137        -1.8701      0.7674551              1
      2218.0000        -999.25        -999.25        54.4174         68.073          0.634        -999.25         0.5668       -48.5081        -1.6662       0.746234              1
      2218.5000        -999.25        -999.25        53.8071       67.38071         0.6338        -999.25          0.566       -48.8245        -1.9842      0.7315046              1
      2219.0000        -999.25        -999.25        53.5616        67.1014         0.6308        -999.25         0.5721       -49.1762        -2.3376      0.7255617      0.9879429
      2219.5000        -999.25        -999.25        54.0865       67.69398         0.6201        -999.25         0.5833       -49.7045        -2.8675      0.7381699      0.9690179
      2220.0000        -999.25        -999.25        54.9456       68.66467         0.6058        -999.25         0.5895       -50.5141        -3.6787      0.7588227      0.9400464
      2220.5000        -999.25        -999.25        56.1427       70.01799         0.5888        -999.25         0.5797        -50.739        -3.9053      0.7876168      0.9319535
      2221.0000        -999.25        -999.25        57.8445        71.9425         0.5754        -999.25         0.5684       -50.3527        -3.5206      0.8285639      0.9456928
      2221.5000        -999.25        -999.25        59.0108       73.26086          0.565        -999.25         0.5755       -50.0827        -3.2523      0.8566141       0.955275
      2222.0000        -999.25        -999.25        59.0178       73.26732         0.5575        -999.25         0.5782       -49.9449        -3.1161      0.8567514      0.9601393
      2222.5000        -999.25        -999.25        58.8845       73.11498         0.5563        -999.25         0.5854       -49.9224        -3.0952      0.8535103      0.9608857
      2223.0000        -999.25        -999.25        59.2459       73.52251         0.5597        -999.25         0.5959        -49.926        -3.1005      0.8621811      0.9606964
      2223.5000        -999.25        -999.25        60.0251       74.40279         0.5656        -999.25         0.6034       -49.9447        -3.1208      0.8809103      0.9599714
      2224.0000        -999.25        -999.25         60.334        74.7509         0.5715        -999.25         0.6094       -50.1141        -3.2919       0.888317      0.9538607
      2224.5000        -999.25        -999.25        59.9603       74.32651         0.5758        -999.25         0.6153       -50.4243        -3.6037      0.8792874       0.942725
      2225.0000        -999.25        -999.25        61.1058       75.62132         0.5795        -999.25         0.6209       -50.6998        -3.8808      0.9068366      0.9328285
      2225.5000        -999.25        -999.25        62.8482       77.59178         0.5802        -999.25         0.6293       -50.9916        -4.1743      0.9487613      0.9223464
      2226.0000        -999.25        -999.25        64.6937       79.67892         0.5762        -999.25         0.6303       -51.1371        -4.3214      0.9931686      0.9170929
