#------------------------------------------------------------------------------
# Created by    : vladimir.rabinovich
# Created on    : 09/19/2023 17:22:16
#------------------------------------------------------------------------------
~Version Information Section
VERS.           2.0     :   CWLS log ASCII Standard - VERSION 2.0
WRAP.           NO      :   One line per depth step
~Well Information Section
#MNEM       .UNIT                                         VALUE :DESCRIPTION
#------------------------------------------------------------------------------
STRT        .FT                                              10 :START DEPTH
STOP        .FT                                            7932 :STOP DEPTH
STEP        .FT                                             0.5 :STEP      
NULL        .                                           -999.25 :NULL      
COMP        .                                       ALLIED CORP :COMPANY   
WELL        .                               OCS G04069 ST00BP00 :WELL      
FLD         .                                           WILDCAT :FIELD     
LOC         .                                                   :LOCATION  
CNTY        .                             GALVESTON LARGE BLOCK :LOCATION  
STAT        .                                             TEXAS :STATE     
CTRY        .                                     UNITED STATES :COUNTRY   
SRVC        .                                                   :SERVICE COMPANY
DATE        .                             9/13/2023 11:18:53 AM :LOG DATE  
API         .                                    42706400790000 :API NUMBER
UWI         .                                    42706400790000 :UNIQUE WELL ID
XCOORD      .                                  993545.470392299 :SURFACE X 
YCOORD      .                                  10396443.6120929 :SURFACE Y 
LAT         .                                         28.633244 :LATITUDE  
LON         .                                        -95.016955 :LONGITUDE 
ELEV        .FT                                              82 :ELEVATION VALUE
ELEV_TYPE   .                                                KB :ELEVATION REFERENCE TYPE
~Curve Information Section
#MNEM       .UNIT                                      API CODE :CURVE DESCRIPTION
#------------------------------------------------------------------------------
DEPT        .FT                                                 :DEPTH     
CALI        .IN                                                 :          
CILD        .MMHO                                               :          
DPHI        .B                                                  :          
DRHO        .G/C3                                               :          
DT          .US/F                                               :          
GR          .GAPI                                               :          
GR_1        .GAPI                                               :          
GR_NORM     .GAPI                                               :GammaRay Normalized
ILD         .OHMM                                               :          
ILM         .OHMM                                               :          
NPHI        .%                                                  :          
SFL         .OHMM                                               :          
SP          .MV                                                 :          
SP_NORM     .MV                                                 :SP Normalized
VSH_GR      .V/V                                                :Volume of Shale from GR
VSH_SP      .V/V                                                :Volume of Shale from SP
~A        DEPTH           CALI           CILD           DPHI           DRHO             DT             GR           GR_1        GR_NORM            ILD            ILM           NPHI            SFL             SP        SP_NORM         VSH_GR         VSH_SP
# ...
      7914.0000          7.684       1133.836        15.1425         0.0144       121.8229        64.6938        75.9891       76.13168         0.8761         0.8438        30.3473         0.9026       -57.1498       -16.3731      0.9176952      0.7660986
      7914.5000         7.3299       1134.275        17.2996        -0.0073       121.8353        64.6747        76.0347        76.1078         0.8724         0.8458         29.586         0.8689         -56.56       -15.7833      0.9171872      0.7745243
      7915.0000         7.0758       1136.123        20.4553        -0.0237       121.8091        64.6713        74.1343       76.10355         0.8682         0.8452        28.5875         0.8512       -56.1686       -15.3919      0.9170969      0.7801157
      7915.5000         6.8858       1139.623        22.2143        -0.0312         121.78        64.6713        73.1656       76.10355         0.8575         0.8441        28.0169         0.8366       -56.5168       -15.7401      0.9170969      0.7751414
      7916.0000         6.7735       1143.117        22.5698        -0.0351        121.751        64.7052         73.533       76.14593          0.847          0.843         27.383         0.8221       -57.1005       -16.3238      0.9179984      0.7668028
      7916.5000         6.7417       1146.201        22.7762        -0.0355       121.7297        64.7394        -999.25       76.18867         0.8305         0.8411        26.7637         0.8278       -57.9597        -17.183       0.918908      0.7545285
      7917.0000         6.7495       1148.109        22.5491        -0.0326       121.7415        64.7737        -999.25       76.23154         0.8165         0.8388        26.5564         0.8392       -58.6962       -17.9195      0.9198201      0.7440071
      7917.5000         6.7575       1150.014        22.0491        -0.0323        121.735        64.8079        -999.25        76.2743          0.811         0.8365         26.886         0.8508       -59.2207        -18.444      0.9207298      0.7365143
      7918.0000         6.7634       1151.922        21.8257         -0.036       121.6842         64.842        -999.25       76.31693         0.8156         0.8341        27.6923         0.8626       -58.8854       -18.1087      0.9216367      0.7413043
      7918.5000         6.7689       1152.682         22.286        -0.0469       121.6755        64.8762        -999.25       76.35967         0.8326         0.8353         27.864         0.8746       -58.1076       -17.3309      0.9225462      0.7524157
      7919.0000         6.7744       1153.281        22.5913        -0.0515       121.7017        64.9105        -999.25       76.40255         0.8516          0.838        27.8536         0.8867        -56.764       -15.9873      0.9234585        0.77161
      7919.5000         6.7772       1153.883        22.1656        -0.0426       121.6982        64.9447        -999.25        76.4453         0.8714         0.8413         27.863         0.8987       -55.8297        -15.053      0.9243682      0.7849571
      7920.0000         6.7769       1154.482        21.7609        -0.0317       121.6359        64.9789        -999.25       76.48804         0.8885         0.8448        27.9025         0.9096       -55.0679       -14.2912      0.9252775        0.79584
      7920.5000         6.7771       1155.084        22.2733        -0.0463       121.5455        -999.25        -999.25        -999.25        -999.25         0.8477        27.9349        -999.25        -999.25        -999.25        -999.25        -999.25
      7921.0000         6.8247       1155.709        23.6924        -0.0663       121.4393        -999.25        -999.25        -999.25        -999.25         0.8496        27.9611        -999.25        -999.25        -999.25        -999.25        -999.25
      7921.5000         6.8708       1156.422        23.9646        -0.0573       121.0552        -999.25        -999.25        -999.25        -999.25         0.8474        27.9846        -999.25        -999.25        -999.25        -999.25        -999.25
      7922.0000         6.9067       1157.135        22.2107        -0.0386        120.152        -999.25        -999.25        -999.25        -999.25         0.8441        28.0046        -999.25        -999.25        -999.25        -999.25        -999.25
      7922.5000         6.9307       1157.848        22.0054        -0.0285       107.9991        -999.25        -999.25        -999.25        -999.25         0.8394        28.0246        -999.25        -999.25        -999.25        -999.25        -999.25
      7923.0000          6.925       1158.561        22.4079        -0.0328        90.0894        -999.25        -999.25        -999.25        -999.25         0.8351        28.0403        -999.25        -999.25        -999.25        -999.25        -999.25
      7923.5000         6.9193       1159.277        22.0913        -0.0354        72.1989        -999.25        -999.25        -999.25        -999.25         0.8311        28.0527        -999.25        -999.25        -999.25        -999.25        -999.25
      7924.0000         6.9112           1160        21.2253        -0.0273         62.501        -999.25        -999.25        -999.25        -999.25         0.8268        28.0652        -999.25        -999.25        -999.25        -999.25        -999.25
      7924.5000          6.903       1160.721        20.9181        -0.0257         61.113        -999.25        -999.25        -999.25        -999.25         0.8224        28.0802        -999.25        -999.25        -999.25        -999.25        -999.25
      7925.0000         6.8949       1161.441        21.7027        -0.0379        61.1288        -999.25        -999.25        -999.25        -999.25          0.818        28.1003        -999.25        -999.25        -999.25        -999.25        -999.25
      7925.5000         6.8865       1162.164        22.7361         -0.047        61.0997        -999.25        -999.25        -999.25        -999.25         0.8094        28.1203        -999.25        -999.25        -999.25        -999.25        -999.25
      7926.0000         6.8777       1162.885        23.6408        -0.0428        61.0159        -999.25        -999.25        -999.25        -999.25         0.8056        28.1391        -999.25        -999.25        -999.25        -999.25        -999.25
      7926.5000          6.869        -999.25        24.0105        -0.0368        -999.25        -999.25        -999.25        -999.25        -999.25        -999.25        28.1494        -999.25        -999.25        -999.25        -999.25        -999.25
      7927.0000         6.8603        -999.25        23.3278        -0.0332        -999.25        -999.25        -999.25        -999.25        -999.25        -999.25        28.1597        -999.25        -999.25        -999.25        -999.25        -999.25
      7927.5000         6.8563        -999.25        23.0829        -0.0336        -999.25        -999.25        -999.25        -999.25        -999.25        -999.25        28.1678        -999.25        -999.25        -999.25        -999.25        -999.25
      7928.0000          6.854        -999.25        23.4377        -0.0341        -999.25        -999.25        -999.25        -999.25        -999.25        -999.25        28.1452        -999.25        -999.25        -999.25        -999.25        -999.25
      7928.5000         6.8517        -999.25        23.7426        -0.0381        -999.25        -999.25        -999.25        -999.25        -999.25        -999.25        28.1226        -999.25        -999.25        -999.25        -999.25        -999.25
      7929.0000         6.8494        -999.25        23.5429        -0.0423        -999.25        -999.25        -999.25        -999.25        -999.25        -999.25        28.0998        -999.25        -999.25        -999.25        -999.25        -999.25
      7929.5000         6.8469        -999.25        23.3653        -0.0429        -999.25        -999.25        -999.25        -999.25        -999.25        -999.25        28.0768        -999.25        -999.25        -999.25        -999.25        -999.25
