#------------------------------------------------------------------------------
# Created by    : vladimir.rabinovich
# Created on    : 09/19/2023 17:21:35
#------------------------------------------------------------------------------
~Version Information Section
VERS.           2.0     :   CWLS log ASCII Standard - VERSION 2.0
WRAP.           NO      :   One line per depth step
~Well Information Section
#MNEM       .UNIT                                         VALUE :DESCRIPTION
#------------------------------------------------------------------------------
STRT        .FT                                            3376 :START DEPTH
STOP        .FT                                            7813 :STOP DEPTH
STEP        .FT                                             0.5 :STEP      
NULL        .                                           -999.25 :NULL      
COMP        .                                MARINER ENERGY INC :COMPANY   
WELL        .                               OCS G27491 ST00BP00 :WELL      
FLD         .                                           WILDCAT :FIELD     
LOC         .                                                   :LOCATION  
CNTY        .                             GALVESTON LARGE BLOCK :LOCATION  
STAT        .                                             TEXAS :STATE     
CTRY        .                                     UNITED STATES :COUNTRY   
SRVC        .                                                   :SERVICE COMPANY
DATE        .                             9/13/2023 11:19:33 AM :LOG DATE  
API         .                                    42706404580000 :API NUMBER
UWI         .                                    42706404580000 :UNIQUE WELL ID
XCOORD      .                                  1038987.60828679 :SURFACE X 
YCOORD      .                                  10490484.8642062 :SURFACE Y 
LAT         .                                         28.893877 :LATITUDE  
LON         .                                         -94.87996 :LONGITUDE 
ELEV        .FT                                             110 :ELEVATION VALUE
ELEV_TYPE   .                                                KB :ELEVATION REFERENCE TYPE
~Curve Information Section
#MNEM       .UNIT                                      API CODE :CURVE DESCRIPTION
#------------------------------------------------------------------------------
DEPT        .FT                                                 :DEPTH     
CALI        .IN                                                 :          
DPSS        .%                                                  :          
DRHO        .G/CM3                                              :          
GR          .GAPI                                               :          
GR_NORM     .GAPI                                               :GammaRay Normalized
M2R1        .OHMM                                               :          
M2R2        .OHMM                                               :          
M2R3        .OHMM                                               :          
M2R6        .OHMM                                               :          
M2R9        .OHMM                                               :          
M2RX        .OHMM                                               :          
NPSS        .%                                                  :Neutron Porosity Sandstone
SP          .MV                                                 :          
SP_NORM     .MV                                                 :SP Normalized
TENS        .LB                                                 :          
VSH_GR      .V/V                                                :Volume of Shale from GR
VSH_SP      .V/V                                                :Volume of Shale from SP
~A        DEPTH           CALI           DPSS           DRHO             GR        GR_NORM           M2R1           M2R2           M2R3           M2R6           M2R9           M2RX           NPSS             SP        SP_NORM           TENS         VSH_GR         VSH_SP
# ...
      6931.0000         10.915          20.64           0.04           56.4       48.37637         0.7929         0.6569         0.6393         0.6335          0.611         0.6335        28.6531          -77.6      -33.28862             80      0.3271568      0.4175265
      6931.5000         10.875          18.24          0.048           61.2       54.56948         0.9147         0.7517         0.7384         0.7254            0.7          0.745        29.6327          -70.8      -26.48862             80       0.458925      0.5482957
      6932.0000         10.835        17.1765          0.052           66.4       61.27869         0.9603         0.8239         0.7789         0.8079         0.7652         0.8079           30.6          -63.6      -19.28862             80      0.6016742      0.6867573
      6932.5000         10.795        17.7647           0.04           71.4       67.72984          0.976         0.8653         0.8159         0.8159            0.8         0.8485           31.2       -56.3265      -12.01512             80      0.7389327      0.8266323
      6933.0000         10.795          20.16          0.028           74.4       71.60053         0.9525         0.8653         0.8159         0.8239            0.8         0.8402          31.08       -53.8776      -9.566223             80      0.8212879      0.8737265
      6933.5000         10.795          23.28          0.008           71.2       67.47179         0.9222         0.8239            0.8         0.7929         0.7859         0.8079          30.48       -55.5102      -11.19882             80      0.7334422      0.8423303
      6934.0000         10.835         25.102              0           65.6       60.24649         0.8485         0.7859         0.7652         0.7584         0.7517          0.772        29.5102       -58.7755      -14.46412             80      0.5797126      0.7795361
      6934.5000         10.835         25.102          0.008           60.4       53.53729         0.7929         0.7517         0.7384         0.7319         0.7254          0.745        28.4082          -63.6      -19.28862             80      0.4369637      0.6867573
      6935.0000         10.875        24.6122          0.028           58.6       51.21487         0.7384         0.7189         0.7063         0.7063         0.6937         0.7126        29.0204          -66.4      -22.08862             80      0.3875504      0.6329111
      6935.5000         10.875           22.8          0.044           62.6        56.3758         0.7126         0.7126         0.6937            0.7         0.6874         0.7063          30.84          -65.6      -21.28862             80      0.4973575      0.6482958
      6936.0000         10.915          21.24          0.048           73.4        70.3103            0.7         0.7063         0.6937            0.7         0.6874            0.7          33.48          -60.8      -16.48862             80      0.7938361      0.7406034
      6936.5000         10.915          20.04          0.052           83.4       83.21262         0.6874            0.7         0.6937            0.7         0.6812         0.6937          35.16       -54.6939      -10.38252             80              1      0.8580284
      6937.0000         10.875           19.2           0.06           88.6       89.92183         0.6812         0.6874         0.6629          0.669          0.651         0.6874          36.24       -47.7551      -3.443722             80              1      0.9914669
      6937.5000         10.795           18.6          0.052        90.6122       92.51802          0.669          0.651         0.6278         0.6393         0.6165          0.651          37.08       -46.5306      -2.219223             80              1              1
      6938.0000         10.715           19.2          0.048           87.8       88.88965         0.6451         0.6165            0.6          0.611         0.5892         0.6055          38.52       -48.5714      -4.260021             80              1      0.9757688
      6938.5000         10.595           20.4           0.04           85.4       85.79308         0.6165         0.5785         0.5681         0.5733         0.5578         0.5681          40.56       -52.2449      -7.933521             80              1      0.9051246
      6939.0000         10.515          21.72          0.036             82       81.40629         0.5838         0.5477         0.5428         0.5378         0.5233         0.5281             42       -55.5102      -11.19882             80              1      0.8423303
      6939.5000         10.475          22.44           0.04           77.4       75.47123         0.5578         0.5186         0.5139            0.5         0.4862         0.4954           41.4       -58.3673      -14.05592             80      0.9036432       0.774369
      6940.0000         10.475          22.56          0.048           77.6       75.72928         0.5428         0.5046         0.4862         0.4685         0.4642         0.4729          39.84            -60      -15.68862             80      0.9091336      0.7410485
      6940.5000         10.475          21.96          0.052           82.6       82.18044         0.5578         0.5046         0.4862         0.4599         0.4599         0.4599          39.24       -54.2857      -9.974323             80              1      0.8576669
      6941.0000         10.475           22.8          0.044           84.8       85.01895         0.5733         0.5046         0.4817         0.4514         0.4514         0.4514          39.24       -51.0204      -6.709023             80              1      0.9243057
      6941.5000         10.475        24.7347          0.032           79.8       78.56778         0.5785         0.4908         0.4556         0.4309         0.4431         0.4431          37.08       -55.5102      -11.19882             80      0.9695272      0.8326771
      6942.0000         10.475        27.0612          0.024           73.8       70.82641         0.5477         0.4431         0.4269            0.4            0.4         0.3924          34.32          -69.2      -24.88862             80      0.8048172      0.5532935
      6942.5000         10.435        29.0204          0.024           65.4       59.98845         0.4862         0.3924          0.374           0.36         0.3497         0.3431          33.24          -81.2      -36.88862             80      0.5742223      0.3083955
      6943.0000         10.355           30.6          0.024             55       46.57005         0.4113         0.3398          0.327         0.3117         0.3029         0.2973           33.6          -86.8      -42.48862             80      0.2887244      0.1941097
      6943.5000         10.355          31.56          0.024        49.4118       39.35997         0.3366          0.292         0.2868         0.2717         0.2717         0.2668          34.08          -90.4      -46.08862             80      0.1353186      0.1206403
      6944.0000         10.355          31.92          0.028        46.6667       35.81816         0.2894         0.2621         0.2551         0.2438         0.2438         0.2395          34.68          -92.8      -48.48862             80     0.05996079     0.07166072
      6944.5000         10.395          32.04          0.028        45.8824       34.80623         0.2621         0.2438         0.2395         0.2331         0.2331         0.2289          35.16          -94.4      -50.08862             80     0.03843048     0.03900769
      6945.0000         10.435          32.04          0.028        45.6863       34.55322         0.2551         0.2289         0.2269         0.2228         0.2228         0.2189          35.64          -94.8      -50.48862             80     0.03304713      0.0308444
      6945.5000         10.435          31.56          0.032        45.2941       34.04719         0.2505         0.2331         0.2228         0.2228         0.2228         0.2189          35.88          -94.4      -50.08862             80     0.02228059     0.03900769
