#------------------------------------------------------------------------------
# Created by    : vladimir.rabinovich
# Created on    : 09/19/2023 17:20:04
#------------------------------------------------------------------------------
~Version Information Section
VERS.           2.0     :   CWLS log ASCII Standard - VERSION 2.0
WRAP.           NO      :   One line per depth step
~Well Information Section
#MNEM       .UNIT                                         VALUE :DESCRIPTION
#------------------------------------------------------------------------------
STRT        .FT                                             723 :START DEPTH
STOP        .FT                                            8219 :STOP DEPTH
STEP        .FT                                             0.5 :STEP      
NULL        .                                           -999.25 :NULL      
COMP        .                                    MOBIL OIL CORP :COMPANY   
WELL        .                               OCS G02338 ST00BP00 :WELL      
FLD         .                                           WILDCAT :FIELD     
LOC         .                                                   :LOCATION  
CNTY        .                             GALVESTON LARGE BLOCK :LOCATION  
STAT        .                                             TEXAS :STATE     
CTRY        .                                     UNITED STATES :COUNTRY   
SRVC        .                                                   :SERVICE COMPANY
DATE        .                             9/13/2023 11:18:53 AM :LOG DATE  
API         .                                    42706400200000 :API NUMBER
UWI         .                                    42706400200000 :UNIQUE WELL ID
XCOORD      .                                  941616.333010477 :SURFACE X 
YCOORD      .                                  10405518.1254327 :SURFACE Y 
LAT         .                                         28.655687 :LATITUDE  
LON         .                                        -95.179294 :LONGITUDE 
ELEV        .FT                                              84 :ELEVATION VALUE
ELEV_TYPE   .                                                KB :ELEVATION REFERENCE TYPE
~Curve Information Section
#MNEM       .UNIT                                      API CODE :CURVE DESCRIPTION
#------------------------------------------------------------------------------
DEPT        .FT                                                 :DEPTH     
ASFL        .OHMM                                               :          
CALI        .IN                                                 :          
CILD        .MMHO                                               :          
DPHI        .%                                                  :          
DT          .US/F                                               :          
GR          .GAPI                                               :          
GR_1        .GAPI                                               :          
GR_NORM     .GAPI                                               :GammaRay Normalized
ILD         .OHMM                                               :          
NPHI        .DEC                                                :          
SP          .MV                                                 :          
SP_NORM     .MV                                                 :SP Normalized
VSH_GR      .V/V                                                :Volume of Shale from GR
VSH_SP      .V/V                                                :Volume of Shale from SP
~A        DEPTH           ASFL           CALI           CILD           DPHI             DT             GR           GR_1        GR_NORM            ILD           NPHI             SP        SP_NORM         VSH_GR         VSH_SP
# ...
      8193.0000         0.7355        10.1589       1424.953        38.1917       130.5991        -999.25        87.4944       83.38225         0.6551         0.3819        66.9723      -4.725822              1       0.943212
      8193.5000         0.7318        10.1634       1422.967        37.3632       130.6992        -999.25        87.3735       83.26134         0.6561         0.3736        67.4266      -4.271523              1      0.9526766
      8194.0000         0.7282        10.2127        1432.26        37.6505       130.8235        -999.25        87.0508       82.93864         0.6571         0.3765        67.8809      -3.817223              1      0.9621412
      8194.5000         0.7246        10.2712       1466.645        38.4003       130.6545        -999.25        85.0867       80.97455          0.658          0.384        68.3569      -3.341217              1       0.972058
      8195.0000          0.721        10.2979       1497.301        38.8514       130.1677        -999.25        83.9515       79.83935          0.659         0.3885        68.8386       -2.85952      0.9965819      0.9820933
      8195.5000         0.7174        10.1762       1528.945        39.4289       129.6589        -999.25        83.0258       78.91365           0.66         0.3943        69.3197      -2.378418      0.9768862      0.9921163
      8196.0000         0.7138         10.255       1557.479        40.1705       129.1389        -999.25        83.6748       79.56264         0.6609         0.4017         69.687      -2.011124      0.9906946      0.9997683
      8196.5000         0.7101        10.3905        1581.15        41.0474       129.1213        -999.25        84.7413       80.62915         0.6615         0.4105        69.9893      -1.708817              1              1
      8197.0000         0.7065        10.5105        1585.34        41.1214       129.1716        -999.25        85.7871       81.67495         0.6601         0.4112        70.3337      -1.364418              1              1
      8197.5000         0.7037        10.6171       1580.904        40.9372       129.1814        -999.25        86.4362       82.32405         0.6587         0.4094        70.7212     -0.9769211              1              1
      8198.0000         0.7015        10.7464       1566.934        41.4466       128.7954        -999.25        86.5267       82.41455         0.6573         0.4145        71.1038     -0.5943222              1              1
      8198.5000         0.6992        10.7347       1552.123        42.2166       128.2761        -999.25        86.1741       82.06195          0.656         0.4222         71.475     -0.2231216              1              1
      8199.0000          0.697        10.4015       1533.092        43.1526       127.6907        -999.25        85.4858       81.37365         0.6546         0.4315        71.8463      0.1481781              1              1
      8199.5000         0.6947        10.2674       1509.346        43.2539       127.1058        -999.25        85.1481       81.03595         0.6532         0.4325        71.9323      0.2341766              1              1
      8200.0000         0.6924        11.0918       1497.092        42.9321       127.3514        -999.25        85.2448       81.13264         0.6549         0.4293        71.9951      0.2969818              1              1
      8200.5000         0.6911        12.0198       1484.836        43.1424       128.7268        -999.25        85.3615       81.24935         0.6578         0.4314        72.1323      0.4341812              1              1
      8201.0000         0.6956         10.988       1472.223        45.2397       129.8689        -999.25         85.511       81.39885         0.6606         0.4524        72.2734      0.5752792              1              1
      8201.5000            0.7        10.0715       1458.449        49.1019       127.7493        -999.25         85.447       81.33485         0.6635          0.491        72.3463      0.6481781              1              1
      8202.0000         0.7045         9.8884       1446.811        52.2755       126.2167        -999.25        85.1776       81.06544         0.6677         0.5228        72.3854      0.6872787              1              1
      8202.5000         0.7089         9.8678       1436.383        52.6078       125.0658        -999.25        84.7585       80.64635         0.6783         0.5261        72.2937      0.5955811              1              1
      8203.0000          0.716         9.9465       1424.066        47.7726        126.395        -999.25        84.0837       79.97155         0.6888         0.4777        72.6119      0.9137802      0.9993947              1
      8203.5000         0.7232        10.0218       1409.354        42.7936       128.3152        -999.25        83.3049       79.19275         0.6994         0.4279        72.9663       1.268181      0.9828244              1
      8204.0000         0.7303        10.0785       1397.395        39.7277       129.5334        -999.25        83.0306       78.91845           0.71         0.3973        73.4075       1.709381      0.9769883              1
      8204.5000         0.7374        10.1352       1385.979        38.3204       129.2107        -999.25        83.7703       79.65815         0.7206         0.3832        73.8486       2.150482      0.9927266              1
      8205.0000         0.7446         10.207       1374.131        38.4254        127.854        -999.25        84.4291       80.31695         0.7308         0.3843         74.424       2.725883              1              1
      8205.5000         0.7517         9.9738       1365.727        40.3715       126.9325        -999.25        85.0034       80.89125         0.7401         0.4037        74.9462       3.248077              1              1
      8206.0000         0.7588         9.9669       1369.084        42.5541       126.3275        -999.25        84.2736       80.16145         0.7494         0.4255        74.1606       2.462479              1              1
      8206.5000         0.7639        10.4429       1376.791        43.8325       126.6432        -999.25        83.5548       79.44265         0.7588         0.4383        72.0066      0.3084793      0.9881415              1
      8207.0000         0.7674        11.0025       1381.838        44.1075       133.6399        -999.25        83.2692       79.15705         0.7681         0.4411        65.9341      -5.764023      0.9820649      0.9215829
      8207.5000         0.7709        11.8306       1386.881        45.2516       138.0566        -999.25        83.9956       79.88345         0.7774         0.4525        61.8682      -9.829922      0.9975201      0.8368766
      8208.0000         0.7709         11.611       1393.236        50.7186       138.8462        -999.25        84.8822       80.77005         0.7852         0.5072        59.5994      -12.09872              1        0.78961
      8208.5000         0.7653        11.1268       1400.703         57.485       136.8818        -999.25        85.7552       81.64305         0.7846         0.5749        57.7867      -13.91142              1      0.7518454
      8209.0000         0.7597         10.709       1410.365        62.1437       133.4802        -999.25        86.6492       82.53705          0.784         0.6214        57.2894      -14.40872              1      0.7414849
      8209.5000         0.7541        10.4378       1422.363        63.3892       131.2231        -999.25        87.1464       83.03425         0.7835         0.6339        57.0255      -14.67262              1      0.7359871
      8210.0000         0.7484        10.4075       1437.814        57.9641       130.0996        -999.25        86.6498       82.53765         0.7823         0.5796        56.9022      -14.79592              1      0.7334183
      8210.5000        -999.25        -999.25       1455.092        -999.25        -999.25        -999.25        -999.25        -999.25        -999.25        -999.25        -999.25        -999.25        -999.25        -999.25
