#------------------------------------------------------------------------------
# Created by    : vladimir.rabinovich
# Created on    : 09/19/2023 17:20:12
#------------------------------------------------------------------------------
~Version Information Section
VERS.           2.0     :   CWLS log ASCII Standard - VERSION 2.0
WRAP.           NO      :   One line per depth step
~Well Information Section
#MNEM       .UNIT                                         VALUE :DESCRIPTION
#------------------------------------------------------------------------------
STRT        .FT                                             970 :START DEPTH
STOP        .FT                                            6500 :STOP DEPTH
STEP        .FT                                             0.5 :STEP      
NULL        .                                           -999.25 :NULL      
COMP        .                                CONTINENTAL OIL CO :COMPANY   
WELL        .                               OCS G03106 ST00BP00 :WELL      
FLD         .                       MATAGORDA ISLAND BLOCK 0687 :FIELD     
LOC         .                                                   :LOCATION  
CNTY        .                      MATAGORDA ISLAND LARGE BLOCK :LOCATION  
STAT        .                                             TEXAS :STATE     
CTRY        .                                     UNITED STATES :COUNTRY   
SRVC        .                                                   :SERVICE COMPANY
DATE        .                             9/13/2023 11:12:09 AM :LOG DATE  
API         .                                    42703400330000 :API NUMBER
UWI         .                                    42703400330000 :UNIQUE WELL ID
XCOORD      .                                  468864.661343862 :SURFACE X 
YCOORD      .                                  10154488.9405743 :SURFACE Y 
LAT         .                                         27.934663 :LATITUDE  
LON         .                                        -96.628194 :LONGITUDE 
ELEV        .FT                                              96 :ELEVATION VALUE
ELEV_TYPE   .                                                KB :ELEVATION REFERENCE TYPE
~Curve Information Section
#MNEM       .UNIT                                      API CODE :CURVE DESCRIPTION
#------------------------------------------------------------------------------
DEPT        .FT                                                 :DEPTH     
ASFL        .OHMM                                               :          
CALI        .IN                                                 :          
CILD        .MMHO                                               :          
DRHO        .G/C3                                               :          
DT          .US/F                                               :          
DTL         .US/F                                               :          
GR          .GAPI                                               :          
GR_1        .GAPI                                               :          
GR_NORM     .GAPI                                               :GammaRay Normalized
ILD         .OHMM                                               :          
ILM         .OHMM                                               :          
NPHI        .%                                                  :          
RHOB        .G/C3                                               :          
SFL         .OHMM                                               :          
SP          .MV                                                 :          
SP_NORM     .MV                                                 :SP Normalized
VSH_GR      .V/V                                                :Volume of Shale from GR
VSH_SP      .V/V                                                :Volume of Shale from SP
~A        DEPTH           ASFL           CALI           CILD           DRHO             DT            DTL             GR           GR_1        GR_NORM            ILD            ILM           NPHI           RHOB            SFL             SP        SP_NORM         VSH_GR         VSH_SP
# ...
      1362.0000         0.5594        -999.25       1902.846        -999.25       160.5566        -999.25        46.6502        -999.25       73.00613         0.5505         0.5179        -999.25        -999.25         0.5584       -62.2355        -3.6317      0.8511943      0.9628412
      1362.5000         0.5564        -999.25       1887.916        -999.25        159.738        -999.25        45.8555        -999.25       71.25929         0.5534         0.5106        -999.25        -999.25         0.5514       -61.8534        -3.2496      0.8140275      0.9853176
      1363.0000         0.5534        -999.25       1900.768        -999.25       159.8347        -999.25        45.8469        -999.25       71.23196         0.5563         0.5031        -999.25        -999.25         0.5475       -61.4712        -2.8674      0.8134459              1
      1363.5000         0.5507        -999.25       1915.602        -999.25        160.196        -999.25        45.9159        -999.25       71.37455         0.5592         0.4958        -999.25        -999.25         0.5468       -61.0803        -2.4765      0.8164798              1
      1364.0000         0.5519        -999.25       1916.988        -999.25       160.4136        -999.25        46.1012        -999.25       71.77135         0.5621         0.4983        -999.25        -999.25         0.5325       -60.6869        -2.0831      0.8249224              1
      1364.5000         0.5531        -999.25       1898.525        -999.25       159.8218        -999.25        45.9257        -999.25       71.37895         0.5746         0.5037        -999.25        -999.25         0.5222       -60.7051        -2.1013      0.8165734              1
      1365.0000         0.5581        -999.25       1880.061        -999.25       158.3152        -999.25        44.8656        -999.25       69.05181         0.5883         0.5153        -999.25        -999.25         0.5217       -61.0037        -2.3999      0.7670598              1
      1365.5000         0.5699        -999.25       1860.031        -999.25       156.3584        -999.25        43.1857        -999.25       65.36876         0.6021         0.5312        -999.25        -999.25          0.524       -63.2104        -4.6066       0.688697      0.9054942
      1366.0000         0.5818        -999.25       1826.256        -999.25       153.6091        -999.25        41.5103        -999.25       61.69553         0.6158         0.5497        -999.25        -999.25         0.5485       -63.6141        -5.0103      0.6105431      0.8817471
      1366.5000         0.5936        -999.25       1792.477        -999.25       149.9871        -999.25        39.9807        -999.25       58.34145         0.6296         0.5707        -999.25        -999.25         0.5797       -63.2366        -4.6328      0.5391798       0.903953
      1367.0000          0.607        -999.25       1758.703        -999.25       146.6174        -999.25        38.6306        -999.25       55.37971         0.6433         0.5858        -999.25        -999.25         0.6062       -62.5259        -3.9221      0.4761642      0.9457588
      1367.5000         0.6272        -999.25       1724.924        -999.25       142.6514        -999.25        37.4741        -999.25       52.84155         0.6571         0.6013        -999.25        -999.25         0.6116       -62.7075        -4.1037      0.4221605      0.9350765
      1368.0000         0.6475        -999.25        1691.15        -999.25       139.1855        -999.25        36.1525        -999.25       49.94241         0.6768         0.6172        -999.25        -999.25         0.6133       -63.1177        -4.5139      0.3604769      0.9109471
      1368.5000         0.6668        -999.25       1656.186        -999.25        136.363        -999.25        34.9651        -999.25       47.33657         0.6968         0.6335        -999.25        -999.25         0.6195       -63.7989        -5.1951      0.3050335      0.8708765
      1369.0000         0.6854        -999.25       1608.834        -999.25       134.4663        -999.25        33.8813        -999.25       44.95741         0.7167          0.652        -999.25        -999.25         0.6493       -64.3314        -5.7276      0.2544129      0.8395529
      1369.5000          0.704        -999.25       1561.494        -999.25       133.5518        -999.25        33.0358        -999.25        43.0997         0.7367         0.6703        -999.25        -999.25         0.6798       -64.7831        -6.1793      0.2148873      0.8129823
      1370.0000         0.7225        -999.25       1514.143        -999.25       132.9641        -999.25        32.2954        -999.25       41.47165         0.7566         0.6857        -999.25        -999.25         0.7181       -64.1913        -5.5875      0.1802478      0.8477941
      1370.5000         0.7412        -999.25        1475.51        -999.25       130.2942        -999.25         31.903        -999.25       40.60481         0.7766         0.7013        -999.25        -999.25         0.7516       -63.7137        -5.1099      0.1618045      0.8758882
      1371.0000         0.7601        -999.25       1437.023        -999.25       125.0374        -999.25        32.8663        -999.25       42.70358         0.7951         0.7134        -999.25        -999.25         0.7697       -64.0897        -5.4859       0.206459      0.8537706
      1371.5000         0.7789        -999.25       1398.523        -999.25       127.3566        -999.25        35.0964        -999.25       47.57306         0.8127         0.7257        -999.25        -999.25         0.7588       -64.4249        -5.8211      0.3100652      0.8340529
      1372.0000         0.7978        -999.25        1358.84        -999.25       129.2703        -999.25        36.7466        -999.25       51.17411         0.8304         0.7385        -999.25        -999.25           0.75       -63.1645        -4.5607      0.3866833      0.9081941
      1372.5000         0.8145        -999.25       1317.936        -999.25       128.8831        -999.25        37.9212        -999.25       71.82494          0.848         0.7515        -999.25        -999.25         0.7586       -62.1412        -3.5374      0.8260624      0.9683883
      1373.0000         0.8309        -999.25       1277.031        -999.25       125.0795        -999.25        38.1816        -999.25       72.30914         0.8656         0.7797        -999.25        -999.25         0.7881       -62.3986        -3.7948      0.8363646      0.9532471
      1373.5000         0.8475        -999.25        1223.99        -999.25       121.0081        -999.25        38.0112        -999.25       71.98011         0.8812         0.8107        -999.25        -999.25         0.8215       -63.4925        -4.8887      0.8293641         0.8889
      1374.0000         0.8653        -999.25       1183.092        -999.25       118.3424        -999.25        37.6036        -999.25       71.20354         0.8909         0.8448        -999.25        -999.25         0.8618       -63.8583        -5.2545      0.8128414      0.8673823
      1374.5000         0.8832        -999.25       1159.477        -999.25       121.0992        -999.25        36.8752        -999.25       69.82124         0.9006         0.8672        -999.25        -999.25          0.915       -63.6396        -5.0358      0.7834305      0.8802471
      1375.0000         0.8968        -999.25       1135.857        -999.25       124.3358        -999.25         35.874        -999.25         67.924         0.9103         0.8822        -999.25        -999.25         0.9866       -62.8807        -4.2769      0.7430639      0.9248883
      1375.5000         0.8915        -999.25       1126.273        -999.25        123.861        -999.25        34.5493        -999.25       65.41628         0.9201         0.8928        -999.25        -999.25         1.0393        -63.348        -4.7442      0.6897081         0.8974
