#------------------------------------------------------------------------------
# Created by    : vladimir.rabinovich
# Created on    : 09/19/2023 17:20:24
#------------------------------------------------------------------------------
~Version Information Section
VERS.           2.0     :   CWLS log ASCII Standard - VERSION 2.0
WRAP.           NO      :   One line per depth step
~Well Information Section
#MNEM       .UNIT                                         VALUE :DESCRIPTION
#------------------------------------------------------------------------------
STRT        .FT                                            2979 :START DEPTH
STOP        .FT                                           11003 :STOP DEPTH
STEP        .FT                                             0.5 :STEP      
NULL        .                                           -999.25 :NULL      
COMP        .                                        TEXACO USA :COMPANY   
WELL        .                               OCS G01821 ST00BP00 :WELL      
FLD         .                                           WILDCAT :FIELD     
LOC         .                                                   :LOCATION  
CNTY        .                           HIGH ISLAND LARGE BLOCK :LOCATION  
STAT        .                                             TEXAS :STATE     
CTRY        .                                     UNITED STATES :COUNTRY   
SRVC        .                                                   :SERVICE COMPANY
DATE        .                             9/13/2023 11:19:15 AM :LOG DATE  
API         .                                    42708300170000 :API NUMBER
UWI         .                                    42708300170000 :UNIQUE WELL ID
XCOORD      .                                  1345073.13508324 :SURFACE X 
YCOORD      .                                  10640242.4404634 :SURFACE Y 
LAT         .                                         29.315788 :LATITUDE  
LON         .                                        -93.927032 :LONGITUDE 
ELEV        .FT                                              74 :ELEVATION VALUE
ELEV_TYPE   .                                                KB :ELEVATION REFERENCE TYPE
~Curve Information Section
#MNEM       .UNIT                                      API CODE :CURVE DESCRIPTION
#------------------------------------------------------------------------------
DEPT        .FT                                                 :DEPTH     
ASN         .OHMM                                               :          
CILD        .MMHO                                               :          
ILD         .OHMM                                               :          
SP          .MV                                                 :          
SP_NORM     .MV                                                 :SP Normalized
VSH_SP      .V/V                                                :Volume of Shale from SP
~A        DEPTH            ASN           CILD            ILD             SP        SP_NORM         VSH_SP
# ...
      5639.0000         1.0212       941.5234         0.9208       -55.1665      -7.893772      0.8674275
      5639.5000         1.0094       947.9297         0.9145       -54.3769      -7.104172      0.8826121
      5640.0000         1.0033       954.3359          0.919       -53.4868      -6.214073      0.8997294
      5640.5000              1       960.7412         0.9236       -52.5966      -5.323872      0.9168486
      5641.0000         0.9966       965.5947         0.9281       -51.7064      -4.433674      0.9339678
      5641.5000         0.9981        969.376         0.9327       -50.8162      -3.543472      0.9510871
      5642.0000         1.0038       970.7539         0.9372       -49.9261      -2.653374      0.9682044
      5642.5000         1.0096        964.623         0.9418       -49.6275      -2.354771      0.9739467
      5643.0000         1.0154        957.542         0.9464       -50.3482      -3.075474      0.9600871
      5643.5000         1.0211       949.1797         0.9521       -51.0695      -3.796772      0.9462159
      5644.0000         1.0402       940.8174         0.9585       -51.7902      -4.517471      0.9323563
      5644.5000         1.0613       932.4492         0.9648       -53.4911      -6.218372      0.8996467
      5645.0000         1.0824       924.0869         0.9696       -55.2565      -7.983772      0.8656967
      5645.5000         1.1035       936.7607         0.9548       -57.0232      -9.750473      0.8317217
      5646.0000         1.1246       950.6357           0.94       -59.2753      -12.00257      0.7884121
      5646.5000         1.1421       964.5098         0.9227       -62.4237      -15.15097      0.7278659
      5647.0000         1.1479       985.3594         0.8997       -65.6765      -18.40377      0.6653121
      5647.5000         1.1287       1012.184         0.8768       -72.2961      -25.02337      0.5380121
      5648.0000         1.1094        1105.93         0.8538       -78.9159      -31.64317      0.4107082
      5648.5000         1.0901       1166.578         0.8309       -80.7198      -33.44707      0.3760178
      5649.0000         1.0708       1209.775         0.8079         -82.15      -34.87727       0.348514
      5649.5000         1.0546       1243.113          0.785       -83.5778      -36.30507      0.3210564
      5650.0000         1.0468       1260.775          0.762       -84.5399      -37.26717      0.3025543
      5650.5000         1.0945       1333.922         0.7391       -85.5021      -38.22937      0.2840506
      5651.0000         1.1074       1394.857         0.7209       -86.6306      -39.35787      0.2623486
      5651.5000         1.0965       1412.219          0.705       -88.4855      -41.21277      0.2266775
      5652.0000         1.0856       1429.582         0.6891       -89.8027      -42.52997      0.2013468
      5652.5000         1.0733       1445.236         0.6732       -90.3372      -43.06447      0.1910679
      5653.0000         1.0606       1446.742         0.6573       -90.8717      -43.59897      0.1807891
      5653.5000          1.048       1424.693           0.66       -91.4061      -44.13337      0.1705121
      5654.0000         1.0353       1399.945         0.6783       -88.8555      -41.58277      0.2195621
      5654.5000         1.0226       1369.646         0.6966       -85.2377      -37.96497      0.2891351
      5655.0000           1.01       1339.348         0.7149       -81.4635      -34.19077      0.3617159
      5655.5000          1.011       1308.123         0.7332       -76.8103      -29.53757      0.4512005
      5656.0000           1.02       1247.225         0.7515       -74.6562      -27.38347      0.4926256
      5656.5000          1.029        1127.58         0.7689       -73.3975      -26.12477      0.5168313
      5657.0000          1.038       1096.705         0.7786       -72.1373      -24.86457      0.5410659
      5657.5000         1.0479        1083.33         0.7883       -70.8784      -23.60567      0.5652755
      5658.0000         1.0642       1076.381         0.7979       -69.6195      -22.34677      0.5894852
      5658.5000         1.0646       1069.723         0.8076       -68.4133      -21.14057      0.6126813
      5659.0000          1.047       1065.766         0.8173       -67.6771      -20.40437       0.626839
      5659.5000         1.0296       1061.809         0.8269       -66.9415      -19.66877      0.6409852
      5660.0000         1.0135       1057.854         0.8366       -66.2053      -18.93257      0.6551428
      5660.5000         1.0027       1053.896         0.8463       -65.5188      -18.24607      0.6683448
      5661.0000         1.0395       1049.941         0.8559       -64.9285      -17.65577      0.6796967
      5661.5000         1.0612       1045.984         0.8656       -64.4076      -17.13487       0.689714
      5662.0000         1.0509       1042.029         0.8753       -65.0203      -17.74757      0.6779312
      5662.5000         1.0406        1036.07         0.8834       -65.6331      -18.36037      0.6661466
      5663.0000         1.0303       1027.883         0.8771       -66.2457      -18.97297       0.654366
      5663.5000         1.0167       1023.377         0.8709       -65.3263      -18.05357      0.6720467
      5664.0000         1.0255       1030.857         0.8647       -63.7372      -16.46447      0.7026063
      5664.5000         1.0554       1038.338         0.8584       -64.2562      -16.98347      0.6926255
      5665.0000         1.0697        1045.82         0.8522       -67.1042      -19.83147      0.6378562
      5665.5000         1.0587       1071.332          0.846       -70.0863      -22.81358      0.5805082
      5666.0000         1.0477       1128.629         0.8327       -73.1951      -25.92237      0.5207236
      5666.5000         1.0314       1203.676         0.8066       -76.3038      -29.03107      0.4609409
      5667.0000         1.0151        1237.75         0.7806       -79.0897      -31.81697      0.4073659
      5667.5000         0.9988       1284.123         0.7545       -81.6124      -34.33967      0.3588525
      5668.0000         0.9825        1389.27         0.7284       -84.1327      -36.85997      0.3103852
      5668.5000         0.9701       1461.768         0.7024       -87.4873      -40.21457      0.2458737
      5669.0000         0.9586       1534.266         0.6763       -91.3236      -44.05087      0.1720986
      5669.5000          0.948       1566.189         0.6525       -94.5391      -47.26637      0.1102621
      5670.0000         0.9394       1592.139         0.6297       -97.7545      -50.48177     0.04842744
      5670.5000         0.9308       1607.813         0.6069       -99.2667      -51.99397     0.01934668
      5671.0000         0.9205       1601.162         0.5841       -98.0116      -50.73887     0.04348329
      5671.5000         0.9091       1560.814         0.5974       -96.7551      -49.48237     0.06764676
      5672.0000         0.9248       1518.316         0.6123          -95.5      -48.22727     0.09178323
      5672.5000         0.9504       1441.219         0.6272       -94.2435      -46.97077      0.1159467
      5673.0000         0.9734       1364.021         0.6564       -90.0249      -42.75217      0.1970736
      5673.5000         0.9726       1286.924         0.6977       -83.9415      -36.66877      0.3140621
      5674.0000         0.9717        1133.43         0.7391       -78.9259      -31.65318      0.4105158
      5674.5000         0.9708        1087.83         0.7804       -74.4514      -27.17867       0.496564
      5675.0000         0.9703       1042.182         0.8217       -70.2651      -22.99237      0.5770698
      5675.5000         0.9716       1001.934         0.8477       -67.7175      -20.44477      0.6260621
      5676.0000          0.973       967.8604         0.8655       -65.1724      -17.89967      0.6750063
      5676.5000         0.9773       937.7607         0.8729        -63.011      -15.73827      0.7165717
