#------------------------------------------------------------------------------
# Created by    : vladimir.rabinovich
# Created on    : 09/19/2023 17:22:40
#------------------------------------------------------------------------------
~Version Information Section
VERS.           2.0     :   CWLS log ASCII Standard - VERSION 2.0
WRAP.           NO      :   One line per depth step
~Well Information Section
#MNEM       .UNIT                                         VALUE :DESCRIPTION
#------------------------------------------------------------------------------
STRT        .FT                                            3744 :START DEPTH
STOP        .FT                                            9989 :STOP DEPTH
STEP        .FT                                             0.5 :STEP      
NULL        .                                           -999.25 :NULL      
COMP        .                          SEAGULL ENERGY E & P INC :COMPANY   
WELL        .                               OCS G07243 ST00BP00 :WELL      
FLD         .                                           WILDCAT :FIELD     
LOC         .                                                   :LOCATION  
CNTY        .                             GALVESTON LARGE BLOCK :LOCATION  
STAT        .                                             TEXAS :STATE     
CTRY        .                                     UNITED STATES :COUNTRY   
SRVC        .                                                   :SERVICE COMPANY
DATE        .                             9/13/2023 11:19:34 AM :LOG DATE  
API         .                                    42706403030000 :API NUMBER
UWI         .                                    42706403030000 :UNIQUE WELL ID
XCOORD      .                                   1005609.3052046 :SURFACE X 
YCOORD      .                                  10500547.7567395 :SURFACE Y 
LAT         .                                          28.92005 :LATITUDE  
LON         .                                        -94.984771 :LONGITUDE 
ELEV        .FT                                              96 :ELEVATION VALUE
ELEV_TYPE   .                                                KB :ELEVATION REFERENCE TYPE
~Curve Information Section
#MNEM       .UNIT                                      API CODE :CURVE DESCRIPTION
#------------------------------------------------------------------------------
DEPT        .FT                                                 :DEPTH     
DCAL        .IN                                                 :          
DPHI        .%                                                  :          
GR          .GAPI                                               :          
GR_NORM     .GAPI                                               :GammaRay Normalized
ILD         .OHMM                                               :          
ILM         .OHMM                                               :          
NPHI        .%                                                  :          
SFL         .OHMM                                               :          
SP          .MV                                                 :          
SP_NORM     .MV                                                 :SP Normalized
VSH_GR      .V/V                                                :Volume of Shale from GR
VSH_SP      .V/V                                                :Volume of Shale from SP
~A        DEPTH           DCAL           DPHI             GR        GR_NORM            ILD            ILM           NPHI            SFL             SP        SP_NORM         VSH_GR         VSH_SP
# ...
      4646.0000         6.0607        37.8069         23.359       35.39912         0.2946         0.3537        42.2105         0.3622       -83.5431      -47.94559     0.05104511      0.2078346
      4646.5000         5.6666        33.7473        23.0575       35.00042         0.2899         0.3519        40.6584         0.3674        -83.541      -47.94292     0.04256204      0.2078806
      4647.0000         5.1419        33.3065        22.4274       34.17013         0.2844         0.3468         39.996         0.3753       -83.5389      -47.94025     0.02489634      0.2079266
      4647.5000         5.0702         33.811        21.6353       33.12708         0.2791         0.3387        39.3109          0.375       -83.4988      -47.88922    0.002703809      0.2088066
      4648.0000         4.8964        31.5769        20.8439       32.08496         0.2728         0.3225        37.7169         0.3652       -83.4541      -47.83232              0      0.2097875
      4648.5000         2.8482        28.9396         20.186       31.21817         0.2679          0.307        35.0833         0.3443       -83.6134      -48.03508              0      0.2062918
      4649.0000         1.6262        29.7107        20.1549       31.17459         0.2635          0.293        33.9256         0.3202       -83.7479      -48.20625              0      0.2033405
      4649.5000         1.2876        33.9431        20.3373       31.41142         0.2591         0.2859        33.2067         0.3041        -83.756      -48.21656              0      0.2031628
      4650.0000         1.4133        36.5816        21.2298       32.58088         0.2566         0.2857        33.6517         0.3053       -83.5793      -47.99167              0      0.2070402
      4650.5000         2.3139        35.3125        22.4656       34.20121         0.2554         0.2902        38.7169          0.313       -83.6622      -48.09718     0.02555758       0.205221
      4651.0000         3.1957        31.7059        23.7198       35.84571         0.2564         0.2958        41.2264          0.321       -83.7625      -48.22483     0.06054696      0.2030202
      4651.5000         3.7427         35.303        24.4757       36.83576         0.2579         0.3028        41.8351         0.3285       -83.8441      -48.32869     0.08161196      0.2012295
      4652.0000          3.855        43.1468        23.8348       35.99129         0.2642         0.3121        43.5067           0.33       -83.7435      -48.20065     0.06364457       0.203437
      4652.5000         3.9416          49.29        22.6463       34.42763         0.2717         0.3214        49.0209         0.3243       -83.5968      -48.01395     0.03037514      0.2066561
      4653.0000         4.8525        47.7391         23.326        35.3176         0.2784         0.3278        53.9555         0.3112       -83.5061      -47.89851     0.04931064      0.2086464
      4653.5000         6.0337        43.5831        24.3541       36.66515         0.2809         0.3305        55.1083         0.3041       -83.5337      -47.93363     0.07798183      0.2080408
      4654.0000         7.3075        40.2583        24.3186        36.6158         0.2791         0.3332        52.2039         0.3194       -83.6724      -48.11016     0.07693181      0.2049972
      4654.5000         4.9736        37.2757        22.7482       34.55055         0.2733          0.334        46.7645         0.3402       -83.6525      -48.08483     0.03299047       0.205434
      4655.0000         2.8333        37.2675        20.7368       31.90611          0.268          0.334        39.7774         0.3629       -83.4768      -47.86121              0      0.2092894
      4655.5000         0.9702        34.0769        19.4399       30.20007         0.2642         0.3263        35.1278         0.3631       -83.5409       -47.9428              0      0.2078828
      4656.0000         0.2228         29.405           18.4       28.83158         0.2597         0.3047        32.2887         0.3622       -83.8621       -48.3516              0      0.2008345
      4656.5000        -0.0928        28.1763        17.5741       27.74413          0.256          0.287        30.1661         0.3593       -84.2347      -48.82582              0      0.1926583
      4657.0000        -0.2561        28.8246         17.648       27.83846         0.2532         0.2771         29.416         0.3607       -84.5011      -49.16487              0      0.1868126
      4657.5000        -0.2834        29.4098         17.882       28.14307         0.2506         0.2732        31.2075         0.3642       -84.6676      -49.37678              0      0.1831589
      4658.0000        -0.2938         30.518        18.9226       29.50703         0.2475         0.2707        32.5143         0.3656        -84.801      -49.54657              0      0.1802316
      4658.5000        -0.2792        30.3158        20.2622       31.26369         0.2463         0.2679        32.4614         0.3628         -84.91      -49.68529              0      0.1778398
      4659.0000        -0.2655        29.4707        20.9209       32.12608         0.2452         0.2681        32.4085         0.3502       -84.9713      -49.76331              0      0.1764947
      4659.5000        -0.2627        29.2826        21.0419       32.28228         0.2448          0.269        32.6494         0.3278       -85.0051      -49.80632              0      0.1757531
      4660.0000        -0.2712        29.6892        20.9187       32.11774         0.2454         0.2677        33.2851         0.3098       -84.9872      -49.78354              0      0.1761459
      4660.5000        -0.2801        30.4532        20.5935        31.6879         0.2467         0.2656        33.8189         0.2984       -84.8828      -49.65067              0      0.1784368
      4661.0000         -0.289        30.5588        20.2017        31.1706         0.2499         0.2674        34.3286         0.2913       -84.7228      -49.44704              0      0.1819476
      4661.5000         -0.296        30.1582        20.1932       31.15671         0.2525         0.2732         34.408         0.2919       -84.5746      -49.25842              0      0.1851997
      4662.0000        -0.2764        30.1534        21.3008       32.60867         0.2544         0.2831        34.2431         0.3021       -84.4723      -49.12821              0      0.1874446
      4662.5000        -0.2327        29.0738        22.5011       34.18238         0.2532         0.2939        33.8814         0.3204       -84.4342      -49.07972     0.02515712      0.1882807
      4663.0000        -0.1961        28.7774        22.7455       34.50064         0.2514         0.2928        32.9479          0.329       -84.4075      -49.04575     0.03192861      0.1888665
      4663.5000        -0.1647        29.5921        22.7955       34.56358         0.2493         0.2859        31.9742         0.3281       -84.5067        -49.172     0.03326773      0.1866897
      4664.0000        -0.1301        30.6172        22.8456       34.62666         0.2467         0.2757        31.5081          0.301       -84.5259      -49.19644     0.03460969      0.1862683
      4664.5000        -0.0912        30.8194        22.7535       34.50297         0.2436         0.2627        31.2509         0.2574       -84.6769      -49.38862     0.03197812      0.1829548
      4665.0000        -0.0392        29.9432        22.2269       33.80862         0.2401         0.2502        32.5403         0.2231       -84.9403      -49.72385     0.01720461       0.177175
      4665.5000        -0.0097        29.8783        22.6812       34.40256         0.2366         0.2438        34.3995         0.2157       -84.9175      -49.69484     0.02984165      0.1776752
      4666.0000        -0.0015        30.7469         24.168       36.35255         0.2333         0.2432         34.168         0.2177       -84.7687      -49.50545     0.07133086      0.1809405
