#------------------------------------------------------------------------------
# Created by    : vladimir.rabinovich
# Created on    : 09/19/2023 17:20:24
#------------------------------------------------------------------------------
~Version Information Section
VERS.           2.0     :   CWLS log ASCII Standard - VERSION 2.0
WRAP.           NO      :   One line per depth step
~Well Information Section
#MNEM       .UNIT                                         VALUE :DESCRIPTION
#------------------------------------------------------------------------------
STRT        .FT                                            3071 :START DEPTH
STOP        .FT                                           14991 :STOP DEPTH
STEP        .FT                                             0.5 :STEP      
NULL        .                                           -999.25 :NULL      
COMP        .                                        TEXACO USA :COMPANY   
WELL        .                                     ST TR 00012-L :WELL      
FLD         .                                           WILDCAT :FIELD     
LOC         .                                                   :LOCATION  
CNTY        .                           HIGH ISLAND LARGE BLOCK :LOCATION  
STAT        .                                             TEXAS :STATE     
CTRY        .                                     UNITED STATES :COUNTRY   
SRVC        .                                                   :SERVICE COMPANY
DATE        .                             9/13/2023 11:19:15 AM :LOG DATE  
API         .                                    42708000680000 :API NUMBER
UWI         .                                    42708000680000 :UNIQUE WELL ID
XCOORD      .                                  1354682.00685938 :SURFACE X 
YCOORD      .                                  10733491.7088446 :SURFACE Y 
LAT         .                                        29.5724948 :LATITUDE  
LON         .                                       -93.8991324 :LONGITUDE 
ELEV        .FT                                              44 :ELEVATION VALUE
ELEV_TYPE   .                                                KB :ELEVATION REFERENCE TYPE
~Curve Information Section
#MNEM       .UNIT                                      API CODE :CURVE DESCRIPTION
#------------------------------------------------------------------------------
DEPT        .FT                                                 :DEPTH     
ASN         .OHMM                                               :          
CILD        .MMHO                                               :          
ILD         .OHMM                                               :          
SP          .MV                                                 :          
SP_NORM     .MV                                                 :SP Normalized
VSH_SP      .V/V                                                :Volume of Shale from SP
~A        DEPTH            ASN           CILD            ILD             SP        SP_NORM         VSH_SP
# ...
      9417.0000         0.6571        2042.49         0.5738       -39.6193     -0.6255913              1
      9417.5000          0.659       2023.797         0.5758       -39.5955     -0.6017914              1
      9418.0000         0.6608       2013.686         0.5777       -39.5716     -0.5778923              1
      9418.5000         0.6627       2003.561         0.5796       -39.5477     -0.5539894              1
      9419.0000         0.6645       2000.719         0.5815       -39.5239     -0.5301895              1
      9419.5000         0.6668       1999.887         0.5834       -39.4999     -0.5061913              1
      9420.0000         0.6696       1963.383         0.5853       -39.4761     -0.4823914              1
      9420.5000         0.6724       1958.361         0.5872       -39.4522     -0.4584923              1
      9421.0000         0.6752       1950.463         0.5891       -39.4283     -0.4345894              1
      9421.5000          0.678       1942.551         0.5905       -39.4045     -0.4107895              1
      9422.0000         0.6808       1934.639         0.5905       -39.3806     -0.3868904              1
      9422.5000         0.6836       1925.033         0.5905       -39.3568     -0.3630905              1
      9423.0000         0.6864       1913.955         0.5904       -39.3328     -0.3390923              1
      9423.5000         0.6891       1902.854         0.5904        -39.309     -0.3152885              1
      9424.0000         0.6919       1891.777         0.5904       -39.2851     -0.2913895              1
      9424.5000         0.6947       1880.676         0.5903       -39.2612     -0.2674904              1
      9425.0000         0.6975         1869.6         0.5903       -39.2374     -0.2436905              1
      9425.5000         0.7003       1858.521         0.5903        -39.201     -0.2072906              1
      9426.0000         0.7031       1853.006         0.5902       -39.1151     -0.1213913              1
      9426.5000         0.7059       1850.322         0.5902       -39.0292    -0.03549194              1
      9427.0000         0.7078       1847.637         0.5902       -38.9435     0.05020905              1
      9427.5000         0.7097       1844.951         0.5902       -38.8575      0.1362114              1
      9428.0000         0.7116       1842.266         0.5901       -38.7717      0.2220078              1
      9428.5000         0.7135        1839.58         0.5901       -38.6859      0.3078079              1
      9429.0000         0.7155       1836.896         0.5901       -38.5999      0.3938103              1
      9429.5000         0.7174       1834.211           0.59       -38.5141      0.4796104              1
      9430.0000         0.7193       1831.611           0.59       -38.4282      0.5655098              1
      9430.5000         0.7212       1831.012           0.59       -38.3423      0.6514091              1
      9431.0000         0.7231        1830.41         0.5899       -38.2565      0.7372093              1
      9431.5000         0.7209       1834.688         0.5887       -38.1706      0.8231087              1
      9432.0000         0.7177       1850.387         0.5855       -37.7593       1.234409              1
      9432.5000         0.7145       1866.088         0.5823       -37.3058       1.687908              1
      9433.0000         0.7114       1881.789         0.5792       -36.8517        2.14201              1
      9433.5000         0.7082       1908.664          0.576       -36.3983       2.595409              1
      9434.0000          0.705       1938.779         0.5728       -35.9441        3.04961              1
      9434.5000         0.7018       1968.895         0.5697       -35.4906       3.503109              1
      9435.0000         0.6986        1985.09         0.5665       -35.0365       3.957211              1
      9435.5000         0.6954       2048.746         0.5633       -34.7177       4.276009              1
      9436.0000         0.6891        2069.02         0.5602       -34.6687       4.325008              1
      9436.5000         0.6828       2088.875          0.557       -34.6199        4.37381              1
      9437.0000         0.6764       2107.242         0.5538       -34.5709        4.42281              1
      9437.5000           0.67       2125.145         0.5507        -34.522        4.47171              1
      9438.0000         0.6637        2143.02         0.5475        -34.514        4.47971              1
      9438.5000         0.6573       2160.922         0.5444       -34.6344        4.35931              1
      9439.0000          0.651       2178.797         0.5412       -34.7546       4.239109              1
      9439.5000         0.6521       2202.582          0.538       -34.8749       4.118809              1
      9440.0000         0.6541       2242.094         0.5349       -34.9951       3.998611              1
      9440.5000         0.6562       1993.082         0.5317       -35.1155       3.878208              1
      9441.0000         0.6582       1991.414         0.5285       -35.2357       3.758011              1
      9441.5000         0.6603       1989.744         0.5254        -35.356       3.637711              1
      9442.0000         0.6696       1966.818         0.5222       -35.4762       3.517509              1
      9442.5000         0.6909       1935.467          0.519       -35.5966        3.39711              1
      9443.0000         0.7122       1904.066         0.5159       -35.7167       3.277008              1
      9443.5000         0.7335       1871.775         0.5161       -35.7844       3.209309              1
      9444.0000         0.7548       1836.021         0.5186       -35.6791        3.31461              1
      9444.5000         0.7622        2033.07         0.5211       -35.5738        3.41991              1
      9445.0000         0.7666       2067.781         0.5237       -35.4684       3.525311              1
      9445.5000         0.7417       2102.496         0.5262       -35.3632       3.630508              1
      9446.0000         0.7074       2134.047         0.5288       -35.2578       3.735909              1
      9446.5000         0.6872       2179.094         0.5313       -35.1525       3.841209              1
      9447.0000         0.6669       2210.496         0.5339       -35.0472        3.94651              1
      9447.5000         0.6524       2224.715         0.5364       -34.9418        4.05191              1
      9448.0000         0.6479       2234.617         0.5389       -34.8364        4.15731              1
      9448.5000         0.6434       2232.539         0.5415       -34.7311       4.262611              1
      9449.0000         0.6391       2223.922          0.544       -34.6257       4.368008              1
      9449.5000         0.6424       2215.305         0.5466       -34.6133       4.380409              1
      9450.0000         0.6457       2206.676         0.5491       -34.6403       4.353409              1
      9450.5000          0.649       2195.316         0.5516       -34.6673       4.326408              1
      9451.0000         0.6523       2166.586         0.5542       -34.6943       4.299408              1
      9451.5000         0.6557       2137.902         0.5567       -34.7213       4.272411              1
      9452.0000          0.659       2109.172         0.5527       -34.7483       4.245411              1
      9452.5000         0.6623       2080.492         0.5476       -34.7753        4.21841              1
      9453.0000         0.6656       2055.793         0.5425       -34.8022       4.191509              1
      9453.5000         0.6689       2044.715         0.5374       -34.8293        4.16441              1
      9454.0000         0.6722       2033.639         0.5323       -34.8563       4.137409              1
      9454.5000         0.6748       2022.563         0.5272       -34.8832       4.110508              1
