#------------------------------------------------------------------------------
# Created by    : vladimir.rabinovich
# Created on    : 09/19/2023 17:20:34
#------------------------------------------------------------------------------
~Version Information Section
VERS.           2.0     :   CWLS log ASCII Standard - VERSION 2.0
WRAP.           NO      :   One line per depth step
~Well Information Section
#MNEM       .UNIT                                         VALUE :DESCRIPTION
#------------------------------------------------------------------------------
STRT        .FT                                             500 :START DEPTH
STOP        .FT                                            9234 :STOP DEPTH
STEP        .FT                                             0.5 :STEP      
NULL        .                                           -999.25 :NULL      
COMP        .                                      SHELL OIL CO :COMPANY   
WELL        .                                OCS 00713 ST00BP00 :WELL      
FLD         .                                           WILDCAT :FIELD     
LOC         .                                                   :LOCATION  
CNTY        .                             GALVESTON LARGE BLOCK :LOCATION  
STAT        .                                             TEXAS :STATE     
CTRY        .                                     UNITED STATES :COUNTRY   
SRVC        .                                                   :SERVICE COMPANY
DATE        .                             9/13/2023 11:19:25 AM :LOG DATE  
API         .                                    42706000510000 :API NUMBER
UWI         .                                    42706000510000 :UNIQUE WELL ID
XCOORD      .                                  1104646.85179908 :SURFACE X 
YCOORD      .                                   10481381.387581 :SURFACE Y 
LAT         .                                         28.871549 :LATITUDE  
LON         .                                        -94.674396 :LONGITUDE 
ELEV        .FT                                              82 :ELEVATION VALUE
ELEV_TYPE   .                                                KB :ELEVATION REFERENCE TYPE
~Curve Information Section
#MNEM       .UNIT                                      API CODE :CURVE DESCRIPTION
#------------------------------------------------------------------------------
DEPT        .FT                                                 :DEPTH     
ASN         .OHMM                                               :          
ASN_1       .OHMM                                               :          
GR_NORM     .                                                   :GammaRay Normalized
ILD         .OHMM                                               :          
LAT         .OHMM                                               :          
LN          .OHMM                                               :          
SP          .MV                                                 :          
SP_1        .MV                                                 :          
SP_NORM     .MV                                                 :SP Normalized
VSH_SP      .V/V                                                :Volume of Shale from SP
~A        DEPTH            ASN          ASN_1        GR_NORM            ILD            LAT             LN             SP           SP_1        SP_NORM         VSH_SP
# ...
      6894.5000         1.0228        -999.25        -999.25         0.9095        -999.25        -999.25       -60.3774        -999.25     -0.8502235              1
      6895.0000         1.0154        -999.25        -999.25         0.9077        -999.25        -999.25         -60.59        -999.25      -1.067223              1
      6895.5000         1.0126        -999.25        -999.25         0.9061        -999.25        -999.25       -60.9384        -999.25      -1.420021              1
      6896.0000          1.016        -999.25        -999.25         0.9044        -999.25        -999.25       -60.7325        -999.25      -1.218521              1
      6896.5000         1.0273        -999.25        -999.25         0.9044        -999.25        -999.25       -59.7934        -999.25     -0.2838211              1
      6897.0000         1.0466        -999.25        -999.25          0.906        -999.25        -999.25       -59.1392        -999.25      0.3659821              1
      6897.5000         1.0547        -999.25        -999.25         0.9088        -999.25        -999.25       -58.9012        -999.25      0.5995827              1
      6898.0000         1.0557        -999.25        -999.25         0.9159        -999.25        -999.25        -58.864        -999.25      0.6323814              1
      6898.5000         1.0533        -999.25        -999.25         0.9229        -999.25        -999.25        -59.209        -999.25      0.2829819              1
      6899.0000         1.0456        -999.25        -999.25         0.9296        -999.25        -999.25       -59.8658        -999.25     -0.3782158              1
      6899.5000         1.0369        -999.25        -999.25         0.9362        -999.25        -999.25       -60.7631        -999.25      -1.279915              1
      6900.0000         1.0322        -999.25        -999.25         0.9411        -999.25        -999.25       -61.3316        -999.25      -1.852818              1
      6900.5000         1.0315        -999.25        -999.25         0.9459        -999.25        -999.25       -61.4921        -999.25      -2.017715      0.9995338
      6901.0000         1.0342        -999.25        -999.25         0.9448        -999.25        -999.25       -61.4359        -999.25      -1.965916              1
      6901.5000         1.0384        -999.25        -999.25         0.9417        -999.25        -999.25        -61.283        -999.25      -1.817413              1
      6902.0000         1.0385        -999.25        -999.25         0.9343        -999.25        -999.25       -60.8994        -999.25       -1.43821              1
      6902.5000         1.0319        -999.25        -999.25         0.9217        -999.25        -999.25       -60.0443        -999.25      -0.587513              1
      6903.0000         1.0191        -999.25        -999.25         0.9078        -999.25        -999.25       -60.3263        -999.25     -0.8739128              1
      6903.5000         1.0068        -999.25        -999.25         0.8877        -999.25        -999.25        -59.928        -999.25      -0.480011              1
      6904.0000         0.9946        -999.25        -999.25         0.8676        -999.25        -999.25       -59.3029        -999.25      0.1406937              1
      6904.5000         0.9793        -999.25        -999.25         0.8491        -999.25        -999.25       -58.9618        -999.25      0.4773903              1
      6905.0000          0.963        -999.25        -999.25         0.8314        -999.25        -999.25        -59.463        -999.25    -0.02820969              1
      6905.5000         0.9483        -999.25        -999.25         0.8137        -999.25        -999.25       -60.3704        -999.25     -0.9400063              1
      6906.0000          0.936        -999.25        -999.25         0.8005        -999.25        -999.25       -62.5089        -999.25      -3.082905      0.9715025
      6906.5000         0.9243        -999.25        -999.25         0.7886        -999.25        -999.25       -65.1948        -999.25      -5.773209       0.900705
      6907.0000         0.9187        -999.25        -999.25          0.785        -999.25        -999.25       -65.9857        -999.25      -6.568508      0.8797761
      6907.5000         0.9307        -999.25        -999.25         0.7946        -999.25        -999.25       -65.3058        -999.25      -5.893005      0.8975525
      6908.0000         0.9499        -999.25        -999.25         0.8097        -999.25        -999.25       -63.9718        -999.25      -4.563404       0.932542
      6908.5000          0.968        -999.25        -999.25         0.8261        -999.25        -999.25       -63.0927        -999.25      -3.688705      0.9555604
      6909.0000         0.9788        -999.25        -999.25         0.8413        -999.25        -999.25       -62.6028        -999.25      -3.203201      0.9683368
      6909.5000         0.9802        -999.25        -999.25         0.8503        -999.25        -999.25       -62.2509        -999.25      -2.855701      0.9774815
      6910.0000         0.9769        -999.25        -999.25         0.8594        -999.25        -999.25        -61.989        -999.25      -2.598198      0.9842579
      6910.5000         0.9828        -999.25        -999.25         0.8626        -999.25        -999.25        -61.322        -999.25        -1.9356              1
      6911.0000         0.9928        -999.25        -999.25         0.8642        -999.25        -999.25       -61.5439        -999.25        -2.1619      0.9957395
      6911.5000         1.0038        -999.25        -999.25         0.8659        -999.25        -999.25       -62.0399        -999.25        -2.6623      0.9825711
      6912.0000         1.0056        -999.25        -999.25          0.868        -999.25        -999.25       -62.5656        -999.25      -3.192398      0.9686211
      6912.5000         1.0027        -999.25        -999.25         0.8687        -999.25        -999.25       -63.0105        -999.25      -3.641701      0.9567974
      6913.0000         0.9969        -999.25        -999.25         0.8688        -999.25        -999.25       -62.8536        -999.25      -3.489197      0.9608106
      6913.5000         0.9899        -999.25        -999.25         0.8678        -999.25        -999.25       -62.0906        -999.25      -2.730595      0.9807738
      6914.0000         0.9829        -999.25        -999.25         0.8654        -999.25        -999.25       -61.1024        -999.25      -1.746796              1
      6914.5000          0.979        -999.25        -999.25         0.8611        -999.25        -999.25        -60.149        -999.25     -0.7977905              1
      6915.0000         0.9833        -999.25        -999.25         0.8566        -999.25        -999.25       -59.5786        -999.25     -0.2317963              1
      6915.5000         0.9833        -999.25        -999.25         0.8524        -999.25        -999.25       -59.2556        -999.25     0.08680725              1
      6916.0000         0.9794        -999.25        -999.25         0.8484        -999.25        -999.25       -59.1989        -999.25      0.1391106              1
      6916.5000         0.9694        -999.25        -999.25         0.8444        -999.25        -999.25       -59.3018        -999.25     0.03181076              1
      6917.0000         0.9569        -999.25        -999.25         0.8412        -999.25        -999.25       -59.4507        -999.25     -0.1214905              1
      6917.5000         0.9427        -999.25        -999.25         0.8383        -999.25        -999.25       -60.0615        -999.25     -0.7366905              1
      6918.0000           0.93        -999.25        -999.25         0.8311        -999.25        -999.25       -60.6573        -999.25      -1.336887              1
      6918.5000         0.9178        -999.25        -999.25         0.8192        -999.25        -999.25       -60.7793        -999.25      -1.463287              1
