#------------------------------------------------------------------------------
# Created by    : vladimir.rabinovich
# Created on    : 09/19/2023 17:20:31
#------------------------------------------------------------------------------
~Version Information Section
VERS.           2.0     :   CWLS log ASCII Standard - VERSION 2.0
WRAP.           NO      :   One line per depth step
~Well Information Section
#MNEM       .UNIT                                         VALUE :DESCRIPTION
#------------------------------------------------------------------------------
STRT        .FT                                            2377 :START DEPTH
STOP        .FT                                            9500 :STOP DEPTH
STEP        .FT                                             0.5 :STEP      
NULL        .                                           -999.25 :NULL      
COMP        .                                     SKELLY OIL CO :COMPANY   
WELL        .                                     ST TR 00146-L :WELL      
FLD         .                                           WILDCAT :FIELD     
LOC         .                                                   :LOCATION  
CNTY        .                             GALVESTON LARGE BLOCK :LOCATION  
STAT        .                                             TEXAS :STATE     
CTRY        .                                     UNITED STATES :COUNTRY   
SRVC        .                                                   :SERVICE COMPANY
DATE        .                             9/13/2023 11:19:24 AM :LOG DATE  
API         .                                    42706001330000 :API NUMBER
UWI         .                                    42706001330000 :UNIQUE WELL ID
XCOORD      .                                  1116482.89093459 :SURFACE X 
YCOORD      .                                  10631825.2810539 :SURFACE Y 
LAT         .                                         29.285733 :LATITUDE  
LON         .                                       -94.6439746 :LONGITUDE 
ELEV        .FT                                              61 :ELEVATION VALUE
ELEV_TYPE   .                                                KB :ELEVATION REFERENCE TYPE
~Curve Information Section
#MNEM       .UNIT                                      API CODE :CURVE DESCRIPTION
#------------------------------------------------------------------------------
DEPT        .FT                                                 :DEPTH     
ASN         .OHMM                                               :          
CALI        .IN                                                 :          
CILD        .MMHO                                               :          
DT          .US/F                                               :          
ILD         .OHMM                                               :          
SP          .MV                                                 :          
SP_NORM     .MV                                                 :SP Normalized
VSH_SP      .V/V                                                :Volume of Shale from SP
~A        DEPTH            ASN           CALI           CILD             DT            ILD             SP        SP_NORM         VSH_SP
# ...
      4265.0000         0.7181        10.1834       1484.871       150.5298         0.6835       -62.1766       1.607117              1
      4265.5000         0.7051        10.1856       1585.398       156.0405         0.6727       -62.3105       1.468124              1
      4266.0000         0.6925        10.1978        1657.23       149.7207         0.6638       -62.5716       1.201935              1
      4266.5000         0.6945        10.2159        1741.35       148.1809         0.6593       -62.8325      0.9359474              1
      4267.0000         0.6965        10.2457       1793.549       149.1289         0.6549       -62.9682      0.7951546              1
      4267.5000         0.6944         10.286       1824.475       150.9829         0.6505       -62.9083       0.849968              1
      4268.0000         0.6901        10.3944       1831.674       150.9543         0.6467       -62.8485      0.9046745              1
      4268.5000         0.6709        10.6537       1823.064       145.6108          0.643       -62.5836       1.164486              1
      4269.0000         0.6565        10.9243       1814.459       142.1113         0.6483       -62.0052       1.737793              1
      4269.5000         0.6577          11.11        1781.26       144.9866         0.6616       -63.2555      0.4824028              1
      4270.0000         0.6973        11.1741       1690.299       141.4185         0.6758       -65.5029      -1.770088      0.9893043
      4270.5000         0.7426        11.2733       1604.855       135.3335         0.6957       -68.7954       -5.06768      0.9435045
      4271.0000         0.7712        11.4203       1546.688       129.1111         0.7148       -72.7655      -9.042873      0.8882934
      4271.5000         0.7794         11.512       1489.342       124.7264          0.729       -76.5748      -12.85726      0.8353159
      4272.0000         0.7813        11.3373       1469.611       122.6016         0.7432       -77.7729      -14.06045      0.8186048
      4272.5000         0.7751        11.1701       1464.705       122.2018         0.7571       -78.7042      -14.99684      0.8055995
      4273.0000         0.7688        11.1255        1462.23       125.1633         0.7703       -79.2998      -15.59753      0.7972566
      4273.5000         0.7608        11.2209        1455.15       128.2844         0.7805       -79.4336      -15.73642      0.7953274
      4274.0000         0.7497        11.3551       1448.156       131.0212         0.7885       -79.4844      -15.79231      0.7945513
      4274.5000         0.7406        11.4141       1441.525       134.7666         0.7958       -79.4948       -15.8078      0.7943361
      4275.0000         0.7349        11.2289       1435.713       136.2947         0.8028        -78.788      -15.10609       0.804082
      4275.5000          0.738        10.9879       1429.912       133.9976         0.8097       -77.5292      -13.85238      0.8214947
      4276.0000         0.7413        10.8072       1418.023       134.3347         0.8166       -74.0079      -10.33617       0.870331
      4276.5000         0.7473          10.69       1364.113       141.0515         0.8235       -72.6305      -8.963867      0.8893907
      4277.0000         0.7744        10.4902       1327.984       143.3855         0.8308       -70.8492      -7.187653      0.9140604
      4277.5000         0.8033        10.3492       1297.428       142.5383          0.838       -69.0242      -5.367744      0.9393369
      4278.0000         0.8287        10.3822       1246.676       139.0088         0.8491       -68.0474      -4.396038      0.9528328
      4278.5000         0.8529        10.5969       1168.402       132.5618         0.8611       -67.4186      -3.772327      0.9614955
      4279.0000         0.8645        10.8707        1128.59       126.8239         0.8606       -67.1648      -3.523621      0.9649497
      4279.5000         0.8739        11.0316       1110.482       125.3413         0.8578       -67.0045      -3.368408      0.9671054
      4280.0000         0.8816        11.1342       1092.225       123.9218         0.8541       -67.3188      -3.687801      0.9626694
      4280.5000         0.8876        11.2423       1073.418       123.6052         0.8342        -67.653      -4.027088      0.9579571
      4281.0000         0.8891        11.3891       1137.881       123.0884         0.8143       -68.3492      -4.728378       0.948217
      4281.5000         0.8904        11.5219        1222.15       116.6613         0.7945       -69.3018      -5.686073      0.9349157
      4282.0000         0.8957        11.4517       1300.998       108.8807         0.7889       -70.5742      -6.963566      0.9171727
      4282.5000          0.901        11.1999       1328.223       105.9082         0.7856       -72.0592      -8.453648      0.8964771
      4283.0000         0.9523        11.0034       1332.369       105.6885         0.7957        -74.438      -10.83755      0.8633674
      4283.5000         1.0019        10.9648       1303.596       109.1505         0.8206       -80.8405      -17.24513      0.7743732
      4284.0000         1.0609        11.0705       1272.127       110.8733         0.8367       -92.6779      -29.08762      0.6098941
      4284.5000         1.1362        11.3099       1241.131       105.9443         0.8355       -98.4397      -34.85451      0.5297984
      4285.0000         1.2792        11.4932       1219.828        98.3187         0.7958       -99.9066       -36.3265      0.5093541
      4285.5000          1.331        11.2367       1256.242        87.0974         0.7404      -102.1316      -38.55659      0.4783806
      4286.0000         1.1306        10.7946       1397.781        80.9175         0.6641      -105.5853      -42.01538      0.4303419
      4286.5000         0.9023         10.547       1755.035        79.1908          0.567      -108.9854      -45.42057      0.3830476
      4287.0000         0.8695         10.419       1949.197        83.3669         0.4598      -113.5553      -49.99556       0.319506
      4287.5000         0.8577        10.6712       1988.186        91.9865          0.385      -119.1002      -55.54556      0.2424228
      4288.0000         0.8398         10.888       2292.047       105.3351         0.3207      -123.6277      -60.07815      0.1794702
      4288.5000         0.8006        10.8772       3110.258       124.0348          0.287      -126.4778      -62.93334      0.1398147
      4289.0000         0.7702        11.4149       3833.758       128.2195         0.2671      -128.4253      -64.88593      0.1126955
      4289.5000         0.7432        11.8424        4023.25       131.8826         0.2488       -130.374      -66.83971     0.08555964
      4290.0000         0.7181        11.8244       4368.773       133.0056         0.2311      -131.7283      -68.19911       0.066679
      4290.5000         0.6797        11.4239       4943.914       131.6528         0.2319      -132.6089       -69.0848     0.05437777
      4291.0000         0.6522        11.2318       4964.172       130.0037         0.2344      -132.7805      -69.26149     0.05192375
      4291.5000         0.6231        10.7301       4957.367       129.1846         0.2369      -132.8665      -69.35258     0.05065854
      4292.0000         0.6028        10.3026       4921.539       127.0186         0.2417      -132.6599      -69.15107     0.05345736
      4292.5000         0.5893        10.0534       4864.094       124.9211         0.2474      -132.4534      -68.94966      0.0562547
      4293.0000         0.5765        10.0176       4825.133       123.1259         0.2531      -132.2466      -68.74796     0.05905618
      4293.5000         0.5632         9.9955       4777.453       121.4354         0.2568      -132.0864      -68.59283     0.06121063
      4294.0000         0.5518         9.9819       4759.438       124.4792         0.2604      -132.0801      -68.59163     0.06122737
