#------------------------------------------------------------------------------
# Created by    : vladimir.rabinovich
# Created on    : 09/19/2023 17:21:54
#------------------------------------------------------------------------------
~Version Information Section
VERS.           2.0     :   CWLS log ASCII Standard - VERSION 2.0
WRAP.           NO      :   One line per depth step
~Well Information Section
#MNEM       .UNIT                                         VALUE :DESCRIPTION
#------------------------------------------------------------------------------
STRT        .FT                                             404 :START DEPTH
STOP        .FT                                            9564 :STOP DEPTH
STEP        .FT                                             0.5 :STEP      
NULL        .                                           -999.25 :NULL      
COMP        .                               AMOCO PRODUCTION CO :COMPANY   
WELL        .                               OCS G03108 ST00BP01 :WELL      
FLD         .                                           WILDCAT :FIELD     
LOC         .                                                   :LOCATION  
CNTY        .                      MATAGORDA ISLAND LARGE BLOCK :LOCATION  
STAT        .                                             TEXAS :STATE     
CTRY        .                                     UNITED STATES :COUNTRY   
SRVC        .                                                   :SERVICE COMPANY
DATE        .                             9/13/2023 11:12:09 AM :LOG DATE  
API         .                                    42703400030000 :API NUMBER
UWI         .                                    42703400030000 :UNIQUE WELL ID
XCOORD      .                                  482242.907024332 :SURFACE X 
YCOORD      .                                  10146341.7942038 :SURFACE Y 
LAT         .                                         27.913374 :LATITUDE  
LON         .                                         -96.58609 :LONGITUDE 
ELEV        .FT                                              95 :ELEVATION VALUE
ELEV_TYPE   .                                                KB :ELEVATION REFERENCE TYPE
~Curve Information Section
#MNEM       .UNIT                                      API CODE :CURVE DESCRIPTION
#------------------------------------------------------------------------------
DEPT        .FT                                                 :DEPTH     
CALI        .IN                                                 :          
CILD        .MMHO                                               :          
GR          .GAPI                                               :          
GR_NORM     .GAPI                                               :GammaRay Normalized
ILD         .OHMM                                               :          
RHOB        .G/C3                                               :          
SFL         .OHMM                                               :          
SP          .MV                                                 :          
SP_NORM     .MV                                                 :SP Normalized
VSH_GR      .V/V                                                :Volume of Shale from GR
VSH_SP      .V/V                                                :Volume of Shale from SP
~A        DEPTH           CALI           CILD             GR        GR_NORM            ILD           RHOB            SFL             SP        SP_NORM         VSH_GR         VSH_SP
       404.0000        -999.25        -999.25        13.7212       84.45206        -999.25        -999.25        -999.25        -999.25       0.465789              1              1
       404.5000        -999.25        -999.25        14.5712       82.64336        -999.25        -999.25        -999.25        -999.25       1.557393              1              1
       405.0000        -999.25        -999.25        14.9094       81.15566        -999.25        -999.25        -999.25        -999.25       2.093396              1              1
       405.5000        -999.25        -999.25        15.2642       78.03753        -999.25        -999.25        -999.25        -999.25      0.9399371      0.9582453              1
       406.0000        -999.25        -999.25        15.9426       81.57288        -999.25        -999.25        -999.25        -999.25       1.325793              1              1
       406.5000        -999.25        -999.25          16.95       81.79905        -999.25        -999.25        -999.25        -999.25       2.004035              1              1
       407.0000        -999.25        -999.25        17.9526       85.46742        -999.25        -999.25        -999.25        -999.25      0.5508373              1              1
       407.5000        -999.25        -999.25        18.8735       78.56532        -999.25        -999.25        -999.25        -999.25     -0.2427174       0.969475              1
       408.0000        -999.25        -999.25        19.8046       79.04864        -999.25        -999.25        -999.25        -999.25     0.03230624      0.9797583              1
       408.5000        -999.25        -999.25        20.3027         80.289        -999.25        -999.25        -999.25        -999.25     0.01634842              1              1
       409.0000        -999.25        -999.25        20.1887       77.94677        -999.25        -999.25        -999.25        -999.25     -0.7832659      0.9563143              1
       409.5000        -999.25        -999.25        20.1598       78.83978        -999.25        -999.25        -999.25        -999.25       2.962277      0.9753145              1
       410.0000        -999.25        -999.25         20.383       84.57084        -999.25        -999.25        -999.25        -999.25       3.652336              1              1
       410.5000        -999.25        -999.25        20.7923       80.63482        -999.25        -999.25        -999.25        -999.25       3.125918              1              1
       411.0000        -999.25        -999.25        21.3058       78.98199        -999.25        -999.25        -999.25        -999.25       3.215786      0.9783401              1
       411.5000        -999.25        -999.25        21.7614       79.79897        -999.25        -999.25        -999.25        -999.25      -1.073629      0.9957227              1
       412.0000        -999.25        -999.25        22.1603       77.77246        -999.25        -999.25        -999.25        -999.25      0.0316782      0.9526055              1
       412.5000        -999.25        -999.25        22.4759       82.39642        -999.25        -999.25        -999.25        -999.25       1.366503              1              1
       413.0000        -999.25        -999.25        22.8924       84.63567        -999.25        -999.25        -999.25        -999.25       3.168948              1              1
       413.5000        -999.25        -999.25         23.313       80.58868        -999.25        -999.25        -999.25        -999.25       2.273337              1              1
       414.0000        -999.25        -999.25        23.8873       81.04736        -999.25        -999.25        -999.25        -999.25     -0.5699434              1              1
       414.5000        -999.25        -999.25        24.8214       83.68108        -999.25        -999.25        -999.25        -999.25       1.031993              1              1
       415.0000        -999.25        -999.25        25.2586       83.94456        -999.25        -999.25        -999.25        -999.25      0.7826858              1              1
       415.5000        -999.25        -999.25        24.7137       81.31699        -999.25        -999.25        -999.25        -999.25       3.629074              1              1
       416.0000        -999.25       1396.461        25.4622       79.06842         0.6713        -999.25         0.2069        30.9206       0.723264      0.9801791              1
       416.5000        -999.25       870.1553        26.7827       82.45533         1.1123        -999.25         0.2443        27.4093       1.073762              1              1
       417.0000        -999.25       820.0791        27.0552        81.5077         1.0978        -999.25         0.2568        20.7329       1.254812              1              1
       417.5000        -999.25       1402.203        26.7457       83.35028         0.7275        -999.25         0.2683        16.3965       2.220086              1              1
       418.0000        -999.25       1437.309        25.7262       82.50249            0.7        -999.25         0.2778        12.9142       1.597843              1              1
       418.5000        -999.25        1300.65        25.4166       80.00845         0.7853        -999.25         0.2816         8.5454       2.479149              1              1
       419.0000        -999.25       1164.645        30.8922       82.72823         0.8553        -999.25         0.3062         5.3219       2.653384              1              1
       419.5000        -999.25       1262.701        34.4014       85.08268         0.7681        -999.25         0.3342          3.007     -0.9107699              1              1
       420.0000        -999.25        1324.85        37.0698       83.32951         0.7244        -999.25         0.3068         1.0301      0.3320228              1              1
       420.5000        -999.25       1367.268        39.3753       81.21314         0.7062        -999.25         0.2525        -0.6579     -0.7116072              1              1
       421.0000        -999.25       1414.076        42.5253       80.83457           0.69        -999.25         0.2312        -2.2687        3.14706              1              1
       421.5000        -999.25       1482.002        48.2418        83.9817         0.6631        -999.25         0.2176        -4.3251     -0.8941753              1              1
       422.0000        -999.25       1530.533         51.074       84.21972          0.647        -999.25         0.1949        -5.9185       2.996153              1              1
       422.5000        -999.25        1545.35        52.6254       81.89413          0.646        -999.25         0.1799        -7.4878      0.2650688              1              1
       423.0000        -999.25       1533.246        54.3578       84.92362         0.6592        -999.25         0.1814        -8.7257     -0.6340165              1              1
       423.5000        -999.25        1508.51        58.2493       79.93145         0.6692        -999.25         0.1731       -10.0375       2.177887      0.9985415              1
       424.0000        -999.25       1493.674        62.6853       82.68793         0.6671        -999.25        -999.25       -11.1658      0.2775973              1              1
       424.5000        -999.25       1502.809        68.6361       82.85881         0.6597        -999.25        -999.25        -12.375       2.496484              1              1
       425.0000        -999.25       1517.684        72.5796       83.12073         0.6555        -999.25         0.1655       -13.5223       1.160138              1              1
       425.5000        -999.25       1525.828        77.9731        81.3313         0.6518        -999.25         0.1734        -14.546     -0.1051207              1              1
       426.0000        -999.25        1526.34        71.8964       80.42764         0.6487        -999.25         0.1738        -15.419      0.4653115              1              1
