#------------------------------------------------------------------------------
# Created by    : vladimir.rabinovich
# Created on    : 09/19/2023 17:22:39
#------------------------------------------------------------------------------
~Version Information Section
VERS.           2.0     :   CWLS log ASCII Standard - VERSION 2.0
WRAP.           NO      :   One line per depth step
~Well Information Section
#MNEM       .UNIT                                         VALUE :DESCRIPTION
#------------------------------------------------------------------------------
STRT        .FT                                            3496 :START DEPTH
STOP        .FT                                          7091.5 :STOP DEPTH
STEP        .FT                                             0.5 :STEP      
NULL        .                                           -999.25 :NULL      
COMP        .                          SEAGULL ENERGY E & P INC :COMPANY   
WELL        .                               OCS G07251 ST00BP00 :WELL      
FLD         .                              GALVESTON BLOCK 0349 :FIELD     
LOC         .                                                   :LOCATION  
CNTY        .                             GALVESTON LARGE BLOCK :LOCATION  
STAT        .                                             TEXAS :STATE     
CTRY        .                                     UNITED STATES :COUNTRY   
SRVC        .                                                   :SERVICE COMPANY
DATE        .                             9/13/2023 11:19:36 AM :LOG DATE  
API         .                                    42706402300000 :API NUMBER
UWI         .                                    42706402300000 :UNIQUE WELL ID
XCOORD      .                                  1015542.86720011 :SURFACE X 
YCOORD      .                                  10434819.2372955 :SURFACE Y 
LAT         .                                         28.739771 :LATITUDE  
LON         .                                        -94.950355 :LONGITUDE 
ELEV        .FT                                              93 :ELEVATION VALUE
ELEV_TYPE   .                                                KB :ELEVATION REFERENCE TYPE
~Curve Information Section
#MNEM       .UNIT                                      API CODE :CURVE DESCRIPTION
#------------------------------------------------------------------------------
DEPT        .FT                                                 :DEPTH     
DCAL        .IN                                                 :          
DPHI        .%                                                  :          
DRHO        .G/C3                                               :          
GR          .GAPI                                               :          
GR_NORM     .GAPI                                               :GammaRay Normalized
ILD         .OHMM                                               :          
ILM         .OHMM                                               :          
NPHI        .%                                                  :          
SGRD        .OHMM                                               :          
SP          .MV                                                 :          
SP_NORM     .MV                                                 :SP Normalized
VSH_GR      .V/V                                                :Volume of Shale from GR
VSH_SP      .V/V                                                :Volume of Shale from SP
~A        DEPTH           DCAL           DPHI           DRHO             GR        GR_NORM            ILD            ILM           NPHI           SGRD             SP        SP_NORM         VSH_GR         VSH_SP
# ...
      4218.0000         0.0182        31.2543         0.0225        84.2261       87.50237         0.6506         0.6779        51.1069          0.762       -42.9749      -1.867268              1      0.9712728
      4218.5000         0.0195        31.1537         0.0233        84.5864       87.98839         0.6682         0.6949        50.2281         0.7791        -43.367      -2.265339              1      0.9651486
      4219.0000         0.0217        30.6771         0.0238         83.665       86.75211         0.6873          0.715        48.5087          0.805       -43.8386      -2.742908              1      0.9578014
      4219.5000         0.0274        29.9841         0.0239        78.3488       79.61032         0.7045         0.7306        46.7975          0.842       -44.2485      -3.158783      0.9917089      0.9514033
      4220.0000         0.0288        29.2886         0.0233        76.9784        77.7707         0.7157          0.743        45.4825         0.8912       -44.3131      -3.229351      0.9525681      0.9503177
      4220.5000         0.0219        28.6193         0.0223        75.2793       75.48939         0.7206         0.7467        45.8184         0.9221        -44.154      -3.076225      0.9040295      0.9526734
      4221.0000         0.0148        28.3296         0.0206        73.0653       72.51618         0.7203         0.7413        46.2228          0.911       -43.6666      -2.594795      0.8407698      0.9600801
      4221.5000         0.0072        28.4836         0.0185        73.7451       73.43152         0.7169         0.7279         46.746         0.8456       -43.0674      -2.001568       0.860245      0.9692066
      4222.0000         0.0037        28.8323         0.0177        74.7153       74.73709         0.7106         0.7108        47.2256         0.8071       -42.5993       -1.53944      0.8880232      0.9763163
      4222.5000         0.0043        29.5458         0.0181        77.6886       78.73431         0.6946         0.6955        47.6936         0.7883       -42.6322      -1.578308      0.9730705      0.9757183
      4223.0000         0.0049        30.0338          0.019        81.6107       84.00649         0.6712         0.6911        48.0245         0.7859        -42.861      -1.813084              1      0.9721064
      4223.5000         0.0055        30.0568         0.0208        82.3623        85.0183         0.6554         0.6886        48.2713         0.7894       -42.9408      -1.898853              1      0.9707869
      4224.0000         0.0067        29.9868         0.0224        82.3015       84.93845         0.6528         0.6871        48.5361         0.7925       -42.8516      -1.815628              1      0.9720672
      4224.5000         0.0118        29.8968         0.0245        81.4132       83.74665         0.6659         0.6937         49.285         0.7943       -42.7099      -1.679897              1      0.9741554
      4225.0000         0.0172        29.7369         0.0255        78.3387       79.61715         0.6871         0.7126        49.6752         0.7941       -42.4483      -1.424267      0.9918543      0.9780882
      4225.5000         0.0237        29.5095         0.0252        74.3716       74.28822         0.7113         0.7353        49.2012         0.7952       -43.0931      -2.075043      0.8784727      0.9680763
      4226.0000         0.0275        28.9864         0.0255        72.9169       72.33531         0.7371         0.7564        48.4065          0.807       -43.7578      -2.745712      0.8369215      0.9577582
      4226.5000         0.0283        27.5668         0.0242        72.1528       71.31042         0.7549          0.774        46.7178         0.8682       -44.2682      -3.262085      0.8151153      0.9498141
      4227.0000         0.0292        26.3925          0.022        71.8547       70.91171         0.7698         0.7839        45.2095         0.9145       -44.3647      -3.364555       0.806632      0.9482376
      4227.5000         0.0299        25.5384         0.0219        72.1854       71.35794         0.7759         0.7914        44.2638         0.9331       -44.5222      -3.528027      0.8161264      0.9457226
      4228.0000         0.0332        24.9636         0.0231        73.2063       72.73162         0.7809          0.795        43.6362         0.9341       -44.6321      -3.643898      0.8453537        0.94394
      4228.5000         0.0422        25.0539         0.0247        74.0195       73.82622         0.7839         0.7949        43.9697         0.9228       -44.5422      -3.559967      0.8686429      0.9452313
      4229.0000         0.0512        25.5305         0.0256         74.194       74.06256         0.7795         0.7905        44.5725         0.8969       -44.1607      -3.184444      0.8736715      0.9510086
      4229.5000         0.0573        26.3025         0.0248        73.9506       73.73734         0.7699         0.7846        45.0655         0.8704       -43.7343      -2.764011       0.866752      0.9574767
      4230.0000          0.062        27.1761         0.0234        74.1967        74.0699         0.7608         0.7805        45.3085         0.8475       -43.4526      -2.488285      0.8738277      0.9617187
      4230.5000         0.0599        27.5074         0.0224        75.6769       76.06078         0.7526          0.776        45.4587         0.8429       -43.4865      -2.528156      0.9161867      0.9611053
      4231.0000         0.0526        27.5688          0.022         77.826       78.95047         0.7454         0.7701        45.4701         0.8512       -43.5908      -2.638428      0.9776696      0.9594088
      4231.5000         0.0482        27.4929         0.0218        79.6453       81.39701          0.741         0.7642        45.3611           0.86       -43.8044      -2.858002              1      0.9560307
      4232.0000         0.0451        27.3899         0.0231        81.3794       83.72906         0.7381          0.763        45.2905         0.8651       -43.9714      -3.030972              1      0.9533697
      4232.5000          0.046        27.2661         0.0247        82.8148       85.65973         0.7348         0.7625         45.241          0.869       -44.1462      -3.211742              1      0.9505886
      4233.0000         0.0471        27.1239         0.0262        81.4519       83.83018         0.7318         0.7615        45.1125         0.8678       -44.2842      -3.355713              1      0.9483737
      4233.5000         0.0396        27.0138         0.0282        80.5237       82.58478         0.7291         0.7581        45.0543         0.8624       -44.2998      -3.377285              1      0.9480418
      4234.0000          0.032        26.8331         0.0298         79.634        81.3911         0.7266         0.7553        44.9261         0.8453       -44.4208      -3.504257              1      0.9460884
      4234.5000         0.0244        26.6788          0.032        75.6781       76.07721         0.7248         0.7551        44.7507         0.8306       -44.6028      -3.692226      0.9165364      0.9431965
      4235.0000         0.0209        26.5456         0.0333        72.1548       71.34464         0.7238         0.7562        44.6802         0.8324       -44.9639      -4.059303      0.8158433      0.9375492
      4235.5000         0.0225        26.5128         0.0322        71.0195       69.82093         0.7235         0.7575        44.7481         0.8434       -45.4135      -4.514874      0.7834241      0.9305404
      4236.0000         0.0251        26.5074         0.0295         68.899       66.97337         0.7233         0.7593        45.0649         0.8591       -45.6502      -4.757545      0.7228377       0.926807
      4236.5000         0.0279        26.3033         0.0259        71.6447       70.66476         0.7228         0.7614        45.4758         0.8779       -45.8876      -5.000916      0.8013778      0.9230629
