#------------------------------------------------------------------------------
# Created by    : vladimir.rabinovich
# Created on    : 09/19/2023 17:21:52
#------------------------------------------------------------------------------
~Version Information Section
VERS.           2.0     :   CWLS log ASCII Standard - VERSION 2.0
WRAP.           NO      :   One line per depth step
~Well Information Section
#MNEM       .UNIT                                         VALUE :DESCRIPTION
#------------------------------------------------------------------------------
STRT        .FT                                            2690 :START DEPTH
STOP        .FT                                            8272 :STOP DEPTH
STEP        .FT                                             0.5 :STEP      
NULL        .                                           -999.25 :NULL      
COMP        .                        PG&E RESOURCES OFFSHORE CO :COMPANY   
WELL        .                               OCS G09053 ST00BP00 :WELL      
FLD         .                              GALVESTON BLOCK 0427 :FIELD     
LOC         .                                                   :LOCATION  
CNTY        .                             GALVESTON LARGE BLOCK :LOCATION  
STAT        .                                             TEXAS :STATE     
CTRY        .                                     UNITED STATES :COUNTRY   
SRVC        .                                                   :SERVICE COMPANY
DATE        .                             9/13/2023 11:11:09 AM :LOG DATE  
API         .                                    42706402380000 :API NUMBER
UWI         .                                    42706402380000 :UNIQUE WELL ID
XCOORD      .                                  948581.259723803 :SURFACE X 
YCOORD      .                                  10360666.4777899 :SURFACE Y 
LAT         .                                         28.532718 :LATITUDE  
LON         .                                        -95.155068 :LONGITUDE 
ELEV        .FT                                             119 :ELEVATION VALUE
ELEV_TYPE   .                                                KB :ELEVATION REFERENCE TYPE
~Curve Information Section
#MNEM       .UNIT                                      API CODE :CURVE DESCRIPTION
#------------------------------------------------------------------------------
DEPT        .FT                                                 :DEPTH     
CALI        .IN                                                 :          
DRHO        .G/C3                                               :          
DT          .US/F                                               :          
GR          .GAPI                                               :          
GR_1        .GAPI                                               :          
GR_NORM     .GAPI                                               :GammaRay Normalized
ILD         .OHMM                                               :          
ILM         .OHMM                                               :          
NPHI        .%                                                  :          
RFOC        .OHMM                                               :          
RHOB        .G/C3                                               :          
SP          .MV                                                 :          
SP_NORM     .MV                                                 :SP Normalized
VSH_GR      .V/V                                                :Volume of Shale from GR
VSH_SP      .V/V                                                :Volume of Shale from SP
~A        DEPTH           CALI           DRHO             DT             GR           GR_1        GR_NORM            ILD            ILM           NPHI           RFOC           RHOB             SP        SP_NORM         VSH_GR         VSH_SP
# ...
      7144.0000        15.0308         0.0686       106.0321        94.6945        94.5769       82.02718         0.9233         0.9477        35.9898         1.1706         2.3742       -47.2991      -1.131474              1      0.9966289
      7144.5000        14.9544         0.0768       104.9836        94.2911        93.1581       80.42606          0.927         0.9452         36.744         1.1777         2.3689        -46.863     -0.7003632              1              1
      7145.0000        14.7025         0.0781       104.4135        92.3175        93.6874       81.02966         0.9307         0.9412        37.9036         1.1894         2.3616       -46.4404      -0.282753              1              1
      7145.5000        14.5571         0.0678        104.765        90.7789         94.006       81.39479          0.932          0.937        37.8181         1.1872         2.3521       -46.3331     -0.1804428              1              1
      7146.0000        14.5433         0.0606       106.0295        92.0944        92.2686       79.43309         0.9309         0.9323        37.1804          1.176         2.3432       -46.4623     -0.3146362      0.9879381              1
      7146.5000        14.5801         0.0593       109.1111        95.2253        91.2883       78.32822         0.9282         0.9293        36.8311         1.1562         2.3409       -46.6509     -0.5082283      0.9644303              1
      7147.0000        14.6448         0.0619       112.0752        96.4236        90.8301       77.81423         0.9275         0.9294        36.8356         1.1315         2.3487       -46.8945     -0.7568169      0.9534943              1
      7147.5000        14.6872         0.0641       113.0332        96.1239        90.6152       77.57559         0.9343         0.9319         36.933         1.1247         2.3553       -47.3368      -1.204105      0.9484168      0.9947665
      7148.0000        14.6238          0.064       112.7838        94.6025        90.6127       77.57733         0.9434         0.9364        36.9365         1.1444         2.3579        -47.335      -1.207298      0.9484538      0.9946846
      7148.5000        14.5812         0.0621       110.2008         92.717        91.4109       78.48525          0.938         0.9399        36.5381         1.1589         2.3559       -46.6926     -0.5698891      0.9677714              1
      7149.0000        14.6239         0.0615       108.6975        90.9861        96.5054       84.25544         0.9237          0.942         35.802         1.1578         2.3546       -46.1909    -0.07317734              1              1
      7149.5000        14.6988          0.065         108.53        89.8289        97.2874       85.14502         0.9143          0.942        35.1057         1.1445         2.3623       -46.3279     -0.2151718              1              1
      7150.0000        14.7968         0.0717       108.9955        89.9417        96.3755       84.11757         0.9127         0.9398        34.6891         1.1276          2.369       -46.5638     -0.4560623              1              1
      7150.5000        14.8848         0.0772         109.34        91.2798        89.0952       75.88278         0.9131         0.9388        34.8803         1.1268         2.3745        -46.776     -0.6732521      0.9123996              1
      7151.0000        14.9287         0.0827       108.6188        90.4908        86.0885       72.48456         0.9182         0.9448        35.3964         1.1407         2.3815       -46.7529     -0.6551399       0.840097              1
      7151.5000        14.9556         0.0876       106.4519        89.5273          88.86       75.62572         0.9272         0.9525        35.9319         1.1565         2.3856       -46.6796      -0.586834      0.9069303              1
      7152.0000        14.9501         0.0877        105.186        90.7556        94.4323       81.93665         0.9346         0.9594        36.0881         1.1654         2.3844       -46.5993     -0.5115242              1              1
      7152.5000        14.8123         0.0851       104.7646        92.1299        94.8146       82.37389         0.9401         0.9666         36.042         1.1582         2.3813       -46.6057     -0.5229149              1              1
      7153.0000        14.6551         0.0805        104.858        92.0919        94.3414       81.84293         0.9448         0.9703         36.163         1.1388         2.3758       -46.9194     -0.8416023              1              1
      7153.5000        14.5896         0.0748       106.1245        90.6134        94.9493       82.53548         0.9483         0.9716        36.4668         1.1374         2.3707       -47.4422      -1.369396              1      0.9905283
      7154.0000        14.5544         0.0708       107.5404        89.6465        96.4147       84.19849         0.9533         0.9732        36.7342         1.1557         2.3681       -48.1428      -2.074986              1      0.9724362
      7154.5000        14.5254         0.0747       107.9281         89.786        98.7181        86.8099         0.9596         0.9744        36.6639         1.1704          2.366       -48.7637      -2.700874              1      0.9563878
      7155.0000        14.4866         0.0827       107.9563         90.463        98.8872       87.00584         0.9646          0.975        36.2625         1.1721         2.3638       -49.0491      -2.991268              1      0.9489418
      7155.5000        14.4297         0.0852       108.0703        90.5402        95.7506       83.46061         0.9674         0.9763        35.5819         1.1584         2.3608       -49.2342      -3.181358              1      0.9440677
      7156.0000        14.3634         0.0766       108.1356        89.7087        89.5754        76.4765         0.9704         0.9778        35.0837         1.1325         2.3572       -49.4729      -3.425049       0.925032      0.9378192
      7156.5000        14.2977         0.0649       108.1158        89.4022        89.0278       75.86134         0.9681         0.9783        34.9858         1.1381         2.3528       -49.8915      -3.848637      0.9119433       0.926958
      7157.0000        14.2107         0.0591       107.9994        89.8215        89.6649       76.58694          0.963         0.9774        34.9775          1.153         2.3486       -49.8462      -3.808331      0.9273816      0.9279915
      7157.5000         14.128         0.0561       107.9075        90.1549        90.6084       77.65929         0.9583         0.9763        34.9838         1.1699         2.3451       -48.8845       -2.85162      0.9501976      0.9525226
      7158.0000        14.0711         0.0553       108.0568        90.0535        91.5077       78.68163         0.9549         0.9741         35.132         1.1727         2.3419       -47.9629      -1.935009      0.9719495      0.9760254
      7158.5000        14.0265         0.0551       108.7194        89.8533        92.7329       80.07281         0.9495         0.9725         35.666         1.1647         2.3389       -48.0031      -1.980202              1      0.9748666
      7159.0000        13.9641         0.0556       109.0707        89.7797        94.5254         82.106         0.9445         0.9709        36.4796         1.1628         2.3366       -48.6405      -2.622593              1      0.9583951
      7159.5000        13.8767         0.0563       108.9829        89.5714        96.8877       84.78407         0.9415         0.9681        37.3577         1.1609         2.3359       -49.4576      -3.444683              1      0.9373158
      7160.0000         13.793         0.0585       109.1149        89.3462        97.1866       85.12691         0.9386         0.9621        37.9785         1.1591         2.3361       -49.5483      -3.540375              1      0.9348622
      7160.5000        13.7468           0.06       109.6272        89.1675        95.3488       83.05159         0.9327         0.9544        38.1969         1.1554         2.3373       -49.1315      -3.128567              1      0.9454213
