#------------------------------------------------------------------------------
# Created by    : vladimir.rabinovich
# Created on    : 09/19/2023 17:22:52
#------------------------------------------------------------------------------
~Version Information Section
VERS.           2.0     :   CWLS log ASCII Standard - VERSION 2.0
WRAP.           NO      :   One line per depth step
~Well Information Section
#MNEM       .UNIT                                         VALUE :DESCRIPTION
#------------------------------------------------------------------------------
STRT        .FT                                            1126 :START DEPTH
STOP        .FT                                            9906 :STOP DEPTH
STEP        .FT                                             0.5 :STEP      
NULL        .                                           -999.25 :NULL      
COMP        .                                        EXXON CORP :COMPANY   
WELL        .                               OCS G06053 ST00BP00 :WELL      
FLD         .                                           WILDCAT :FIELD     
LOC         .                                                   :LOCATION  
CNTY        .                      MATAGORDA ISLAND LARGE BLOCK :LOCATION  
STAT        .                                             TEXAS :STATE     
CTRY        .                                     UNITED STATES :COUNTRY   
SRVC        .                                                   :SERVICE COMPANY
DATE        .                             9/13/2023 11:12:11 AM :LOG DATE  
API         .                                    42703402640000 :API NUMBER
UWI         .                                    42703402640000 :UNIQUE WELL ID
XCOORD      .                                  440255.018680432 :SURFACE X 
YCOORD      .                                  10152284.9344853 :SURFACE Y 
LAT         .                                         27.926249 :LATITUDE  
LON         .                                        -96.716438 :LONGITUDE 
ELEV        .FT                                              94 :ELEVATION VALUE
ELEV_TYPE   .                                                KB :ELEVATION REFERENCE TYPE
~Curve Information Section
#MNEM       .UNIT                                      API CODE :CURVE DESCRIPTION
#------------------------------------------------------------------------------
DEPT        .FT                                                 :DEPTH     
GR          .GAPI                                               :          
GR_NORM     .GAPI                                               :GammaRay Normalized
ILD         .OHMM                                               :          
SP          .MV                                                 :          
SP_NORM     .MV                                                 :SP Normalized
VSH_GR      .V/V                                                :Volume of Shale from GR
VSH_SP      .V/V                                                :Volume of Shale from SP
~A        DEPTH             GR        GR_NORM            ILD             SP        SP_NORM         VSH_GR         VSH_SP
# ...
      2868.0000        58.7831       84.29153         1.1107       -65.4406      -6.702801              1        0.85743
      2868.5000        58.2518       83.51728         1.1427       -66.2449      -7.510124              1      0.8372469
      2869.0000        56.6686       81.21823         1.1394       -67.1885      -8.456741              1      0.8135815
      2869.5000        54.8719       78.60971         1.1136       -67.8447      -9.115963      0.9704193      0.7971009
      2870.0000        53.0948       76.02958         1.0838       -67.5985       -8.87278      0.9155229      0.8031805
      2870.5000        52.0405       74.49722         1.0661       -66.7589      -8.036198      0.8829196      0.8240951
      2871.0000          51.97       74.39089         1.0558       -65.2872      -6.567513      0.8806573      0.8608122
      2871.5000        52.4811       75.12762         1.0143       -63.9786      -5.261929      0.8963324      0.8934518
      2872.0000        53.1027       76.02457         0.9602       -63.0497      -4.336052      0.9154163      0.9165987
      2872.5000        54.0763       77.43172         0.9225       -63.0388      -4.328167      0.9453558      0.9167958
      2873.0000        55.3593       79.28737         0.8985       -63.0212      -4.313583      0.9848377      0.9171604
      2873.5000        54.8315       78.51819         0.8841       -62.9865      -4.281902      0.9684721      0.9179524
      2874.0000        53.0153       75.88138         0.8674       -62.7247      -4.023121      0.9123697       0.924422
      2874.5000        51.7433       74.03344         0.8494       -62.3292      -3.630638      0.8730519       0.934234
      2875.0000        52.5921        75.2597         0.8301       -61.9115      -3.215958      0.8991426      0.9446011
      2875.5000         54.933       78.64884         0.8106       -61.4784      -2.785877       0.971252      0.9553531
      2876.0000         58.069       83.19048         0.7932       -61.2778      -2.588295              1      0.9602926
      2876.5000           61.6       88.30473         0.7769       -61.4591       -2.77261              1      0.9556848
      2877.0000        64.8472       93.00758         0.7706       -62.0342      -3.350727              1      0.9412318
      2877.5000        67.3936        96.6946         0.7642       -62.7008      -4.020348              1      0.9244913
      2878.0000        69.1377       99.21865         0.7668       -63.4022      -4.724766              1      0.9068809
      2878.5000        68.8723       98.82981         0.7695       -64.0181      -5.343681              1       0.891408
      2879.0000        67.8176       97.29684         0.7748       -64.5378      -5.866405              1      0.8783399
      2879.5000        67.6161       97.00065         0.7829       -64.9081      -6.239716              1      0.8690071
      2880.0000        66.6671       95.62089         0.7913       -65.2345      -6.569134              1      0.8607717
      2880.5000        65.0245       93.23574         0.8025       -65.5621      -6.899757              1       0.852506
      2881.0000        65.7192       94.23862         0.8139       -65.8899      -7.230576              1      0.8442356
      2881.5000         67.231       96.42593         0.8283       -66.1001       -7.44379              1      0.8389052
      2882.0000        68.7402       98.60947         0.8444       -66.3047      -7.651413              1      0.8337147
      2882.5000        69.3499       99.48915         0.8637       -66.3702      -7.719929              1      0.8320018
      2883.0000        66.8774       95.90102         0.8896       -66.3409      -7.693642              1      0.8326589
      2883.5000        62.1296       89.01473         0.9158       -66.1805      -7.536259              1      0.8365935
      2884.0000        59.2783        84.8775         0.9414       -65.8745       -7.23328              1       0.844168
      2884.5000        59.0214       84.50098         0.9676        -64.979      -6.340797              1      0.8664801
      2885.0000         59.743       85.54285         0.9843       -63.9181      -5.282917              1      0.8929271
      2885.5000        60.4647       86.58489         0.9985       -62.9702      -4.338036              1      0.9165491
      2886.0000        61.1511       87.57574         1.0026       -62.0217      -3.392555              1      0.9401861
      2886.5000        61.5884       88.20551         1.0042        -61.083      -2.456871              1      0.9635782
      2887.0000        60.5824       86.74313         0.9953       -60.1449      -1.521793              1      0.9869552
      2887.5000        59.3508       84.95374         0.9825       -59.3925     -0.7724113              1              1
      2888.0000        58.3867       83.55212         0.9632       -58.6681    -0.05102539              1              1
      2888.5000        57.5932       82.39779         0.9438       -58.1012      0.5128555              1              1
      2889.0000        57.9736       82.94507         0.9245       -57.5652       1.045837              1              1
      2889.5000         59.588       85.28111          0.907       -57.0078        1.60022              1              1
      2890.0000        62.2005       89.06393         0.8915        -56.425       2.180004              1              1
      2890.5000        63.6709       91.19123         0.8805       -55.8147       2.787281              1              1
      2891.0000        63.0233       90.24838         0.8774       -55.1255       3.473465              1              1
      2891.5000        62.8631       90.01203         0.8741       -54.6943       3.901646              1              1
      2892.0000        63.1346       90.40147         0.8697       -54.6797       3.913231              1              1
      2892.5000        63.5197       90.95558         0.8653       -55.0707       3.519211              1              1
      2893.0000         63.212       90.50542          0.852       -55.6795       2.907394              1              1
      2893.5000        61.5737        88.1265         0.8339        -56.395       2.188873              1              1
      2894.0000        59.9611       85.78484         0.8189       -56.7811       1.799755              1              1
      2894.5000        59.3502       84.89518         0.8049       -57.1278       1.450039              1              1
      2895.0000        62.2347        89.0723         0.7889       -57.0294       1.545422              1              1
      2895.5000        65.2458       93.43291          0.769       -56.8937       1.678104              1              1
      2896.0000        67.3141        96.4269         0.7464       -56.7192       1.849586              1              1
      2896.5000        68.7463       98.49883         0.7226         -56.53       2.035767              1              1
      2897.0000        70.4623       100.9821         0.6975       -56.3904       2.172348              1              1
      2897.5000        72.4056       103.7949         0.6715       -56.2946       2.265129              1              1
      2898.0000        74.5657        106.922         0.6475       -56.6427       1.914013              1              1
      2898.5000        75.8413       108.7669         0.6258       -57.2377       1.315994              1              1
      2899.0000        75.6089       108.4259         0.6094       -57.9825      0.5681801              1              1
      2899.5000        74.1975       106.3759         0.5963       -58.4334      0.1142578              1              1
      2900.0000        71.9401       103.0996         0.5681       -58.9152     -0.3705597              1              1
      2900.5000        70.5546       101.0871         0.5675       -58.9611     -0.4194794              1              1
      2901.0000        69.9812       100.2518         0.5677       -58.8635      -0.324894              1              1
