#------------------------------------------------------------------------------
# Created by    : vladimir.rabinovich
# Created on    : 09/19/2023 17:22:53
#------------------------------------------------------------------------------
~Version Information Section
VERS.           2.0     :   CWLS log ASCII Standard - VERSION 2.0
WRAP.           NO      :   One line per depth step
~Well Information Section
#MNEM       .UNIT                                         VALUE :DESCRIPTION
#------------------------------------------------------------------------------
STRT        .FT                                             394 :START DEPTH
STOP        .FT                                            7700 :STOP DEPTH
STEP        .FT                                             0.5 :STEP      
NULL        .                                           -999.25 :NULL      
COMP        .                                   MARATHON OIL CO :COMPANY   
WELL        .                                     ST TR 00248-L :WELL      
FLD         .                                           WILDCAT :FIELD     
LOC         .                                                   :LOCATION  
CNTY        .                             GALVESTON LARGE BLOCK :LOCATION  
STAT        .                                             TEXAS :STATE     
CTRY        .                                     UNITED STATES :COUNTRY   
SRVC        .                                                   :SERVICE COMPANY
DATE        .                             9/13/2023 11:19:42 AM :LOG DATE  
API         .                                    42706000210000 :API NUMBER
UWI         .                                    42706000210000 :UNIQUE WELL ID
XCOORD      .                                  969160.596945075 :SURFACE X 
YCOORD      .                                  10521676.5956168 :SURFACE Y 
LAT         .                                        28.9764138 :LATITUDE  
LON         .                                       -95.0998408 :LONGITUDE 
ELEV        .FT                                              10 :ELEVATION VALUE
ELEV_TYPE   .                                                KB :ELEVATION REFERENCE TYPE
~Curve Information Section
#MNEM       .UNIT                                      API CODE :CURVE DESCRIPTION
#------------------------------------------------------------------------------
DEPT        .FT                                                 :DEPTH     
LAT         .OHMM                                               :          
LN          .OHMM                                               :          
SN          .OHMM                                               :          
SP          .MV                                                 :          
SP_NORM     .MV                                                 :SP Normalized
VSH_SP      .V/V                                                :Volume of Shale from SP
~A        DEPTH            LAT             LN             SN             SP        SP_NORM         VSH_SP
# ...
      3776.0000         1.1419         0.5987         0.6179       -71.0496     -0.9957962              1
      3776.5000          1.134         0.5845         0.6022       -70.9688     -0.9101868              1
      3777.0000         1.1261         0.5703         0.5866        -71.022       -0.95858              1
      3777.5000         1.1182         0.5561         0.5709       -71.7378      -1.669563      0.9886515
      3778.0000         1.1103          0.542         0.5648       -72.8545      -2.781448       0.969806
      3778.5000         1.1024         0.5529         0.5596       -73.4951      -3.417236      0.9590299
      3779.0000         1.0945         0.5662         0.5544       -74.1763       -4.09362      0.9475657
      3779.5000         1.0866         0.5796         0.5491       -74.8911      -4.803612       0.935532
      3780.0000         1.0787         0.5929         0.5439       -74.4014      -4.309097      0.9439136
      3780.5000         1.0633         0.6063         0.5494       -73.7485      -3.651382      0.9550613
      3781.0000          1.046         0.6196         0.5599       -72.5928      -2.490868       0.974731
      3781.5000         1.0286          0.633         0.5704         -71.04     -0.9332581              1
      3782.0000         1.0112         0.6464         0.5809       -69.0684       1.043159              1
      3782.5000         0.9939         0.6597         0.5915        -67.415       2.701363              1
      3783.0000         0.9765         0.6731          0.602       -65.9795       4.141678              1
      3783.5000         0.9591         0.6864         0.6125       -66.1846       3.941391              1
      3784.0000         0.9418         0.6916          0.623       -66.8594       3.271408              1
      3784.5000         0.9337         0.6919         0.6334       -67.3917       2.743919              1
      3785.0000         0.9341         0.6923         0.6345       -67.4502       2.690224              1
      3785.5000         0.9345         0.6927         0.6357       -67.5087       2.636543              1
      3786.0000         0.9348          0.693         0.6369       -67.9512       2.198853              1
      3786.5000         0.9352         0.6934         0.6381       -68.5715       1.583366              1
      3787.0000         0.9356         0.6938         0.6393       -69.0823       1.077385              1
      3787.5000         0.9359         0.6941         0.6405       -69.8896      0.2748947              1
      3788.0000         0.9363         0.6945         0.6417       -70.8745     -0.7051926              1
      3788.5000         0.9367         0.6949         0.6429       -71.8286       -1.65448      0.9889071
      3789.0000          0.937         0.6952         0.6441       -72.5967       -2.41777        0.97597
      3789.5000         0.9374         0.6899         0.6453       -72.4751      -2.291351      0.9781127
      3790.0000         0.9378         0.6801         0.6465       -71.6914      -1.502838      0.9914773
      3790.5000         0.9381         0.6702         0.6477       -70.6973     -0.5039368              1
      3791.0000         0.9385         0.6603         0.6489       -69.2646      0.9335785              1
      3791.5000         0.9389         0.6505         0.6501       -68.2765       1.926498              1
      3792.0000         0.9392         0.6406         0.6512       -68.3948       1.813011              1
      3792.5000         0.9309         0.6307         0.6524       -68.5129       1.699722              1
      3793.0000         0.9171         0.6209         0.6536        -68.166       2.051437              1
      3793.5000         0.9033          0.611         0.6523       -67.7346       2.487648              1
      3794.0000         0.8895         0.6012         0.6451       -67.5365       2.690559              1
      3794.5000         0.8758         0.5913         0.6379        -67.392       2.839874              1
      3795.0000          0.862         0.5814         0.6307        -67.359       2.877686              1
      3795.5000         0.8482         0.5716         0.6235       -67.3578       2.883698              1
      3796.0000         0.8455         0.5646         0.6163       -67.7126       2.533714              1
      3796.5000          0.862         0.5592         0.6091        -68.583       1.668121              1
      3797.0000         0.8785         0.5538         0.6019       -69.8564      0.3995361              1
      3797.5000         0.8951         0.5483         0.5946       -71.5273      -1.266548      0.9954822
      3798.0000         0.9116         0.5429         0.5874        -73.666      -3.400436      0.9593146
      3798.5000         0.9282         0.5374         0.5813       -76.2305      -5.960121      0.9159302
      3799.0000         0.9618          0.532         0.5759       -74.8643      -4.589119      0.9391675
      3799.5000         0.9968         0.5266         0.5705       -72.4824        -2.2024      0.9796203
      3800.0000         1.0319         0.5211         0.5651       -69.7559      0.5289154              1
      3800.5000         1.0669         0.5157         0.5596       -68.7104       1.579224              1
      3801.0000         1.0647          0.519         0.5609       -69.8047      0.4897385              1
      3801.5000         1.0464         0.5285         0.5667       -71.0381     -0.7388458              1
      3802.0000          1.028          0.538         0.5726       -72.2715      -1.967438      0.9836028
      3802.5000         1.0097         0.5475         0.5785       -73.4521      -3.143227      0.9636741
      3803.0000         0.9913          0.557         0.5844       -74.4819      -4.168213      0.9463015
      3803.5000          0.973         0.5679         0.5902       -75.7334      -5.414894      0.9251713
      3804.0000         0.9547         0.5794         0.5961       -77.0264      -6.703079      0.9033377
      3804.5000         0.9363         0.5908          0.602       -78.5498      -8.221672      0.8775988
      3805.0000          0.918         0.6022            0.6        -80.127       -9.79406      0.8509482
      3805.5000         0.8996         0.6136         0.5903       -81.2642      -10.92645      0.8317552
      3806.0000         0.8813          0.625         0.5806       -83.4102      -13.06763      0.7954638
      3806.5000         0.8758         0.6345         0.5709       -86.3477      -16.00032      0.7457573
      3807.0000         0.8741         0.6152         0.5612       -87.4126       -17.0604      0.7277898
      3807.5000         0.8725         0.5958         0.5515       -86.6816       -16.3246       0.740261
      3808.0000         0.8708         0.5765         0.5418       -85.4268      -15.06499      0.7616104
      3808.5000         0.8691         0.5572         0.5321       -83.7725      -13.40587       0.789731
      3809.0000         0.8674         0.5379         0.5224       -81.5059      -11.13445      0.8282296
      3809.5000         0.8657         0.5186         0.5127       -78.3105      -7.934242      0.8824705
      3810.0000         0.8556         0.4993         0.5025       -75.3398      -4.958733      0.9329028
      3810.5000         0.8446         0.4799         0.4915       -73.3096      -2.923721      0.9673945
      3811.0000         0.8336         0.4606         0.4805        -71.908      -1.517303      0.9912322
      3811.5000         0.8226         0.4413         0.4695       -71.9498      -1.554291      0.9906052
      3812.0000         0.8116          0.422         0.4585       -71.9916      -1.591278      0.9899783
      3812.5000         0.8006          0.414         0.4475       -72.0334      -1.628265      0.9893515
      3813.0000         0.7896         0.4067         0.4365       -71.7432       -1.33326      0.9943515
      3813.5000          0.777         0.3995         0.4255       -71.2576     -0.8428421              1
