#------------------------------------------------------------------------------
# Created by    : vladimir.rabinovich
# Created on    : 09/19/2023 17:20:06
#------------------------------------------------------------------------------
~Version Information Section
VERS.           2.0     :   CWLS log ASCII Standard - VERSION 2.0
WRAP.           NO      :   One line per depth step
~Well Information Section
#MNEM       .UNIT                                         VALUE :DESCRIPTION
#------------------------------------------------------------------------------
STRT        .FT                                             325 :START DEPTH
STOP        .FT                                           10896 :STOP DEPTH
STEP        .FT                                             0.5 :STEP      
NULL        .                                           -999.25 :NULL      
COMP        .                                      GETTY OIL CO :COMPANY   
WELL        .                               OCS G03737 ST00BP00 :WELL      
FLD         .                                           WILDCAT :FIELD     
LOC         .                                                   :LOCATION  
CNTY        .                             GALVESTON LARGE BLOCK :LOCATION  
STAT        .                                             TEXAS :STATE     
CTRY        .                                     UNITED STATES :COUNTRY   
SRVC        .                                                   :SERVICE COMPANY
DATE        .                             9/13/2023 11:10:15 AM :LOG DATE  
API         .                                    42706400540000 :API NUMBER
UWI         .                                    42706400540000 :UNIQUE WELL ID
XCOORD      .                                  1098214.74516992 :SURFACE X 
YCOORD      .                                   10573216.961531 :SURFACE Y 
LAT         .                                         29.123847 :LATITUDE  
LON         .                                        -94.698615 :LONGITUDE 
ELEV        .FT                                              99 :ELEVATION VALUE
ELEV_TYPE   .                                                KB :ELEVATION REFERENCE TYPE
~Curve Information Section
#MNEM       .UNIT                                      API CODE :CURVE DESCRIPTION
#------------------------------------------------------------------------------
DEPT        .FT                                                 :DEPTH     
ASFL        .OHMM                                               :          
DT          .US/F                                               :          
DTL         .US/F                                               :          
GR          .GAPI                                               :          
GR_1        .GAPI                                               :          
GR_NORM     .GAPI                                               :GammaRay Normalized
ILD         .OHMM                                               :          
RHOB        .G/CC                                               :          
SP          .MV                                                 :          
SP_NORM     .MV                                                 :SP Normalized
VSH_GR      .V/V                                                :Volume of Shale from GR
VSH_SP      .V/V                                                :Volume of Shale from SP
~A        DEPTH           ASFL             DT            DTL             GR           GR_1        GR_NORM            ILD           RHOB             SP        SP_NORM         VSH_GR         VSH_SP
# ...
      2436.5000         0.6828       139.9978       139.3091        58.5203        53.4247        78.0499         0.3668         2.0176        -59.986         -1.402         0.9585         0.9861
      2437.0000         0.6816       144.1565       142.7975        59.9782         54.038        80.5992         0.3657         2.0145       -59.9484         -1.367              1         0.9873
      2437.5000         0.6803       146.6318       144.1383        60.5003        54.7151        81.5155         0.3647         2.0206       -59.9108         -1.332              1         0.9886
      2438.0000         0.6771       146.6543       145.2393        60.3246        55.3925        81.2138         0.3636         2.0349       -59.8558        -1.2797              1         0.9904
      2438.5000         0.6729       146.6069       145.6919        59.3643        56.4374        79.5429         0.3626         2.0503       -59.7975         -1.224         0.9903         0.9923
      2439.0000         0.6686       146.9365       145.9534        58.0146         57.508        77.1924         0.3615         2.0594       -59.7393        -1.1684         0.9403         0.9942
      2439.5000         0.6654       147.6082        146.435         57.098        58.3322        75.5978         0.3604          2.058       -59.6811        -1.1129         0.9063         0.9961
      2440.0000         0.6624       147.7397       146.9815        57.5405        58.6004        76.3751         0.3594         2.0501       -59.6228        -1.0572         0.9229          0.998
      2440.5000         0.6601       147.7041       147.2207        58.0418        58.3559         77.255         0.3583          2.052       -59.5646        -1.0016         0.9416         0.9999
      2441.0000         0.6622       147.6384       146.9877         58.598        58.1114        78.2307         0.3572         2.0603       -59.5063         -0.946         0.9624              1
      2441.5000         0.6647       147.5852       146.7568        57.2938        57.8668        75.9596         0.3562          2.055       -59.4481        -0.8904          0.914              1
      2442.0000         0.6672       147.6638       146.7653        56.2065        57.6223         74.067         0.3551         2.0374       -59.3881         -0.833         0.8738              1
      2442.5000         0.6672       148.4062       146.9817        59.8016        57.3777        80.3463         0.3552         2.0247       -59.3275        -0.7751              1              1
      2443.0000         0.6639       149.3003       147.5905        61.3875        57.1647         83.119         0.3557         2.0372       -59.2668         -0.717              1              1
      2443.5000         0.6606       149.6765       147.7185        61.1089        57.0833        82.6378         0.3562         2.0403       -59.2062        -0.6591              1              1
      2444.0000         0.6578       149.1074       147.1126        58.5762        57.0021        78.2228         0.3567         2.0339       -59.1456        -0.6011         0.9622              1
      2444.5000         0.6552       148.3171       146.8574         56.339        57.1139        74.3234         0.3572         2.0259       -59.0843        -0.5424         0.8792              1
      2445.0000         0.6526       148.4214       147.2248        57.1208        57.3087        75.6928         0.3577         2.0228       -59.0213        -0.4821         0.9084              1
      2445.5000         0.6506       149.0967       148.3575           59.6        57.5033        80.0246         0.3582          2.028       -58.9583        -0.4217              1              1
      2446.0000           0.65       149.6465       149.5768        60.9413         57.698        82.3705         0.3587         2.0368       -58.8953        -0.3613              1              1
      2446.5000         0.6493       150.1851       150.8778        61.0366        57.9286        82.5418         0.3592         2.0431       -58.8254        -0.2941              1              1
      2447.0000         0.6487       151.1821       151.4617        61.2673        58.2113        82.9495         0.3597         2.0461        -58.734        -0.2053              1              1
      2447.5000         0.6481       151.8435       151.8274        61.6724         58.494        83.6615         0.3603         2.0401       -58.6426        -0.1165              1              1
      2448.0000         0.6483       152.1633       152.0515        62.3203        58.7767        84.7972         0.3613         2.0314       -58.5512        -0.0278              1              1
      2448.5000          0.649       152.3254       152.3059        60.8856        59.0593        82.2984         0.3623         2.0286       -58.5134         0.0074              1              1
      2449.0000         0.6496       152.4338       151.9343        59.1024        59.3421        79.1913         0.3634         2.0308       -58.7307        -0.2126         0.9828              1
      2449.5000         0.6503       151.8589        150.978        58.1081        59.6237        77.4611         0.3644         2.0332       -58.9479        -0.4324          0.946              1
      2450.0000         0.6509       150.5459       148.3866        59.1298        59.9028        79.2492         0.3655         2.0307       -59.1653        -0.6524          0.984              1
      2450.5000         0.6531       146.8372       146.6126        60.9093        60.1819        82.3598         0.3665         2.0237        -59.417        -0.9068              1              1
      2451.0000         0.6562       144.5339       145.0715        62.2453        60.4611        84.6965         0.3675         2.0199       -59.7275        -1.2199              1         0.9924
      2451.5000         0.6592       142.1165       143.1752        62.1395        60.7402        84.5168         0.3686         2.0188       -60.0383        -1.5333              1         0.9816
      2452.0000         0.6623       140.7332       140.9454        60.8738        61.0195         82.313         0.3696         2.0298       -60.3488        -1.8465              1         0.9708
      2452.5000         0.6657       140.0037       140.2281        59.8516        61.0918         80.534         0.3693         2.0548       -60.6529        -2.1532              1         0.9602
      2453.0000         0.6694       139.8274        140.166        59.5183        60.9077        79.9574         0.3683         2.0665       -60.9565        -2.4594         0.9991         0.9497
      2453.5000          0.673        139.793       140.1524        59.4335        60.7235        79.8144         0.3673         2.0634       -61.2416        -2.7472         0.9961         0.9398
      2454.0000          0.675       139.4468       139.8599        59.4232        60.5363        79.8014         0.3662         2.0432        -61.402        -2.9102         0.9958         0.9341
      2454.5000         0.6757       139.4048       139.6267        59.8638        60.1614        80.5754         0.3652         2.0039       -61.5623        -3.0732              1         0.9285
      2455.0000         0.6688       140.2456       141.8304        61.7247        59.7863        83.8281         0.3641         1.9599       -61.7227        -3.2362              1         0.9229
      2455.5000          0.662       142.9048       145.3993        62.9444        59.4113        85.9618         0.3631         1.9025       -61.8829         -3.399              1         0.9173
      2456.0000         0.6514       149.1587       149.7696        63.6876        59.0362        87.2638          0.362         1.8866       -61.9691        -3.4879              1         0.9142
      2456.5000         0.6407        152.459       152.5606        58.0898        58.6656        77.4995          0.361         1.8861       -62.0497        -3.5711         0.9468         0.9113
