#------------------------------------------------------------------------------
# Created by    : vladimir.rabinovich
# Created on    : 09/19/2023 17:22:54
#------------------------------------------------------------------------------
~Version Information Section
VERS.           2.0     :   CWLS log ASCII Standard - VERSION 2.0
WRAP.           NO      :   One line per depth step
~Well Information Section
#MNEM       .UNIT                                         VALUE :DESCRIPTION
#------------------------------------------------------------------------------
STRT        .FT                                             606 :START DEPTH
STOP        .FT                                           12703 :STOP DEPTH
STEP        .FT                                             0.5 :STEP      
NULL        .                                           -999.25 :NULL      
COMP        .                                       PURE OIL CO :COMPANY   
WELL        .                                OCS 00099 ST00BP00 :WELL      
FLD         .                                           WILDCAT :FIELD     
LOC         .                                                   :LOCATION  
CNTY        .                             GALVESTON LARGE BLOCK :LOCATION  
STAT        .                                             TEXAS :STATE     
CTRY        .                                     UNITED STATES :COUNTRY   
SRVC        .                                                   :SERVICE COMPANY
DATE        .                             9/13/2023 11:19:42 AM :LOG DATE  
API         .                                    42706000130000 :API NUMBER
UWI         .                                    42706000130000 :UNIQUE WELL ID
XCOORD      .                                  1105531.03723184 :SURFACE X 
YCOORD      .                                  10576678.2721464 :SURFACE Y 
LAT         .                                         29.133654 :LATITUDE  
LON         .                                        -94.675857 :LONGITUDE 
ELEV        .FT                                              66 :ELEVATION VALUE
ELEV_TYPE   .                                                KB :ELEVATION REFERENCE TYPE
~Curve Information Section
#MNEM       .UNIT                                      API CODE :CURVE DESCRIPTION
#------------------------------------------------------------------------------
DEPT        .FT                                                 :DEPTH     
LAT         .OHMM                                               :          
LN          .OHMM                                               :          
SN          .OHMM                                               :          
SP          .MV                                                 :          
SP_NORM     .MV                                                 :SP Normalized
VSH_SP      .V/V                                                :Volume of Shale from SP
~A        DEPTH            LAT             LN             SN             SP        SP_NORM         VSH_SP
# ...
      3836.0000         0.3818         0.6965         0.6192       -65.8502      -2.435562      0.9673736
      3836.5000         0.3551         0.7313         0.6418       -66.3843      -2.969666      0.9552349
      3837.0000         0.3283          0.766         0.6625       -67.0879      -3.673264       0.939244
      3837.5000         0.3016         0.8008         0.6803       -69.8916      -6.476967      0.8755235
      3838.0000         0.2874         0.8356          0.698       -72.6953      -9.280663      0.8118031
      3838.5000         0.2761         0.8703         0.6928         -76.58      -13.16537      0.7235144
      3839.0000         0.2648         0.9051          0.666       -81.4297      -18.01507      0.6132939
      3839.5000         0.2534         0.9399         0.6392       -85.5618      -22.14716      0.5193827
      3840.0000         0.3113         0.9789         0.6125       -89.2435      -25.82887      0.4357076
      3840.5000         0.3705         1.0361         0.5857        -92.337      -28.92236      0.3654008
      3841.0000         0.4297          1.037         0.5606       -94.8064      -31.39176      0.3092781
      3841.5000         0.4865         0.9886         0.5357       -97.0574      -33.64277      0.2581189
      3842.0000         0.5113         0.9296         0.5108       -99.1045      -35.68987       0.211594
      3842.5000         0.5342         0.8706         0.5262      -101.0502      -37.63557      0.1673735
      3843.0000         0.4965         0.8116         0.5615      -102.3818      -38.96716      0.1371099
      3843.5000         0.4588         0.7526         0.5969      -104.2394      -40.82477     0.09489164
      3844.0000         0.4212         0.6936         0.6323      -106.2754      -42.86076     0.04861901
      3844.5000         0.3835         0.6185         0.6901      -105.8129      -42.39826     0.05913041
      3845.0000         0.3944         0.5427         0.7544      -103.4906      -40.07597      0.1119099
      3845.5000         0.5982         0.4668         0.8186      -100.2111      -36.79646       0.186444
      3846.0000         1.0011         0.4196         0.8787       -95.9275      -32.51286      0.2837986
      3846.5000         1.1642          0.421         0.8537       -91.6416      -28.22697      0.3812053
      3847.0000         1.2444         0.4563         0.8288       -87.2979      -23.88326      0.4799258
      3847.5000         1.1793         0.4917         0.8039       -82.8939      -19.47926      0.5800167
      3848.0000         1.0669          0.527         0.7789       -78.4922      -15.07757      0.6800553
      3848.5000         0.9545         0.5624          0.754       -75.8857      -12.47106      0.7392941
      3849.0000         0.8421         0.5978          0.729       -74.0159      -10.60126      0.7817894
      3849.5000         0.7299         0.6213         0.7041       -72.1471      -8.732468      0.8242621
      3850.0000         0.6393         0.6425         0.6792       -70.2772      -6.862564      0.8667599
      3850.5000         0.5486         0.6638         0.6542       -69.4576      -6.042969      0.8853871
      3851.0000          0.458         0.6851         0.6461       -68.6642      -5.249565       0.903419
      3851.5000         0.3861         0.7064         0.6382       -67.9596      -4.544968      0.9194326
      3852.0000         0.3681         0.7067         0.6302       -67.9624      -4.547768      0.9193689
      3852.5000         0.3617         0.6996         0.6223       -67.9653      -4.550667       0.919303
      3853.0000         0.3911         0.6926         0.6144       -67.9681      -4.553467      0.9192394
      3853.5000         0.4205         0.6855         0.6065       -67.9709      -4.556267      0.9191757
      3854.0000         0.4499         0.6785         0.6036       -67.9739      -4.559265      0.9191076
      3854.5000         0.4793         0.6714         0.6056       -67.9409      -4.526268      0.9198576
      3855.0000         0.5087         0.6644         0.6076       -66.8567      -3.442062      0.9444986
      3855.5000          0.538         0.6576         0.6095       -65.7725      -2.357864      0.9691395
      3856.0000         0.5674          0.651         0.6115       -64.6881      -1.273468      0.9937848
      3856.5000         0.5968         0.6445         0.6135       -63.6034     -0.1887665              1
      3857.0000         0.6033          0.638         0.6155       -62.7172      0.6974335              1
      3857.5000         0.6066         0.6314         0.6144        -62.272       1.142635              1
      3858.0000         0.6098         0.6249         0.6089       -61.8268       1.587833              1
      3858.5000         0.6131         0.6184         0.6034       -61.3817       2.032936              1
      3859.0000         0.6163         0.6118         0.5979       -60.9365       2.478134              1
      3859.5000         0.6196         0.6053         0.5924          -60.6       2.814636              1
      3860.0000         0.6217         0.5988         0.5869       -60.6593       2.755333              1
      3860.5000         0.6188         0.5933         0.5814       -60.7185       2.696136              1
      3861.0000         0.6159         0.5902          0.576       -60.7777       2.636936              1
      3861.5000         0.6131          0.587         0.5705       -60.8369       2.577736              1
      3862.0000         0.6102         0.5839          0.565        -60.874       2.540634              1
      3862.5000         0.6133         0.5808         0.5595       -60.7889       2.625736              1
      3863.0000         0.6557         0.5776         0.5577       -60.7039       2.710735              1
      3863.5000         0.6981         0.5745         0.5576       -60.6188       2.795406              1
      3864.0000         0.7423         0.5711         0.5575       -60.8467       2.566269              1
      3864.5000         0.8158          0.567         0.5574       -61.1064       2.305325              1
      3865.0000         0.8893          0.563         0.5574       -61.7758       1.634686              1
      3865.5000         0.9628         0.5589         0.5573       -62.6322      0.7770462              1
      3866.0000         1.0363         0.5549         0.5572        -64.321     -0.9129944              1
      3866.5000         1.0155         0.5508         0.5572       -66.5775      -3.170734      0.9506651
      3867.0000         0.9871         0.5467         0.5567        -70.451      -7.045471      0.8626029
      3867.5000         0.9587         0.5427          0.556       -74.3246      -10.92032      0.7745382
      3868.0000         0.9272         0.5399         0.5554       -77.5383      -14.13526      0.7014714
      3868.5000         0.8714         0.5372         0.5547       -80.5649       -17.1631      0.6326568
      3869.0000         0.8155         0.5344          0.554       -83.6027      -20.20214      0.5635878
      3869.5000         0.7596         0.5317         0.5533       -86.7742      -23.37488      0.4914801
      3870.0000         0.7038          0.529         0.5526       -89.3795      -25.98142      0.4322405
      3870.5000          0.648         0.5262         0.5519       -90.5852      -27.18836        0.40481
      3871.0000         0.5921         0.5235         0.5512       -91.7909       -28.3953      0.3773795
      3871.5000         0.5362         0.5208         0.5505       -92.9967      -29.60234      0.3499469
      3872.0000         0.4857         0.5181         0.5498       -94.5066      -31.11348      0.3156027
      3872.5000         0.4457         0.5153         0.5491       -96.3297      -32.93782      0.2741405
      3873.0000         0.4057         0.5126         0.5484       -98.1528      -34.76216      0.2326782
      3873.5000         0.3657         0.5205         0.5478       -100.376       -36.9866      0.1821227
