#------------------------------------------------------------------------------
# Created by    : vladimir.rabinovich
# Created on    : 09/19/2023 17:20:10
#------------------------------------------------------------------------------
~Version Information Section
VERS.           2.0     :   CWLS log ASCII Standard - VERSION 2.0
WRAP.           NO      :   One line per depth step
~Well Information Section
#MNEM       .UNIT                                         VALUE :DESCRIPTION
#------------------------------------------------------------------------------
STRT        .FT                                             409 :START DEPTH
STOP        .FT                                           13135 :STOP DEPTH
STEP        .FT                                             0.5 :STEP      
NULL        .                                           -999.25 :NULL      
COMP        .                         ATLANTIC RICHFIELD CO THE :COMPANY   
WELL        .                               OCS G04547 ST00BP00 :WELL      
FLD         .                                           WILDCAT :FIELD     
LOC         .                                                   :LOCATION  
CNTY        .                      MATAGORDA ISLAND LARGE BLOCK :LOCATION  
STAT        .                                             TEXAS :STATE     
CTRY        .                                     UNITED STATES :COUNTRY   
SRVC        .                                                   :SERVICE COMPANY
DATE        .                             9/13/2023 11:12:03 AM :LOG DATE  
API         .                                    42703401300000 :API NUMBER
UWI         .                                    42703401300000 :UNIQUE WELL ID
XCOORD      .                                  517134.995430583 :SURFACE X 
YCOORD      .                                  10172294.5320476 :SURFACE Y 
LAT         .                                         27.987424 :LATITUDE  
LON         .                                        -96.480505 :LONGITUDE 
ELEV        .FT                                              99 :ELEVATION VALUE
ELEV_TYPE   .                                                KB :ELEVATION REFERENCE TYPE
~Curve Information Section
#MNEM       .UNIT                                      API CODE :CURVE DESCRIPTION
#------------------------------------------------------------------------------
DEPT        .FT                                                 :DEPTH     
ASFL        .OHMM                                               :          
CILD        .MMHO                                               :          
GR          .GAPI                                               :          
GR_NORM     .GAPI                                               :GammaRay Normalized
ILD         .OHMM                                               :          
SP          .MV                                                 :          
SP_NORM     .MV                                                 :SP Normalized
VSH_GR      .V/V                                                :Volume of Shale from GR
VSH_SP      .V/V                                                :Volume of Shale from SP
~A        DEPTH           ASFL           CILD             GR        GR_NORM            ILD             SP        SP_NORM         VSH_GR         VSH_SP
# ...
      7166.5000         0.7834       1879.795        -999.25        -999.25         0.4269       -65.1796      -23.26344        -999.25      0.5456442
      7167.0000         0.7887       1859.453        -999.25        -999.25         0.4489       -67.5961      -25.67993        -999.25      0.4963279
      7167.5000         0.7778       1844.197        -999.25        -999.25         0.4777       -71.5099      -29.59373        -999.25      0.4164544
      7168.0000         0.7624       1852.227        -999.25        -999.25          0.511       -74.3835      -32.46733        -999.25      0.3578096
      7168.5000          0.747       1904.904        -999.25        -999.25         0.5005       -76.1349      -34.21873        -999.25      0.3220666
      7169.0000         0.7307       1984.027        -999.25        -999.25           0.46       -76.1837      -34.26753        -999.25      0.3210708
      7169.5000          0.712       2065.586        -999.25        -999.25         0.4196       -76.0607      -34.14453        -999.25       0.323581
      7170.0000         0.6905       2147.531        -999.25        -999.25         0.3792       -75.9376      -34.02143        -999.25      0.3260933
      7170.5000         0.6782       2295.855        -999.25        -999.25         0.3079       -76.6429      -34.72673        -999.25      0.3116994
      7171.0000         0.6739       2691.184        -999.25        -999.25          0.296       -78.1982      -36.28203        -999.25      0.2799586
      7171.5000         0.6726       3179.945        -999.25        -999.25         0.2863       -80.7188      -38.80264        -999.25      0.2285177
      7172.0000         0.6713       2994.641        -999.25        -999.25         0.3047       -82.2004      -40.28423        -999.25       0.198281
      7172.5000         0.6741       2774.055        -999.25        -999.25          0.323       -81.5073      -39.59113        -999.25      0.2124259
      7173.0000         0.6799       2730.793        -999.25        -999.25         0.3481       -79.8407      -37.92453        -999.25      0.2464382
      7173.5000         0.7163       2492.645        -999.25        -999.25         0.3967       -77.4363      -35.52013        -999.25      0.2955075
      7174.0000         0.7601       1716.775        -999.25        -999.25         0.4452       -70.6343      -28.71813        -999.25      0.4343238
      7174.5000         0.7962       1521.545        -999.25        -999.25         0.5527        -63.929      -22.01283        -999.25      0.5711667
      7175.0000         0.8432       1338.186        -999.25        -999.25         0.6777       -57.2237      -15.30753        -999.25      0.7080095
      7175.5000         0.8889       1234.244        -999.25        -999.25          0.788       -54.1649      -12.24873        -999.25       0.770434
      7176.0000         0.9126       1204.656        -999.25        -999.25         0.8566       -53.1889      -11.27273        -999.25      0.7903524
      7176.5000         0.9376       1177.527        -999.25        -999.25         0.8588       -52.2141      -10.29793        -999.25      0.8102463
      7177.0000          0.897       1149.084        -999.25        -999.25         0.8507       -49.4783       -7.56213        -999.25       0.866079
      7177.5000          0.854       1138.537        -999.25        -999.25         0.8426       -48.0341      -6.117931        -999.25      0.8955524
      7178.0000         0.8396        1130.83        -999.25        -999.25         0.8345       -46.8501      -4.933933        -999.25      0.9197156
      7178.5000         0.8312       1124.438        -999.25        -999.25         0.8374       -45.7083      -3.792133        -999.25      0.9430177
      7179.0000         0.8227       1118.045        -999.25        -999.25         0.8493       -44.9911      -3.074932        -999.25      0.9576545
      7179.5000         0.8179       1114.143        -999.25        -999.25         0.8612       -44.3362      -2.420033        -999.25      0.9710197
      7180.0000         0.8283       1110.578        -999.25        -999.25         0.8662       -43.8348      -1.918633        -999.25      0.9812524
      7180.5000         0.8474       1105.283        -999.25        -999.25         0.8663       -43.4484       -1.53223        -999.25      0.9891381
      7181.0000         0.8643       1099.273        -999.25        -999.25         0.8664       -43.0614      -1.145233        -999.25       0.997036
      7181.5000         0.8812       1092.855        -999.25        -999.25         0.8646        -42.675      -0.758831        -999.25              1
      7182.0000         0.8903       1083.342        -999.25        -999.25         0.8569        -42.343     -0.4268303        -999.25              1
      7182.5000         0.8989       1083.439        -999.25        -999.25         0.8492       -42.0355     -0.1193314        -999.25              1
      7183.0000         0.9035       1104.316        -999.25        -999.25         0.8414        -41.728      0.1881676        -999.25              1
      7183.5000         0.9059        1132.15        -999.25        -999.25         0.8337        -41.396      0.5201683        -999.25              1
      7184.0000          0.895        1183.83        -999.25        -999.25         0.8268       -41.0319      0.8842697        -999.25              1
      7184.5000         0.8744       1216.215        -999.25        -999.25         0.8202       -40.6678       1.248367        -999.25              1
      7185.0000         0.8539        1239.34        -999.25        -999.25         0.8136       -40.3286       1.587566        -999.25              1
      7185.5000         0.8343       1252.492        -999.25        -999.25          0.807       -40.0072        1.90897        -999.25              1
      7186.0000         0.8128       1275.752        -999.25        -999.25         0.8004       -39.8135       2.102669        -999.25              1
      7186.5000         0.8063       1299.268        -999.25        -999.25         0.7953       -39.7274       2.188766        -999.25              1
      7187.0000          0.806       1311.385        -999.25        -999.25         0.7901       -39.6986       2.217567        -999.25              1
      7187.5000         0.8114       1289.719        -999.25        -999.25         0.7849       -39.7791        2.13707        -999.25              1
      7188.0000         0.8169       1252.541        -999.25        -999.25         0.7897       -39.8868       2.029369        -999.25              1
      7188.5000         0.8223       1214.924        -999.25        -999.25         0.8223       -40.0408        1.87537        -999.25              1
      7189.0000          0.851       1177.309        -999.25        -999.25         0.8549       -40.1945       1.721668        -999.25              1
      7189.5000         0.9171       1137.795        -999.25        -999.25         0.8956       -40.5239       1.392269        -999.25              1
      7190.0000         0.9925       1085.629        -999.25        -999.25         0.9376       -40.8904       1.025768        -999.25              1
      7190.5000         1.0298       991.7119        -999.25        -999.25         0.9708       -42.0715     -0.1553307        -999.25              1
      7191.0000         1.0547       930.0088        -999.25        -999.25         0.9775       -46.6191       -4.70293        -999.25        0.92443
      7191.5000         1.0724       922.8555        -999.25        -999.25         0.9676       -50.9127      -8.996532        -999.25      0.8368055
      7192.0000         1.1862       979.3037        -999.25        -999.25         0.9389       -53.2397      -11.32353        -999.25      0.7893157
      7192.5000         1.1977       1037.064        -999.25        -999.25         0.9102       -55.5014      -13.58523        -999.25      0.7431585
