#------------------------------------------------------------------------------
# Created by    : vladimir.rabinovich
# Created on    : 09/19/2023 17:20:48
#------------------------------------------------------------------------------
~Version Information Section
VERS.           2.0     :   CWLS log ASCII Standard - VERSION 2.0
WRAP.           NO      :   One line per depth step
~Well Information Section
#MNEM       .UNIT                                         VALUE :DESCRIPTION
#------------------------------------------------------------------------------
STRT        .FT                                             495 :START DEPTH
STOP        .FT                                            6623 :STOP DEPTH
STEP        .FT                                             0.5 :STEP      
NULL        .                                           -999.25 :NULL      
COMP        .                                      SHELL OIL CO :COMPANY   
WELL        .                                     ST TR 00691-L :WELL      
FLD         .                                           WILDCAT :FIELD     
LOC         .                                                   :LOCATION  
CNTY        .                      MATAGORDA ISLAND LARGE BLOCK :LOCATION  
STAT        .                                             TEXAS :STATE     
CTRY        .                                     UNITED STATES :COUNTRY   
SRVC        .                                                   :SERVICE COMPANY
DATE        .                             9/13/2023 11:12:05 AM :LOG DATE  
API         .                                    42703000200000 :API NUMBER
UWI         .                                    42703000200000 :UNIQUE WELL ID
XCOORD      .                                  411465.852171861 :SURFACE X 
YCOORD      .                                  10158718.0598508 :SURFACE Y 
LAT         .                                        27.9414781 :LATITUDE  
LON         .                                       -96.8060481 :LONGITUDE 
ELEV        .FT                                              11 :ELEVATION VALUE
ELEV_TYPE   .                                                KB :ELEVATION REFERENCE TYPE
~Curve Information Section
#MNEM       .UNIT                                      API CODE :CURVE DESCRIPTION
#------------------------------------------------------------------------------
DEPT        .FT                                                 :DEPTH     
ASN         .OHMM                                               :          
CILD        .OHMM                                               :          
ILD         .OHMM                                               :          
SP          .MV                                                 :          
SP_NORM     .MV                                                 :SP Normalized
VSH_SP      .V/V                                                :Volume of Shale from SP
~A        DEPTH            ASN           CILD            ILD             SP        SP_NORM         VSH_SP
# ...
      2927.0000         0.7386       1471.938         0.5191       -50.2646        -4.9816      0.8580191
      2927.5000         0.7313       1587.592          0.486       -50.1093        -4.8263      0.8953222
      2928.0000         0.7259       1703.297         0.4529       -50.0845        -4.8015      0.8962408
      2928.5000          0.734       1818.951         0.4197       -50.2321        -4.9491      0.8907741
      2929.0000         0.7509       2066.785         0.3907       -56.4532       -11.1702       0.660363
      2929.5000         0.7393       2533.141         0.3641       -66.7676       -21.4846      0.2783481
      2930.0000         0.7169       2943.039         0.3375       -67.1497       -21.8667      0.2641963
      2930.5000         0.6943        2996.84         0.3161       -67.8895       -22.6065      0.2367963
      2931.0000         0.6821       3013.789         0.3004       -68.6903       -23.4073       0.207137
      2931.5000         0.6717       3022.469         0.3069         -69.13        -23.847      0.1908519
      2932.0000         0.6656       3031.152         0.3223       -69.3744       -24.0914         0.1818
      2932.5000         0.6602       3021.246         0.3367        -69.646        -24.363      0.1717407
      2933.0000         0.6583       2918.523         0.3507       -69.9286       -24.6456      0.1612741
      2933.5000         0.6743       2816.723         0.3647       -70.2786       -24.9956      0.1483111
      2934.0000         0.6866       2714.926         0.3787       -70.9095       -25.6265      0.1249445
      2934.5000         0.6988       2613.125         0.3917       -71.3743       -26.0913      0.1077297
      2935.0000         0.7099       2511.324         0.4024       -71.6809       -26.3979     0.09637409
      2935.5000          0.721       2430.355          0.413       -71.4873       -26.2043      0.1035444
      2936.0000         0.7284       2347.719         0.4237       -70.7247       -25.4417      0.1317889
      2936.5000         0.7307       2311.387         0.4259        -69.772        -24.489      0.1670741
      2937.0000         0.7295       2284.719         0.4247       -68.8193       -23.5363      0.2023592
      2937.5000         0.7321       2264.453         0.4234       -67.7891       -22.5061      0.2405148
      2938.0000         0.7383       2252.379         0.4222       -66.4659       -21.1829      0.2895222
      2938.5000         0.7529        2245.77         0.4108       -65.6013       -20.3183      0.3215444
      2939.0000         0.7679        2261.07         0.3958       -64.9492       -19.6662      0.3456963
      2939.5000         0.7645       2313.082         0.3808       -65.4336       -20.1506      0.3277555
      2940.0000         0.7299       2495.012         0.3658       -68.6836       -23.4006      0.2073852
      2940.5000         0.7005       2797.855         0.3509       -69.8551       -24.5721      0.1639963
      2941.0000         0.6802       3100.504         0.3363       -70.5142       -25.2312      0.1395852
      2941.5000         0.6663       3148.578         0.3217       -71.0785       -25.7955      0.1186852
      2942.0000         0.6587       3181.473          0.307        -71.295        -26.012      0.1106667
      2942.5000         0.6538       3210.191         0.2924       -71.7542       -26.4712     0.09365922
      2943.0000         0.6588       3229.387         0.2801       -72.3535       -27.0705     0.07146298
      2943.5000         0.6654       3252.617          0.274       -72.4657       -27.1827     0.06730743
      2944.0000         0.6793       3290.863         0.2678       -71.3009       -26.0179      0.1104481
      2944.5000         0.6589       3319.227         0.2617       -70.2542       -24.9712      0.1492148
      2945.0000         0.6122       3337.152         0.2555       -69.3483       -24.0653      0.1827667
      2945.5000         0.5669       3351.566         0.2494       -68.6375       -23.3545      0.2090926
      2946.0000         0.5777       3367.828         0.2506       -68.1511       -22.8681      0.2271074
      2946.5000         0.5903       3379.863         0.2525       -68.5883       -23.3053      0.2109148
      2947.0000          0.603       3361.098         0.2544        -69.464        -24.181      0.1784815
      2947.5000         0.6157       3350.086         0.2562        -70.344        -25.061      0.1458889
      2948.0000         0.6254       3340.824         0.2581       -71.2533       -25.9703      0.1122111
      2948.5000         0.6326       3331.648         0.2605       -72.1626       -26.8796     0.07853331
      2949.0000         0.6349        3323.68         0.2641       -72.8375       -27.5545     0.05353701
      2949.5000         0.6354       3315.707         0.2676       -73.3423       -28.0593     0.03484076
      2950.0000         0.6321       3308.516         0.2712        -73.847        -28.564     0.01614818
      2950.5000         0.6276       3301.809         0.2747       -74.2053       -28.9223    0.002877765
      2951.0000         0.6207       3295.336         0.2783       -74.5525       -29.2695              0
      2951.5000         0.6139       3289.953          0.281        -74.811        -29.528              0
      2952.0000         0.6075       3284.867         0.2799       -74.9532       -29.6702              0
      2952.5000         0.6026       3281.348         0.2789       -74.9617       -29.6787              0
      2953.0000         0.5976       3277.824         0.2778       -74.8191       -29.5361              0
      2953.5000         0.5947       3271.559         0.2768       -74.4343       -29.1513              0
      2954.0000         0.5938        3264.32         0.2762       -74.0081       -28.7251      0.0101815
      2954.5000         0.5929       3258.418         0.2775       -73.5817       -28.2987     0.02597406
      2955.0000         0.5975        3252.66         0.2787       -73.4392       -28.1562     0.03125184
      2955.5000         0.6044       3255.523           0.28       -73.3164       -28.0334     0.03580001
      2956.0000          0.606        3259.57         0.2812       -73.1935       -27.9105     0.04035187
      2956.5000          0.607       3282.805         0.2825       -73.1218       -27.8388     0.04300739
      2957.0000         0.6038       3307.961         0.2837          -73.1        -27.817     0.04381483
      2957.5000         0.5989       3324.754          0.285       -73.0781       -27.7951     0.04462595
      2958.0000         0.5941       3317.676         0.2862       -72.9587       -27.6757     0.04904818
      2958.5000         0.5906       3290.758         0.2875       -72.6259       -27.3429      0.0613741
      2959.0000          0.606       3276.246         0.2888       -72.2931       -27.0101     0.07370002
      2959.5000         0.6216       3348.863         0.2862       -72.0723       -26.7893     0.08187775
      2960.0000         0.6353       3415.781         0.2831       -71.9169       -26.6339     0.08763334
      2960.5000         0.6382        3476.48           0.28       -71.7615       -26.4785     0.09338888
      2961.0000         0.6321       3565.434         0.2769        -71.606        -26.323     0.09914815
      2961.5000         0.6223       3611.445         0.2791       -71.4927       -26.2097      0.1033445
      2962.0000         0.6141       3641.867         0.2834       -71.5746       -26.2916      0.1003111
      2962.5000         0.6602       3655.398         0.2928       -71.6565       -26.3735     0.09727775
      2963.0000         0.6858       3129.199         0.3396       -71.6836       -26.4006     0.09627406
      2963.5000          0.701       2933.852         0.3996       -71.5126       -26.2296      0.1026074
      2964.0000         0.7157       2738.211          0.493       -71.0437       -25.7607      0.1199741
      2964.5000         0.7411        2542.57         0.5865       -69.3021       -24.0191      0.1844778
