#------------------------------------------------------------------------------
# Created by    : vladimir.rabinovich
# Created on    : 09/19/2023 17:20:54
#------------------------------------------------------------------------------
~Version Information Section
VERS.           2.0     :   CWLS log ASCII Standard - VERSION 2.0
WRAP.           NO      :   One line per depth step
~Well Information Section
#MNEM       .UNIT                                         VALUE :DESCRIPTION
#------------------------------------------------------------------------------
STRT        .FT                                            1092 :START DEPTH
STOP        .FT                                            8058 :STOP DEPTH
STEP        .FT                                             0.5 :STEP      
NULL        .                                           -999.25 :NULL      
COMP        .                                    EXXON CO U S A :COMPANY   
WELL        .                               OCS G03029 ST00BP00 :WELL      
FLD         .                                           WILDCAT :FIELD     
LOC         .                                                   :LOCATION  
CNTY        .                        MUSTANG ISLAND LARGE BLOCK :LOCATION  
STAT        .                                             TEXAS :STATE     
CTRY        .                                     UNITED STATES :COUNTRY   
SRVC        .                                                   :SERVICE COMPANY
DATE        .                             9/13/2023 11:19:13 AM :LOG DATE  
API         .                                    42702400190000 :API NUMBER
UWI         .                                    42702400190000 :UNIQUE WELL ID
XCOORD      .                                  486295.566528254 :SURFACE X 
YCOORD      .                                  10047803.1546112 :SURFACE Y 
LAT         .                                         27.643077 :LATITUDE  
LON         .                                        -96.564717 :LONGITUDE 
ELEV        .FT                                              70 :ELEVATION VALUE
ELEV_TYPE   .                                                KB :ELEVATION REFERENCE TYPE
~Curve Information Section
#MNEM       .UNIT                                      API CODE :CURVE DESCRIPTION
#------------------------------------------------------------------------------
DEPT        .FT                                                 :DEPTH     
ASN         .OHMM                                               :          
CALI        .IN                                                 :          
CIL         .MMHO                                               :          
DRHO        .G/C3                                               :          
DT          .US/F                                               :          
GR          .GAPI                                               :          
GR_NORM     .GAPI                                               :GammaRay Normalized
ILD         .OHMM                                               :          
NPHI        .%                                                  :          
RHOB        .G/C3                                               :          
SN          .OHMM                                               :          
SP          .MV                                                 :          
SP_NORM     .MV                                                 :SP Normalized
VSH_GR      .V/V                                                :Volume of Shale from GR
VSH_SP      .V/V                                                :Volume of Shale from SP
~A        DEPTH            ASN           CALI            CIL           DRHO             DT             GR        GR_NORM            ILD           NPHI           RHOB             SN             SP        SP_NORM         VSH_GR         VSH_SP
# ...
      2588.0000         1.1433        -999.25       1424.111        -999.25        -999.25        34.2967       40.59013         0.6259        -999.25        -999.25         1.0189      -138.6433      -19.40175      0.1614922       0.330702
      2588.5000         1.1211        -999.25       1499.912        -999.25        -999.25        35.0475       41.89557         0.5818        -999.25        -999.25         0.9998      -139.0105      -19.75849      0.1892675      0.3169811
      2589.0000         1.0788        -999.25       1543.814        -999.25        -999.25        37.1656       45.58725         0.5541        -999.25        -999.25         0.9919      -138.6782      -19.41574      0.2678137      0.3301638
      2589.5000         1.0581        -999.25       1559.857        -999.25        -999.25        39.7634        50.1161         0.5504        -999.25        -999.25         0.9962      -137.6238      -18.35088      0.3641723      0.3711202
      2590.0000         1.0418        -999.25       1493.697        -999.25        -999.25        42.8296       55.46242          0.578        -999.25        -999.25         1.0173       -136.175      -16.89162      0.4779239      0.4272452
      2590.5000         1.0258        -999.25       1411.832        -999.25        -999.25        45.8133       60.66475         0.6129        -999.25        -999.25         1.0421      -134.3928      -15.09897      0.5886117      0.4961935
      2591.0000         1.0011        -999.25       1314.441        -999.25        -999.25        48.7946       65.86288         0.6542        -999.25        -999.25         1.0728      -132.4587       -13.1544      0.6992102      0.5709848
      2591.5000         1.0075        -999.25       1231.076        -999.25        -999.25        48.3836       65.14072         0.7002        -999.25        -999.25         1.1119      -130.8945      -11.57975      0.6838452       0.631548
      2592.0000         1.0211        -999.25       1157.621        -999.25        -999.25        46.1056       61.16025         0.7489        -999.25        -999.25         1.1438      -129.4995      -10.17429      0.5991542      0.6856044
      2592.5000         1.0338        -999.25       1099.305        -999.25        -999.25        43.7238       56.99863         0.7875        -999.25        -999.25         1.1629       -128.384      -9.048332      0.5106091      0.7289103
      2593.0000         1.0657        -999.25       1083.199        -999.25        -999.25        41.7361       53.52479         0.7968        -999.25        -999.25         1.1484      -128.0767      -8.730576      0.4366976      0.7411317
      2593.5000         1.0888        -999.25       1118.037        -999.25        -999.25        40.1044       50.67226         0.7837        -999.25        -999.25         1.1246      -127.9648      -8.608215      0.3760055      0.7458379
      2594.0000         1.1076        -999.25       1152.742        -999.25        -999.25        39.3491       49.34921         0.7648        -999.25        -999.25         1.1144      -127.7953      -8.428261      0.3478555      0.7527592
      2594.5000         1.1317        -999.25       1178.238        -999.25        -999.25        38.9648       48.67366         0.7436        -999.25        -999.25         1.1111      -127.6196      -8.242096      0.3334822      0.7599194
      2595.0000         1.1642        -999.25       1195.385        -999.25        -999.25         38.885       48.52951         0.7266        -999.25        -999.25         1.1154      -127.3245      -7.936539      0.3304152      0.7716716
      2595.5000         1.1485        -999.25       1201.541        -999.25        -999.25         38.903       48.55606         0.7136        -999.25        -999.25         1.1188      -126.9871      -7.588684      0.3309801      0.7850506
      2596.0000         1.1323        -999.25       1203.334        -999.25        -999.25         38.921       48.58261         0.7126        -999.25        -999.25         1.1196      -126.3119      -6.903023      0.3315448      0.8114222
      2596.5000         1.1232        -999.25         1199.9        -999.25        -999.25        38.1636       47.25591         0.7161        -999.25        -999.25         1.1161      -125.3262      -5.906868      0.3033172      0.8497359
      2597.0000         1.1194        -999.25       1193.326        -999.25        -999.25         37.284       45.71593         0.7287        -999.25        -999.25         1.1089      -124.3335      -4.903709      0.2705518      0.8883189
      2597.5000         1.1225        -999.25       1180.391        -999.25        -999.25        36.7651       44.80547         0.7418        -999.25        -999.25         1.1043      -125.6165      -6.176254      0.2511803      0.8393748
      2598.0000         1.1254        -999.25       1166.781        -999.25        -999.25        36.6363       44.57582         0.7567        -999.25        -999.25         1.1001      -126.2135      -6.762794       0.246294      0.8168156
      2598.5000         1.1277        -999.25       1149.717        -999.25        -999.25        37.2256       45.59941         0.7718        -999.25        -999.25         1.1013      -126.7061      -7.244934      0.2680725      0.7982718
      2599.0000          1.126        -999.25        1131.49        -999.25        -999.25        38.5089       47.83417          0.785        -999.25        -999.25         1.1024      -126.8529      -7.381271      0.3156207       0.793028
      2599.5000         1.1162        -999.25       1109.463        -999.25        -999.25        40.1613       50.71309         0.7978        -999.25        -999.25          1.106      -126.2372      -6.755112      0.3768742      0.8171111
      2600.0000          1.105        -999.25       1087.438        -999.25        -999.25        39.4637       49.49076         0.8109        -999.25        -999.25         1.1121      -125.0107      -5.518158      0.3508672      0.8646863
      2600.5000         1.0974        -999.25       1059.844        -999.25        -999.25        38.1224       47.14503         0.8293        -999.25        -999.25         1.1226      -123.5482      -4.045204       0.300958      0.9213383
      2601.0000         1.0914        -999.25       1031.953        -999.25        -999.25        37.5057       46.06388         0.8576        -999.25        -999.25         1.1437      -122.2412      -2.727745      0.2779549      0.9720098
      2601.5000         1.0857        -999.25       997.5586        -999.25        -999.25        37.7533       46.49112         0.8977        -999.25        -999.25         1.1648      -120.9717      -1.447784      0.2870451              1
      2602.0000         1.0885        -999.25       958.3232        -999.25        -999.25        38.7943       48.30302         0.9383        -999.25        -999.25         1.1844      -119.7278      -0.193428      0.3255962              1
      2602.5000         1.1039        -999.25       916.4912        -999.25        -999.25        39.9021       50.23151         0.9774        -999.25        -999.25          1.204      -118.1653       1.359306      0.3666278              1
      2603.0000          1.126        -999.25       873.6113        -999.25        -999.25        41.0848       52.29069         1.0213        -999.25        -999.25         1.2208      -116.6835       2.805595      0.4104402              1
      2603.5000         1.1428        -999.25       836.2607        -999.25        -999.25        42.5854        54.9047         1.0613        -999.25        -999.25         1.2193      -115.6769       3.776688      0.4660574              1
      2604.0000         1.1509        -999.25       837.8955        -999.25        -999.25        43.4528       56.41364         1.0745        -999.25        -999.25         1.1815      -115.8907       3.527382      0.4981626              1
      2604.5000         1.1698        -999.25       865.9863        -999.25        -999.25        41.6368       53.23943          1.028        -999.25        -999.25         1.1321      -117.4097       1.972878      0.4306262              1
