#------------------------------------------------------------------------------
# Created by    : vladimir.rabinovich
# Created on    : 09/19/2023 17:19:44
#------------------------------------------------------------------------------
~Version Information Section
VERS.           2.0     :   CWLS log ASCII Standard - VERSION 2.0
WRAP.           NO      :   One line per depth step
~Well Information Section
#MNEM       .UNIT                                         VALUE :DESCRIPTION
#------------------------------------------------------------------------------
STRT        .FT                                            2932 :START DEPTH
STOP        .FT                                           14530 :STOP DEPTH
STEP        .FT                                             0.5 :STEP      
NULL        .                                           -999.25 :NULL      
COMP        .                                 MESA PETROLEUM CO :COMPANY   
WELL        .                                 ST TR 00022-L W/2 :WELL      
FLD         .                                           WILDCAT :FIELD     
LOC         .                                                   :LOCATION  
CNTY        .                           HIGH ISLAND LARGE BLOCK :LOCATION  
STAT        .                                             TEXAS :STATE     
CTRY        .                                     UNITED STATES :COUNTRY   
SRVC        .                                                   :SERVICE COMPANY
DATE        .                             9/13/2023 11:19:15 AM :LOG DATE  
API         .                                    42708300770000 :API NUMBER
UWI         .                                    42708300770000 :UNIQUE WELL ID
XCOORD      .                                  1307803.37781852 :SURFACE X 
YCOORD      .                                  10713200.3443699 :SURFACE Y 
LAT         .                                         29.515602 :LATITUDE  
LON         .                                       -94.0460534 :LONGITUDE 
ELEV        .FT                                              85 :ELEVATION VALUE
ELEV_TYPE   .                                                KB :ELEVATION REFERENCE TYPE
~Curve Information Section
#MNEM       .UNIT                                      API CODE :CURVE DESCRIPTION
#------------------------------------------------------------------------------
DEPT        .FT                                                 :DEPTH     
ASFL        .OHMM                                               :          
CILD        .MMHO                                               :          
ILD         .OHMM                                               :          
SP          .MV                                                 :          
SP_NORM     .MV                                                 :SP Normalized
VSH_SP      .V/V                                                :Volume of Shale from SP
~A        DEPTH           ASFL           CILD            ILD             SP        SP_NORM         VSH_SP
# ...
      9088.0000         0.5743       1503.313         0.6733       -46.2666      0.2742767              1
      9088.5000         0.5662       1520.781         0.6727       -46.3652      0.1756783              1
      9089.0000         0.5582       1528.318         0.6721       -46.0181      0.5227776              1
      9089.5000         0.5546       1529.504         0.6715       -45.6709      0.8699799              1
      9090.0000         0.5573       1530.688         0.6709       -45.3237       1.217178              1
      9090.5000         0.5646       1527.008         0.6703        -45.094       1.446877              1
      9091.0000         0.5747        1522.25         0.6697       -44.8877       1.653179              1
      9091.5000         0.5694       1536.969         0.6691       -44.6411       1.899776              1
      9092.0000         0.5606       1555.906         0.6701       -44.2446        2.29628              1
      9092.5000         0.5584       1574.844          0.673       -43.8477        2.69318              1
      9093.0000         0.5562       1588.516         0.6758       -43.6504        2.89048              1
      9093.5000          0.554       1601.375         0.6787       -44.3896       2.151279              1
      9094.0000         0.5518       1614.234         0.6815       -44.7534       1.787479              1
      9094.5000         0.5496       1616.313         0.6844       -44.9016       1.639278              1
      9095.0000         0.5474       1607.516         0.6873       -44.8711       1.669777              1
      9095.5000         0.5482        1584.25          0.695       -44.8407        1.70018              1
      9096.0000         0.5528       1554.563         0.7054       -44.8103       1.730579              1
      9096.5000         0.5574       1525.625         0.7158       -45.2832       1.257679              1
      9097.0000          0.562       1508.688         0.7262       -46.1475      0.3933792              1
      9097.5000         0.5688       1491.719         0.7377       -47.0605     -0.5196228              1
      9098.0000          0.577       1474.719         0.7506       -48.1934      -1.652523      0.9911821
      9098.5000         0.5853       1457.594         0.7635       -49.4512       -2.91032      0.9741849
      9099.0000         0.5842       1440.438         0.7765       -50.7217       -4.18082      0.9570159
      9099.5000          0.581       1423.281         0.7894       -50.4609      -3.920021      0.9605402
      9100.0000         0.5882         1387.5         0.8106       -50.1738      -3.632923        0.96442
      9100.5000         0.5978           1340         0.8334       -49.8716      -3.330723      0.9685038
      9101.0000         0.6074       1264.625         0.8563       -49.8491       -3.30822      0.9688078
      9101.5000         0.6288       1195.875         0.8943       -50.1367      -3.595821      0.9649214
      9102.0000         0.6583       1147.375         0.9382       -50.8457      -4.304821      0.9553403
      9102.5000         0.6814         1114.5          0.982       -51.1045      -4.564247      0.9518345
      9103.0000         0.6997       1080.563         1.0196       -50.7793      -4.241421       0.956197
      9103.5000         0.7116       1045.375         1.0421       -50.9141      -4.378597      0.9543433
      9104.0000         0.7213       1013.188         1.0646       -51.1689      -4.635769       0.950868
      9104.5000         0.7323       985.3438         1.0429       -51.4207      -4.889946      0.9474332
      9105.0000         0.7368       968.9375         0.9993       -51.6472       -5.11882      0.9443403
      9105.5000         0.7234       1006.063         0.9556       -51.8743      -5.348289      0.9412394
      9106.0000         0.7101        1043.25         0.9133       -51.3164      -4.792767      0.9487464
      9106.5000         0.6937       1110.125          0.875       -50.3848      -3.863541      0.9613035
      9107.0000          0.674        1194.25         0.8367       -49.4199      -2.901016      0.9743106
      9107.5000         0.6448        1387.25         0.7984       -48.4336      -1.917091      0.9876069
      9108.0000         0.6021         1535.5         0.7601       -47.4492     -0.9350662              1
      9108.5000         0.5746       1611.688         0.7545       -47.9063      -1.394539      0.9946684
      9109.0000         0.5565       1657.313         0.7556       -48.4668      -1.957417      0.9870619
      9109.5000         0.5569       1685.438         0.7603       -49.0273       -2.52029      0.9794555
      9110.0000         0.5654       1649.125          0.779       -49.3779      -2.873264      0.9746856
      9110.5000         0.5739       1612.875         0.7976        -49.625      -3.122738      0.9713144
      9111.0000         0.5865        1565.25         0.8163       -49.8765      -3.376614      0.9678836
      9111.5000          0.611       1497.625         0.8349       -50.1353      -3.637787      0.9643542
      9112.0000         0.6355         1428.5         0.8519       -49.3643      -2.869164       0.974741
      9112.5000         0.6352       1355.875         0.8598       -48.5781      -2.085335      0.9853333
      9113.0000         0.6293       1288.125         0.8677       -48.7373      -2.246914      0.9831498
      9113.5000         0.6234       1256.906         0.8651       -48.9951      -2.507084       0.979634
      9114.0000         0.6175       1246.844         0.8588       -49.5068      -3.021164      0.9726869
      9114.5000         0.6115       1255.781         0.8525       -49.4482      -2.964935      0.9734468
      9115.0000         0.6056       1270.438         0.8462       -49.0864      -2.605511      0.9783039
      9115.5000         0.5997       1294.156         0.8394       -48.7241      -2.245583      0.9831678
      9116.0000         0.5937       1317.906         0.8324       -48.3623      -1.886162      0.9880248
      9116.5000         0.5919       1341.625         0.8255       -48.5566      -2.082832      0.9853671
      9117.0000         0.5913       1365.344         0.8185       -49.2129      -2.741508      0.9764661
      9117.5000         0.5907       1389.188         0.8115       -49.9248      -3.455784      0.9668137
      9118.0000          0.592           1413         0.8031       -50.6748       -4.20816      0.9566465
      9118.5000         0.5941       1430.125         0.7909       -51.2197      -4.755432      0.9492509
      9119.0000         0.5966         1387.5         0.7786       -51.7637      -5.301807      0.9418675
      9119.5000         0.6025       1344.875         0.7664       -52.3086      -5.849083      0.9344718
      9120.0000         0.6083        1302.25         0.7497         -53.04      -6.582859       0.924556
      9120.5000         0.6319       1255.125         0.7188        -54.043       -7.58823      0.9109699
      9121.0000          0.667       1222.625         0.6879       -55.9766      -9.524208       0.884808
      9121.5000         0.7727           1271         0.6512       -61.7813      -15.33128      0.8063341
      9122.0000         0.8192         1322.5         0.6112       -72.1875      -25.73986      0.6656776
      9122.5000         0.7478         1656.5         0.5711       -85.8906      -39.44533      0.4804685
      9123.0000         0.7164           2006         0.5178      -100.0938      -53.65091      0.2885012
      9123.5000         0.6848         2355.5         0.4614      -105.0469      -58.60638      0.2215354
      9124.0000         0.6406           2705         0.4048      -118.1094      -71.67125     0.04498312
      9124.5000         0.6046         3054.5         0.3575      -119.4932      -73.05743     0.02625089
      9125.0000         0.5724           3404         0.3249      -119.5039       -73.0705     0.02607428
      9125.5000         0.5467         3753.5         0.2922      -118.2422      -71.81118     0.04309216
