#------------------------------------------------------------------------------
# Created by    : vladimir.rabinovich
# Created on    : 09/19/2023 17:20:30
#------------------------------------------------------------------------------
~Version Information Section
VERS.           2.0     :   CWLS log ASCII Standard - VERSION 2.0
WRAP.           NO      :   One line per depth step
~Well Information Section
#MNEM       .UNIT                                         VALUE :DESCRIPTION
#------------------------------------------------------------------------------
STRT        .FT                                             617 :START DEPTH
STOP        .FT                                           12396 :STOP DEPTH
STEP        .FT                                             0.5 :STEP      
NULL        .                                           -999.25 :NULL      
COMP        .                                        SUN OIL CO :COMPANY   
WELL        .                               OCS G01781 ST00BP00 :WELL      
FLD         .                                           WILDCAT :FIELD     
LOC         .                                                   :LOCATION  
CNTY        .                             GALVESTON LARGE BLOCK :LOCATION  
STAT        .                                             TEXAS :STATE     
CTRY        .                                     UNITED STATES :COUNTRY   
SRVC        .                                                   :SERVICE COMPANY
DATE        .                             9/13/2023 11:19:24 AM :LOG DATE  
API         .                                    42706001390000 :API NUMBER
UWI         .                                    42706001390000 :UNIQUE WELL ID
XCOORD      .                                  1010631.41746955 :SURFACE X 
YCOORD      .                                  10491097.5822315 :SURFACE Y 
LAT         .                                         28.894296 :LATITUDE  
LON         .                                        -94.968586 :LONGITUDE 
ELEV        .FT                                              65 :ELEVATION VALUE
ELEV_TYPE   .                                                KB :ELEVATION REFERENCE TYPE
~Curve Information Section
#MNEM       .UNIT                                      API CODE :CURVE DESCRIPTION
#------------------------------------------------------------------------------
DEPT        .FT                                                 :DEPTH     
ASN         .OHMM                                               :          
CILD        .MMHO                                               :          
DT          .US/F                                               :          
ILD         .OHMM                                               :          
SP          .MV                                                 :          
SP_NORM     .MV                                                 :SP Normalized
VSH_SP      .V/V                                                :Volume of Shale from SP
~A        DEPTH            ASN           CILD             DT            ILD             SP        SP_NORM         VSH_SP
# ...
      6881.5000         1.1976       1175.783       115.4033         0.8308       -72.7565      -6.676224      0.9257742
      6882.0000         1.1982       1175.775       114.9137         0.8311       -72.8998       -6.82222      0.9234568
      6882.5000         1.1987       1175.768       114.6495         0.8315       -73.0428      -6.967918      0.9211441
      6883.0000         1.1993        1175.76       115.0981         0.8327        -73.186      -7.113808      0.9188284
      6883.5000         1.1998       1175.752       115.4889          0.834       -73.3291      -7.259605      0.9165142
      6884.0000         1.2004       1175.744       115.3982         0.8352       -73.5399      -7.473106      0.9131253
      6884.5000         1.2009       1174.346       115.3093         0.8364       -73.8989      -7.834801      0.9073841
      6885.0000         1.2015       1170.814       116.4032         0.8376       -74.2579      -8.196495      0.9016429
      6885.5000         1.1998       1167.281       116.9482         0.8388       -74.6172      -8.558495      0.8958969
      6886.0000         1.1949       1163.746       117.0323         0.8401       -74.7064      -8.650391      0.8944383
      6886.5000         1.1899       1160.213       116.9136         0.8413       -74.2998      -8.246483      0.9008495
      6887.0000          1.185       1160.805       116.1974         0.8425       -73.8937      -7.843079      0.9072527
      6887.5000           1.18       1166.215       115.7358         0.8437       -73.7842      -7.736282      0.9089479
      6888.0000         1.1751       1171.625       115.3253         0.8449       -73.7476       -7.70237      0.9094862
      6888.5000         1.1697       1177.035       115.7001         0.8461       -73.7109      -7.668373      0.9100258
      6889.0000         1.1632       1182.922        116.104         0.8469       -73.6743      -7.634468       0.910564
      6889.5000         1.1567       1189.047       116.4972         0.8477       -73.6886      -7.651466      0.9102942
      6890.0000         1.1501       1195.174       116.8562         0.8486       -73.8363      -7.801865      0.9079069
      6890.5000         1.1436       1201.301       117.6096         0.8494       -73.9841      -7.952354      0.9055182
      6891.0000         1.1371       1197.619       118.2063         0.8502       -74.1321      -8.103058      0.9031261
      6891.5000         1.1366       1189.158       118.2914          0.851       -74.2799      -8.253548      0.9007373
      6892.0000         1.1436       1180.711       117.3003         0.8518       -74.4276      -8.403946      0.8983501
      6892.5000         1.1506        1172.25       116.2902         0.8526       -74.5754      -8.554443      0.8959612
      6893.0000         1.1577       1165.549       115.3551         0.8535       -74.7234      -8.705132      0.8935694
      6893.5000         1.1647       1160.244       114.4176         0.8543       -74.7502      -8.734634       0.893101
      6894.0000         1.1723       1154.932       116.3212         0.8551       -74.6873      -8.674431      0.8940567
      6894.5000          1.185       1149.627       118.1165         0.8559       -74.6243      -8.614128      0.8950139
      6895.0000         1.1976       1144.316       119.1937         0.8567       -74.5614      -8.553925      0.8959695
      6895.5000         1.2102       1143.354       118.3282         0.8574       -74.4967       -8.49192      0.8969536
      6896.0000         1.2229       1144.912       116.1951          0.858       -74.3971       -8.39502      0.8984917
      6896.5000         1.2355       1146.471       114.4247         0.8585       -74.2974      -8.298012      0.9000316
      6897.0000         1.2481       1148.033       113.5277         0.8591       -74.1978      -8.201111      0.9015697
      6897.5000         1.2444       1149.592       115.0172         0.8596       -74.0981      -8.104103      0.9031095
      6898.0000         1.2361        1151.15       116.3181         0.8602       -73.9983      -8.007004      0.9046507
      6898.5000         1.2244       1152.367       115.6239         0.8608       -73.8986      -7.909996      0.9061905
      6899.0000         1.2128       1149.463       114.8149         0.8613        -73.799      -7.813103      0.9077286
      6899.5000         1.2012       1146.561       114.0048         0.8619       -73.8805      -7.897293      0.9063922
      6900.0000         1.1969       1143.658       113.6157         0.8624       -74.0176      -8.037086      0.9041733
      6900.5000         1.2152       1140.756       114.0845          0.863       -74.1548      -8.176987      0.9019526
      6901.0000          1.228       1137.854       114.4711         0.8634        -74.292      -8.316879      0.8997321
      6901.5000         1.2407       1138.529       114.9589         0.8615       -74.4292      -8.456779      0.8975114
      6902.0000         1.2535       1147.027       115.2694         0.8597       -74.5664      -8.596672      0.8952909
      6902.5000         1.2488       1155.537       115.4154         0.8578       -74.7037      -8.736664      0.8930689
      6903.0000         1.2421       1164.035       115.5253          0.856         -74.78      -8.815666      0.8918148
      6903.5000         1.2355       1172.533        115.615         0.8541        -74.813      -8.851364      0.8912482
      6904.0000         1.2282       1181.043       115.9922         0.8523       -74.8459      -8.886963      0.8906831
      6904.5000         1.2209       1189.541       116.5133         0.8499       -74.8789      -8.922653      0.8901166
      6905.0000         1.2135        1194.85        116.639         0.8473       -74.9119      -8.958359      0.8895499
      6905.5000         1.2062       1197.762        117.104         0.8448       -74.9448       -8.99395      0.8889849
      6906.0000         1.1989       1200.674       117.8999         0.8422       -74.9778       -9.02964      0.8884184
      6906.5000         1.1915       1203.588       117.1796         0.8397       -75.0107      -9.065239      0.8878533
      6907.0000         1.1842         1206.5       117.6096         0.8371       -74.9945      -9.051735      0.8880677
      6907.5000         1.1791       1208.521       117.6096         0.8335       -74.8661      -8.926033       0.890063
      6908.0000         1.1755       1207.766        116.991         0.8294       -74.7379      -8.800529      0.8920551
      6908.5000         1.1719       1207.012        116.803         0.8252       -74.6096      -8.674927      0.8940488
      6909.0000         1.1683       1206.256       117.5249         0.8211       -74.4812      -8.549225      0.8960441
      6909.5000         1.1648       1205.502       117.7322          0.817        -74.353      -8.423714      0.8980363
      6910.0000         1.1616       1199.262       118.8624         0.8129       -74.2253      -8.298721      0.9000203
      6910.5000         1.1652       1190.949       119.7714         0.8114       -74.0988      -8.174911      0.9019855
      6911.0000         1.1688       1182.625       120.4727           0.81        -73.972      -8.050812      0.9039553
      6911.5000         1.1724       1174.313       115.8119         0.8123       -73.8455      -7.927002      0.9059206
      6912.0000         1.1972           1166       112.6068         0.8281       -73.7187      -7.802895      0.9078906
      6912.5000         1.2293       1147.781       109.8918         0.8439       -74.4058      -8.492699      0.8969413
      6913.0000         1.2615       1124.264       106.6011         0.8597       -75.4772      -9.566795      0.8798921
      6913.5000          1.298       1100.746       104.9985         0.8755       -76.5498      -10.64209       0.862824
      6914.0000          1.335       1075.918       105.0592         0.8913       -77.6212      -11.71619      0.8457748
      6914.5000         1.3721       1049.041       106.5511          0.907       -78.6938      -12.79149      0.8287065
