#------------------------------------------------------------------------------
# Created by    : vladimir.rabinovich
# Created on    : 09/19/2023 17:21:39
#------------------------------------------------------------------------------
~Version Information Section
VERS.           2.0     :   CWLS log ASCII Standard - VERSION 2.0
WRAP.           NO      :   One line per depth step
~Well Information Section
#MNEM       .UNIT                                         VALUE :DESCRIPTION
#------------------------------------------------------------------------------
STRT        .FT                                             930 :START DEPTH
STOP        .FT                                           10010 :STOP DEPTH
STEP        .FT                                             0.5 :STEP      
NULL        .                                           -999.25 :NULL      
COMP        .                 FAIRWAYS SPEC SALES & SERVICE INC :COMPANY   
WELL        .                               OCS G02357 ST00BP00 :WELL      
FLD         .                            HIGH ISLAND BLOCK 0154 :FIELD     
LOC         .                                                   :LOCATION  
CNTY        .                           HIGH ISLAND LARGE BLOCK :LOCATION  
STAT        .                                             TEXAS :STATE     
CTRY        .                                     UNITED STATES :COUNTRY   
SRVC        .                                                   :SERVICE COMPANY
DATE        .                             9/13/2023 11:20:04 AM :LOG DATE  
API         .                                    42708400540000 :API NUMBER
UWI         .                                    42708400540000 :UNIQUE WELL ID
XCOORD      .                                  1183911.52517142 :SURFACE X 
YCOORD      .                                  10615048.6542629 :SURFACE Y 
LAT         .                                         29.242029 :LATITUDE  
LON         .                                        -94.431816 :LONGITUDE 
ELEV        .FT                                              73 :ELEVATION VALUE
ELEV_TYPE   .                                                KB :ELEVATION REFERENCE TYPE
~Curve Information Section
#MNEM       .UNIT                                      API CODE :CURVE DESCRIPTION
#------------------------------------------------------------------------------
DEPT        .FT                                                 :DEPTH     
CALI        .IN                                                 :          
DRHO        .G/C3                                               :          
DT          .US/F                                               :          
GR          .GAPI                                               :          
GR_1        .GAPI                                               :          
GR_NORM     .GAPI                                               :GammaRay Normalized
ILD         .OHMM                                               :          
NPHI        .%                                                  :          
RHOB        .G/C3                                               :          
SFL         .OHMM                                               :          
SP          .MV                                                 :          
SP_NORM     .MV                                                 :SP Normalized
VSH_GR      .V/V                                                :Volume of Shale from GR
VSH_SP      .V/V                                                :Volume of Shale from SP
~A        DEPTH           CALI           DRHO             DT             GR           GR_1        GR_NORM            ILD           NPHI           RHOB            SFL             SP        SP_NORM         VSH_GR         VSH_SP
# ...
      8814.0000        11.7993         0.0864          99.28        92.4591        -999.25        80.4465         0.8826        41.9808         2.3915         0.9191        58.7177      -1.350456              1      0.9819939
      8814.5000        11.7747         0.0989       100.3129        93.3395        -999.25       81.50703         0.8797        44.3101         2.4044         0.9111        58.0286      -2.044365              1      0.9727418
      8815.0000        11.8125         0.1132       100.8431          93.67        -999.25       81.88867         0.8787        45.1613         2.4067         0.9126        57.8898      -2.187965              1      0.9708271
      8815.5000        11.8835         0.1066       102.7479        93.8124        -999.25       82.03809         0.8762          44.94         2.3985         0.9277        58.9929      -1.089672              1       0.985471
      8816.0000        11.9571         0.1002       103.1018        93.6299        -999.25        81.7864         0.8752        44.2403         2.3995         0.9447        60.3957      0.3083191              1              1
      8816.5000        12.0201         0.0974       101.4236        92.6489        -999.25       80.54891         0.8743        43.1336         2.3862         0.9569        61.4005       1.308315              1              1
      8817.0000        12.0321         0.0912       100.3729        91.5604        -999.25        79.1787         0.8731        42.1554         2.3714         0.9569        61.5792       1.482212      0.9825256              1
      8817.5000        12.0024         0.0857        99.9119        90.4279        -999.25       77.75417         0.8714        43.1619         2.3642         0.9496        61.1769       1.075104      0.9522163              1
      8818.0000        11.9701         0.0839        98.8865        89.8622        -999.25       77.02939         0.8712        44.4512         2.3618         0.9461        60.4559      0.3492966      0.9367955              1
      8818.5000        12.0289         0.1033       100.1241        89.4662        -999.25       76.51412          0.874        45.7407         2.3692          0.947          59.58     -0.5314026      0.9258324      0.9929146
      8819.0000        12.1417         0.1239       102.8073        89.2065        -999.25       76.16711         0.8798        47.0301         2.3923         0.9518        58.9406       -1.17561      0.9184492      0.9843252
      8819.5000        12.2018         0.1299       102.1488        89.1133        -999.25       76.02567         0.8854        46.1581         2.4142         0.9577         58.972      -1.149017      0.9154398      0.9846798
      8820.0000        12.2034         0.1317       100.7677         89.348        -999.25       76.28905         0.8873        43.9061         2.4214         0.9657         59.327     -0.7988243      0.9210436       0.989349
      8820.5000        12.1447         0.1273       100.7034        89.8818        -999.25       76.92168         0.8894        41.4966         2.4243         0.9782        59.7004     -0.4302254      0.9345037      0.9942636
      8821.0000        12.0783         0.1103         99.936        91.0071        -999.25       78.28455         0.8921        40.8073         2.4112         0.9947        60.0665    -0.06893158      0.9635012      0.9990809
      8821.5000        12.0004         0.1076        98.8865        91.9755        -999.25       79.45373         0.8926        41.6733         2.4052         1.0154        60.3364      0.1961594      0.9883772              1
      8822.0000        11.9183         0.1144        97.9237        92.5111        -999.25       80.08858         0.8867        42.0173         2.4114         1.0174        60.1046    -0.04044342              1      0.9994608
      8822.5000        11.8246          0.122        98.1191        92.6584        -999.25       80.24405         0.8785        41.1267         2.4158         1.0061        60.1729     0.02305222              1              1
      8823.0000        11.7371         0.1291        97.8593        91.8959        -999.25        79.2763         0.8775        40.0408         2.3769         0.9875        60.3364      0.1817436      0.9846021              1
      8823.5000        11.6875         0.0928        96.2603        90.6471        -999.25       77.70821          0.909        40.0631         2.3528         0.9485        60.1094    -0.05006027      0.9512385      0.9993325
      8824.0000        11.9628         0.0875        97.9286        90.9324        -999.25       78.03405         0.9528        42.0818         2.3565         0.8953        59.7744     -0.3898659      0.9581712      0.9948018
      8824.5000        12.1693         0.0887        99.8939        91.8503        -999.25       79.14087          0.997        43.8912         2.3488         0.8541        60.1451    -0.02397156      0.9817206      0.9996804
      8825.0000        12.2875         0.0938       101.3802        91.8959        -999.25       79.17078         1.0333         44.065          2.354         0.8342        60.5618      0.3879204       0.982357              1
      8825.5000        11.8904         0.0741       100.6266        88.9819        -999.25       75.54688         1.0569        42.4087         2.3776         0.8544        60.0861    -0.09257889      0.9052526      0.9987656
      8826.0000        11.5887         0.0405        97.9509         85.877        -999.25       71.68727         1.0789        40.0289         2.4369         1.0397        58.3885      -1.794987      0.8231334      0.9760668
      8826.5000        11.8061         0.0591        94.0004        83.7073        -999.25       68.98225          1.094        35.8755         2.4603         1.3754        55.9637      -4.224594      0.7655797      0.9436721
      8827.0000        11.2566          0.079        88.6836        82.7021        -999.25       67.71489         1.1061        31.7161         2.4556         1.7408        53.1998      -6.993301      0.7386147       0.906756
      8827.5000        11.1021         0.0836        84.7926        82.4425        -999.25         67.368         1.1161        27.5686         2.4048         1.6808        45.7165       -14.4814      0.7312341      0.8069146
      8828.0000        11.2534         0.0863        81.2678         82.416        -999.25       67.30891          1.121         24.146         2.3912         1.4145        40.9602      -19.24251      0.7299767      0.7434332
      8828.5000        10.6787         0.0901        84.8916         82.459        -999.25       67.33561         1.1195        24.5114         2.3767         1.2213        37.0097      -23.19781      0.7305449      0.6906958
      8829.0000        10.2745         0.0777        90.1292        82.5188        -999.25       67.38305         1.1142        25.9672         2.3637         1.3298        33.8356      -26.37672      0.7315542      0.6483104
      8829.5000        10.7179         0.0935        92.3773        82.8234        -999.25       67.73272         1.1129         26.805         2.4182         1.4523        30.2585      -29.95863       0.738994      0.6005517
      8830.0000        11.3536         0.1058        91.4979        83.9131        -999.25       69.05165         1.1173        25.9999         2.4483         1.5773        30.4403      -29.78163      0.7670564      0.6029116
      8830.5000        11.1391         0.1091         89.243        86.8711        -999.25       72.67712         1.1363        25.1205         2.4489         1.6695        36.5724      -23.65434      0.8441941      0.6846088
      8831.0000        11.0269         0.1075        85.5302        89.5598        -999.25       75.97012         1.1853        24.2054         2.4153         1.8141        41.4761      -18.75544      0.9142579      0.7499275
      8831.5000        11.2762         0.1014        81.4783        91.4747        -999.25       78.30781         1.2655        23.8158         2.3786         1.9533        47.1414      -13.09495      0.9639959      0.8254007
