#------------------------------------------------------------------------------
# Created by    : vladimir.rabinovich
# Created on    : 09/19/2023 17:22:52
#------------------------------------------------------------------------------
~Version Information Section
VERS.           2.0     :   CWLS log ASCII Standard - VERSION 2.0
WRAP.           NO      :   One line per depth step
~Well Information Section
#MNEM       .UNIT                                         VALUE :DESCRIPTION
#------------------------------------------------------------------------------
STRT        .FT                                             873 :START DEPTH
STOP        .FT                                           11612 :STOP DEPTH
STEP        .FT                                             0.5 :STEP      
NULL        .                                           -999.25 :NULL      
COMP        .                                   MARATHON OIL CO :COMPANY   
WELL        .                               OCS G04137 ST00BP04 :WELL      
FLD         .                       MATAGORDA ISLAND BLOCK 0527 :FIELD     
LOC         .                                                   :LOCATION  
CNTY        .                      MATAGORDA ISLAND LARGE BLOCK :LOCATION  
STAT        .                                             TEXAS :STATE     
CTRY        .                                     UNITED STATES :COUNTRY   
SRVC        .                                                   :SERVICE COMPANY
DATE        .                             9/13/2023 11:19:05 AM :LOG DATE  
API         .                                    42703400590000 :API NUMBER
UWI         .                                    42703400590000 :UNIQUE WELL ID
XCOORD      .                                  609906.580547661 :SURFACE X 
YCOORD      .                                  10277311.7025511 :SURFACE Y 
LAT         .                                         28.282909 :LATITUDE  
LON         .                                        -96.202007 :LONGITUDE 
ELEV        .FT                                              95 :ELEVATION VALUE
ELEV_TYPE   .                                                KB :ELEVATION REFERENCE TYPE
~Curve Information Section
#MNEM       .UNIT                                      API CODE :CURVE DESCRIPTION
#------------------------------------------------------------------------------
DEPT        .FT                                                 :DEPTH     
GR          .GAPI                                               :          
GR_NORM     .GAPI                                               :GammaRay Normalized
ILD         .OHMM                                               :          
SP          .MV                                                 :          
SP_NORM     .MV                                                 :SP Normalized
VSH_GR      .V/V                                                :Volume of Shale from GR
VSH_SP      .V/V                                                :Volume of Shale from SP
~A        DEPTH             GR        GR_NORM            ILD             SP        SP_NORM         VSH_GR         VSH_SP
# ...
      7372.0000        40.9923        54.6393         0.6728      -115.6476      -49.77934      0.4604107      0.1732316
      7372.5000        42.2216       57.43705         0.6824      -114.8783      -49.01004      0.5199372      0.1862705
      7373.0000        42.9402       59.07415         0.6621      -114.4707      -48.60244      0.5547692       0.193179
      7373.5000        41.6279       56.09576         0.6267      -114.3179      -48.44964      0.4913991      0.1957688
      7374.0000         40.624       53.81824         0.5932      -114.1648      -48.29654      0.4429414      0.1983637
      7374.5000         40.119       52.67453         0.5629      -114.5852      -48.71693       0.418607      0.1912384
      7375.0000        40.4177       53.35737         0.5355      -115.1844      -49.31614      0.4331356      0.1810824
      7375.5000        40.0999       52.63911         0.5093        -115.99      -50.12173      0.4178534      0.1674282
      7376.0000        39.7476       51.84245         0.4801      -116.5338      -50.66553      0.4009031      0.1582113
      7376.5000         39.496       51.27463          0.453      -116.6046      -50.73634      0.3888219      0.1570113
      7377.0000        39.2441       50.70612         0.4286      -115.9819      -50.11364      0.3767259      0.1675654
      7377.5000        39.8732       52.13985          0.411        -115.36      -49.49174      0.4072308      0.1781061
      7378.0000        40.5483       53.67807         0.4062      -114.8118      -48.94353       0.439959      0.1873977
      7378.5000        40.8234       54.30727         0.4218      -114.2729      -48.40464      0.4533463      0.1965315
      7379.0000        40.8318       54.33036         0.4634      -114.1611      -48.29284      0.4538375      0.1984265
      7379.5000        39.4181       51.12149         0.5243      -114.7471      -48.87884      0.3855636      0.1884943
      7380.0000        37.6025       46.99926         0.5934      -115.6543      -49.78603      0.2978567      0.1731181
      7380.5000        37.0972       45.85488         0.6568      -116.1556      -50.28734      0.2735081      0.1646214
      7381.0000        36.8495       45.29594         0.7173      -116.4266      -50.55833      0.2616158      0.1600282
      7381.5000         36.993       45.62604         0.7517      -116.7192      -50.85094      0.2686392      0.1550689
      7382.0000        37.1221       45.92344         0.7553      -117.1029      -51.23463      0.2749667      0.1485655
      7382.5000        37.2407       46.19695         0.7427      -117.5654      -51.69714      0.2807861      0.1407265
      7383.0000        37.6936       47.23021         0.7084      -118.7479      -52.87964      0.3027704      0.1206841
      7383.5000        38.4203       48.88573         0.6756      -119.9452      -54.07693      0.3379944      0.1003909
      7384.0000         39.358       51.02079         0.6457      -119.6576      -53.78934      0.3834212      0.1052655
      7384.5000        39.5025       51.35318         0.6312      -119.2881      -53.41984      0.3904933      0.1115282
      7385.0000        40.1165       52.75256         0.6879      -118.9154      -53.04713      0.4202672      0.1178452
      7385.5000        41.4086       55.69304         0.8313      -118.5121      -52.64384      0.4828306      0.1246807
      7386.0000        42.9041       59.09577          0.967       -118.031      -52.16273      0.5552292       0.132835
      7386.5000         43.215       59.80634         1.0925      -117.3351      -51.46684      0.5703477      0.1446299
      7387.0000        42.6906       58.61853         1.1924      -116.2992      -50.43094      0.5450752      0.1621875
      7387.5000        42.5659       58.33913         1.2658       -114.959      -49.09074      0.5391305      0.1849028
      7388.0000        42.9946        59.3174         1.3192      -113.6016      -47.73334      0.5599447      0.2079095
      7388.5000        43.5563       60.59795         1.3176      -112.3698      -46.50153      0.5871905      0.2287876
      7389.0000        43.7052       60.94032         1.3173      -111.4398      -45.57153       0.594475      0.2445503
      7389.5000        43.6224       60.75612         1.3163      -110.6626      -44.79433      0.5905558      0.2577232
      7390.0000         43.484       60.44559         1.3154      -110.5067      -44.63844      0.5839489      0.2603655
      7390.5000        43.3094       60.05277         1.3145       -110.592      -44.72374      0.5755909      0.2589197
      7391.0000        43.0817       59.53925         1.3219      -110.8325      -44.96423      0.5646648      0.2548435
      7391.5000        43.2698       59.97075         1.3466      -111.8156      -45.94733      0.5738456      0.2381808
      7392.0000        44.1247       61.91761         1.3738      -113.6681      -47.79984      0.6152682      0.2067825
      7392.5000        45.1631       64.28156         1.4066      -115.2183      -49.35004       0.665565      0.1805079
      7393.0000         45.713       65.53525         1.4481      -115.0372      -49.16894      0.6922393      0.1835773
      7393.5000        44.0816       61.83161         1.5007      -114.7832      -48.91494      0.6134385      0.1878824
      7394.0000        42.9053       59.16228         1.5551      -114.2483      -48.38004      0.5566443      0.1969486
      7394.5000         41.735       56.50659         1.6023      -113.3134      -47.44514      0.5001402      0.2127943
      7395.0000        41.8145       56.69127         1.6386      -112.1653      -46.29704      0.5040694      0.2322536
      7395.5000        42.6331       58.55562         1.5691      -111.1294      -45.26114      0.5437366      0.2498112
      7396.0000        43.7589       61.11818         1.5026      -110.3016      -44.43333      0.5982592      0.2638418
      7396.5000        44.9279       63.77888         1.4247      -109.8324      -43.96413      0.6548697      0.2717943
      7397.0000        46.1337       66.52322         1.3426       -109.696      -43.82774      0.7132599      0.2741062
      7397.5000        47.4493       69.51711         1.2632      -109.1918      -43.32354      0.7769598      0.2826519
      7398.0000        48.6638       72.28122          1.187      -108.0833      -42.21503      0.8357706      0.3014401
      7398.5000        49.5205       74.23221         1.1524      -106.3735      -40.50523       0.877281      0.3304198
      7399.0000        49.0062       73.06734         1.1508       -104.314      -38.44574      0.8524967      0.3653264
      7399.5000        48.4913       71.90116          1.167      -102.2151      -36.34684      0.8276843       0.400901
      7400.0000        48.1471       71.12288         1.1842       -99.1455      -33.27724      0.8111251      0.4529282
      7400.5000        47.9346       70.64395          1.203        -97.256      -31.38773      0.8009351      0.4849537
      7401.0000        49.4029       73.98488         1.2294       -96.4824      -30.61414      0.8720187      0.4980655
      7401.5000        49.6309       74.50705         1.2564       -95.2358      -29.36754      0.8831287      0.5191942
      7402.0000        49.3979       73.98148         1.2786       -92.9866      -27.11834      0.8719463      0.5573163
      7402.5000        48.9249        72.9105         1.2939       -90.0254      -24.15714      0.8491595      0.6075062
      7403.0000        50.1764       74.89359         1.3094       -87.6284      -21.76014       0.891353      0.6481332
      7403.5000        53.0563       78.02719         1.2899       -84.9924      -19.12414      0.9580253      0.6928113
      7404.0000        53.9075       80.18501         1.2504       -82.2825      -16.41424              1      0.7387418
      7404.5000        52.6092       76.90498         1.2131       -79.8436      -13.97533      0.9341484      0.7800791
      7405.0000        51.2863       73.56279         1.1775       -78.2842      -12.41594      0.8630381      0.8065095
