#------------------------------------------------------------------------------
# Created by    : vladimir.rabinovich
# Created on    : 09/19/2023 17:21:44
#------------------------------------------------------------------------------
~Version Information Section
VERS.           2.0     :   CWLS log ASCII Standard - VERSION 2.0
WRAP.           NO      :   One line per depth step
~Well Information Section
#MNEM       .UNIT                                         VALUE :DESCRIPTION
#------------------------------------------------------------------------------
STRT        .FT                                            3434 :START DEPTH
STOP        .FT                                            9802 :STOP DEPTH
STEP        .FT                                             0.5 :STEP      
NULL        .                                           -999.25 :NULL      
COMP        .                                  UMC PETROLEUM CO :COMPANY   
WELL        .                               OCS G11352 ST00BP00 :WELL      
FLD         .                            HIGH ISLAND BLOCK 0093 :FIELD     
LOC         .                                                   :LOCATION  
CNTY        .                           HIGH ISLAND LARGE BLOCK :LOCATION  
STAT        .                                             TEXAS :STATE     
CTRY        .                                     UNITED STATES :COUNTRY   
SRVC        .                                                   :SERVICE COMPANY
DATE        .                             9/13/2023 11:19:57 AM :LOG DATE  
API         .                                    42708403880000 :API NUMBER
UWI         .                                    42708403880000 :UNIQUE WELL ID
XCOORD      .                                  1243413.75648782 :SURFACE X 
YCOORD      .                                  10663707.7269925 :SURFACE Y 
LAT         .                                         29.377731 :LATITUDE  
LON         .                                        -94.246854 :LONGITUDE 
ELEV        .FT                                              85 :ELEVATION VALUE
ELEV_TYPE   .                                                KB :ELEVATION REFERENCE TYPE
~Curve Information Section
#MNEM       .UNIT                                      API CODE :CURVE DESCRIPTION
#------------------------------------------------------------------------------
DEPT        .FT                                                 :DEPTH     
CALI        .IN                                                 :          
CALI_1      .IN                                                 :          
DPHI        .%                                                  :          
DRHO        .G/C3                                               :          
DT          .US/F                                               :          
GR          .GAPI                                               :          
GR_1        .GAPI                                               :          
GR_NORM     .GAPI                                               :GammaRay Normalized
ILD         .OHMM                                               :          
ILM         .OHMM                                               :          
NPHI        .%                                                  :          
RFOC        .OHMM                                               :          
SP          .MV                                                 :          
SP_NORM     .MV                                                 :SP Normalized
VSH_GR      .V/V                                                :Volume of Shale from GR
VSH_SP      .V/V                                                :Volume of Shale from SP
~A        DEPTH           CALI         CALI_1           DPHI           DRHO             DT             GR           GR_1        GR_NORM            ILD            ILM           NPHI           RFOC             SP        SP_NORM         VSH_GR         VSH_SP
# ...
      6826.0000        -999.25        12.1654        -999.25        -999.25        114.741        53.8583        -999.25       72.45581         0.2631         0.3218        -999.25         0.5202        -92.151        -48.151      0.8394853      0.2918971
      6826.5000        -999.25        12.1899        -999.25        -999.25       115.0798         56.467        -999.25       77.26399         0.3102         0.3523        -999.25         0.5791       -81.0413       -37.0413      0.9417871       0.455275
      6827.0000        -999.25        12.1866        -999.25        -999.25       115.3116        56.2399        -999.25       76.84417         0.3734         0.3848        -999.25         0.6151       -72.3093       -28.3093      0.9328547      0.5836867
      6827.5000        -999.25        12.1655        -999.25        -999.25       115.5963        55.4605        -999.25       75.40611           0.45         0.4154        -999.25         0.6382       -67.6727       -23.6727      0.9022576      0.6518721
      6828.0000        -999.25          12.14        -999.25        -999.25       116.7395        54.9101        -999.25       74.39023          0.506         0.4605        -999.25         0.6429       -61.7455       -17.7455      0.8806431      0.7390368
      6828.5000        -999.25        12.1105        -999.25        -999.25       118.3025        55.5089        -999.25       75.49301         0.5489         0.4881        -999.25         0.6471       -56.7764       -12.7764      0.9041066      0.8121117
      6829.0000        -999.25         12.083        -999.25        -999.25       120.0669        57.1148        -999.25       78.45245         0.5757          0.503        -999.25         0.6452       -52.7455      -8.745499      0.9670735      0.8713897
      6829.5000        -999.25        12.0634        -999.25        -999.25       121.5073        58.7877        -999.25       81.53542         0.5726         0.5005        -999.25         0.6512       -51.1694      -7.169399              1      0.8945677
      6830.0000        -999.25        12.0558        -999.25        -999.25       121.2657        59.7471        -999.25       83.30298          0.543          0.494        -999.25         0.6563        -51.579      -7.578999              1      0.8885441
      6830.5000        -999.25        12.0532        -999.25        -999.25       120.5049        58.4675        -999.25       80.94278         0.5077         0.4803        -999.25          0.661       -53.3313      -9.331299              1       0.862775
      6831.0000        -999.25        12.0905        -999.25        -999.25       119.5476        56.8269        -999.25       77.91702         0.4728         0.4619        -999.25         0.6664       -55.1904       -11.1904      0.9556813      0.8354353
      6831.5000        -999.25        12.1789        -999.25        -999.25       118.3826         56.292        -999.25       76.92973         0.4397         0.4371        -999.25         0.6705       -56.8459       -12.8459       0.934675      0.8110897
      6832.0000        -999.25        12.2724        -999.25        -999.25       117.0961        56.8182        -999.25       77.89864         0.4101         0.4173        -999.25         0.6698       -59.3553       -15.3553      0.9552903      0.7741867
      6832.5000        -999.25        12.3562        -999.25        -999.25       115.8322        57.2966        -999.25       78.77945          0.389         0.3999        -999.25          0.655       -63.7958       -19.7958      0.9740309      0.7088853
      6833.0000        -999.25        12.4392        -999.25        -999.25       114.7948        57.7226        -999.25       79.56365         0.3814         0.3883        -999.25         0.6374       -70.2988       -26.2988       0.990716       0.613253
      6833.5000        -999.25        12.4923        -999.25        -999.25       113.9244        56.6159        -999.25       77.52221         0.3825         0.3936        -999.25         0.6229       -74.0616       -30.0616      0.9472811      0.5579177
      6834.0000        -999.25        12.3931        -999.25        -999.25       113.6982         54.722        -999.25       74.02948          0.386         0.4088        -999.25         0.6279       -75.9307       -31.9307      0.8729677      0.5304309
      6834.5000        -999.25        12.3809        -999.25        -999.25       113.7939         53.177        -999.25       71.17998         0.3922         0.4275        -999.25         0.6568       -76.1162       -32.1162        0.81234      0.5277029
      6835.0000        -999.25        12.4718        -999.25        -999.25       113.9647        52.5211        -999.25       69.96961         0.4082          0.451        -999.25         0.6989       -75.8522       -31.8522      0.7865875      0.5315852
      6835.5000        -999.25        12.5378        -999.25        -999.25       113.7349        52.4215        -999.25       69.78481         0.4327         0.4778        -999.25         0.7501       -74.4016       -30.4016      0.7826556      0.5529176
      6836.0000        -999.25         12.562        -999.25        -999.25       111.7327        53.1212        -999.25       71.07362         0.4634         0.4982        -999.25         0.7603       -69.9265       -25.9265      0.8100771       0.618728
      6836.5000        -999.25        12.5362        -999.25        -999.25       110.4287        54.1345        -999.25       72.94056         0.5053         0.5148        -999.25         0.7301       -64.6495       -20.6495      0.8497992      0.6963309
      6837.0000        -999.25         12.488        -999.25        -999.25       110.5438         54.665        -999.25       73.91741         0.5393         0.5319        -999.25         0.6903       -59.4124       -15.4124      0.8705832      0.7733471
      6837.5000        -999.25        12.4224        -999.25        -999.25       111.9879        54.9169        -999.25       74.38064         0.5583         0.5418        -999.25          0.661       -55.1184       -11.1184      0.8804391      0.8364941
      6838.0000        -999.25        12.3661        -999.25        -999.25       113.3357        55.4617        -999.25       75.38386         0.5732         0.5478        -999.25         0.6673       -53.1675        -9.1675      0.9017842      0.8651838
      6838.5000        -999.25        12.3278        -999.25        -999.25       114.2035        56.1937        -999.25       76.73221         0.5837         0.5509        -999.25         0.6958       -51.5368        -7.5368      0.9304725      0.8891647
      6839.0000        -999.25        12.3447        -999.25        -999.25       114.6171        56.2412        -999.25        76.8186         0.5879         0.5512        -999.25         0.7093       -50.2535      -6.253502      0.9323105      0.9080367
      6839.5000        -999.25        12.3792        -999.25        -999.25       115.0977        56.2463        -999.25       76.82684         0.5886         0.5485        -999.25         0.7027       -49.2098      -5.209801       0.932486      0.9233853
      6840.0000        -999.25         12.399        -999.25        -999.25       116.4379        56.0637        -999.25       76.48904         0.5883         0.5539        -999.25         0.6844       -48.6098      -4.609798      0.9252986      0.9322088
      6840.5000        -999.25        12.4142        -999.25        -999.25       118.6879        53.8335        -999.25       72.37631         0.5792         0.5469        -999.25         0.6759       -48.4059      -4.405899      0.8377939      0.9352074
      6841.0000        -999.25        12.4209        -999.25        -999.25       121.3684        51.2174        -999.25       67.55215         0.5685         0.5302        -999.25         0.6759       -48.3451        -4.3451      0.7351521      0.9361014
      6841.5000        -999.25        12.4406        -999.25        -999.25       122.4902        50.0632        -999.25       65.42313         0.5467         0.5123        -999.25         0.6711       -48.4776        -4.4776      0.6898537       0.934153
