#------------------------------------------------------------------------------
# Created by    : vladimir.rabinovich
# Created on    : 09/19/2023 17:22:45
#------------------------------------------------------------------------------
~Version Information Section
VERS.           2.0     :   CWLS log ASCII Standard - VERSION 2.0
WRAP.           NO      :   One line per depth step
~Well Information Section
#MNEM       .UNIT                                         VALUE :DESCRIPTION
#------------------------------------------------------------------------------
STRT        .FT                                             270 :START DEPTH
STOP        .FT                                            9392 :STOP DEPTH
STEP        .FT                                             0.5 :STEP      
NULL        .                                           -999.25 :NULL      
COMP        .                                     TALOS ERT LLC :COMPANY   
WELL        .                               OCS G12363 ST00BP00 :WELL      
FLD         .                                 BRAZOS BLOCK 0453 :FIELD     
LOC         .                                                   :LOCATION  
CNTY        .                                BRAZOS LARGE BLOCK :LOCATION  
STAT        .                                             TEXAS :STATE     
CTRY        .                                     UNITED STATES :COUNTRY   
SRVC        .                                                   :SERVICE COMPANY
DATE        .                             9/13/2023 11:19:08 AM :LOG DATE  
API         .                                    42704401340000 :API NUMBER
UWI         .                                    42704401340000 :UNIQUE WELL ID
XCOORD      .                                  788791.944469438 :SURFACE X 
YCOORD      .                                  10354739.7167093 :SURFACE Y 
LAT         .                                         28.507622 :LATITUDE  
LON         .                                        -95.652007 :LONGITUDE 
ELEV        .FT                                             100 :ELEVATION VALUE
ELEV_TYPE   .                                                KB :ELEVATION REFERENCE TYPE
~Curve Information Section
#MNEM       .UNIT                                      API CODE :CURVE DESCRIPTION
#------------------------------------------------------------------------------
DEPT        .FT                                                 :DEPTH     
DPHI        .%                                                  :          
DT          .US/F                                               :          
GR          .GAPI                                               :          
GR_NORM     .GAPI                                               :GammaRay Normalized
ILD         .OHMM                                               :          
ILM         .OHMM                                               :          
LL          .OHMM                                               :          
NPHI        .%                                                  :          
SP          .MV                                                 :          
SP_NORM     .MV                                                 :SP Normalized
VSH_GR      .V/V                                                :Volume of Shale from GR
VSH_SP      .V/V                                                :Volume of Shale from SP
~A        DEPTH           DPHI             DT             GR        GR_NORM            ILD            ILM             LL           NPHI             SP        SP_NORM         VSH_GR         VSH_SP
# ...
      2156.0000        31.6745        -999.25        48.4719       56.71679         0.5077         0.5357          0.807        43.9293        -54.439       -14.0793      0.5046126      0.6180607
      2156.5000        30.9484        -999.25        48.7421       57.06177         0.5111         0.5311         0.8392        46.5291       -53.0732       -12.7159      0.5119526         0.6667
      2157.0000        32.6802        -999.25        48.0601       56.20937         0.5137         0.5276         0.8313        46.2509       -53.3152       -12.9604      0.4938164      0.6579179
      2157.5000        35.5662        -999.25        48.1217       56.29204         0.5205         0.5248         0.8333        44.4366       -54.1993       -13.8469      0.4955753         0.6262
      2158.0000        36.9189        -999.25        49.3212        57.8056         0.5218         0.5232         0.8515        43.0135       -55.1191       -14.7692      0.5277787      0.5932108
      2158.5000        36.1107        -999.25        53.0185       62.46009         0.5283         0.5227         0.8782        42.7586        -54.847       -14.4995      0.6268105      0.6027893
      2159.0000        34.1243        -999.25        54.1916       63.94045         0.5365         0.5252         0.8132        45.4736       -53.7478       -13.4028      0.6583074      0.6419072
      2159.5000        31.8366        -999.25        53.7419       63.38018         0.5466         0.5334         0.7557         48.389       -53.2322       -12.8896      0.6463867      0.6601821
      2160.0000        31.3174        -999.25        51.2893       60.30128         0.5619         0.5479         0.7773        48.2321        -53.772       -13.4319      0.5808783      0.6407607
      2160.5000        32.0022        -999.25        50.5323       59.35457         0.5754         0.5667         0.8398        48.2933       -54.0304       -13.6928      0.5607355      0.6313928
      2161.0000        31.1776        -999.25         53.206        62.7219          0.589         0.5753         0.8932         47.929       -53.1816       -12.8464      0.6323808      0.6615679
      2161.5000        29.9717        -999.25         55.521       65.63818         0.6043         0.5827         0.8736        50.1912       -50.5057        -10.173      0.6944293      0.7569965
      2162.0000        29.8549        -999.25        57.4971        68.1283          0.617         0.5857         0.8566        52.2542       -48.4224        -8.0921      0.7474107      0.8312572
      2162.5000        30.3266        -999.25        60.3629       71.73721         0.6272         0.5882         0.8605        52.0133       -46.5737        -6.2459      0.8241959      0.8971428
      2163.0000        31.9022        -999.25        63.7109       75.95245         0.6334         0.5891         0.8689        50.0962       -45.0296        -4.7042       0.913882        0.95215
      2163.5000        33.0143        -999.25        67.5026       80.72565         0.6371         0.5918         0.8266          48.95        -44.586        -4.2631              1      0.9678535
      2164.0000        33.9294        -999.25        69.9327       83.78667         0.6387          0.596         0.7682        48.2181        -44.676        -4.3555              1         0.9645
      2164.5000        34.8725        -999.25        70.6796       84.73109          0.639         0.6095         0.7411          47.05       -44.6942        -4.3762              1      0.9637071
      2165.0000        34.8436        -999.25        69.4622       83.20544         0.6393         0.6247         0.7495        46.1519       -44.7897        -4.4741              1      0.9601572
      2165.5000        34.2871        -999.25        68.0179       81.39447         0.6445         0.6375         0.7642        45.6653       -44.9521         -4.639              1      0.9542179
      2166.0000        33.3868        -999.25        66.5155       79.51044         0.6509         0.6467         0.7675        45.5399       -45.1315        -4.8209      0.9895838      0.9476714
      2166.5000        32.2875        -999.25        65.8838       78.72129         0.6596         0.6542         0.7546        45.8524       -45.3222         -5.014      0.9727934      0.9407215
      2167.0000        31.5242        -999.25        65.3225       78.02067         0.6687         0.6614         0.7391        44.5895       -45.5579        -5.2522      0.9578866      0.9321607
      2167.5000        30.7001        -999.25        63.2452       75.41371         0.6786         0.6664         0.7415        42.1051       -45.9696        -5.6663      0.9024194      0.9173179
      2168.0000         29.924        -999.25        58.4585       69.39973         0.6887         0.6705         0.7901        42.9951       -46.9978         -6.697      0.7744623      0.8804572
      2168.5000        29.8788        -999.25        54.7979       64.80181         0.6968         0.6699         0.8415        48.4031       -48.3164         -8.018      0.6766343       0.833225
      2169.0000        31.3481        -999.25        52.6365       62.08907         0.7047         0.6649         0.8774          50.04       -49.4288        -9.1329      0.6189164      0.7933536
      2169.5000        33.1083        -999.25        52.0254       61.32584         0.7059         0.6581         0.8915        49.8978       -50.1856        -9.8921      0.6026775      0.7661857
      2170.0000        34.5144        -999.25        51.4707       60.63352         0.7004         0.6511         0.9061        50.7064       -50.5544       -10.2634      0.5879472       0.752875
      2170.5000        34.7145        -999.25        50.9621       59.99917         0.6896         0.6441         0.9229        50.0218       -50.6165       -10.3279      0.5744505      0.7505178
      2171.0000        34.1405        -999.25        52.5473       61.99774         0.6811           0.64         0.9347        47.2021       -50.5969       -10.3108      0.6169732      0.7510785
      2171.5000        32.6606        -999.25        53.1829        62.8022         0.6788         0.6361         0.9263        45.4606       -50.5197       -10.2361      0.6340894      0.7536929
      2172.0000        31.8593        -999.25        52.7029       62.20382         0.6783         0.6377         0.8816        47.3792       -50.4172        -10.136      0.6213578      0.7572142
      2172.5000        31.4221        -999.25        51.9539       61.26717         0.6797         0.6395          0.854         47.667       -50.2371        -9.9584      0.6014292      0.7635071
      2173.0000        31.1599        -999.25        52.4658       61.91608         0.6797         0.6381         0.8491        46.2627       -49.9329        -9.6566      0.6152359      0.7742321
      2173.5000        30.5472        -999.25        54.2332       64.14376         0.6748         0.6352         0.8511        45.4559       -49.2747        -9.0009      0.6626332      0.7975964
      2174.0000        29.9607        -999.25        54.3329       64.27435         0.6696         0.6313         0.8571        48.2436       -48.5391        -8.2677      0.6654116      0.8237286
      2174.5000        29.9274        -999.25        54.4427       64.41761         0.6603         0.6271         0.8639        48.3732       -48.0318        -7.7629      0.6684598      0.8417072
      2175.0000        30.3774        -999.25        54.8071       64.88106         0.6505         0.6156          0.871        46.8912       -47.8196        -7.5531      0.6783203      0.8491464
      2175.5000        31.0803        -999.25        55.9634       66.34029         0.6377         0.6057         0.8771        46.5248        -47.634          -7.37      0.7093679      0.8556357
      2176.0000        32.0646        -999.25        57.1711       67.86415         0.6258         0.5981         0.8797        47.5097       -47.4769        -7.2153      0.7417905      0.8611036
