#------------------------------------------------------------------------------
# Created by    : vladimir.rabinovich
# Created on    : 09/19/2023 17:20:33
#------------------------------------------------------------------------------
~Version Information Section
VERS.           2.0     :   CWLS log ASCII Standard - VERSION 2.0
WRAP.           NO      :   One line per depth step
~Well Information Section
#MNEM       .UNIT                                         VALUE :DESCRIPTION
#------------------------------------------------------------------------------
STRT        .FT                                             242 :START DEPTH
STOP        .FT                                            8116 :STOP DEPTH
STEP        .FT                                             0.5 :STEP      
NULL        .                                           -999.25 :NULL      
COMP        .                                       HUNT OIL CO :COMPANY   
WELL        .                                     ST TR 00005-L :WELL      
FLD         .                                           WILDCAT :FIELD     
LOC         .                                                   :LOCATION  
CNTY        .                           HIGH ISLAND LARGE BLOCK :LOCATION  
STAT        .                                             TEXAS :STATE     
CTRY        .                                     UNITED STATES :COUNTRY   
SRVC        .                                                   :SERVICE COMPANY
DATE        .                             9/13/2023 11:19:33 AM :LOG DATE  
API         .                                    42708000010000 :API NUMBER
UWI         .                                    42708000010000 :UNIQUE WELL ID
XCOORD      .                                  1328371.56215902 :SURFACE X 
YCOORD      .                                  10754892.1390607 :SURFACE Y 
LAT         .                                        29.6307718 :LATITUDE  
LON         .                                       -93.9824852 :LONGITUDE 
ELEV        .FT                                              11 :ELEVATION VALUE
ELEV_TYPE   .                                                KB :ELEVATION REFERENCE TYPE
~Curve Information Section
#MNEM       .UNIT                                      API CODE :CURVE DESCRIPTION
#------------------------------------------------------------------------------
DEPT        .FT                                                 :DEPTH     
ASN         .OHMM                                               :          
LAT         .OHMM                                               :          
LN          .OHMM                                               :          
SN          .OHMM                                               :          
SP          .MV                                                 :          
SP_NORM     .MV                                                 :SP Normalized
VSH_SP      .V/V                                                :Volume of Shale from SP
~A        DEPTH            ASN            LAT             LN             SN             SP        SP_NORM         VSH_SP
# ...
      6004.0000         0.8469         0.4577         0.2873         0.8215      -107.5367      -59.40921      0.2314577
      6004.5000         0.9172         0.5342         0.3146         0.9097      -114.4569      -66.32401      0.1404736
      6005.0000         0.9876         0.6086         0.3719         0.9803      -116.6461      -68.50778      0.1117397
      6005.5000         1.0579         0.6726         0.4301          1.042      -118.0261      -69.88237     0.09365302
      6006.0000         1.1283         0.7104           0.49         1.0817      -120.9943      -72.84515     0.05466903
      6006.5000         1.1986         0.5998          0.534         1.1038      -124.3503      -76.19574     0.01058237
      6007.0000         1.2423         0.4945         0.5716         1.0961      -125.2283      -77.06832              0
      6007.5000         1.1028         0.4148         0.6037         1.0122       -125.962       -77.7966              0
      6008.0000         0.9693         0.3711         0.6336         0.9272      -126.5463      -78.37549              0
      6008.5000         0.9265         0.3275         0.6555         0.8445      -125.6111      -77.43488              0
      6009.0000         0.8548         0.2978         0.6582         0.7691      -123.0291      -74.84746     0.02832292
      6009.5000         0.7953         0.2849         0.6608         0.7201      -119.0872      -70.90014     0.08026133
      6010.0000         0.7602         0.2721         0.6608         0.6839       -109.323      -61.13052      0.2088089
      6010.5000         0.7352         0.2682          0.658         0.6664       -99.5454      -51.34751      0.3375328
      6011.0000         0.6943          0.269         0.6553         0.6648       -89.7678      -41.56449      0.4662567
      6011.5000         0.6873         0.2697         0.6525         0.6769       -80.0037      -31.79498      0.5948029
      6012.0000         0.6958         0.2705         0.6578         0.6971       -70.2262      -22.01206      0.7235255
      6012.5000         0.7186         0.2715         0.6664         0.7207        -60.462      -12.24245      0.8520731
      6013.0000          0.766         0.2734         0.6749         0.7442       -50.6844      -2.459427       0.980797
      6013.5000         0.7942         0.2753         0.6836         0.7645       -40.9069       7.323486              1
      6014.0000         0.8151         0.2772         0.6927         0.7814       -35.7915        12.4443              1
      6014.5000         0.8353          0.279         0.7017         0.7983       -33.0466       15.19462              1
      6015.0000         0.8568         0.2809         0.7108         0.8155       -34.7288       13.51783              1
      6015.5000         0.8778         0.2828         0.7199         0.8335       -38.1301       10.12195              1
      6016.0000         0.8899         0.2847         0.7224         0.8515       -41.5314       6.726067              1
      6016.5000          0.895          0.285         0.7242         0.8419       -44.9327       3.330181              1
      6017.0000         0.8819         0.2849         0.7261         0.8289       -48.3341    -0.06579971              1
      6017.5000         0.8689         0.2848          0.728         0.8158       -51.7354      -3.461689      0.9676093
      6018.0000         0.8446         0.2848         0.7243         0.8028       -54.4904      -6.211269      0.9314306
      6018.5000         0.8187         0.2847         0.7201         0.7914       -52.9727      -4.688152      0.9514717
      6019.0000         0.7971         0.2849         0.7158         0.7817       -51.0656      -2.775639      0.9766364
      6019.5000          0.777         0.2927         0.7116         0.7855       -48.3912     -0.0958252              1
      6020.0000         0.8044         0.3006         0.7049         0.8207        -44.916       3.384792              1
      6020.5000         0.9055         0.3085         0.6972         0.8778       -52.2894      -3.983189      0.9607475
      6021.0000         1.0067         0.3239         0.6896         0.9783       -59.6763      -11.36467      0.8636227
      6021.5000         1.1079         0.3646         0.6881         1.0799       -65.1594      -16.84236      0.7915479
      6022.0000          1.209          0.415         0.6868         1.2093       -66.4219      -18.09944      0.7750074
      6022.5000         1.3103         0.4799         0.6946         1.3386       -66.5269      -18.19903       0.773697
      6023.0000         1.4115         0.5453         0.7181         1.4679       -65.7268      -17.39351      0.7842959
      6023.5000         1.5126         0.6149         0.7416         1.5972       -65.3491       -17.0104      0.7893369
      6024.0000         1.6138         0.6889         0.7854         1.7266       -69.0695      -20.72538      0.7404554
      6024.5000          1.715         0.7637         0.8356         1.8559       -71.2334      -22.88386      0.7120544
      6025.0000         1.7918          0.869         0.8751         1.9852       -73.2749      -24.91995      0.6852638
      6025.5000         1.8271         0.9873         0.9056         1.9476       -74.7489      -26.38853      0.6659403
      6026.0000         1.8643         0.9792         0.9271         1.7051       -76.7183      -28.35252      0.6400985
      6026.5000          1.788         0.8672         0.9406         1.6193       -78.7698       -30.3986      0.6131763
      6027.0000         1.7116         0.7629         0.9392         1.5606       -80.5376      -32.16098       0.589987
      6027.5000         1.6353         0.7252         0.9367         1.5105       -82.1157      -33.73367      0.5692938
      6028.0000         1.5589         0.6875          0.934         1.4607        -83.222      -34.83455      0.5548085
      6028.5000         1.4826         0.6664         0.9301         1.4035       -83.9238      -35.53093      0.5456456
      6029.0000         1.4062         0.6581         0.9262         1.3583       -83.9481      -35.54982      0.5453971
      6029.5000         1.3298         0.6618         0.9223         1.3154       -82.5051       -34.1014      0.5644552
      6030.0000         1.2856         0.6656         0.9153         1.2769       -79.7083      -31.29919      0.6013265
      6030.5000         1.2388         0.6753         0.9058         1.2407       -76.1793      -27.76477       0.647832
      6031.0000         1.2082         0.6883         0.8964         1.2045       -72.6471      -24.22716      0.6943794
      6031.5000         1.1828         0.7013         0.8859         1.1683       -69.1182      -20.69284      0.7408836
      6032.0000          1.134         0.7041         0.8703         1.1321       -65.5892      -17.15843      0.7873891
      6032.5000         1.0933         0.7006         0.8547         1.0958       -62.0569      -13.62071      0.8339381
      6033.0000         1.0733         0.6972         0.8391         1.0577        -58.528       -10.0864      0.8804421
      6033.5000         1.0533         0.6937         0.8232          1.016       -54.9957      -6.548679       0.926991
      6034.0000         1.0325         0.6938         0.8074         0.9805        -50.164      -1.711563      0.9906373
      6034.5000         1.0089         0.6991         0.7915          0.956       -48.1813      0.2765541              1
      6035.0000         0.9809         0.7043         0.7739         0.9314       -46.8819       1.581367              1
      6035.5000         0.9516         0.7096          0.756         0.9074       -45.9644       2.504284              1
      6036.0000         0.9295         0.7148          0.738         0.8833       -45.1006       3.373501              1
      6036.5000         0.9093           0.72         0.7238         0.8603       -44.4585       4.021019              1
      6037.0000         0.8909         0.7233         0.7103         0.8408       -43.8155       4.669434              1
