#------------------------------------------------------------------------------
# Created by    : vladimir.rabinovich
# Created on    : 09/19/2023 17:21:25
#------------------------------------------------------------------------------
~Version Information Section
VERS.           2.0     :   CWLS log ASCII Standard - VERSION 2.0
WRAP.           NO      :   One line per depth step
~Well Information Section
#MNEM       .UNIT                                         VALUE :DESCRIPTION
#------------------------------------------------------------------------------
STRT        .FT                                            2957 :START DEPTH
STOP        .FT                                            7390 :STOP DEPTH
STEP        .FT                                             0.5 :STEP      
NULL        .                                           -999.25 :NULL      
COMP        .                              DEVON LOUISIANA CORP :COMPANY   
WELL        .                               OCS G09039 ST00BP00 :WELL      
FLD         .                              GALVESTON BLOCK 0273 :FIELD     
LOC         .                                                   :LOCATION  
CNTY        .                             GALVESTON LARGE BLOCK :LOCATION  
STAT        .                                             TEXAS :STATE     
CTRY        .                                     UNITED STATES :COUNTRY   
SRVC        .                                                   :SERVICE COMPANY
DATE        .                             9/13/2023 11:19:54 AM :LOG DATE  
API         .                                    42706403330000 :API NUMBER
UWI         .                                    42706403330000 :UNIQUE WELL ID
XCOORD      .                                  1020560.14583294 :SURFACE X 
YCOORD      .                                  10500181.0477632 :SURFACE Y 
LAT         .                                        28.9197225 :LATITUDE  
LON         .                                       -94.9380297 :LONGITUDE 
ELEV        .FT                                              98 :ELEVATION VALUE
ELEV_TYPE   .                                                KB :ELEVATION REFERENCE TYPE
~Curve Information Section
#MNEM       .UNIT                                      API CODE :CURVE DESCRIPTION
#------------------------------------------------------------------------------
DEPT        .FT                                                 :DEPTH     
CALI        .IN                                                 :          
DCAL        .IN                                                 :          
DPHI        .%                                                  :          
DRHO        .G/C3                                               :          
GR          .GAPI                                               :          
GR_NORM     .GAPI                                               :GammaRay Normalized
ILD         .OHMM                                               :          
ILM         .OHMM                                               :          
LL3         .OHMM                                               :          
NPHI        .%                                                  :          
SP          .MV                                                 :          
SP_NORM     .MV                                                 :SP Normalized
VSH_GR      .V/V                                                :Volume of Shale from GR
VSH_SP      .V/V                                                :Volume of Shale from SP
~A        DEPTH           CALI           DCAL           DPHI           DRHO             GR        GR_NORM            ILD            ILM            LL3           NPHI             SP        SP_NORM         VSH_GR         VSH_SP
# ...
      6197.0000        10.3081         0.3283        18.8729          0.059        71.9709       68.13408         0.5534         0.6119          0.808        32.0953       -22.4145      -15.55683      0.7475336      0.7777596
      6197.5000        10.3193         0.3328          18.61         0.0691        72.5027       68.70377         0.5729         0.6207         0.9505        31.8282       -23.4785      -16.60232      0.7596548       0.762824
      6198.0000        10.3273          0.337        18.4209         0.0735          74.64       71.11445         0.5856         0.6247         0.8849        31.7819       -23.4736      -16.57891      0.8109457      0.7631584
      6198.5000        10.3325         0.3456        18.3422         0.0711        77.4117       74.25259         0.5968         0.6283         0.7482        32.2302       -21.9647      -15.05151      0.8777146      0.7849784
      6199.0000        10.3336         0.3507        18.4059         0.0693        80.3385       77.56855         0.6084         0.6353         0.8319        33.3798       -19.9509       -13.0192       0.948267      0.8140115
      6199.5000        10.3346         0.3603        18.5122         0.0679        82.7017       80.23827         0.6186         0.6469         0.8475        35.2277       -17.8083      -10.85809              1      0.8448844
      6200.0000         10.341         0.3708        18.6207         0.0688        84.3165        82.0498         0.6255         0.6615         0.7598        37.3052       -15.7515      -8.782784              1      0.8745317
      6200.5000        10.3548          0.388        18.7502         0.0716        85.3345       83.17702         0.6286         0.6757         0.8105        39.2463       -13.4808      -6.493575              1      0.9072347
      6201.0000        10.3671         0.4105         18.894         0.0708         86.001       83.90118         0.6289          0.686         0.7984         40.626       -10.9145      -3.908768              1      0.9441605
      6201.5000        10.3797         0.4249        19.0359         0.0716        86.2958       84.19912         0.6283         0.6904         0.8073        41.3257        -9.0223       -1.99806              1      0.9714563
      6202.0000        10.3904         0.4304        19.1389         0.0778        86.0273       83.85115         0.6263         0.6894         0.7826        41.4372        -8.6405      -1.597752              1       0.977175
      6202.5000        10.3965         0.4376        19.0999         0.0832        85.5184       83.22752         0.6219         0.6851         0.8204        41.1462        -9.5482      -2.486944              1      0.9644722
      6203.0000        10.4046         0.4336        18.7951         0.0824        84.5553       82.08308         0.6161         0.6801         0.8201         40.339       -11.8514      -4.771637              1      0.9318337
      6203.5000        10.4086         0.4328        18.4636         0.0746        82.5024         79.689         0.6107         0.6758         0.7598        39.1086       -14.9168      -7.818528      0.9933829      0.8883067
      6204.0000        10.4057         0.4336        18.2758         0.0639        81.0709       78.00745         0.6075         0.6726         0.9358        37.5827        -17.799      -10.68222      0.9576052      0.8473969
      6204.5000        10.4084         0.4669        18.1832         0.0629        80.6263       77.45753         0.6071         0.6711         1.1633        36.0144       -19.2359      -12.10061       0.945905      0.8271341
      6205.0000        10.4356         0.5255        18.0621         0.0728        81.9583       78.94481         0.6097         0.6717         0.9403         35.026        -18.493       -11.3392      0.9775491      0.8380114
      6205.5000        10.4769          0.588        17.9314         0.0817         84.479        81.7951         0.6135         0.6757         0.8113        35.0966       -16.0544      -8.882097              1      0.8731129
      6206.0000        10.5314           0.63        17.8965         0.0838        85.8569       83.33502         0.6184         0.6806         0.7911        36.0726        -13.902       -6.71119              1      0.9041259
      6206.5000        10.5943         0.6656        18.1392         0.0827        85.4353        82.8115         0.6238         0.6845         0.8718         37.294       -13.2976      -6.088282              1      0.9130245
      6207.0000        10.6353         0.6838        18.6561         0.0799        83.1251       80.12238         0.6302         0.6861         0.9804        38.0302       -13.9238      -6.695975              1      0.9043432
      6207.5000        10.6475         0.6727        19.2603         0.0783        82.5909       79.46973         0.6381         0.6876         0.7937        37.8395       -14.4658      -7.219467      0.9887176      0.8968648
      6208.0000        10.6407         0.6533        19.7318         0.0734        84.5996       81.73295          0.649         0.6927         0.7746        37.1141       -13.8451      -6.580259              1      0.9059963
      6208.5000        10.6312         0.6406        20.0059         0.0676        86.6981       84.09913         0.6622         0.7052         0.7648        36.7173       -12.2267      -4.943351              1      0.9293807
      6209.0000        10.6334         0.6699        20.1442         0.0627        86.9678       84.36829         0.6782          0.723         0.7682        37.2069       -10.6125      -3.310643              1      0.9527051
      6209.5000        10.6649         0.7025        20.0946         0.0682        86.2526       83.50811         0.6967         0.7437         0.8036         38.538        -9.8412      -2.520835              1      0.9639881
      6210.0000        10.7045         0.7338        19.8145         0.0749        86.2216       83.43248         0.7157          0.764         0.8237        40.0167        -9.5606      -2.221728              1       0.968261
      6210.5000         10.759         0.7777        19.4003         0.0782        88.3474       85.82996         0.7337         0.7813         0.8118        40.8409          -9.37       -2.01262              1      0.9712483
      6211.0000        10.7911         0.8221        19.0048         0.0749        89.3923       86.98803         0.7506         0.7948         0.8406        40.6708        -9.1661      -1.790212              1      0.9744256
      6211.5000        10.8105          0.837        18.4952         0.0757        90.2834       87.96972          0.765          0.805         0.8731        39.9127         -9.216      -1.821604              1      0.9739771
      6212.0000        10.8197         0.8324        18.0926         0.0782        90.2859       87.93249         0.7766         0.8129         0.8768        39.0849        -9.5822      -2.169297              1      0.9690101
      6212.5000          10.82         0.8312        17.8583         0.0803        89.1339       86.57144         0.7844         0.8185         0.8588        38.5691       -10.0229      -2.591488              1      0.9629787
      6213.0000        10.8158          0.828        17.9958         0.0802        87.3246       84.45669         0.7859         0.8209         0.8594        38.4973       -10.1717       -2.72178              1      0.9611174
      6213.5000        10.8087         0.8312        18.4152         0.0747        85.5006       82.32507         0.7816         0.8195         0.8573        38.9254        -9.9394      -2.470973              1      0.9647004
      6214.0000        10.8053         0.8273        18.8703         0.0683        84.2648       80.86794         0.7748         0.8145         0.8901        39.6881        -9.4017      -1.914765              1      0.9726462
      6214.5000        10.7985         0.8279        19.2144         0.0685         83.287       79.70663         0.7672         0.8063         0.8787        40.6544        -8.8396      -1.334157       0.993758      0.9809406
