#------------------------------------------------------------------------------
# Created by    : vladimir.rabinovich
# Created on    : 09/19/2023 17:22:32
#------------------------------------------------------------------------------
~Version Information Section
VERS.           2.0     :   CWLS log ASCII Standard - VERSION 2.0
WRAP.           NO      :   One line per depth step
~Well Information Section
#MNEM       .UNIT                                         VALUE :DESCRIPTION
#------------------------------------------------------------------------------
STRT        .FT                                          2841.5 :START DEPTH
STOP        .FT                                          6769.5 :STOP DEPTH
STEP        .FT                                             0.5 :STEP      
NULL        .                                           -999.25 :NULL      
COMP        .                      SPINNAKER EXPLORATION CO LLC :COMPANY   
WELL        .                               OCS G18941 ST00BP00 :WELL      
FLD         .                            HIGH ISLAND BLOCK 0235 :FIELD     
LOC         .                                                   :LOCATION  
CNTY        .                           HIGH ISLAND LARGE BLOCK :LOCATION  
STAT        .                                             TEXAS :STATE     
CTRY        .                                     UNITED STATES :COUNTRY   
SRVC        .                                                   :SERVICE COMPANY
DATE        .                             9/13/2023 11:20:02 AM :LOG DATE  
API         .                                    42708405540000 :API NUMBER
UWI         .                                    42708405540000 :UNIQUE WELL ID
XCOORD      .                                  1178439.61066162 :SURFACE X 
YCOORD      .                                  10526520.2311607 :SURFACE Y 
LAT         .                                         28.998365 :LATITUDE  
LON         .                                        -94.445565 :LONGITUDE 
ELEV        .FT                                              98 :ELEVATION VALUE
ELEV_TYPE   .                                                KB :ELEVATION REFERENCE TYPE
~Curve Information Section
#MNEM       .UNIT                                      API CODE :CURVE DESCRIPTION
#------------------------------------------------------------------------------
DEPT        .FT                                                 :DEPTH     
CNCF        .%                                                  :          
DCAL        .IN                                                 :          
DT24        .US/F                                               :          
GR          .GAPI                                               :          
GR_NORM     .GAPI                                               :GammaRay Normalized
M2R1        .OHMM                                               :          
M2R2        .OHMM                                               :          
M2R3        .OHMM                                               :          
M2R6        .OHMM                                               :          
M2R9        .OHMM                                               :          
M2RX        .OHMM                                               :          
PORZ        .%                                                  :          
RWAZ        .OHMM                                               :          
SPCH        .MV                                                 :          
TEN         .LB/F                                               :          
VSH_GR      .V/V                                                :Volume of Shale from GR
ZCOR        .G/CC                                               :          
~A        DEPTH           CNCF           DCAL           DT24             GR        GR_NORM           M2R1           M2R2           M2R3           M2R6           M2R9           M2RX           PORZ           RWAZ           SPCH            TEN         VSH_GR           ZCOR
# ...
      3411.5000         44.884           7.36        152.105         119.74       86.52907          0.579          0.614          0.639          0.656          0.663          0.674         30.002          0.082        -13.432        -17.629              1          0.041
      3412.0000         46.404          7.281        153.995        117.619       84.40683           0.57          0.603          0.628          0.643           0.65          0.658         29.383          0.076        -13.737        -39.655              1          0.044
      3412.5000         44.999          7.058        152.845        114.689       81.47558          0.573          0.606           0.63          0.645           0.65          0.656         29.027          0.074        -14.138        -47.851              1          0.052
      3413.0000         42.939          6.997        151.558        110.273       77.05833          0.591          0.624          0.648          0.662          0.666           0.67         29.301          0.077        -14.561         -6.991      0.9374112          0.052
      3413.5000         41.832          7.658        152.469        103.662       70.44608          0.619          0.656           0.68          0.693          0.694          0.695         30.773          0.089        -15.207         13.767      0.7967252           0.04
      3414.0000          40.58          9.035        155.549         96.096       62.87883          0.643          0.688          0.712          0.723          0.721          0.719         32.842          0.106        -16.478        -16.705      0.6357198          0.045
      3414.5000          39.02         10.446        158.801         89.469       56.25059          0.663           0.72          0.743          0.752          0.746           0.74         34.075          0.118        -18.201         -13.29      0.4946933          0.072
      3415.0000         38.075          11.33        160.729         86.296       53.07633          0.698          0.772          0.795          0.799          0.789          0.776         33.821          0.122        -19.841         32.961       0.427156          0.086
      3415.5000         38.434          11.66        161.459         87.808       54.58708          0.752          0.845          0.866          0.864          0.848          0.828         32.508          0.119        -21.235         33.581      0.4592996          0.069
      3416.0000         40.554         11.467        161.139         91.026       57.80384            0.8          0.905          0.923          0.912          0.889           0.86         31.206          0.113        -22.405         -1.513      0.5277413          0.038
      3416.5000         44.178         10.777        162.273         91.924       58.70059          0.828          0.934          0.944          0.923          0.893          0.858         31.069          0.112        -23.366         -13.03      0.5468211          0.033
      3417.0000         47.644          10.27        163.738          89.82       56.59534          0.842          0.938           0.94          0.908          0.875          0.833         31.808          0.114        -24.595        -22.291      0.5020286          0.059
      3417.5000         48.286         10.549        162.616         87.896        54.6701          0.844          0.926           0.92          0.879          0.844          0.797         32.046          0.111        -26.408        -34.797      0.4610659          0.077
      3418.0000         45.641         11.056        161.352         88.821       55.59384          0.841           0.91          0.895          0.848           0.81           0.76           31.5          0.102        -28.278         -4.486        0.48072          0.055
      3418.5000         42.704         10.753        159.757         91.027        57.7986          0.849          0.906          0.883          0.829          0.789          0.736         31.099          0.096        -29.694         36.006      0.5276298          0.022
      3419.0000         41.081          9.811        157.711          91.14       57.91035          0.872          0.919          0.888          0.826          0.783          0.724         31.415          0.097        -30.808         30.638      0.5300074           0.02
      3419.5000         41.344          9.057        158.788         89.304        56.0731          0.904          0.941          0.901           0.83          0.783          0.719         32.457          0.103        -31.634         11.886      0.4909171          0.029
      3420.0000         43.656          8.673        160.193         88.018       54.78585          0.932          0.959          0.911          0.831           0.78          0.711         33.763          0.111        -31.896          4.583      0.4635287          0.019
      3420.5000         45.906           8.26        161.313         87.613        54.3796          0.948          0.967          0.912          0.825           0.77          0.698         34.836          0.117         -31.79        -12.284      0.4548851              0
      3421.0000         45.781          7.909        162.786         85.933       52.69836          0.959           0.97          0.907          0.814          0.757          0.683         35.432          0.118        -31.887        -22.454       0.419114         -0.013
      3421.5000         44.507          7.891        163.427         82.296        49.0601          0.982           0.98          0.908          0.807          0.748          0.671         35.623          0.118        -32.301         -19.47      0.3417043         -0.019
      3422.0000          43.97          7.646        166.089         77.931       44.69386          1.022              1          0.916          0.806          0.743          0.664         35.309          0.114        -32.864        -31.272      0.2488056          -0.02
      3422.5000         44.594          6.784        169.019         74.887       41.64861           1.06           1.01          0.915          0.798          0.734          0.654         34.957           0.11        -33.627        -40.653       0.184013         -0.018
      3423.0000           44.3          5.972        170.503         75.184       41.94436          1.065          0.988          0.888          0.772          0.709          0.632         35.663          0.111        -34.485        -19.218      0.1903055         -0.017
      3423.5000         42.537          5.964        169.289         78.126       44.88512          1.022          0.932          0.836          0.729          0.671            0.6         36.843          0.113        -34.858         -1.354      0.2528748         -0.018
      3424.0000          41.37          6.721         164.99         81.253       48.01086          0.946          0.861          0.774          0.679          0.627          0.564         36.802          0.106          -34.4        -13.832      0.3193801         -0.016
      3424.5000         41.435          7.721        161.926         83.506       50.26262           0.87          0.799          0.721          0.636           0.59          0.533         35.897          0.095        -33.482        -25.763      0.3672898         -0.013
      3425.0000         42.247          8.301         161.23         85.489       52.24437          0.821          0.762           0.69          0.612          0.569          0.516         35.835          0.092        -32.571          -29.9      0.4094547          -0.01
      3425.5000         44.519          8.138         162.51         87.127       53.88112          0.807          0.755          0.684          0.608          0.565          0.513         36.589          0.095        -31.787        -39.291      0.4442791         -0.004
      3426.0000         48.188          7.037        164.583         87.314       54.06688          0.834          0.782          0.707          0.626          0.582          0.527         37.357          0.102        -31.142        -44.244      0.4482315              0
