#------------------------------------------------------------------------------
# Created by    : vladimir.rabinovich
# Created on    : 09/19/2023 17:20:31
#------------------------------------------------------------------------------
~Version Information Section
VERS.           2.0     :   CWLS log ASCII Standard - VERSION 2.0
WRAP.           NO      :   One line per depth step
~Well Information Section
#MNEM       .UNIT                                         VALUE :DESCRIPTION
#------------------------------------------------------------------------------
STRT        .FT                                            2377 :START DEPTH
STOP        .FT                                            9500 :STOP DEPTH
STEP        .FT                                             0.5 :STEP      
NULL        .                                           -999.25 :NULL      
COMP        .                                     SKELLY OIL CO :COMPANY   
WELL        .                                     ST TR 00146-L :WELL      
FLD         .                                           WILDCAT :FIELD     
LOC         .                                                   :LOCATION  
CNTY        .                             GALVESTON LARGE BLOCK :LOCATION  
STAT        .                                             TEXAS :STATE     
CTRY        .                                     UNITED STATES :COUNTRY   
SRVC        .                                                   :SERVICE COMPANY
DATE        .                             9/13/2023 11:19:24 AM :LOG DATE  
API         .                                    42706001330000 :API NUMBER
UWI         .                                    42706001330000 :UNIQUE WELL ID
XCOORD      .                                  1116482.89093459 :SURFACE X 
YCOORD      .                                  10631825.2810539 :SURFACE Y 
LAT         .                                         29.285733 :LATITUDE  
LON         .                                       -94.6439746 :LONGITUDE 
ELEV        .FT                                              61 :ELEVATION VALUE
ELEV_TYPE   .                                                KB :ELEVATION REFERENCE TYPE
~Curve Information Section
#MNEM       .UNIT                                      API CODE :CURVE DESCRIPTION
#------------------------------------------------------------------------------
DEPT        .FT                                                 :DEPTH     
ASN         .OHMM                                               :          
CALI        .IN                                                 :          
CILD        .MMHO                                               :          
DT          .US/F                                               :          
ILD         .OHMM                                               :          
SP          .MV                                                 :          
SP_NORM     .MV                                                 :SP Normalized
VSH_SP      .V/V                                                :Volume of Shale from SP
~A        DEPTH            ASN           CALI           CILD             DT            ILD             SP        SP_NORM         VSH_SP
# ...
      7097.0000         0.3843          9.865       5116.469       104.9907         0.1777      -140.0276      -83.98969              0
      7097.5000         0.3769         9.8666       5066.883        104.615         0.1803      -139.5798       -83.5462              0
      7098.0000         0.3746         9.8828        5020.57       105.2198         0.1828      -138.9346      -82.90533              0
      7098.5000         0.3723         9.8958       4998.555       106.0511         0.1853      -137.8186      -81.79366              0
      7099.0000          0.372         9.9082       5027.633       106.6613         0.1879      -136.5317      -80.51108              0
      7099.5000         0.3758         9.9229       5026.156       106.7161         0.1904      -135.2754      -79.25912    0.009378265
      7100.0000         0.3796         9.9113       5015.398       106.9971         0.2044       -134.353      -78.34103     0.02099957
      7100.5000         0.3836         9.9276       4875.195        106.884         0.2219      -133.3394      -77.33177     0.03377504
      7101.0000         0.3994         9.9658       4658.586       106.8649         0.2394       -131.834      -75.83069     0.05277609
      7101.5000         0.4152         9.9967       3657.281       107.9355         0.2607      -128.9985      -72.99953     0.08861358
      7102.0000         0.4446         10.031       3354.313       111.2505         0.3001      -125.1724      -69.17775      0.1369905
      7102.5000         0.4726        10.0607       3271.988       114.3879         0.3395      -116.9712      -60.98087      0.2407484
      7103.0000         0.4972        10.0621       3132.965       117.8003         0.3741       -91.8695       -35.8835      0.5584367
      7103.5000         0.5178        10.0584       2825.355       120.9902          0.405         -85.03      -29.04832      0.6449579
      7104.0000         0.5383        10.1034       2482.637       122.3688         0.4359        -75.965      -19.98765        0.75965
      7104.5000         0.5594        10.1317       2003.922       121.8901         0.4732       -59.9842      -4.011181      0.9618838
      7105.0000         0.5815         10.098        1929.68       120.9952         0.5126         -56.13     -0.1613083              1
      7105.5000         0.6096         10.042       1610.828       119.9049         0.5619       -55.0642      0.9001656              1
      7106.0000         0.6294        10.0313       1616.717       119.0243         0.5899       -54.2753       1.684738              1
      7106.5000         0.6458        10.0404        1621.85       118.4092         0.5971       -53.7183       2.237411              1
      7107.0000         0.6594        10.0581       1625.328       118.1027         0.6043       -53.1619       2.789486              1
      7107.5000         0.6668         10.056       1628.803       118.7357         0.6112       -52.6716       3.275455              1
      7108.0000          0.672        10.0502       1629.707       118.9229         0.6176       -52.2689       3.673828              1
      7108.5000         0.6771        10.0432       1628.244       118.7026          0.624       -51.8668       4.071606              1
      7109.0000         0.6828        10.0467        1628.32       118.1362         0.6304       -51.5575       4.376579              1
      7109.5000         0.6896        10.0516       1631.564       116.8984         0.6417       -51.3094        4.62035              1
      7110.0000         0.6964        10.0546       1639.979        116.234         0.6548       -51.0617       4.863724              1
      7110.5000         0.6991        10.0595       1709.037        116.146         0.6539       -50.9352       4.985897              1
      7111.0000         0.6983        10.0641       1765.535       116.0464         0.6264       -50.8113       5.105473              1
      7111.5000         0.6902        10.0645       1805.891       117.2982         0.5988       -50.7878       5.124641              1
      7112.0000         0.6759         10.066       1847.002       118.2986         0.5712       -50.9492       4.958916              1
      7112.5000         0.6627        10.0731       1884.684       119.3602         0.5417       -51.1103       4.793491              1
      7113.0000         0.6498          10.08       1967.211       120.8491         0.5108       -51.2189       4.680561              1
      7113.5000         0.6381        10.0791         2046.5       121.1538         0.4798       -51.2189       4.676235              1
      7114.0000         0.6269        10.0649       2238.082       120.4257         0.4608       -51.2189       4.671909              1
      7114.5000         0.6176        10.0563        2284.82       120.6155         0.4421       -51.3806       4.505882              1
      7115.0000         0.6088         10.059       2313.082       121.0848         0.4366       -51.7032       4.178951              1
      7115.5000         0.6081        10.0654       2302.285       121.7697         0.4529       -52.9517       2.926128              1
      7116.0000         0.6123        10.0738       2199.645       122.6495         0.4693       -54.4316       1.441902              1
      7116.5000         0.6165        10.0795       2094.621       120.7229         0.5103       -56.1147     -0.2455292              1
      7117.0000         0.6413        10.0772       2024.906       114.0981          0.552       -58.6097      -2.744854      0.9779133
      7117.5000         0.7356        10.0714         1808.5       109.8766         0.5937        -60.876       -5.01548      0.9491711
      7118.0000         0.8437        10.0628        1708.18       108.0081         0.6273        -62.709      -6.852806      0.9259139
      7118.5000         0.9016        10.0689        1619.65       105.2977         0.6543        -61.905      -6.053135      0.9360363
      7119.0000         0.9534        10.1253       1368.842       105.0232         0.6813       -61.1008      -5.253262      0.9461613
      7119.5000         0.9908        10.1887        1290.35       104.4733         0.7157       -59.4913      -3.648087      0.9664799
      7120.0000         0.9727         10.409       1216.398       101.8379         0.7636       -57.7719      -1.933018      0.9881896
      7120.5000         0.9546        10.6499       1186.611       100.4065         0.8114       -57.2549      -1.420345      0.9946792
      7121.0000         0.9183        10.3995       1169.512        99.8669         0.8573       -56.7379     -0.9076691              1
      7121.5000         0.8738        10.2618       1162.455       101.6031         0.9017       -56.2796     -0.4536934              1
      7122.0000         0.8567        10.2946       1167.518       103.6515         0.8733       -55.9138    -0.09222412              1
      7122.5000         1.0157        10.3266        1185.93       104.9265         0.8298       -55.6285      0.1887474              1
      7123.0000         1.0029        10.3607       1220.182       102.6698         0.7829       -55.7437     0.06922531              1
      7123.5000         0.9257        10.2799       1357.467       101.6481         0.7359       -55.8588    -0.05020142              1
      7124.0000         0.8747         10.224       1387.506        104.351         0.6893       -56.1255     -0.3212318              1
      7124.5000         0.8672         10.193       1455.707       107.0513         0.6443       -56.6845     -0.8845596              1
      7125.0000         0.8598        10.2413       1630.748       111.4078         0.5993       -57.2428      -1.447186      0.9943394
      7125.5000         0.8391        10.3096       1892.855       111.2529         0.5543       -58.3493      -2.558014      0.9802783
      7126.0000         0.8115        10.2408       2018.313       109.1659         0.5101        -59.819       -4.03204      0.9616197
