#------------------------------------------------------------------------------
# Created by    : vladimir.rabinovich
# Created on    : 09/19/2023 17:19:46
#------------------------------------------------------------------------------
~Version Information Section
VERS.           2.0     :   CWLS log ASCII Standard - VERSION 2.0
WRAP.           NO      :   One line per depth step
~Well Information Section
#MNEM       .UNIT                                         VALUE :DESCRIPTION
#------------------------------------------------------------------------------
STRT        .FT                                             290 :START DEPTH
STOP        .FT                                         11377.5 :STOP DEPTH
STEP        .FT                                             0.5 :STEP      
NULL        .                                           -999.25 :NULL      
COMP        .                         SONAT EXPLORATION GOM INC :COMPANY   
WELL        .                               OCS G04571 ST00BP00 :WELL      
FLD         .                                           WILDCAT :FIELD     
LOC         .                                                   :LOCATION  
CNTY        .                           HIGH ISLAND LARGE BLOCK :LOCATION  
STAT        .                                             TEXAS :STATE     
CTRY        .                                     UNITED STATES :COUNTRY   
SRVC        .                                                   :SERVICE COMPANY
DATE        .                             9/13/2023 11:19:19 AM :LOG DATE  
API         .                                    42708401190000 :API NUMBER
UWI         .                                    42708401190000 :UNIQUE WELL ID
XCOORD      .                                  1324427.25220013 :SURFACE X 
YCOORD      .                                  10679041.7751219 :SURFACE Y 
LAT         .                                         29.422046 :LATITUDE  
LON         .                                        -93.992863 :LONGITUDE 
ELEV        .FT                                             116 :ELEVATION VALUE
ELEV_TYPE   .                                                KB :ELEVATION REFERENCE TYPE
~Curve Information Section
#MNEM       .UNIT                                      API CODE :CURVE DESCRIPTION
#------------------------------------------------------------------------------
DEPT        .FT                                                 :DEPTH     
ASFL        .OHMM                                               :          
CALI        .IN                                                 :          
CILD        .MMHO                                               :          
GR          .GAPI                                               :          
GR_NORM     .GAPI                                               :GammaRay Normalized
ILD         .OHMM                                               :          
RHOB        .G/C3                                               :          
SP          .MV                                                 :          
SP_NORM     .GAPI                                               :SP Normalized
VSH_GR      .V/V                                                :Volume of Shale from GR
VSH_SP      .V/V                                                :Volume of Shale from SP
~A        DEPTH           ASFL           CALI           CILD             GR        GR_NORM            ILD           RHOB             SP        SP_NORM         VSH_GR         VSH_SP
# ...
      9897.5000         1.2406        13.7644       793.1211        68.4933       80.34843         1.1971         2.3752        -42.549      -1.467825              1      0.9790311
      9898.0000         1.2192        13.7621       783.4648        69.0476         81.151         1.2118         2.3637       -42.8604      -1.761265              1      0.9748391
      9898.5000         1.1978        13.9904       806.9678        69.6021       81.95384         1.1696          2.341       -43.1724      -2.055264              1      0.9706391
      9899.0000         1.1748        14.3342       830.4717         69.974       82.49232         1.0815         2.2838        -43.473       -2.33862              1      0.9665911
      9899.5000         1.1516        14.4852       898.1865        70.2161       82.84286         1.0347         2.2446       -43.4146      -2.286913              1      0.9673298
      9900.0000         1.1283        14.4883       989.0049        70.4579       83.19295         0.9916         2.2085       -43.3561       -2.23276              1      0.9681034
      9900.5000         0.9991         14.356       1169.246        70.4286       83.15054         0.9485         2.2037       -43.2631      -2.145961              1      0.9693434
      9901.0000         0.8828        14.2168       1240.604        70.0259       82.56746         0.9053         2.2187       -42.9999      -1.900309              1      0.9728527
      9901.5000         0.8633        14.2674       1254.787        69.6232       81.98441         0.8622         2.2395        -42.737      -1.654934              1      0.9763581
      9902.0000         0.8588        14.4382       1261.289        69.2205       81.40133         0.8415         2.2496       -42.4738      -1.409282              1      0.9798674
      9902.5000         0.8601        14.5391       1259.277        68.8177       80.81814          0.837         2.2556       -42.2109      -1.163907              1      0.9833727
      9903.0000         0.8622         14.612       1257.266        67.8208       79.37473         0.8324         2.2605       -41.9477     -0.9182551      0.9866963      0.9868821
      9903.5000         0.8677        14.7159       1255.258        66.8202       77.92595         0.8279         2.2674       -41.6848     -0.6728805      0.9558713      0.9903874
      9904.0000         0.8735        14.8139       1253.352        65.8799       76.56449         0.8233          2.284       -41.4932     -0.4940532      0.9269041      0.9929421
      9904.5000         0.8793         14.797       1252.727        65.5126       76.03271         0.8188         2.3034        -41.452      -0.455601      0.9155895      0.9934914
      9905.0000         0.8759        14.7437       1252.104        65.1447       75.50002         0.8142         2.3147       -41.4108     -0.4171489      0.9042558      0.9940407
      9905.5000         0.8697        14.7806       1261.486        64.9967       75.28572         0.8097         2.3184       -41.3695     -0.3786006      0.8996962      0.9945914
      9906.0000         0.8635        14.8367        1281.57        67.3385       78.67641         0.8051         2.3166       -41.3284      -0.340241      0.9718384      0.9951394
      9906.5000         0.8573        14.8337       1301.656          69.75         82.168         0.7984         2.3115       -41.2871     -0.3016963              1        0.99569
      9907.0000         0.8443        14.7245        1321.74        72.4498       86.07703         0.7917         2.3031       -41.2459     -0.2632405              1      0.9962394
      9907.5000         0.8308        14.5985       1336.361         74.359       88.84134         0.7849         2.2918       -41.2047     -0.2247884              1      0.9967887
      9908.0000         0.8196        14.5101       1343.734        75.9352        91.1235         0.7782         2.2801       -41.1635     -0.1863363              1      0.9973381
      9908.5000         0.8112        14.4697       1351.119        78.3813       94.66521         0.7715         2.2772       -41.1223     -0.1478806              1      0.9978874
      9909.0000         0.8029        14.4875       1350.334        78.3118       94.56456         0.7647         2.2836        -41.081     -0.1093358              1      0.9984381
      9909.5000         0.8036        14.5758       1344.545        74.4237       88.93501          0.758          2.286       -41.0398    -0.07088013              1      0.9989874
      9910.0000         0.8201        14.6299       1338.744        71.6841       84.96837         0.7512         2.2863       -40.9951    -0.02915955              1      0.9995834
      9910.5000         0.8425        14.6514       1332.957        63.4852       73.09724         0.7445         2.2867       -40.9412     0.02114512      0.8531327              1
      9911.0000         0.8594        14.6722       1327.168           61.3       69.93329         0.7378         2.3053       -40.8874     0.07135722      0.7858146              1
      9911.5000         0.8663        14.6334       1321.305        59.5971       67.46769          0.731         2.3245       -40.8336      0.1215729      0.7333551              1
      9912.0000         0.8733        14.5391       1315.404        58.7855       66.29257         0.7243         2.3395       -40.7797      0.1718775      0.7083526              1
      9912.5000         0.8711        14.4844       1309.502        59.8706       67.86369         0.7175         2.3477       -40.7259      0.2220932      0.7417805              1
      9913.0000         0.8628        14.4894       1310.059        62.7991       72.10384         0.7108         2.3507       -40.6721      0.2723053      0.8319965              1
      9913.5000         0.8545         14.536       1313.789        67.6915        79.1875          0.707         2.3495       -40.6182      0.3226135      0.9827127              1
      9914.0000         0.8461        14.5753       1317.518        73.3671       87.40517         0.7077           2.34       -40.5643      0.3729182              1              1
      9914.5000         0.8378         14.623       1321.248        74.1005       88.46706         0.7085         2.3033       -40.5104      0.4232264              1              1
      9915.0000         0.8295         14.691       1324.979        72.9072       86.73929         0.7092         2.2853       -40.4566      0.4734385              1              1
      9915.5000         0.8219        14.8421       1328.709        71.7139       85.01151         0.7099         2.2919       -40.4401      0.4888372              1              1
      9916.0000         0.8173        15.0191       1332.127        69.9786       82.49898         0.7107         2.3136       -40.4465      0.4828664              1              1
      9916.5000         0.8255        15.1696       1334.658        66.1676       76.98106         0.7114         2.3157        -40.453      0.4767995      0.9357672              1
      9917.0000         0.8336         15.369       1337.191        64.7631        74.9475         0.7121         2.3069       -40.4595      0.4707326         0.8925              1
      9917.5000         0.8409        15.7151       1339.725        64.4672       74.51908         0.7129         2.2921       -40.4659      0.4647583      0.8833847              1
      9918.0000         0.8475        15.8539       1342.256        64.1714        74.0908         0.7136          2.287       -40.4609       0.469426      0.8742723              1
      9918.5000         0.8443        15.7829       1344.789        64.0713       73.94584         0.7143         2.2838       -40.4504      0.4792241       0.871188              1
      9919.0000         0.8409        15.6037        1347.32        64.3702       74.37862         0.7151         2.2811       -40.4399      0.4890259      0.8803961              1
      9919.5000         0.8375        15.3374       1349.854        64.6698       74.81241          0.716         2.2795       -40.4294      0.4988241      0.8896257              1
