#------------------------------------------------------------------------------
# Created by    : vladimir.rabinovich
# Created on    : 09/19/2023 17:22:30
#------------------------------------------------------------------------------
~Version Information Section
VERS.           2.0     :   CWLS log ASCII Standard - VERSION 2.0
WRAP.           NO      :   One line per depth step
~Well Information Section
#MNEM       .UNIT                                         VALUE :DESCRIPTION
#------------------------------------------------------------------------------
STRT        .FT                                            1687 :START DEPTH
STOP        .FT                                            6155 :STOP DEPTH
STEP        .FT                                             0.5 :STEP      
NULL        .                                           -999.25 :NULL      
COMP        .                       AMERICAN COASTAL ENERGY INC :COMPANY   
WELL        .                                ST TR 00596-L NE/4 :WELL      
FLD         .                        SHERMAN OFFSHORE SOUTHWEST :FIELD     
LOC         .                                                   :LOCATION  
CNTY        .                      MATAGORDA ISLAND LARGE BLOCK :LOCATION  
STAT        .                                             TEXAS :STATE     
CTRY        .                                     UNITED STATES :COUNTRY   
SRVC        .                                                   :SERVICE COMPANY
DATE        .                             9/13/2023 11:12:01 AM :LOG DATE  
API         .                                    42703302820000 :API NUMBER
UWI         .                                    42703302820000 :UNIQUE WELL ID
XCOORD      .                                  484247.709270029 :SURFACE X 
YCOORD      .                                   10242127.767654 :SURFACE Y 
LAT         .                                        28.1765839 :LATITUDE  
LON         .                                       -96.5886238 :LONGITUDE 
ELEV        .FT                                              79 :ELEVATION VALUE
ELEV_TYPE   .                                                KB :ELEVATION REFERENCE TYPE
~Curve Information Section
#MNEM       .UNIT                                      API CODE :CURVE DESCRIPTION
#------------------------------------------------------------------------------
DEPT        .FT                                                 :DEPTH     
CILD        .MMHO                                               :          
DT          .US/F                                               :          
ILD         .OHMM                                               :          
SN          .OHMM                                               :          
SP          .MV                                                 :          
SP_NORM     .MV                                                 :SP Normalized
VSH_SP      .V/V                                                :Volume of Shale from SP
~A        DEPTH           CILD             DT            ILD             SN             SP        SP_NORM         VSH_SP
# ...
      1988.5000       2116.527       132.7386          0.475         0.9284       -80.3178       -40.2221      0.2080404
      1989.0000       1933.104       136.4212         0.5207         0.9901       -76.6425       -36.5508      0.2861532
      1989.5000        1821.42       138.8092         0.5553         0.9857       -71.7755       -31.6879      0.3896191
      1990.0000       1749.574       140.4015         0.5762         0.9416        -69.888       -29.8044      0.4296936
      1990.5000       1801.281       141.3951         0.5815         0.9288       -68.9911       -28.9115      0.4486915
      1991.0000       1916.737        142.588         0.5429         0.9505       -72.2634       -32.1879      0.3789808
      1991.5000       2127.831       143.3828         0.5022         0.9861       -78.4131       -38.3416      0.2480511
      1992.0000       2346.905       144.3759         0.4451         0.9863       -81.1891       -41.1216      0.1889021
      1992.5000       2617.774        144.971         0.3797         0.9508       -83.9651       -43.9017      0.1297511
      1993.0000       2860.749       145.1697         0.3401         0.9124       -85.6494         -45.59     0.09382978
      1993.5000       3008.086       143.9695         0.3264         0.8918       -86.9367       -46.8813     0.06635528
      1994.0000       3071.739       141.1774          0.319         0.8677       -87.7277       -47.6763     0.04944042
      1994.5000       2999.905       138.7838         0.3205          0.852       -88.2209       -48.1736     0.03885959
      1995.0000        2880.25       137.7855         0.3371         0.8554       -88.0194       -47.9761     0.04306168
      1995.5000       2712.776       136.5863         0.3629         0.8781       -87.2224       -47.1831     0.05993401
      1996.0000       2581.181       135.7867         0.3817         0.9081       -86.0284       -45.9932      0.0852511
      1996.5000       2473.466       135.9833         0.3942         0.9379       -84.4373       -44.4061      0.1190191
      1997.0000       2405.609       137.7462         0.4016         0.9467        -84.335       -44.3078      0.1211106
      1997.5000       2425.449       139.1665         0.4072         0.9555       -85.2253       -45.2022      0.1020808
      1998.0000       2485.117       142.5511          0.398         1.0013       -86.7111        -46.692     0.07038295
      1998.5000       2620.485       143.9438         0.3733           1.02       -87.6014       -47.5863     0.05135532
      1999.0000       2771.809       144.5384         0.3549         1.0248       -88.1939       -48.1829     0.03866171
      1999.5000       2895.238       144.5357         0.3344         1.0156       -88.6891       -48.6821     0.02804046
      2000.0000       3046.563       144.5331         0.3209         1.0157       -89.2344       -49.2314      0.0163532
      2000.5000       3122.172       143.2347         0.3108         1.0112       -89.2774       -49.2785     0.01535107
      2001.0000       3169.912       142.8343         0.3066         1.0066       -89.2744       -49.2795     0.01532981
      2001.5000       3255.902       142.3336         0.3024         0.9976       -89.2714       -49.2805     0.01530854
      2002.0000       3269.327       141.8328         0.3011         0.9977       -89.2684       -49.2816     0.01528509
      2002.5000       3249.286        141.531         0.3011         0.9879       -89.2654       -49.2826     0.01526382
      2003.0000       3193.375       141.4288         0.3053         0.9971       -89.0639       -49.0851     0.01946599
      2003.5000       3089.659       141.3265         0.3139         0.9971       -88.7631       -48.7884     0.02577875
      2004.0000       2946.092       141.3235         0.3287         1.0175       -88.3631       -48.3924     0.03420428
      2004.5000       2798.539       141.3209         0.3457         1.0384        -87.169       -47.2023     0.05952551
      2005.0000       2619.106        141.067         0.3773         1.0491       -84.4853       -44.5227      0.1165383
      2005.5000       2391.841       140.7184         0.3968         1.0208       -81.6038       -41.6452      0.1777617
      2006.0000       2140.676       139.5197         0.4704          0.985        -78.226       -38.2714      0.2495447
      2006.5000       1893.495        136.329         0.5374          0.954       -74.1534       -34.2028      0.3361106
      2007.0000       1654.273       132.7398         0.5973         0.9673       -71.4704       -31.5239      0.3931085
      2007.5000       1458.896       128.5528         0.6983         1.0269       -69.3829       -29.4404      0.4374383
      2008.0000       1299.386       123.5688         0.8126         1.1519       -66.5014        -26.563      0.4986596
      2008.5000        1167.77       119.5805         0.8868         1.2285       -61.9324        -21.998      0.5957872
      2009.0000       1024.188       115.3941         0.9633         1.2571        -56.073       -16.1426      0.7203702
      2009.5000       912.4973       109.7125         1.1158         1.2747       -50.2136       -10.2872      0.8449532
      2010.0000       848.6532       107.4184         1.2574         1.2866       -45.9431        -6.0208      0.9357277
      2010.5000       784.7724       107.9141         1.3534         1.3106       -43.2589        -3.3406      0.9927532
      2011.0000       760.7533       109.0073         1.3978         1.3229       -42.6614        -2.7471              1
      2011.5000       756.6598       110.7974         1.3788         1.3339       -43.8482         -3.938      0.9800426
      2012.0000       776.4769       111.9908         1.3477         1.3157       -45.0362          -5.13      0.9546809
      2012.5000       800.2793       114.0803         1.3233         1.2995       -45.2316        -5.3294      0.9504383
      2013.0000       820.0965       117.8143         1.2758         1.2834       -44.9307        -5.0326      0.9567532
      2013.5000       855.8395       120.9493         1.2243         1.2746       -44.1335        -4.2394      0.9736298
      2014.0000       891.5975       125.7288         1.1912         1.2232       -43.3363        -3.4462      0.9905064
      2014.5000       927.3555       130.1098         1.1431         1.1901       -42.2413        -2.3553              1
      2015.0000       971.0839        133.893          1.077          1.158       -42.1389        -2.2569              1
      2015.5000       1014.813        137.477         1.0241         1.1215       -42.2351        -2.3571              1
      2016.0000       1050.571       140.0647         0.9873         1.0862       -42.4305        -2.5566              1
      2016.5000       1074.374       141.4573         0.9606         1.0617       -42.3281        -2.4582              1
      2017.0000       1098.177       142.0524         0.9432          1.033       -42.5235        -2.6576              1
      2017.5000       1114.009       142.0498         0.9304         1.0331       -42.9175        -3.0557      0.9988149
      2018.0000       1125.857       140.6523          0.922         1.0276       -43.6092        -3.7514      0.9840128
      2018.5000       1133.719       137.6605         0.9221         1.0221       -44.2017        -4.3479      0.9713213
      2019.0000       1137.597       134.6689          0.918         1.0147       -44.7941        -4.9444      0.9586298
      2019.5000       1141.474       133.0722         0.9139         1.0171       -45.0888        -5.2431      0.9522744
      2020.0000       1157.307       132.4718          0.914         1.0194       -45.0857         -5.244      0.9522553
      2020.5000       1165.169       132.6689         0.9099         1.0244       -45.0826        -5.2449      0.9522362
      2021.0000       1169.046       133.4667           0.91         1.0245       -45.8736          -6.04      0.9353191
      2021.5000       1168.938       133.8587         0.9101          1.034       -47.6573        -7.8277       0.897283
