#------------------------------------------------------------------------------
# Created by    : vladimir.rabinovich
# Created on    : 09/19/2023 17:20:49
#------------------------------------------------------------------------------
~Version Information Section
VERS.           2.0     :   CWLS log ASCII Standard - VERSION 2.0
WRAP.           NO      :   One line per depth step
~Well Information Section
#MNEM       .UNIT                                         VALUE :DESCRIPTION
#------------------------------------------------------------------------------
STRT        .FT                                             507 :START DEPTH
STOP        .FT                                            6530 :STOP DEPTH
STEP        .FT                                             0.5 :STEP      
NULL        .                                           -999.25 :NULL      
COMP        .                                      SHELL OIL CO :COMPANY   
WELL        .                                ST TR 00692-L SE/4 :WELL      
FLD         .                                           WILDCAT :FIELD     
LOC         .                                                   :LOCATION  
CNTY        .                      MATAGORDA ISLAND LARGE BLOCK :LOCATION  
STAT        .                                             TEXAS :STATE     
CTRY        .                                     UNITED STATES :COUNTRY   
SRVC        .                                                   :SERVICE COMPANY
DATE        .                             9/13/2023 11:12:05 AM :LOG DATE  
API         .                                    42703000180000 :API NUMBER
UWI         .                                    42703000180000 :UNIQUE WELL ID
XCOORD      .                                  399042.886430441 :SURFACE X 
YCOORD      .                                  10159669.4462586 :SURFACE Y 
LAT         .                                        27.9430215 :LATITUDE  
LON         .                                       -96.8445442 :LONGITUDE 
ELEV        .FT                                              84 :ELEVATION VALUE
ELEV_TYPE   .                                                DF :ELEVATION REFERENCE TYPE
~Curve Information Section
#MNEM       .UNIT                                      API CODE :CURVE DESCRIPTION
#------------------------------------------------------------------------------
DEPT        .FT                                                 :DEPTH     
ASN         .OHMM                                               :          
CILD        .MMHO                                               :          
ILD         .OHMM                                               :          
SP          .MV                                                 :          
SP_NORM     .MV                                                 :SP Normalized
VSH_SP      .V/V                                                :Volume of Shale from SP
~A        DEPTH            ASN           CILD            ILD             SP        SP_NORM         VSH_SP
# ...
      6093.0000         0.7837       3174.426         0.2609       -96.1868       -52.6988      0.1952572
      6093.5000         0.8745       3123.898         0.2586       -95.7659       -52.2835      0.2018492
      6094.0000         0.8555       3096.215         0.2564       -95.4337       -51.9569      0.2070333
      6094.5000         0.7804       3077.082         0.2542       -95.5491        -52.078      0.2051111
      6095.0000         0.7219        3051.52          0.252        -96.152       -52.6865      0.1954524
      6095.5000          0.685       3027.793         0.2497       -96.7544       -53.2945      0.1858016
      6096.0000         0.6685       3030.227         0.2475       -97.3568       -53.9026      0.1761492
      6096.5000          0.653       3086.867         0.2453        -99.115       -55.6664      0.1481524
      6097.0000          0.642       3149.309         0.2431      -100.5081       -57.0651      0.1259508
      6097.5000         0.6835       3186.043         0.2408      -101.4799       -58.0426      0.1104349
      6098.0000         0.7138       3209.871         0.2398      -102.6449       -59.2132     0.09185398
      6098.5000          0.746       3233.703         0.2463      -103.6564       -60.2303     0.07570951
      6099.0000         0.7933       3136.109         0.2527      -104.5686       -61.1482     0.06113967
      6099.5000         0.8263       3066.301         0.2592      -105.4075       -61.9927     0.04773494
      6100.0000         0.8407       2996.594         0.2656      -105.6367       -62.2276     0.04400635
      6100.5000         0.8551       2926.789         0.2798      -105.7983       -62.3948     0.04135241
      6101.0000         0.8712        2856.98         0.2962      -105.9458       -62.5479     0.03892221
      6101.5000         0.8881       2787.273         0.3127      -106.0933       -62.7011     0.03649049
      6102.0000         0.9086       2717.563         0.3291      -106.1971       -62.8105     0.03475395
      6102.5000          0.946       2662.094         0.3456      -106.2755       -62.8945     0.03342062
      6103.0000         0.9797       2532.664         0.3579      -106.3539       -62.9786     0.03208572
      6103.5000         1.0066       2486.094         0.3562      -106.0826       -62.7129      0.0363032
      6104.0000         1.0094        2453.98         0.3544      -105.5614       -62.1973      0.0444873
      6104.5000         0.9361       2454.352         0.3527      -104.4844        -61.126     0.06149207
      6105.0000         0.8312       2496.324         0.3509      -103.4084       -60.0556     0.07848255
      6105.5000         0.8027       2574.094         0.3492      -101.7252        -58.378      0.1051111
      6106.0000         0.7838       2773.527         0.3471       -99.9305        -56.589      0.1335079
      6106.5000          0.765       2975.434         0.3398       -98.4741       -55.1382      0.1565365
      6107.0000         0.7462       3062.445         0.3324       -97.2136       -53.8833      0.1764555
      6107.5000         0.7421       3106.992         0.3251       -96.1774       -52.8528      0.1928127
      6108.0000         0.7599       3151.879         0.3178       -95.1425       -51.8235      0.2091508
      6108.5000         0.7776       3220.352         0.3104       -94.1063       -50.7929      0.2255095
      6109.0000         0.7954       3282.348         0.3031       -97.6648       -54.3571      0.1689349
      6109.5000         0.8132       3326.918         0.2958      -102.8309       -59.5288     0.08684443
      6110.0000         0.8297       3352.254         0.2884      -104.2352       -60.9388     0.06446348
      6110.5000          0.844       3388.492         0.2811      -105.2708         -61.98     0.04793651
      6111.0000         0.8582       3417.219         0.2744      -104.7062        -61.421      0.0568095
      6111.5000         0.8617        3460.18         0.2738      -104.1416       -60.8621     0.06568097
      6112.0000         0.8508       3493.379         0.2732      -103.5405       -60.2666     0.07513331
      6112.5000         0.8314       3508.754         0.2726      -102.7286       -59.4603     0.08793174
      6113.0000         0.7996       3478.621          0.272      -101.9174       -58.6548      0.1007175
      6113.5000         0.7788        3447.25         0.2714      -101.1062       -57.8492      0.1135047
      6114.0000         0.7585       3417.414         0.2822      -100.3588       -57.1074      0.1252794
      6114.5000         0.7394       3238.645         0.2941       -98.5126       -55.2669      0.1544937
      6115.0000         0.7323       2952.691         0.3059       -94.0505       -50.8104      0.2252318
      6115.5000         0.7252       2667.137         0.3178       -89.8016       -46.5671      0.2925857
      6116.0000          0.718       2381.184         0.3471       -85.5577       -42.3289      0.3598588
      6116.5000         0.7109       2269.652         0.3903       -81.3088       -38.0856      0.4272127
      6117.0000         0.7033        2210.82         0.4335       -77.0599       -33.8423      0.4945666
      6117.5000         0.7102        2156.09         0.4995        -72.816       -29.6041      0.5618397
      6118.0000         0.7351         1661.5         0.5654       -68.5671       -25.3608      0.6291937
      6118.5000         0.7735       1298.615         0.6568       -64.3231       -21.1224      0.6964698
      6119.0000         0.8234       1232.021         0.8221       -60.0743       -16.8793      0.7638206
      6119.5000          0.858       1138.434         0.8466       -55.8254        -12.636      0.8311746
      6120.0000         0.8855       1094.188         0.8353       -51.5815        -8.3978      0.8984476
      6120.5000         0.9129       1039.854         0.7582       -47.3326        -4.1545      0.9658016
      6121.0000         0.9547       1009.598         0.7041       -51.2654        -8.0929      0.9032873
      6121.5000         1.0054        1034.02         0.6588       -52.5433        -9.3765      0.8829127
      6122.0000         1.0321        1086.82         0.6134       -54.1522        -10.991      0.8572857
      6122.5000         1.0265       1178.826         0.5681       -49.7991        -6.6435      0.9262937
      6123.0000         1.0003       1292.039         0.5228       -47.6598        -4.5099      0.9601603
      6123.5000         0.9662       1399.223         0.4954       -55.0718       -11.9275      0.8424206
      6124.0000          0.925         1771.5         0.4701       -59.5884       -16.4497      0.7706397
      6124.5000         0.8839       2077.188         0.4449         -64.11        -20.977      0.6987778
      6125.0000         0.8428       2194.109         0.4246       -68.6316       -25.5042      0.6269175
      6125.5000         0.8188       2381.133         0.4095       -73.1482       -30.0264      0.5551365
      6126.0000          0.801       2336.344         0.4303       -77.6697       -34.5536      0.4832762
      6126.5000         0.7854       2282.801         0.4758       -78.0664       -34.9559      0.4768905
      6127.0000         0.7766       2227.527         0.5395       -73.6786       -30.5737      0.5464492
      6127.5000         0.8263       2172.305         0.6034        -69.286       -26.1868      0.6160825
      6128.0000         0.8725           2074         0.6671       -64.8983       -21.8047      0.6856397
      6128.5000         0.9164        1926.25         0.7046       -60.5106       -17.4227      0.7551952
      6129.0000         0.9542       1778.375         0.7352       -56.1179       -13.0356      0.8248317
      6129.5000         0.9391         1630.5         0.7657       -51.7302        -8.6535      0.8943889
      6130.0000         0.8917       1482.625         0.7932       -47.3376        -4.2666      0.9640222
      6130.5000         0.9785       1345.434         0.7446       -42.9498         0.1156              1
