#------------------------------------------------------------------------------
# Created by    : vladimir.rabinovich
# Created on    : 09/19/2023 17:19:36
#------------------------------------------------------------------------------
~Version Information Section
VERS.           2.0     :   CWLS log ASCII Standard - VERSION 2.0
WRAP.           NO      :   One line per depth step
~Well Information Section
#MNEM       .UNIT                                         VALUE :DESCRIPTION
#------------------------------------------------------------------------------
STRT        .FT                                            4496 :START DEPTH
STOP        .FT                                            7801 :STOP DEPTH
STEP        .FT                                             0.5 :STEP      
NULL        .                                           -999.25 :NULL      
COMP        .                             HELIS WM G CO LLC THE :COMPANY   
WELL        .                               OCS G12508 ST00BP00 :WELL      
FLD         .                              GALVESTON BLOCK 0395 :FIELD     
LOC         .                                                   :LOCATION  
CNTY        .                             GALVESTON LARGE BLOCK :LOCATION  
STAT        .                                             TEXAS :STATE     
CTRY        .                                     UNITED STATES :COUNTRY   
SRVC        .                                                   :SERVICE COMPANY
DATE        .                             9/13/2023 11:19:03 AM :LOG DATE  
API         .                                    42706404300000 :API NUMBER
UWI         .                                    42706404300000 :UNIQUE WELL ID
XCOORD      .                                  908236.382466376 :SURFACE X 
YCOORD      .                                  10386259.9403327 :SURFACE Y 
LAT         .                                         28.601028 :LATITUDE  
LON         .                                        -95.282181 :LONGITUDE 
ELEV        .FT                                             103 :ELEVATION VALUE
ELEV_TYPE   .                                                KB :ELEVATION REFERENCE TYPE
~Curve Information Section
#MNEM       .UNIT                                      API CODE :CURVE DESCRIPTION
#------------------------------------------------------------------------------
DEPT        .FT                                                 :DEPTH     
AHT10       .OHMM                                               :          
AHT20       .OHMM                                               :          
AHT30       .OHMM                                               :          
AHT60       .OHMM                                               :          
AHT90       .OHMM                                               :          
CPCHM       .MMHO                                               :          
DCAL        .IN                                                 :          
DPHZ        .FRAC                                               :          
GR          .GAPI                                               :          
GR_NORM     .GAPI                                               :GammaRay Normalized
GRAM        .GAPI                                               :          
HDRA        .G/CC                                               :          
NPOR        .FRAC                                               :          
RACHM       .OHMM                                               :          
ROPS        .F/HR                                               :          
RPCHM       .OHMM                                               :          
RWA         .OHMM                                               :          
SP          .MV                                                 :          
SP_NORM     .MV                                                 :SP Normalized
TENS        .LB/F                                               :          
VSH_GR      .V/V                                                :Volume of Shale from GR
VSH_SP      .V/V                                                :Volume of Shale from SP
~A        DEPTH          AHT10          AHT20          AHT30          AHT60          AHT90          CPCHM           DCAL           DPHZ             GR        GR_NORM           GRAM           HDRA           NPOR          RACHM           ROPS          RPCHM            RWA             SP        SP_NORM           TENS         VSH_GR         VSH_SP
# ...
      5384.0000         0.7444         0.7871         0.8048         0.8234         0.8236       1293.379         0.7311         0.1916        53.6639          64.77         62.476          0.037         0.4319          0.781         20.208          0.722         0.0381            -36       1.644919           2612      0.6759576              1
      5384.5000         0.7624         0.7814         0.8052          0.825         0.8211       1419.346         0.7792         0.1845        52.5874       63.22707         62.798         0.0381         0.3969          0.736         20.208          0.657          0.035       -34.3125       4.001464           2607      0.6431292              1
      5385.0000         0.7566         0.7786         0.8053         0.8255         0.8377       1479.487         0.7431         0.1829        54.2957       65.67557         64.195         0.0486         0.3829          0.734         20.208           0.66          0.035         -34.25       4.083009           2630      0.6952248              1
      5385.5000         0.7274         0.7572         0.7834         0.8048         0.8198       1514.978         0.8032         0.1979         53.459       64.47633         68.267         0.0581         0.3683          0.748          68.78          0.652         0.0406         -34.25       4.077049           2629      0.6697091              1
      5386.0000          0.719         0.7366         0.7611         0.7825         0.8016       1535.234         0.8513         0.2217        56.2204       68.43425         77.572         0.0624         0.3933          0.781          68.78          0.708         0.0507       -34.6875       3.458595           2630      0.7539202              1
      5386.5000         0.7003         0.7203         0.7455         0.7584         0.7773       1448.475         0.8994         0.2305        58.7477       72.05662         76.956         0.0707         0.4254          0.796          68.78          0.733         0.0534            -36        1.61514           2641      0.8309919              1
      5387.0000         0.7282         0.7246         0.7463         0.7544         0.7774       1364.427         0.9835         0.2122         60.453       74.50084         74.937         0.0863         0.4547          0.805          68.78          0.727         0.0447       -36.6875      0.6466797           2608      0.8829966              1
      5387.5000         0.7733          0.778         0.7934         0.7992         0.8218       1351.553         1.0196         0.1936        60.8743       75.10468         74.823         0.0917         0.4245          0.809         62.246          0.756         0.0388        -38.375      -1.721775           2630      0.8958443      0.9735112
      5388.0000         0.8475         0.8427         0.8465         0.8526         0.8654       1338.679         0.9475          0.187        58.5452       71.76637         75.772         0.0859         0.4062          0.816         62.246          0.754          0.038        -40.125      -4.177735           2659      0.8248165      0.9357271
      5388.5000         0.7993         0.8206         0.8187         0.8115         0.8199       1325.805         0.8273         0.1945        52.4294       63.00061         75.461         0.0722         0.3709          0.823         62.246          0.742         0.0391       -41.3125       -5.84619           2642      0.6383108      0.9100586
      5389.0000         0.7303         0.7442         0.7458         0.7384         0.7413       1336.003         0.8513         0.1862        50.1127       59.68008         77.803         0.0755         0.3775           0.82         62.246          0.752         0.0322        -44.375      -10.13964           2679      0.5676612      0.8440055
      5389.5000         0.6947         0.6967         0.6953         0.6875         0.6853       1352.571         0.7912          0.187        49.6509       59.01818         76.913         0.0826          0.403          0.826         56.081          0.731         0.0301       -47.6875       -14.7831           2663      0.5535783      0.7725676
      5390.0000          0.655         0.6753          0.673          0.664         0.6554       1357.907         0.5387         0.2092        53.3397       64.30534         77.554         0.0839         0.3912          0.826         56.081          0.756         0.0366       -47.3125      -14.26406           2615       0.666071      0.7805529
      5390.5000         0.6469         0.6684         0.6689         0.6563         0.6431       1363.244         0.2502         0.2419         54.814       66.41844         73.628         0.0728         0.3363          0.833         56.081          0.757         0.0491        -43.375      -8.757514           2631      0.7110307       0.865269
      5391.0000         0.6749         0.6734         0.6689         0.6668         0.6517        1341.56         0.6349         0.2546        55.2882       67.09811         72.909         0.0558         0.3965          0.844         56.081          0.756         0.0555       -40.4375      -4.650974           2614      0.7254918      0.9284465
      5391.5000          0.732         0.7307         0.7274         0.7111         0.6934       1321.329         0.8273         0.2492         54.344        65.7448         71.676         0.0296         0.4937          0.848         55.088          0.767         0.0564       -42.6875      -7.806929           2607       0.696698      0.8798934
      5392.0000         0.7928         0.7892         0.7915         0.7764         0.7472       1306.109         0.9234          0.232         53.291       64.23553         71.994         0.0099         0.4764          0.856         55.088           0.79         0.0521       -44.0625      -9.737884           2633      0.6645858      0.8501864
      5392.5000         0.8181         0.8288         0.8481          0.817         0.7682       1275.669         0.8032         0.2124        51.5903       61.79792         73.332        -0.0006         0.3786          0.842         55.088          0.764         0.0443       -45.5625      -11.84384           2627      0.6127218      0.8177871
      5393.0000         0.7754         0.7806         0.8098         0.7828         0.7473       1284.446         0.7311         0.1966        52.5535       63.17847         74.796         0.0149         0.3219          0.833         55.088          0.747         0.0365       -46.0625       -12.5498           2646      0.6420952      0.8069262
      5393.5000         0.7035         0.7176         0.7426         0.7391         0.7169       1321.263          0.683         0.1883         54.449       65.89531         76.948         0.0419         0.3346          0.826         48.254          0.743         0.0319          -42.5      -7.568259           2648      0.6999002      0.8835652
      5394.0000         0.6657         0.6815         0.7051         0.7114         0.7063       1335.537         0.9234         0.2203         54.694       66.24645         76.098         0.0595         0.4102          0.815         48.254          0.752         0.0441         -41.25      -5.824214           2701      0.7073714      0.9103967
      5394.5000         0.6482         0.6634         0.6977           0.72          0.711       1335.537         0.8753         0.2488        52.4604       63.04503          77.93         0.0666         0.4306          0.813         48.254           0.75         0.0576       -39.9375      -3.992668           2668       0.639256      0.9385743
      5395.0000         0.6324         0.6471         0.6793         0.7132            0.7       1335.537          1.212         0.2616        54.5665        66.0637         77.896         0.0654         0.4117          0.801         48.254          0.724         0.0632        -39.375      -3.211128           2663      0.7034829       0.950598
      5395.5000         0.6562         0.6619         0.6981         0.7272         0.7162       1352.125         1.4284         0.2426        56.7519       69.19604         76.422         0.0708         0.4499          0.794          62.64          0.719          0.055       -38.0625      -1.379583           2682      0.7701284      0.9787756
