#------------------------------------------------------------------------------
# Created by    : vladimir.rabinovich
# Created on    : 09/19/2023 17:20:01
#------------------------------------------------------------------------------
~Version Information Section
VERS.           2.0     :   CWLS log ASCII Standard - VERSION 2.0
WRAP.           NO      :   One line per depth step
~Well Information Section
#MNEM       .UNIT                                         VALUE :DESCRIPTION
#------------------------------------------------------------------------------
STRT        .FT                                            3530 :START DEPTH
STOP        .FT                                           11780 :STOP DEPTH
STEP        .FT                                             0.5 :STEP      
NULL        .                                           -999.25 :NULL      
COMP        .                                        TEXACO INC :COMPANY   
WELL        .                                     ST TR 00820-L :WELL      
FLD         .                                           WILDCAT :FIELD     
LOC         .                                                   :LOCATION  
CNTY        .                        MUSTANG ISLAND LARGE BLOCK :LOCATION  
STAT        .                                             TEXAS :STATE     
CTRY        .                                     UNITED STATES :COUNTRY   
SRVC        .                                                   :SERVICE COMPANY
DATE        .                             9/13/2023 11:18:55 AM :LOG DATE  
API         .                                    42702302010000 :API NUMBER
UWI         .                                    42702302010000 :UNIQUE WELL ID
XCOORD      .                                  295719.314319733 :SURFACE X 
YCOORD      .                                  9994218.17259751 :SURFACE Y 
LAT         .                                        27.4796405 :LATITUDE  
LON         .                                       -97.1466422 :LONGITUDE 
ELEV        .FT                                              78 :ELEVATION VALUE
ELEV_TYPE   .                                                KB :ELEVATION REFERENCE TYPE
~Curve Information Section
#MNEM       .UNIT                                      API CODE :CURVE DESCRIPTION
#------------------------------------------------------------------------------
DEPT        .FT                                                 :DEPTH     
ASFL        .OHMM                                               :          
CILD        .MMHO                                               :          
GR          .GAPI                                               :          
GR_NORM     .GAPI                                               :GammaRay Normalized
ILD         .OHMM                                               :          
SP          .MV                                                 :          
SP_NORM     .MV                                                 :SP Normalized
VSH_GR      .V/V                                                :Volume of Shale from GR
VSH_SP      .V/V                                                :Volume of Shale from SP
~A        DEPTH           ASFL           CILD             GR        GR_NORM            ILD             SP        SP_NORM         VSH_GR         VSH_SP
      3530.0000         0.2347         8.8118        24.2016       83.07822        10.0596       -51.9056        10.0827              1              1
      3530.5000          0.234         8.9788        24.8969       82.63982        10.0652       -52.4859       9.502403              1              1
      3531.0000         0.2396         9.1455        25.9041       79.05674        10.0708       -54.3998       7.588505      0.9799306              1
      3531.5000         0.2732         9.3125        26.9118       84.34205        10.0538       -57.8367       4.151604              1              1
      3532.0000         0.3068         8.9216        27.9195        78.7636         10.034       -61.1693      0.8190041      0.9736935              1
      3532.5000         0.5419         8.2415         28.748       83.38882        10.0142       -62.6913     -0.7029953              1              1
      3533.0000         0.6049       661.7646        29.4465       81.45673         9.9761       -65.1793      -3.190994              1      0.9682465
      3533.5000         1.0386       1605.787        29.9905       82.05997         9.7869       -66.5405      -4.552193              1      0.9485189
      3534.0000         1.2065       1686.662        30.4545       79.38522         0.6031            -68      -6.011696      0.9869196      0.9273667
      3534.5000         1.2345       1713.488        31.5356       81.30645         0.6277       -69.7344      -7.746094              1      0.9022305
      3535.0000         1.2574       1442.129        33.1718       83.99727         0.6522       -71.0208      -9.032494              1      0.8835871
      3535.5000         1.2703       1313.898        34.4796       82.13696         0.6767       -72.9073        -10.919              1      0.8562464
      3536.0000         1.2762       1264.041        35.4321       84.99175          0.697       -73.9434      -11.95509              1      0.8412305
      3536.5000         1.2633       1242.113        36.1014       79.64243         0.7173       -74.7443        -12.756       0.992392      0.8296232
      3537.0000         1.2505       1240.176        36.5635       81.89088         0.7375       -75.4304      -13.44209              1      0.8196798
      3537.5000         1.2376       1241.619        37.0257       78.55716         0.7578       -76.2938       -14.3055      0.9693013      0.8071667
      3538.0000         1.2244       1243.063        37.4878       79.20213         0.7781       -77.1881       -15.1998      0.9830239      0.7942058
      3538.5000         1.2046       1236.436        39.1151       82.93719         0.7984       -78.0823      -16.09399              1      0.7812465
      3539.0000         1.1849       1228.578        40.8912       85.10082         0.8187       -78.0708       -16.0825              1      0.7814131
      3539.5000         1.1651       1220.725        42.8576       79.20303         0.8389       -77.7524       -15.7641      0.9830431      0.7860276
      3540.0000         1.1553       1212.873        44.7982       80.26692         0.8592       -77.2173        -15.229              1      0.7937827
      3540.5000         1.1481       1205.021        45.6654       83.98191         0.8795       -76.6824       -14.6941              1      0.8015348
      3541.0000         1.1534       1199.512        46.3761       81.64912         0.8812       -76.1475      -14.15919              1       0.809287
      3541.5000         1.1667       1196.656        45.2229       63.00649         0.8825       -75.6123      -13.62399       0.638436      0.8170436
      3542.0000         1.1799       1193.801         43.459       60.74723         0.8837       -75.2228       -13.2345      0.5903667      0.8226885
      3542.5000         1.1931       1192.795        38.2743       54.10657          0.885       -75.4169       -13.4286       0.449076      0.8198754
      3543.0000         1.2083       1201.242        36.6553       52.03292         0.8862       -74.9529       -12.9646      0.4049557         0.8266
      3543.5000         1.2477       1209.688        35.3616       50.37592         0.8874       -74.0685      -12.08019      0.3697003      0.8394175
      3544.0000          1.287       1216.721         33.907       48.51284         0.8887       -73.1841      -11.19579      0.3300604      0.8522349
      3544.5000         1.2788       1221.482        31.7823       45.79148         0.8899       -72.2997      -10.31139      0.2721591      0.8650523
      3545.0000         1.1911       1227.531        33.2565       47.67966          0.887        -71.416      -9.427696      0.3123333      0.8778595
      3545.5000          1.147        1235.42        35.1811       50.14473         0.8841       -72.3746       -10.3863      0.3647815      0.8639667
      3546.0000         1.1218       1234.385        36.9806       52.44957         0.8811       -74.6577       -12.6694      0.4138206      0.8308783
      3546.5000         1.0968       1231.441        38.7088       54.66309         0.8782       -76.9481      -14.95979      0.4609168      0.7976841
      3547.0000         1.0915       1225.688        40.4371       56.87673         0.8753       -79.2434       -17.2551      0.5080155      0.7644189
      3547.5000         1.1216       1218.641        42.9153       60.05085         0.8723       -81.3669      -19.37859      0.5755501      0.7336436
      3548.0000         1.1516        1211.59        45.7716       63.70926         0.8694       -82.3937       -20.4054      0.6533886      0.7187624
      3548.5000         1.1909       1217.344         48.537       67.25125         0.8661       -83.3192      -21.33089      0.7287501      0.7053493
      3549.0000         1.2529       1226.539        50.2039       69.38625         0.8626       -83.5929       -21.6046      0.7741756      0.7013826
      3549.5000         1.2531       1239.994        51.8696       71.51971          0.859       -70.4561      -8.467796      0.8195684      0.8917711
      3550.0000         1.2089       1259.803        53.0516       73.03365         0.8555       -68.5118      -6.523499      0.8517799      0.9199493
      3550.5000         1.0585       1279.598         53.901       74.12157          0.852        -66.907      -4.918694      0.8749271      0.9432073
      3551.0000          1.035       1298.635        54.7498       75.20875         0.8484       -65.9624      -3.974098      0.8980585      0.9568971
      3551.5000         1.0066        1313.58        55.5992       76.29667         0.8426       -65.0178      -3.029495      0.9212057       0.970587
      3552.0000         0.9829       1328.523        56.4486       77.38461         0.8322       -64.1249      -2.136597      0.9443533      0.9835276
      3552.5000         0.9606       1314.865        57.0779       78.19061         0.8219       -63.3566      -1.368298      0.9615024      0.9946623
      3553.0000         0.9614       1291.492        57.5742       78.82629         0.8115       -62.5881     -0.5997963      0.9750275              1
      3553.5000         0.9672       1268.121        58.0704       79.46185         0.8011       -61.9124     0.07590485      0.9885499              1
      3554.0000          0.973       1244.748        58.5669       80.09776         0.7906       -62.3356     -0.3472977              1              1
      3554.5000         0.9789       1221.375        59.0778       80.75214         0.7801       -62.9484     -0.9600945              1              1
      3555.0000         0.9884       1198.002        59.6004       81.42149         0.7883       -63.1301      -1.141796              1       0.997945
      3555.5000         1.0006       1174.629        59.4865        81.2756         0.8049       -62.7032     -0.7148972              1              1
      3556.0000         1.0127        1155.66        59.2303       80.94746         0.8214       -62.2767     -0.2883949              1              1
