#------------------------------------------------------------------------------
# Created by    : vladimir.rabinovich
# Created on    : 09/19/2023 17:20:32
#------------------------------------------------------------------------------
~Version Information Section
VERS.           2.0     :   CWLS log ASCII Standard - VERSION 2.0
WRAP.           NO      :   One line per depth step
~Well Information Section
#MNEM       .UNIT                                         VALUE :DESCRIPTION
#------------------------------------------------------------------------------
STRT        .FT                                             222 :START DEPTH
STOP        .FT                                            9192 :STOP DEPTH
STEP        .FT                                             0.5 :STEP      
NULL        .                                           -999.25 :NULL      
COMP        .                                      PAN AMERICAN :COMPANY   
WELL        .                                     ST TR 00060-L :WELL      
FLD         .                                           WILDCAT :FIELD     
LOC         .                                                   :LOCATION  
CNTY        .                             GALVESTON LARGE BLOCK :LOCATION  
STAT        .                                             TEXAS :STATE     
CTRY        .                                     UNITED STATES :COUNTRY   
SRVC        .                                                   :SERVICE COMPANY
DATE        .                             9/13/2023 11:19:24 AM :LOG DATE  
API         .                                    42706000830000 :API NUMBER
UWI         .                                    42706000830000 :UNIQUE WELL ID
XCOORD      .                                  1150669.84230747 :SURFACE X 
YCOORD      .                                  10684730.4394491 :SURFACE Y 
LAT         .                                        29.4325033 :LATITUDE  
LON         .                                       -94.5389235 :LONGITUDE 
ELEV        .FT                                              11 :ELEVATION VALUE
ELEV_TYPE   .                                                KB :ELEVATION REFERENCE TYPE
~Curve Information Section
#MNEM       .UNIT                                      API CODE :CURVE DESCRIPTION
#------------------------------------------------------------------------------
DEPT        .FT                                                 :DEPTH     
ASN         .OHMM                                               :          
CILD        .MMHO                                               :          
ILD         .OHMM                                               :          
SP          .MV                                                 :          
SP_NORM     .MV                                                 :SP Normalized
VSH_SP      .V/V                                                :Volume of Shale from SP
~A        DEPTH            ASN           CILD            ILD             SP        SP_NORM         VSH_SP
# ...
      4972.0000         0.5369       1977.449         0.3911       -93.8712      -38.74276      0.1222615
      4972.5000         0.5301       2000.961           0.43       -94.3392      -39.21213      0.1113458
      4973.0000         0.5233       1993.352         0.4689        -94.807       -39.6813      0.1004348
      4973.5000         0.5166       1985.742         0.5078       -95.2747      -40.15038     0.08952606
      4974.0000         0.5098       2083.793         0.5467       -95.7428      -40.61986     0.07860796
      4974.5000         0.5154        2522.57         0.5857       -96.2104      -41.08884     0.06770138
      4975.0000         0.5284       2705.453         0.6214       -96.6417      -41.52151     0.05763919
      4975.5000         0.5415       2732.801         0.6561        -97.059      -41.94019     0.04790257
      4976.0000         0.5545        2751.82         0.6908       -97.4758      -42.35836     0.03817758
      4976.5000         0.5675       2755.313         0.7255       -97.8931      -42.77704     0.02844096
      4977.0000         0.5805       2742.168         0.7597        -98.293      -43.17832     0.01910888
      4977.5000         0.5987       2722.363         0.7572       -98.5063        -43.393     0.01411633
      4978.0000          0.589       2702.559          0.741       -98.7197      -43.60778    0.009121474
      4978.5000         0.5792       2747.031         0.7248       -98.9331      -43.82255    0.004126793
      4979.0000         0.5695        2765.91         0.7085        -99.124      -44.01483              0
      4979.5000         0.5597       2773.758         0.6923       -99.2142       -44.1064              0
      4980.0000         0.5499       2782.215         0.6761       -99.3046      -44.19818              0
      4980.5000         0.5386       2790.953         0.6599       -99.3948      -44.28975              0
      4981.0000         0.5236       2800.461         0.6437       -99.4851      -44.38143              0
      4981.5000         0.5085       2817.684         0.6274       -99.5697      -44.46741              0
      4982.0000         0.4935        2845.18         0.6112       -99.6387      -44.53779              0
      4982.5000         0.4785       2896.555         0.5905       -99.7075      -44.60796              0
      4983.0000         0.4634       2946.773         0.5631       -99.7765      -44.67833              0
      4983.5000         0.4484       2997.781         0.5356       -99.8455      -44.74871              0
      4984.0000         0.4334       3036.676         0.5082       -99.3929      -44.29749              0
      4984.5000         0.4185       3079.586         0.4808       -98.5114      -43.41737     0.01354963
      4985.0000         0.4052       3117.645         0.4533       -97.6305      -42.53785     0.03400359
      4985.5000         0.3919        3153.09         0.4259       -96.7489      -41.65762     0.05447388
      4986.0000         0.3809       3120.055         0.3985       -95.8673       -40.7774     0.07494416
      4986.5000         0.4254       3074.734         0.3704       -94.3981      -39.30957      0.1090797
      4987.0000         0.4699       3011.027         0.3416       -92.9177      -37.83055      0.1434755
      4987.5000         0.4874       2905.023         0.3127       -91.4375      -36.35173      0.1778668
      4988.0000         0.4947       2768.742         0.2839         -91.39       -36.3056      0.1789395
      4988.5000         0.4813       2665.449          0.255       -91.8186      -36.73558      0.1689399
      4989.0000         0.4593       2590.367         0.2258       -92.2765      -37.19485      0.1582592
      4989.5000         0.4375       2600.707         0.1965       -92.7344      -37.65413      0.1475783
      4990.0000         0.4524       2648.363         0.1711       -93.1924      -38.11351      0.1368952
      4990.5000         0.4339       2640.832         0.1491       -93.6503      -38.57278      0.1262143
      4991.0000         0.4167       2627.145         0.1271       -94.1079      -39.03176      0.1155403
      4991.5000         0.4072       2609.063          0.105       -94.5658      -39.49104      0.1048595
      4992.0000         0.4248       2594.863          0.083       -95.0237      -39.95031     0.09417875
      4992.5000         0.4424       2599.477         0.0593       -95.3533       -40.2813      0.0864815
      4993.0000         0.4583       2604.086         0.0338       -95.4073      -40.33667     0.08519363
      4993.5000         0.4729       2608.699         0.0082       -95.4615      -40.39225     0.08390125
      4994.0000         0.4876       2581.453         0.0234       -95.5157      -40.44782     0.08260877
      4994.5000         0.4842       2550.879         0.1046       -95.5698       -40.5033     0.08131861
      4995.0000         0.4631       2583.324          0.186       -95.6241      -40.55898     0.08002383
      4995.5000         0.4409       2665.055         0.2673       -95.7236      -40.65985     0.07767779
      4996.0000         0.4241       2781.348         0.2687        -95.823      -40.76063     0.07533424
      4996.5000         0.4086       2897.738         0.2457       -95.9225      -40.86151      0.0729882
      4997.0000          0.393       3014.129          0.218        -96.022      -40.96239     0.07064216
      4997.5000         0.3785        3130.52         0.1903       -96.1215      -41.06326     0.06829639
      4998.0000         0.3643       3236.422         0.1627       -96.2208      -41.16394     0.06595496
      4998.5000         0.3519       3333.215          0.135       -96.2139      -41.15841     0.06608351
      4999.0000         0.3466       3265.617         0.1074       -95.4951      -40.44099     0.08276767
      4999.5000         0.3517       3191.816         0.0846       -94.7764      -39.72366     0.09944969
      5000.0000         0.3601       2041.738          0.107        -93.312      -38.26064      0.1334735
      5000.5000         0.3831       2003.898         0.1295       -89.6168      -34.56682      0.2193763
      5001.0000         0.3932       1977.756         0.1519       -86.1714       -31.1228      0.2994699
      5001.5000         0.4019       1661.426         0.1744       -83.5291      -28.48187      0.3608868
      5002.0000         0.4046       1345.096         0.1968       -82.0164      -26.97055      0.3960337
      5002.5000         0.4073       1153.271         0.2193       -82.7406      -27.69613      0.3791599
      5003.0000           0.41       1067.447         0.2251       -85.6252       -30.5821      0.3120442
      5003.5000         0.4127       975.2256          0.224       -87.9687      -32.92698      0.2575122
      5004.0000         0.4109       1058.982          0.223       -90.3147      -35.27435       0.202922
      5004.5000         0.4062       1193.428         0.2219       -92.2712      -37.23223        0.15739
      5005.0000         0.4016        1786.57         0.2174       -93.3524      -38.31481      0.1322138
      5005.5000         0.3969       1836.814         0.2068       -94.4336      -39.39738      0.1070376
      5006.0000         0.3922       2150.668         0.1963       -95.5134      -40.47856     0.08189401
      5006.5000         0.3875       2138.918         0.1858       -94.6442      -39.61074      0.1020758
      5007.0000         0.3866       2090.969         0.1753       -92.6509      -37.61882      0.1483996
      5007.5000         0.3911       2058.281         0.1787       -90.2657      -35.23499      0.2038374
      5008.0000         0.3957       2025.625         0.1972       -87.8831      -32.85377      0.2592147
      5008.5000         0.4003        1852.76         0.2156       -85.5004      -30.47244      0.3145944
      5009.0000         0.4049       1332.695         0.2341       -83.5358      -28.50922      0.3602508
      5009.5000         0.4009       929.1641         0.2525       -82.5244       -27.4992      0.3837397
