#------------------------------------------------------------------------------
# Created by    : vladimir.rabinovich
# Created on    : 09/19/2023 17:19:46
#------------------------------------------------------------------------------
~Version Information Section
VERS.           2.0     :   CWLS log ASCII Standard - VERSION 2.0
WRAP.           NO      :   One line per depth step
~Well Information Section
#MNEM       .UNIT                                         VALUE :DESCRIPTION
#------------------------------------------------------------------------------
STRT        .FT                                            3460 :START DEPTH
STOP        .FT                                           13634 :STOP DEPTH
STEP        .FT                                             0.5 :STEP      
NULL        .                                           -999.25 :NULL      
COMP        .                                SHELL OFFSHORE INC :COMPANY   
WELL        .                               OCS G06107 ST00BP00 :WELL      
FLD         .                                           WILDCAT :FIELD     
LOC         .                                                   :LOCATION  
CNTY        .                             GALVESTON LARGE BLOCK :LOCATION  
STAT        .                                             TEXAS :STATE     
CTRY        .                                     UNITED STATES :COUNTRY   
SRVC        .                                                   :SERVICE COMPANY
DATE        .                             9/13/2023 11:19:27 AM :LOG DATE  
API         .                                    42706401270000 :API NUMBER
UWI         .                                    42706401270000 :UNIQUE WELL ID
XCOORD      .                                  941908.785460496 :SURFACE X 
YCOORD      .                                  10441108.8632451 :SURFACE Y 
LAT         .                                         28.753553 :LATITUDE  
LON         .                                        -95.180411 :LONGITUDE 
ELEV        .FT                                              90 :ELEVATION VALUE
ELEV_TYPE   .                                                KB :ELEVATION REFERENCE TYPE
~Curve Information Section
#MNEM       .UNIT                                      API CODE :CURVE DESCRIPTION
#------------------------------------------------------------------------------
DEPT        .FT                                                 :DEPTH     
ASFL        .OHMM                                               :          
CALI        .IN                                                 :          
CILD        .MMHO                                               :          
DT          .US/F                                               :          
GR          .GAPI                                               :          
GR_1        .GAPI                                               :          
GR_NORM     .GAPI                                               :GammaRay Normalized
ILD         .OHMM                                               :          
ILM         .OHMM                                               :          
RHOB        .G/C3                                               :          
SP          .MV                                                 :          
VSH_GR      .V/V                                                :Volume of Shale from GR
~A        DEPTH           ASFL           CALI           CILD             DT             GR           GR_1        GR_NORM            ILD            ILM           RHOB             SP         VSH_GR
# ...
      4239.0000          0.809        17.9515       1618.455       115.9192        -999.25        33.9547       74.78889           0.66         0.6807          2.298       -83.3715      0.8891252
      4239.5000         0.7799        17.9501       1643.131       117.8092        -999.25        34.7827       77.02959         0.6549         0.6754         2.2958       -81.3436      0.9367999
      4240.0000         0.7498        17.8991       1656.451       119.3091        -999.25        34.4028       76.00001         0.6505         0.6673         2.2984       -80.2853      0.9148938
      4240.5000          0.749        17.8401        1661.16       120.5718        -999.25        33.7728       74.29337         0.6467         0.6609         2.3041       -80.2489      0.8785824
      4241.0000         0.7623        17.8024       1660.307       121.0139        -999.25        33.5762       73.76006         0.6457         0.6592         2.2998       -80.6572      0.8672352
      4241.5000         0.8004        17.8043       1662.418       119.7421        -999.25        34.0546       75.05425         0.6476         0.6574         2.2866       -80.9739      0.8947713
      4242.0000         0.8173        17.8629       1655.439       118.1232        -999.25        35.0947        77.8692         0.6497         0.6581         2.2807       -81.0297      0.9546639
      4242.5000         0.7825        17.9323        1643.23        115.734        -999.25        35.1257        77.9521         0.6537         0.6624         2.2963       -80.6543      0.9564277
      4243.0000         0.8075         17.985       1629.064       111.1617        -999.25        34.1691       75.36121         0.6577         0.6697          2.311       -80.2792      0.9013023
      4243.5000         0.8911        18.0527       1614.898       110.7865        -999.25        33.1174       72.51282         0.6642         0.6772         2.3187        -81.624      0.8406982
      4244.0000         0.8452         18.107       1599.115       112.8542        -999.25        31.4814       68.08253         0.6726         0.6872          2.306       -84.4917      0.7464368
      4244.5000         0.8506        18.1559       1582.582       115.2961        -999.25        29.8107       63.55826         0.6798         0.6962         2.2723       -86.9957      0.6501757
      4245.0000         0.8527        18.2028       1572.322        116.075        -999.25        29.3619       62.34217         0.6842         0.7001         2.2619       -89.0658      0.6243016
      4245.5000         0.8969        18.2351        1562.18       113.7643        -999.25        29.6094       63.01124         0.6887         0.7037         2.2581       -88.6075       0.638537
      4246.0000         0.8852        18.2577       1552.375       110.6847        -999.25        30.0767       64.27538         0.6927         0.7065         2.2767       -87.1366      0.6654335
      4246.5000         0.8485        18.2715       1530.721        109.657        -999.25        30.5603       65.58365         0.6966         0.7094         2.3001       -85.6954      0.6932691
      4247.0000         0.8414        18.2794       1523.086       108.9122        -999.25        30.9174       66.54945         0.7001         0.7123         2.3173       -85.3033      0.7138182
      4247.5000         0.8544        18.2842       1521.732       108.9204        -999.25        30.6992       65.95766            0.7         0.7153         2.3216        -85.594      0.7012268
      4248.0000         0.8731        18.2846       1524.932       108.9534        -999.25         30.738       66.06171         0.6998         0.7183         2.3294        -87.417      0.7034405
      4248.5000         0.8569        18.3014       1533.953       109.0668        -999.25        30.7669       66.13892         0.6957         0.7182         2.3122       -89.3859      0.7050835
      4249.0000         0.8231        18.2901       1548.695       109.9292        -999.25        30.8434       66.34501          0.691         0.7159         2.2857       -91.9348      0.7094682
      4249.5000         0.8495        18.2731       1574.549        112.149        -999.25        30.6899       65.92841         0.6751         0.7136         2.2753       -95.5142      0.7006046
      4250.0000         0.9316        18.2466       1603.027       113.7686        -999.25        30.3391       64.97765         0.6586         0.7071         2.2672       -98.6123      0.6803756
      4250.5000         1.0086        18.2103       1635.037       113.2645        -999.25        30.3036       64.88052         0.6453         0.6982         2.2758       -99.8336      0.6783088
      4251.0000         0.9592        18.2397       1671.732       112.6715        -999.25        30.2386       64.70351         0.6325         0.6857         2.2578      -100.2816      0.6745428
      4251.5000         0.8073        18.2821       1710.881       115.3955        -999.25        28.4921       59.97406         0.6202         0.6669         2.2229      -101.1964      0.5739163
      4252.0000         0.7562        18.3494       1755.965       117.6375        -999.25        26.5436       54.69769         0.6081         0.6465         2.1624      -101.8794      0.4616531
      4252.5000         0.8093         18.325       1798.352       116.8672        -999.25        25.1997       51.05822         0.5962         0.6412         2.1442      -101.1759      0.3842175
      4253.0000         0.8774         17.652       1837.523       109.3221        -999.25        25.6974       52.40467         0.5836         0.6411         2.1917      -100.2285      0.4128653
      4253.5000         0.9362        17.5387       1874.268       103.1506        -999.25        26.7152       55.15923         0.5713         0.6419         2.2297        -99.525      0.4714729
      4254.0000         0.9562        18.7645       1906.598        93.7683        -999.25        28.1913       59.15458         0.5574         0.6358          2.266       -99.3557      0.5564804
      4254.5000          0.847        19.4757       1938.436        92.9735        -999.25        30.1359       64.41834         0.5439         0.6244         2.2825       -98.7448      0.6684754
      4255.0000         0.8007        19.6642       1974.297        96.7534        -999.25        32.2597       70.16729          0.533         0.6106         2.2633        -98.298      0.7907934
      4255.5000         0.7904        19.0561       2010.748       102.4246        -999.25         34.157       75.30298         0.5233         0.5971         2.2497       -99.1672      0.9000634
      4256.0000         0.7905        18.5065       2047.418       109.0842        -999.25        34.8201        77.0972         0.5125         0.5832         2.2452      -100.1217      0.9382383
      4256.5000          0.758        17.8742       2084.945        112.203        -999.25        33.3632       73.15182         0.4994         0.5613         2.2448       -99.4482      0.8542941
      4257.0000         0.7796        17.5644         2122.5       112.7368        -999.25        31.6017       68.38173         0.4867         0.5472         2.2509       -98.3755      0.7528027
      4257.5000         0.7374        17.4414       2168.738       111.8671        -999.25        31.3826       67.78754         0.4748         0.5369         2.2621       -99.0092      0.7401603
      4258.0000         0.6968        17.5424       2217.477       109.5625        -999.25        31.8677       69.09988         0.4631          0.532         2.2748      -101.0857      0.7680825
      4258.5000         0.7451        17.8739       2271.832        106.386        -999.25         32.203       70.00665         0.4513         0.5267          2.266       -103.774      0.7873755
      4259.0000         0.7984        17.9709       2331.633       102.9543        -999.25        31.7477       68.77295         0.4369         0.5213         2.2348      -107.7683      0.7611266
