#------------------------------------------------------------------------------
# Created by    : vladimir.rabinovich
# Created on    : 09/19/2023 17:20:28
#------------------------------------------------------------------------------
~Version Information Section
VERS.           2.0     :   CWLS log ASCII Standard - VERSION 2.0
WRAP.           NO      :   One line per depth step
~Well Information Section
#MNEM       .UNIT                                         VALUE :DESCRIPTION
#------------------------------------------------------------------------------
STRT        .FT                                            2653 :START DEPTH
STOP        .FT                                           10423 :STOP DEPTH
STEP        .FT                                             0.5 :STEP      
NULL        .                                           -999.25 :NULL      
COMP        .                                       MONSANTO CO :COMPANY   
WELL        .                                     ST TR 00150-L :WELL      
FLD         .                                           WILDCAT :FIELD     
LOC         .                                                   :LOCATION  
CNTY        .                             GALVESTON LARGE BLOCK :LOCATION  
STAT        .                                             TEXAS :STATE     
CTRY        .                                     UNITED STATES :COUNTRY   
SRVC        .                                                   :SERVICE COMPANY
DATE        .                             9/13/2023 11:19:24 AM :LOG DATE  
API         .                                    42706300340000 :API NUMBER
UWI         .                                    42706300340000 :UNIQUE WELL ID
XCOORD      .                                  1113316.22146511 :SURFACE X 
YCOORD      .                                  10612518.3672968 :SURFACE Y 
LAT         .                                         29.232517 :LATITUDE  
LON         .                                       -94.6530532 :LONGITUDE 
ELEV        .FT                                              81 :ELEVATION VALUE
ELEV_TYPE   .                                                KB :ELEVATION REFERENCE TYPE
~Curve Information Section
#MNEM       .UNIT                                      API CODE :CURVE DESCRIPTION
#------------------------------------------------------------------------------
DEPT        .FT                                                 :DEPTH     
ASN         .OHMM                                               :          
CILD        .MMHO                                               :          
ILD         .OHMM                                               :          
SP          .MV                                                 :          
SP_NORM     .MV                                                 :SP Normalized
VSH_SP      .V/V                                                :Volume of Shale from SP
~A        DEPTH            ASN           CILD            ILD             SP        SP_NORM         VSH_SP
# ...
      9835.0000         0.6713       1657.854         0.6151       -43.6973      -1.273056      0.9929985
      9835.5000         0.6671       1673.623          0.613       -43.6757      -1.251457      0.9935524
      9836.0000         0.6628       1687.545         0.6109       -43.6542      -1.229958      0.9941037
      9836.5000         0.6585       1693.494         0.6088       -43.6325      -1.208256      0.9946601
      9837.0000         0.6542       1688.172         0.6067       -43.6109      -1.186657      0.9952139
      9837.5000         0.6469        1682.85         0.6047       -43.5852      -1.160957      0.9958729
      9838.0000          0.639       1677.527         0.6026       -43.5541      -1.129856      0.9966704
      9838.5000         0.6311       1670.875         0.6005       -43.5229      -1.098656      0.9974704
      9839.0000         0.6241         1661.4         0.5984       -43.4918      -1.067554      0.9982678
      9839.5000         0.6447       1651.928         0.5963       -43.4606      -1.036358      0.9990677
      9840.0000         0.6628       1642.453         0.5943       -43.4294      -1.005157      0.9998677
      9840.5000          0.681        1632.98          0.591       -43.3983     -0.9740562              1
      9841.0000         0.6753       1644.893         0.5876       -43.3671     -0.9428558              1
      9841.5000         0.6665       1658.148         0.5841       -43.3232     -0.8989563              1
      9842.0000         0.6578       1675.396         0.5807       -43.2698     -0.8455544              1
      9842.5000         0.6492       1701.662         0.5773       -43.2163      -0.792057              1
      9843.0000         0.6405       1732.166         0.5739        -43.163     -0.7387543              1
      9843.5000         0.6318       1770.457         0.5705       -43.1096     -0.6853561              1
      9844.0000         0.6231       1812.344         0.5664       -43.0561      -0.631855              1
      9844.5000         0.6144       1844.572         0.5584       -43.0027     -0.5784569              1
      9845.0000         0.6061       1874.387         0.5503       -43.1132     -0.6889572              1
      9845.5000         0.5987       1903.313         0.5423       -43.2912     -0.8669548              1
      9846.0000         0.5914       1929.135         0.5342       -43.4689      -1.044655       0.998855
      9846.5000          0.584       1961.463         0.5262        -43.647      -1.222755      0.9942883
      9847.0000         0.5766        2004.74         0.5181       -43.8299      -1.405655      0.9895986
      9847.5000         0.5692       2004.402         0.5096       -44.0209      -1.596657      0.9847011
      9848.0000         0.5616       2004.064         0.5011       -44.2118      -1.787556      0.9798062
      9848.5000         0.5539       2003.725         0.4927       -44.4028      -1.978558      0.9749088
      9849.0000         0.5463       2003.482         0.4842       -44.5934      -2.169155      0.9700217
      9849.5000         0.5386        2003.34         0.4758       -44.7513      -2.327057      0.9659729
      9850.0000          0.531       2003.197         0.4711       -44.7094      -2.285156      0.9670473
      9850.5000         0.5284       2003.055         0.4686       -44.6673      -2.243057      0.9681267
      9851.0000         0.5298       2002.939         0.4662       -44.6253      -2.201057      0.9692037
      9851.5000         0.5339       2002.828         0.4637       -44.4729      -2.048656      0.9731114
      9852.0000         0.5381       2002.717         0.4612       -44.2767      -1.852455      0.9781422
      9852.5000         0.5423       2002.605         0.4595       -44.0802      -1.655956      0.9831806
      9853.0000         0.5465       1994.652         0.4713       -43.8837      -1.459457       0.988219
      9853.5000         0.5506       1974.176         0.4831       -43.7593      -1.335056      0.9914088
      9854.0000         0.5564       1942.145         0.4949       -43.6855      -1.261257      0.9933011
      9854.5000         0.5625       1907.305         0.5067       -43.6118      -1.187557      0.9951909
      9855.0000         0.5687       1870.346         0.5186       -43.6691      -1.244858      0.9937216
      9855.5000         0.5748       1826.635         0.5289       -43.8339      -1.409657       0.989496
      9856.0000         0.5816       1784.846         0.5383       -43.9987      -1.574455      0.9852704
      9856.5000         0.5901        1749.76         0.5339       -44.1635      -1.739258      0.9810447
      9857.0000         0.5965       1763.902         0.5189       -44.3133      -1.889057      0.9772037
      9857.5000         0.5924       1820.326         0.5039       -44.4544      -2.030155      0.9735858
      9858.0000         0.5772       1909.521         0.4879       -44.5956      -2.171356      0.9699652
      9858.5000         0.5621       1961.068         0.4712       -44.7367      -2.312454      0.9663473
      9859.0000          0.547       1988.912         0.4545       -44.5538      -2.129555       0.971037
      9859.5000          0.532        2099.25         0.4378       -44.3358      -1.911556      0.9766268
      9860.0000         0.5174         2275.5         0.4211       -44.1177      -1.693455      0.9822191
      9860.5000         0.5028       2382.898         0.4082       -43.8932      -1.468956      0.9879755
      9861.0000         0.4882       2424.047         0.4039       -43.6371      -1.212856      0.9945421
      9861.5000         0.4826        2451.52         0.3996        -43.381     -0.9567566              1
      9862.0000         0.4871       2440.852         0.3952       -43.1245     -0.7002563              1
      9862.5000         0.4916       2421.535         0.3909       -43.1727      -0.748455              1
      9863.0000          0.496       2395.813         0.3919       -43.2763     -0.8520546              1
      9863.5000         0.5048       2365.699         0.4036       -43.3834      -0.959156              1
      9864.0000         0.5151       2309.129         0.4154       -43.5347      -1.110455      0.9971678
      9864.5000         0.5254       2188.098         0.4271        -43.686      -1.261757      0.9932883
      9865.0000         0.5356       2112.172         0.4388       -43.8325      -1.408257      0.9895319
      9865.5000         0.5459        2111.34         0.4488       -43.9506      -1.526356      0.9865037
      9866.0000         0.5596       2110.508         0.4568       -44.0688      -1.644558      0.9834729
      9866.5000         0.5551       2110.172         0.4647       -44.1869      -1.762657      0.9804447
      9867.0000         0.5497       2109.887         0.4631        -44.305      -1.880756      0.9774165
      9867.5000         0.5433       2110.559         0.4561       -44.3287      -1.904457      0.9768088
      9868.0000          0.537       2113.219         0.4492       -44.3517      -1.927456      0.9762191
      9868.5000         0.5306       2176.961         0.4422       -44.0473      -1.623055      0.9840242
      9869.0000         0.5242       2213.574         0.4352       -43.7423      -1.318054      0.9918448
      9869.5000         0.5178       2247.137         0.4288        -43.463      -1.038757      0.9990062
      9870.0000         0.5114       2287.742         0.4242       -43.5364      -1.112156      0.9971242
      9870.5000          0.505       2274.902         0.4195       -43.6097      -1.185455      0.9952447
      9871.0000         0.5075        2258.84         0.4148       -43.6832      -1.258957      0.9933601
      9871.5000         0.5137       2233.633         0.4101       -43.7542      -1.329956      0.9915396
      9872.0000           0.52       2201.207         0.4159       -43.8022      -1.377956      0.9903088
      9872.5000         0.5262       2151.434          0.426         -43.85      -1.425755      0.9890832
