#------------------------------------------------------------------------------
# Created by    : vladimir.rabinovich
# Created on    : 09/19/2023 17:21:20
#------------------------------------------------------------------------------
~Version Information Section
VERS.           2.0     :   CWLS log ASCII Standard - VERSION 2.0
WRAP.           NO      :   One line per depth step
~Well Information Section
#MNEM       .UNIT                                         VALUE :DESCRIPTION
#------------------------------------------------------------------------------
STRT        .FT                                            6712 :START DEPTH
STOP        .FT                                           10254 :STOP DEPTH
STEP        .FT                                             0.5 :STEP      
NULL        .                                           -999.25 :NULL      
COMP        .                                SHELL OFFSHORE INC :COMPANY   
WELL        .                               OCS G17145 ST00BP00 :WELL      
FLD         .                                           WILDCAT :FIELD     
LOC         .                                                   :LOCATION  
CNTY        .                           HIGH ISLAND LARGE BLOCK :LOCATION  
STAT        .                                             TEXAS :STATE     
CTRY        .                                     UNITED STATES :COUNTRY   
SRVC        .                                                   :SERVICE COMPANY
DATE        .                             9/13/2023 11:19:48 AM :LOG DATE  
API         .                                    42708404610000 :API NUMBER
UWI         .                                    42708404610000 :UNIQUE WELL ID
XCOORD      .                                  1236256.25309123 :SURFACE X 
YCOORD      .                                  10648843.7308139 :SURFACE Y 
LAT         .                                         29.336637 :LATITUDE  
LON         .                                        -94.268822 :LONGITUDE 
ELEV        .FT                                             110 :ELEVATION VALUE
ELEV_TYPE   .                                                KB :ELEVATION REFERENCE TYPE
~Curve Information Section
#MNEM       .UNIT                                      API CODE :CURVE DESCRIPTION
#------------------------------------------------------------------------------
DEPT        .FT                                                 :DEPTH     
CALI        .IN                                                 :          
CPCHM       .MMHO                                               :          
CPCM        .MMHO                                               :          
DFL         .OHMM                                               :          
DPHI        .%                                                  :          
DRHO        .G/C3                                               :          
DT          .US/F                                               :          
GR          .GAPI                                               :          
GR_NORM     .GAPI                                               :GammaRay Normalized
GRAM        .GAPI                                               :          
HDCN        .MMHO                                               :          
HDRS        .OHMM                                               :          
HMRS        .OHMM                                               :          
NPHI        .%                                                  :          
PE          .G/C3                                               :          
RACHM       .OHMM                                               :          
RACM        .OHMM                                               :          
RHOB        .G/C3                                               :          
ROPS        .F/HR                                               :          
RPCHM       .OHMM                                               :          
RPCM        .OHMM                                               :          
RPTHM       .MINS                                               :          
RPTM        .MINS                                               :          
SP01        .MV                                                 :          
TENS        .LBS                                                :          
VSH_GR      .V/V                                                :Volume of Shale from GR
~A        DEPTH           CALI          CPCHM           CPCM            DFL           DPHI           DRHO             DT             GR        GR_NORM           GRAM           HDCN           HDRS           HMRS           NPHI             PE          RACHM           RACM           RHOB           ROPS          RPCHM           RPCM          RPTHM           RPTM           SP01           TENS         VSH_GR
# ...
      9792.0000          8.953       2078.293        -999.25         0.8145        19.9518        -0.0309        128.592        57.1395       79.67082          83.33       1875.945         0.5331         0.5583        37.5538         6.6141          0.458        -999.25         2.3208         25.083          0.481        -999.25       299.1206        -999.25       478.0415       4548.516      0.9929962
      9792.5000         9.4249       2171.992        -999.25          0.606        21.8104        -0.0678          125.6        56.8899       80.63765         84.016       2128.793         0.4697           0.49        39.9695         7.9959          0.455        -999.25         2.2901         27.053          0.461        -999.25       299.0659        -999.25       478.2388       4540.609              1
      9793.0000         9.5632       2210.633        -999.25         0.4688        20.1745        -0.0688       116.4453         59.324       82.05308         85.021       2302.156         0.4344         0.4505        41.8092         7.7412          0.448        -999.25         2.3171         27.053          0.452        -999.25       299.2876        -999.25       478.3652       4542.367              1
      9793.5000         9.4493       2196.781        -999.25         0.4643        18.8517        -0.0581       119.4093        59.5425       80.25931        83.7439       2356.926         0.4243         0.4384        39.9356         7.5445          0.442        -999.25         2.3389         23.457          0.455        -999.25       299.2192        -999.25       478.3149       4536.891              1
      9794.0000         9.1889       2269.387        -999.25         0.4805         19.472        -0.0504       132.1531        60.2446        79.4388        83.1589       2345.258         0.4264         0.4418        39.1987         6.9919          0.438        -999.25         2.3287         23.457          0.441        -999.25       299.1514        -999.25       478.0249       4532.055      0.9880595
      9794.5000         9.1483        2320.91        -999.25         0.5076        22.4579        -0.0644       133.4375         61.368       80.37048        83.8199       2299.008          0.435         0.4535        37.6093         6.9874          0.433        -999.25         2.2794         24.782          0.431        -999.25       299.2651        -999.25       478.0244       4528.758              1
      9795.0000         9.1157       2307.602        -999.25         0.5212        23.1208        -0.0598       130.4202        61.6333        80.6273         84.001       2241.883         0.4461         0.4658        37.8788         6.8188          0.437        -999.25         2.2685         24.782          0.433        -999.25       299.5479        -999.25       478.1357       4525.789              1
      9795.5000         9.1808       2246.582        -999.25         0.5567        22.5785        -0.0418       132.5359        61.8206       80.22025          83.71       2220.012         0.4504         0.4698        37.5778         6.6212          0.441        -999.25         2.2775         25.609          0.445        -999.25       299.6987        -999.25       478.2803         4536.5              1
      9796.0000         9.2784       2202.816        -999.25         0.5567        20.9842        -0.0388       132.8062        62.6788       80.08879         83.615       2245.918         0.4453         0.4639        38.4612          7.074          0.446        -999.25         2.3038         25.609          0.454        -999.25       280.9517        -999.25       478.5459       4547.359              1
      9796.5000         9.1645       2213.836        -999.25         0.5264        22.7292        -0.0667       127.5938        59.7921       80.61674        83.9889        2288.16          0.437         0.4544        39.1047         8.3195           0.45        -999.25          2.275         30.832          0.452        -999.25       125.0991        -999.25       478.9224       4564.305              1
      9797.0000         9.0913       2186.289        -999.25         0.5015        20.8118        -0.0619       126.1906        58.7155       81.10419         84.334       2333.207         0.4286         0.4451        40.0678         8.1351          0.455        -999.25         2.3066         30.832          0.457        -999.25       126.2748        -999.25       479.0098         4582.5              1
      9797.5000         9.1727       2119.148        -999.25         0.4961        20.5159        -0.0593       128.6233        56.0473       82.02448        84.9869       2365.625         0.4227          0.438        40.5334         8.0986          0.465        -999.25         2.3115        59.0649          0.472        -999.25       127.4934        -999.25       478.6934       4589.781              1
      9798.0000         9.4899       2070.215        -999.25         0.5075        20.3084        -0.0539        128.678         54.721       82.72006          85.48       2371.176         0.4217         0.4353        39.8331         7.8027          0.476        -999.25         2.3149        59.0649          0.483        -999.25        128.408        -999.25       478.2202       4587.555              1
      9798.5000         9.4818       2087.438        -999.25         0.4839        19.2205        -0.0509       128.5469        57.8105       84.51095         86.752       2355.379         0.4246         0.4374        38.0584         7.3446          0.477        -999.25         2.3329         28.388          0.479        -999.25       129.1819        -999.25       477.6694       4580.547              1
      9799.0000         9.2377       2184.824        -999.25          0.507         19.218        -0.0408       130.1858        60.6503       84.10107         86.459       2328.641         0.4294         0.4424        38.1108         6.8961          0.467        -999.25         2.3329         28.388          0.458        -999.25       129.8521        -999.25       477.1372       4585.773              1
      9799.5000         9.0588       2331.461        -999.25          0.516         19.451        -0.0199       129.7983        60.3226       83.45621        85.9989       2300.434         0.4347         0.4484         37.883         5.9988          0.456        -999.25         2.3291         28.149          0.429        -999.25       130.5037        -999.25       476.9854       4603.805              1
      9800.0000         8.9449       2367.301        -999.25         0.5288        19.4152         0.0051       125.5593        62.1951       81.93833         84.918        2272.66           0.44         0.4549        37.7472          5.236          0.454        -999.25         2.3296         28.149          0.422        -999.25       131.2197        -999.25        477.104        4624.75              1
      9800.5000         8.9855       2227.738        -999.25         0.5326        19.5099         0.0154       122.9343        60.4787       77.20847         81.553       2232.613         0.4479         0.4646        37.5096         4.7291           0.48        -999.25         2.3281         15.195          0.449        -999.25       132.0032        -999.25       477.3198       4617.742      0.9406056
      9801.0000         9.0262       1914.238        -999.25         0.5503        17.5973         0.0452       129.6514        59.9326       69.90234         76.356       2174.891         0.4598         0.4783        37.7595         4.7395          0.535        -999.25         2.3596         15.195          0.523        -999.25        132.158        -999.25       477.5283       4593.398      0.7851561
      9801.5000         9.0832       1799.641        -999.25         0.5803        20.3519         0.0122       129.8843        61.8049       60.95778        69.9939        2128.18         0.4699         0.4894        38.1494         5.2115          0.592        -999.25         2.3142          20.97          0.556        -999.25       131.4902        -999.25       477.6626       4564.336      0.5948463
