#------------------------------------------------------------------------------
# Created by    : vladimir.rabinovich
# Created on    : 09/19/2023 17:20:34
#------------------------------------------------------------------------------
~Version Information Section
VERS.           2.0     :   CWLS log ASCII Standard - VERSION 2.0
WRAP.           NO      :   One line per depth step
~Well Information Section
#MNEM       .UNIT                                         VALUE :DESCRIPTION
#------------------------------------------------------------------------------
STRT        .FT                                             495 :START DEPTH
STOP        .FT                                            9652 :STOP DEPTH
STEP        .FT                                             0.5 :STEP      
NULL        .                                           -999.25 :NULL      
COMP        .                                      SHELL OIL CO :COMPANY   
WELL        .                                OCS 00714 ST00BP00 :WELL      
FLD         .                                FEDERAL BLOCK 0288 :FIELD     
LOC         .                                                   :LOCATION  
CNTY        .                             GALVESTON LARGE BLOCK :LOCATION  
STAT        .                                             TEXAS :STATE     
CTRY        .                                     UNITED STATES :COUNTRY   
SRVC        .                                                   :SERVICE COMPANY
DATE        .                             9/13/2023 11:19:25 AM :LOG DATE  
API         .                                    42706000490000 :API NUMBER
UWI         .                                    42706000490000 :UNIQUE WELL ID
XCOORD      .                                  1093419.85109126 :SURFACE X 
YCOORD      .                                  10468907.9519753 :SURFACE Y 
LAT         .                                         28.836806 :LATITUDE  
LON         .                                        -94.708909 :LONGITUDE 
ELEV        .FT                                              83 :ELEVATION VALUE
ELEV_TYPE   .                                                KB :ELEVATION REFERENCE TYPE
~Curve Information Section
#MNEM       .UNIT                                      API CODE :CURVE DESCRIPTION
#------------------------------------------------------------------------------
DEPT        .FT                                                 :DEPTH     
ASN         .OHMM                                               :          
ASN_1       .OHMM                                               :          
CALI        .IN                                                 :          
CALI_1      .IN                                                 :          
DRHO        .G/C3                                               :          
DT          .US/F                                               :          
ILD         .OHMM                                               :          
LAT         .OHMM                                               :          
LN          .OHMM                                               :          
RHOB        .G/C3                                               :          
SP          .MV                                                 :          
SP_1        .MV                                                 :          
SP_NORM     .MV                                                 :SP Normalized
VSH_SP      .V/V                                                :Volume of Shale from SP
~A        DEPTH            ASN          ASN_1           CALI         CALI_1           DRHO             DT            ILD            LAT             LN           RHOB             SP           SP_1        SP_NORM         VSH_SP
# ...
      8991.0000         1.3215        -999.25        10.3279        -999.25         0.1997       102.5757         1.0492        -999.25        -999.25         2.4278        -999.25        -41.877      -3.310402      0.9531999
      8991.5000         1.3395        -999.25        10.3655        -999.25         0.1673       104.2146         1.0576        -999.25        -999.25          2.413        -999.25       -42.2485      -3.692539      0.9395522
      8992.0000         1.3625        -999.25        10.3875        -999.25          0.137       103.4066         1.0651        -999.25        -999.25         2.3921        -999.25       -41.9747      -3.429375      0.9489509
      8992.5000         1.3695        -999.25        10.4095        -999.25         0.1107       101.9359         1.0691        -999.25        -999.25         2.3856        -999.25       -41.8556      -3.320904      0.9528249
      8993.0000         1.3775        -999.25        10.3943        -999.25         0.1324       100.6226         1.0665        -999.25        -999.25            2.4        -999.25       -42.3058      -3.781742      0.9363664
      8993.5000         1.3915        -999.25        10.3151        -999.25          0.154       100.9014         1.0362        -999.25        -999.25          2.408        -999.25        -41.848      -3.334576      0.9523366
      8994.0000         1.4017        -999.25        10.2942        -999.25         0.1716       100.8878         1.0046        -999.25        -999.25         2.4093        -999.25        -41.773       -3.27021      0.9546353
      8994.5000         1.3912        -999.25        10.3022        -999.25          0.184        99.0909          0.972        -999.25        -999.25         2.4101        -999.25       -41.9857      -3.493546      0.9466591
      8995.0000         1.3523        -999.25        10.3326        -999.25         0.1848        96.8915         0.9528        -999.25        -999.25         2.4221        -999.25       -41.5942      -3.112682      0.9602613
      8995.5000            1.3        -999.25        10.3644        -999.25         0.1702       100.1637         0.9426        -999.25        -999.25         2.4305        -999.25       -41.1553      -2.684414      0.9755567
      8996.0000         1.2492        -999.25        10.3966        -999.25         0.1477       103.2312         0.9323        -999.25        -999.25         2.4222        -999.25       -40.8102      -2.349949      0.9875018
      8996.5000         1.2283        -999.25        10.4094        -999.25         0.1658       103.9015         0.9363        -999.25        -999.25         2.4241        -999.25       -40.5227      -2.073086      0.9973898
      8997.0000         1.2258        -999.25        10.4073        -999.25         0.1685       107.2299         0.9413        -999.25        -999.25         2.4217        -999.25       -40.6916      -2.252621      0.9909778
      8997.5000          1.255        -999.25        10.4056        -999.25         0.1649       109.4878         0.9585        -999.25        -999.25         2.4169        -999.25       -40.9563      -2.527954      0.9811445
      8998.0000         1.2841        -999.25         10.405        -999.25         0.1283       109.3146         0.9859        -999.25        -999.25         2.4044        -999.25       -41.2728      -2.855087      0.9694611
      8998.5000         1.3074        -999.25        10.4045        -999.25         0.0941       107.1309         1.0141        -999.25        -999.25         2.3914        -999.25       -41.7173      -3.310223      0.9532064
      8999.0000         1.3349        -999.25        10.4021        -999.25         0.1061       104.2567         1.0441        -999.25        -999.25         2.3929        -999.25       -41.9388      -3.542358      0.9449158
      8999.5000         1.3686        -999.25        10.3989        -999.25         0.1402       100.8979         1.0701        -999.25        -999.25         2.4077        -999.25        -41.723      -3.337193      0.9522431
      9000.0000         1.4018        -999.25        10.3957        -999.25         0.1598       104.4052         1.0866        -999.25        -999.25         2.3981        -999.25       -41.0137      -2.638527      0.9771954
      9000.5000         1.4179        -999.25         10.392        -999.25         0.1452       105.5938         1.0839        -999.25        -999.25         2.4058        -999.25       -40.8344       -2.46986      0.9832193
      9001.0000         1.4217        -999.25        10.3883        -999.25         0.1371       102.3047         1.0842        -999.25        -999.25         2.4129        -999.25       -41.0676      -2.713696      0.9745108
      9001.5000         1.3935        -999.25        10.3768        -999.25         0.1702        99.4845         1.0934        -999.25        -999.25         2.4352        -999.25       -41.2492       -2.90593      0.9676453
      9002.0000         1.3602        -999.25        10.3651        -999.25         0.2213         98.684         1.1101        -999.25        -999.25         2.4557        -999.25       -41.2634      -2.930767      0.9667583
      9002.5000         1.3496        -999.25        10.3565        -999.25         0.1909       100.3796         1.1315        -999.25        -999.25         2.4434        -999.25       -41.1494        -2.8274        0.97045
      9003.0000          1.368        -999.25        10.3564        -999.25         0.1198        107.059         1.1463        -999.25        -999.25         2.4256        -999.25       -40.9178      -2.606438      0.9783415
      9003.5000         1.4383        -999.25        10.3677        -999.25         0.0964       108.3745         1.1471        -999.25        -999.25         2.4149        -999.25       -41.5094      -3.208668      0.9568333
      9004.0000         1.5029        -999.25        10.3869        -999.25         0.1069        105.813         1.1155        -999.25        -999.25         2.4248        -999.25       -41.9073      -3.617203      0.9422427
      9004.5000         1.5487        -999.25        10.4068        -999.25         0.1444       102.8849         1.0875        -999.25        -999.25         2.4092        -999.25       -42.2513       -3.97184      0.9295772
      9005.0000         1.5612        -999.25        10.3647        -999.25         0.1465        94.1545         1.1172        -999.25        -999.25         2.3922        -999.25       -43.3878      -5.118973      0.8886081
      9005.5000          1.512        -999.25        10.3259        -999.25         0.1086        95.7378         1.1382        -999.25        -999.25         2.3784        -999.25        -44.205      -5.946812      0.8590425
      9006.0000         1.4406        -999.25        10.3021        -999.25         0.0533       100.8271         1.1203        -999.25        -999.25         2.3691        -999.25       -43.6974      -5.449841      0.8767914
      9006.5000         1.3757        -999.25        10.3014        -999.25         0.0426       102.3677          1.099        -999.25        -999.25         2.3831        -999.25       -43.3467      -5.109776      0.8889366
      9007.0000         1.3434        -999.25        10.3205        -999.25         0.0938       105.8108         1.0527        -999.25        -999.25         2.4133        -999.25       -42.9887      -4.762413      0.9013424
      9007.5000         1.3415        -999.25        10.3204        -999.25         0.1498       106.9623         1.0063        -999.25        -999.25         2.4291        -999.25       -42.6471      -4.431446      0.9131626
      9008.0000          1.361        -999.25        10.2627        -999.25         0.1914       106.7936         0.9851        -999.25        -999.25         2.4396        -999.25       -42.8032      -4.598183      0.9072078
      9008.5000         1.3866        -999.25         10.366        -999.25          0.188       103.4022         0.9646        -999.25        -999.25         2.4311        -999.25       -44.1072      -5.912819      0.8602565
