#------------------------------------------------------------------------------
# Created by    : vladimir.rabinovich
# Created on    : 09/19/2023 17:21:51
#------------------------------------------------------------------------------
~Version Information Section
VERS.           2.0     :   CWLS log ASCII Standard - VERSION 2.0
WRAP.           NO      :   One line per depth step
~Well Information Section
#MNEM       .UNIT                                         VALUE :DESCRIPTION
#------------------------------------------------------------------------------
STRT        .FT                                             692 :START DEPTH
STOP        .FT                                            6716 :STOP DEPTH
STEP        .FT                                             0.5 :STEP      
NULL        .                                           -999.25 :NULL      
COMP        .                                  FMP OPERATING CO :COMPANY   
WELL        .                                          SL 89457 :WELL      
FLD         .                                           WILDCAT :FIELD     
LOC         .                                                   :LOCATION  
CNTY        .                      MATAGORDA ISLAND LARGE BLOCK :LOCATION  
STAT        .                                             TEXAS :STATE     
CTRY        .                                     UNITED STATES :COUNTRY   
SRVC        .                                                   :SERVICE COMPANY
DATE        .                             9/13/2023 11:12:01 AM :LOG DATE  
API         .                                    42703303600000 :API NUMBER
UWI         .                                    42703303600000 :UNIQUE WELL ID
XCOORD      .                                  499223.886875127 :SURFACE X 
YCOORD      .                                  10221285.9321665 :SURFACE Y 
LAT         .                                        28.1205561 :LATITUDE  
LON         .                                       -96.5403272 :LONGITUDE 
ELEV        .FT                                              81 :ELEVATION VALUE
ELEV_TYPE   .                                                KB :ELEVATION REFERENCE TYPE
~Curve Information Section
#MNEM       .UNIT                                      API CODE :CURVE DESCRIPTION
#------------------------------------------------------------------------------
DEPT        .FT                                                 :DEPTH     
CALI        .IN                                                 :          
CILD        .MMHO                                               :          
DT          .US/F                                               :          
DTL         .US/F                                               :          
GR          .GAPI                                               :          
GR_NORM     .GAPI                                               :GammaRay Normalized
ILD         .OHMM                                               :          
ILM         .OHMM                                               :          
SFLU        .OHMM                                               :          
SP          .MV                                                 :          
SP_NORM     .MV                                                 :SP Normalized
TENS        .LBS                                                :          
VSH_GR      .V/V                                                :Volume of Shale from GR
VSH_SP      .V/V                                                :Volume of Shale from SP
~A        DEPTH           CALI           CILD             DT            DTL             GR        GR_NORM            ILD            ILM           SFLU             SP        SP_NORM           TENS         VSH_GR         VSH_SP
# ...
      1286.0000         22.448       1465.527       146.2201       134.2886        50.5248       80.82553         0.6754         0.6378         0.5952       -16.8297        -2.8941       1265.651              1              1
      1286.5000           22.4       1461.456       139.4153       134.1901        48.6518       77.73289         0.6714         0.6377         0.5934       -16.2265        -2.2837        1275.86      0.9517637              1
      1287.0000         22.416       1473.491       140.8187       134.5917         47.422       75.69691         0.6674         0.6465         0.5923       -16.0241        -2.0742       1266.049      0.9084448              1
      1287.5000         22.512       1488.203       148.6285       141.3008        47.4245       75.68491         0.6635         0.6345         0.5977       -15.8217        -1.8647       1256.239      0.9081895              1
      1288.0000        22.6432       1502.914       153.2351       148.4107        50.2322        80.2807         0.6595         0.6227         0.5922       -15.7195        -1.7554       1246.428              1              1
      1288.5000        22.7744       1517.625       153.0369       151.9152         52.639       84.21813         0.6556         0.6116         0.5629       -15.5171        -1.5459       1246.628              1              1
      1289.0000        22.9632       1532.336       152.4383       154.8209        53.3424       85.35742         0.6523         0.6059         0.5424       -15.5151        -1.5367       1246.827              1              1
      1289.5000        22.9792       1547.047       150.8387       154.6213        53.3434       85.34297         0.6464         0.6006         0.5276       -15.5131        -1.5276       1247.046              1              1
      1290.0000        22.4512       1557.484       149.8397       152.2223        54.8495       87.80094         0.6373         0.6037         0.5575       -15.5111        -1.5185       1227.226              1              1
      1290.5000        22.3392       1560.786       151.2431       150.8235        55.8539       89.43468         0.6402         0.6068         0.5784        -15.409        -1.4093       1207.405              1              1
      1291.0000        22.3872       1561.417       152.2461       148.8227        54.2526       86.78828         0.6459         0.6098         0.5919       -15.7076        -1.7008       1207.604              1              1
      1291.5000        22.5312       1517.269       149.6455       147.0229          52.15       83.31866         0.6516         0.6129         0.5837        -15.705        -1.6911       1207.804              1              1
      1292.0000        22.5312       1501.182       145.0429       143.0209        51.8512       82.81174         0.6574         0.6161         0.5837       -15.7729        -1.7518       1208.003              1              1
      1292.5000        22.5152       1493.118       143.6435         140.22        53.1558       84.93858         0.6633         0.6192         0.6055       -15.8409        -1.8127       1148.142              1              1
      1293.0000        22.4672       1485.031       143.4452       139.8216        53.8594       86.07835          0.667         0.6224         0.6054       -15.9088        -1.8735       1198.392              1              1
      1293.5000        22.4032       1493.035       144.0478        141.225        52.4586       83.76134         0.6623         0.6224         0.6054       -15.9767        -1.9343       1208.601              1              1
      1294.0000        22.3552       1505.735       144.6504       143.6302        49.5549       78.97567         0.6577         0.6215         0.5915       -16.0447        -1.9952       1228.821      0.9782057              1
      1294.5000        22.3392       1518.436       146.6544       145.0047        48.3545       76.98797         0.6531         0.6206         0.5942       -16.1126        -2.0559           1209      0.9359142              1
      1295.0000        22.5472       1531.136       149.8596       147.9828        48.3566       76.97533         0.6485         0.6197         0.5951        -16.192        -2.1282        1229.22      0.9356452              1
      1295.5000        22.9472       1544.991       152.4654       151.8444        48.5576       77.28938         0.6439         0.6188          0.596       -16.1905        -2.1196       1249.439      0.9423273              1
      1296.0000          22.96       1544.952       153.6674       151.6628        51.1274       81.49458         0.6394         0.6179         0.5969       -16.0883        -2.0103       1229.619              1              1
      1296.5000        22.7552       1544.913       151.0668       151.6458        53.1721       84.83707         0.6336          0.617         0.5831       -15.3849        -1.2998       1229.818              1              1
      1297.0000        22.4672       1544.874       147.4652         148.49        54.1761       86.47028         0.6336         0.6163         0.5793       -14.9821        -0.8899       1209.997              1              1
      1297.5000        22.4032        1540.84       145.0648       143.8448        54.6791        87.2804         0.6401         0.6198         0.5884       -14.6795        -0.5801       1230.217              1              1
      1298.0000        22.3872       1536.789        145.267       144.4462        56.1842       89.73656         0.6466         0.6233         0.5938       -14.5773        -0.4708       1250.436              1              1
      1298.5000        22.3872       1528.725       144.8686       144.4486        57.1882       92.79533         0.6533         0.6269         0.5938       -14.5753        -0.4617       1240.626              1              1
      1299.0000        22.3552       1520.661       145.8728       144.6504         57.591       93.36499         0.6599         0.6305         0.5937       -14.5733        -0.4526       1230.815              1              1
      1299.5000        22.3552       1492.518       146.0738       144.8526        55.8897       90.88468         0.6667         0.6341         0.5937       -14.8719        -0.7441       1231.014              1              1
      1300.0000        22.3552       1476.431       146.0758       144.8546        56.1694        91.2759         0.6735         0.6377         0.6071       -15.0755        -0.9405       1231.231              1              1
      1300.5000        22.3584       1456.331       145.6972       144.4756        56.4492       91.66742         0.6804         0.6413         0.6153       -15.2792        -1.1371       1211.211              1              1
      1301.0000        22.3552       1440.267       145.2763       144.2553        56.1856       91.27111         0.6861         0.6446         0.6223       -15.4394        -1.2902       1211.211              1              1
      1301.5000        22.4032       1436.216       144.8765       143.8555        54.4778       88.78152          0.688         0.6479         0.6293       -15.6826        -1.5263       1261.261              1              1
      1302.0000        22.3872       1428.152       144.4766       143.4557        52.6699       86.14667         0.6904         0.6512         0.6304       -15.8867        -1.7233       1261.261              1              1
      1302.5000        22.4032       1428.113       144.0768       142.8557        52.9672       86.56342         0.6928         0.6632         0.6311       -15.8904        -1.7199       1241.241              1              1
      1303.0000        22.3712       1436.097       143.8772       142.6561        54.3664       88.57756         0.6913         0.6632         0.6319       -15.8941        -1.7164       1251.251              1              1
      1303.5000        22.3872       1464.141       143.6778       142.4565        55.6652       90.44603         0.6819         0.6482         0.6326       -15.8979        -1.7131       1261.261              1              1
