#------------------------------------------------------------------------------
# Created by    : vladimir.rabinovich
# Created on    : 09/19/2023 17:22:47
#------------------------------------------------------------------------------
~Version Information Section
VERS.           2.0     :   CWLS log ASCII Standard - VERSION 2.0
WRAP.           NO      :   One line per depth step
~Well Information Section
#MNEM       .UNIT                                         VALUE :DESCRIPTION
#------------------------------------------------------------------------------
STRT        .FT                                            4658 :START DEPTH
STOP        .FT                                           10852 :STOP DEPTH
STEP        .FT                                             0.5 :STEP      
NULL        .                                           -999.25 :NULL      
COMP        .                             WALTER OIL & GAS CORP :COMPANY   
WELL        .                               OCS G04721 ST00BP00 :WELL      
FLD         .                              GALVESTON BLOCK 0350 :FIELD     
LOC         .                                                   :LOCATION  
CNTY        .                             GALVESTON LARGE BLOCK :LOCATION  
STAT        .                                             TEXAS :STATE     
CTRY        .                                     UNITED STATES :COUNTRY   
SRVC        .                                                   :SERVICE COMPANY
DATE        .                             9/13/2023 11:19:36 AM :LOG DATE  
API         .                                    42706401870000 :API NUMBER
UWI         .                                    42706401870000 :UNIQUE WELL ID
XCOORD      .                                  1032064.33467067 :SURFACE X 
YCOORD      .                                   10428906.138822 :SURFACE Y 
LAT         .                                        28.7242451 :LATITUDE  
LON         .                                       -94.8985179 :LONGITUDE 
ELEV        .FT                                              92 :ELEVATION VALUE
ELEV_TYPE   .                                                KB :ELEVATION REFERENCE TYPE
~Curve Information Section
#MNEM       .UNIT                                      API CODE :CURVE DESCRIPTION
#------------------------------------------------------------------------------
DEPT        .FT                                                 :DEPTH     
DT          .US/F                                               :          
GR          .GAPI                                               :          
GR_1        .GAPI                                               :          
GR_NORM     .GAPI                                               :GammaRay Normalized
ILD         .OHMM                                               :          
ILM         .OHMM                                               :          
NPHI        .%                                                  :          
RFOC        .OHMM                                               :          
RHOB        .G/C3                                               :          
SP          .MV                                                 :          
SP_NORM     .MV                                                 :SP Normalized
VSH_GR      .V/V                                                :Volume of Shale from GR
VSH_SP      .V/V                                                :Volume of Shale from SP
~A        DEPTH             DT             GR           GR_1        GR_NORM            ILD            ILM           NPHI           RFOC           RHOB             SP        SP_NORM         VSH_GR         VSH_SP
# ...
      6748.0000        -999.25        65.2546        -999.25       65.66832         0.5698         0.6881        34.7362         0.7526          2.259       -62.4545       -12.4774      0.6950706        0.80804
      6748.5000        -999.25        66.7704        -999.25       67.45973         0.5978         0.7082        41.1382         0.7779         2.2609         -59.78      -9.355902      0.7331858      0.8560631
      6749.0000        -999.25        66.5162        -999.25       67.15895         0.6298         0.7179        41.9161         0.7893         2.2663       -57.6172      -6.831389      0.7267862      0.8949017
      6749.5000        -999.25        65.7739        -999.25       66.28123         0.6687          0.737        40.5857         0.8011          2.273       -56.3085      -5.303321      0.7081112      0.9184104
      6750.0000        -999.25        64.8741        -999.25       65.21732         0.7114         0.7677        36.4675         0.8168          2.302       -55.9729       -4.91054       0.685475      0.9244533
      6750.5000        -999.25         63.543        -999.25       63.64362          0.746         0.7933        34.0717         0.8331         2.3399       -56.8018      -5.876343       0.651992      0.9095947
      6751.0000        -999.25        64.4453        -999.25       64.70986         0.7717         0.7992        34.4749         0.8821         2.3623       -57.9457      -7.209644      0.6746779      0.8890824
      6751.5000        -999.25        65.2639        -999.25       65.67718         0.7973         0.8015         37.029         0.9037          2.382       -58.8455       -8.25816      0.6952591      0.8729514
      6752.0000        -999.25        65.9139        -999.25       66.44519         0.8022         0.8013        40.7664         0.9178         2.3959       -59.4553      -8.968345      0.7115998      0.8620254
      6752.5000        -999.25        66.4623        -999.25       67.09311         0.8017         0.8012         41.702         0.8376         2.3893       -59.9169       -9.50563      0.7253853      0.8537595
      6753.0000        -999.25        66.6161        -999.25       67.27459         0.7974         0.8066        41.8717         0.8003         2.3787       -59.7115      -9.264743      0.7292466      0.8574655
      6753.5000        -999.25        66.7699        -999.25       67.45609          0.787          0.812        41.2964         0.7941          2.362       -59.0834      -8.530716      0.7331083      0.8687582
      6754.0000        -999.25        67.1799        -999.25       67.94043         0.7722         0.8093        38.7133         0.8028          2.343       -58.1229      -7.408879      0.7434134      0.8860173
      6754.5000        -999.25         67.871        -999.25       68.75703         0.7485         0.8004        36.6258         0.8134         2.3183       -57.3347      -6.488066      0.7607878      0.9001836
      6755.0000        -999.25         68.459        -999.25       69.45174         0.7302         0.7828        36.4409         0.8048         2.3016       -56.5539      -5.575886       0.775569      0.9142171
      6755.5000        -999.25        68.8088        -999.25       69.86491          0.714         0.7647        37.1573         0.7952         2.2887       -55.7719      -4.662301      0.7843599      0.9282723
      6756.0000        -999.25        69.6097        -999.25       70.81131         0.7104         0.7515        40.1348         0.7799         2.2786       -54.8572      -3.593905      0.8044959      0.9447091
      6756.5000        -999.25        71.7465        -999.25       73.33677         0.7076         0.7469        44.8935         0.7688          2.277       -54.0624      -2.665388      0.8582291       0.958994
      6757.0000        -999.25        73.5126        -999.25       75.42406         0.7047         0.7459        44.4728          0.768         2.2832       -53.7318      -2.278437      0.9026395      0.9649471
      6757.5000        -999.25        76.6792        -999.25       79.16677         0.7042         0.7479        43.1749         0.7676         2.2878       -53.4092      -1.900822      0.9822717      0.9707566
      6758.0000        -999.25        77.3673        -999.25       79.97982         0.7038         0.7499        41.6891         0.7674          2.292       -53.1174      -1.559141      0.9995707      0.9760132
      6758.5000        -999.25        77.4248        -999.25       80.04748         0.7035         0.7514        40.8244         0.7674         2.2949       -52.7626      -1.143956              1      0.9824007
      6759.0000        -999.25        75.4622        -999.25       77.72733         0.7037         0.7467        40.8675          0.768          2.297       -52.1349     -0.4103921      0.9516452      0.9936863
      6759.5000        -999.25        74.8257        -999.25       76.97466         0.7049          0.742         41.186         0.7691          2.298       -51.7281     0.06545766       0.935631              1
      6760.0000        -999.25        74.1595        -999.25       76.18687         0.7062         0.7445        41.6339          0.772         2.2983       -51.7278     0.06705984      0.9188697              1
      6760.5000        -999.25        73.0354        -999.25       74.85786         0.7073         0.7509        40.9993         0.7754         2.3029       -51.8917     -0.1229134      0.8905927       0.998109
      6761.0000        -999.25        70.1626        -999.25        71.4618         0.7058         0.7384        39.4285         0.7801         2.3108       -52.2516     -0.5415433      0.8183362      0.9916686
      6761.5000        -999.25         68.912        -999.25       69.98325         0.7043         0.7255        38.1249         0.7895         2.3227       -52.5436     -0.8809592      0.7868778      0.9864468
      6762.0000        -999.25         69.823        -999.25       71.05978         0.7028         0.7238        37.1723         0.8163         2.3396       -52.8212      -1.203583      0.8097824      0.9814833
      6762.5000        -999.25        71.6622        -999.25       73.23347         0.7013         0.7277        36.7147         0.8205         2.3603       -53.1096      -1.538798      0.8560312      0.9763262
      6763.0000        -999.25        71.8549        -999.25       73.46094         0.6999         0.7333        36.8632         0.8144         2.3663       -53.3775        -1.8501       0.860871      0.9715369
      6763.5000        -999.25        71.3325        -999.25       72.84313         0.6985         0.7373        37.7711         0.7897         2.3622       -53.1927      -1.633251      0.8477262      0.9748731
      6764.0000        -999.25        71.9572        -999.25       73.58125         0.6963         0.7404        38.7148         0.7732         2.3482       -53.0218      -1.432618      0.8634307      0.9779597
      6764.5000        -999.25        73.4419        -999.25       75.33591          0.692          0.745        39.7585         0.7647         2.3282       -52.8824      -1.268738      0.9007642       0.980481
      6765.0000        -999.25        73.5087        -999.25       75.41457         0.6878         0.7509         40.962          0.758         2.3105       -52.7431       -1.10497      0.9024376      0.9830005
      6765.5000        -999.25        73.3412        -999.25       75.21627         0.6836         0.7526        41.6307         0.7555         2.2963       -52.6653      -1.012951      0.8982185      0.9844161
      6766.0000        -999.25          72.79        -999.25       74.56443         0.6803         0.7498        41.1844         0.7554         2.2853       -52.6002     -0.9357579      0.8843496      0.9856037
      6766.5000        -999.25        72.1263        -999.25        73.7796         0.6769         0.7505         39.159         0.7564          2.288       -52.4662     -0.7781754      0.8676511       0.988028
