#------------------------------------------------------------------------------
# Created by    : vladimir.rabinovich
# Created on    : 09/19/2023 17:21:45
#------------------------------------------------------------------------------
~Version Information Section
VERS.           2.0     :   CWLS log ASCII Standard - VERSION 2.0
WRAP.           NO      :   One line per depth step
~Well Information Section
#MNEM       .UNIT                                         VALUE :DESCRIPTION
#------------------------------------------------------------------------------
STRT        .FT                                            4296 :START DEPTH
STOP        .FT                                         10848.5 :STOP DEPTH
STEP        .FT                                             0.5 :STEP      
NULL        .                                           -999.25 :NULL      
COMP        .                                 CHEVRON U S A INC :COMPANY   
WELL        .                               OCS G07271 ST00BP00 :WELL      
FLD         .                                           WILDCAT :FIELD     
LOC         .                                                   :LOCATION  
CNTY        .                           HIGH ISLAND LARGE BLOCK :LOCATION  
STAT        .                                             TEXAS :STATE     
CTRY        .                                     UNITED STATES :COUNTRY   
SRVC        .                                                   :SERVICE COMPANY
DATE        .                             9/13/2023 11:19:59 AM :LOG DATE  
API         .                                    42708403180000 :API NUMBER
UWI         .                                    42708403180000 :UNIQUE WELL ID
XCOORD      .                                  1325118.04890174 :SURFACE X 
YCOORD      .                                  10672078.9744079 :SURFACE Y 
LAT         .                                          29.40291 :LATITUDE  
LON         .                                        -93.990507 :LONGITUDE 
ELEV        .FT                                              89 :ELEVATION VALUE
ELEV_TYPE   .                                                KB :ELEVATION REFERENCE TYPE
~Curve Information Section
#MNEM       .UNIT                                      API CODE :CURVE DESCRIPTION
#------------------------------------------------------------------------------
DEPT        .FT                                                 :DEPTH     
CALI        .IN                                                 :          
DRHO        .G/C3                                               :          
DTLN        .US/F                                               :          
GR          .GAPI                                               :          
GR_1        .GAPI                                               :          
GR_NORM     .GAPI                                               :GammaRay Normalized
ILD         .OHMM                                               :          
ILM         .OHMM                                               :          
NPHI        .%                                                  :          
RHOB        .G/C3                                               :          
SFL         .OHMM                                               :          
SP          .MV                                                 :          
SP_NORM     .MV                                                 :SP Normalized
VSH_GR      .V/V                                                :Volume of Shale from GR
VSH_SP      .V/V                                                :Volume of Shale from SP
~A        DEPTH           CALI           DRHO           DTLN             GR           GR_1        GR_NORM            ILD            ILM           NPHI           RHOB            SFL             SP        SP_NORM         VSH_GR         VSH_SP
# ...
     10382.0000        16.2982         0.0086        -999.25        -999.25        62.8044       80.09378         0.5659         0.6009        42.8876          2.286         0.6447       -24.0652      -4.122087              1      0.9411131
     10382.5000        16.5248         0.0081        -999.25        -999.25        60.3782       77.09846         0.5622         0.5939        40.8365         2.2946         0.6318       -23.9276      -3.990486      0.9382652       0.942993
     10383.0000        16.5761         0.0079        -999.25        -999.25        59.5923       76.12823          0.558          0.592         39.774         2.3011         0.6252       -23.7897      -3.858583      0.9176219      0.9448774
     10383.5000        16.4919         0.0077        -999.25        -999.25        60.4127       77.14105         0.5532         0.5901        40.1351         2.2952         0.6305       -23.8527       -3.92758      0.9391713      0.9438917
     10384.0000        16.3954         0.0072        -999.25        -999.25        62.6567       79.91143         0.5485         0.5913        43.1749         2.2877         0.6345       -23.9692      -4.050079      0.9981155      0.9421417
     10384.5000        16.3311         0.0065        -999.25        -999.25         63.629       81.11181         0.5469         0.5945        42.6316         2.2845         0.6349       -24.1429      -4.229776              1      0.9395746
     10385.0000        16.2915         0.0061        -999.25        -999.25         63.688       81.18463         0.5483         0.5975         40.147         2.2877         0.6017         -24.38      -4.472874              1      0.9361018
     10385.5000        16.2714         0.0058        -999.25        -999.25        64.7974       82.55427         0.5496         0.5977        36.5822            2.3         0.5925       -24.6042      -4.703074              1      0.9328132
     10386.0000        16.2677         0.0052        -999.25        -999.25        69.2511       88.05267         0.5606         0.5978        35.7949         2.3155         0.6101       -24.6685      -4.773371              1       0.931809
     10386.5000        16.2838         0.0051        -999.25        -999.25        70.0994       89.09995         0.5732         0.5977        35.2097         2.3246         0.6298       -24.7326      -4.843468              1      0.9308076
     10387.0000        16.3163         0.0058        -999.25        -999.25        69.9874       88.96167         0.5829         0.5967        35.1512         2.3297         0.6431       -24.7931      -4.909967              1      0.9298576
     10387.5000        16.3575         0.0068        -999.25        -999.25        68.9779       87.71538         0.5898         0.5957        37.9865         2.3321         0.6491       -24.8519      -4.974764              1       0.928932
     10388.0000        16.4104         0.0073        -999.25        -999.25        67.6222       86.04167         0.5968         0.5955         43.916         2.3304         0.6366       -24.9048      -5.033663              1      0.9280905
     10388.5000        16.4686         0.0069        -999.25        -999.25        66.3402       84.45896         0.5927         0.5967         44.502         2.3251         0.6232       -24.8948      -5.029659              1      0.9281477
     10389.0000        16.5234         0.0055        -999.25        -999.25        65.0902       82.91576          0.588         0.5979        43.0592         2.3202         0.6096       -24.8849      -5.025757              1      0.9282035
     10389.5000        16.5869         0.0036        -999.25        -999.25        63.8107       81.33612         0.5832          0.599        40.7596         2.3197         0.6096       -24.8083      -4.955156              1       0.929212
     10390.0000        16.6803         0.0017        -999.25        -999.25        62.4599       79.66846         0.5761         0.6003        39.1851         2.3267         0.6117       -24.6811      -4.833954       0.992946      0.9309435
     10390.5000         16.794         0.0006        -999.25        -999.25        60.9146        77.7607         0.5692         0.6015        38.3579         2.3509          0.632       -24.5542      -4.713051      0.9523553      0.9326707
     10391.0000        16.9123         0.0001        -999.25        -999.25        59.4678       75.97451         0.5642         0.6009        37.5011         2.3602         0.6503       -24.5011      -4.665951      0.9143513      0.9333436
     10391.5000        17.0354        -0.0005        -999.25        -999.25        58.4885        74.7655         0.5624         0.6003        37.0956         2.3581         0.6603       -24.4957      -4.666548      0.8886277       0.933335
     10392.0000         17.165        -0.0016        -999.25        -999.25        57.0958       73.04613         0.5606         0.6006        41.1414         2.3529         0.6662       -24.4903      -4.667145      0.8520452      0.9333265
     10392.5000        17.2371        -0.0028        -999.25        -999.25        56.0845       71.79759         0.5597         0.6029        42.9142         2.3479         0.6521       -24.4072      -4.590042      0.8254807       0.934428
     10393.0000        17.2669        -0.0041        -999.25        -999.25        55.6477       71.25834         0.5664         0.6055        42.7632         2.3421         0.6314       -24.2445       -4.43334      0.8140072      0.9366665
     10393.5000        17.3021        -0.0056        -999.25        -999.25        55.7615       71.39883         0.5732         0.6094        40.5377         2.3372         0.6024       -24.0819      -4.276739      0.8169965      0.9389037
     10394.0000        17.3462         -0.007        -999.25        -999.25        56.3798       72.16217         0.5821         0.6133          39.72         2.3354         0.6117       -23.9996      -4.200436      0.8332376      0.9399938
     10394.5000        17.3873        -0.0083        -999.25        -999.25        57.2299       73.21168         0.5973         0.6219        40.3853         2.3373         0.6404       -24.0133      -4.220135      0.8555676      0.9397123
     10395.0000        17.4193        -0.0093        -999.25        -999.25        56.8928        72.7955          0.613         0.6324        40.7511         2.3448         0.6841        -24.027      -4.239832      0.8467128       0.939431
     10395.5000        17.4387        -0.0105        -999.25        -999.25        56.1829       71.91909          0.629         0.6479        39.7371         2.3585         0.7267       -24.3447       -4.56353      0.8280658      0.9348067
     10396.0000        17.4422        -0.0106        -999.25        -999.25        55.5358       71.12021         0.6453         0.6652        38.3978         2.3888         0.7593        -24.793      -5.017828      0.8110683      0.9283168
     10396.5000        17.4278        -0.0101        -999.25        -999.25        54.9095       70.34698          0.662         0.6794        40.0996         2.3976         0.7727       -25.1057      -5.336525      0.7946167      0.9237639
     10397.0000        17.3855        -0.0094        -999.25        -999.25        54.4396       69.76686         0.6759         0.6912        39.7918         2.3947           0.75       -25.2878      -5.524624      0.7822737      0.9210768
     10397.5000        17.2844        -0.0079        -999.25        -999.25        54.3027       69.59785         0.6806         0.7001        38.8566         2.3812         0.7302       -25.4691      -5.711924      0.7786776      0.9184011
     10398.0000        17.1527        -0.0059        -999.25        -999.25        54.3666       69.67674         0.6852         0.7012        38.2536         2.3634         0.7213       -25.6235       -5.87232      0.7803562      0.9161097
     10398.5000        17.0157        -0.0031        -999.25        -999.25        55.9048       71.57575         0.6823         0.7023        38.2646         2.3504         0.7259       -25.7779      -6.032719      0.8207607      0.9138183
