#------------------------------------------------------------------------------
# Created by    : vladimir.rabinovich
# Created on    : 09/19/2023 17:22:43
#------------------------------------------------------------------------------
~Version Information Section
VERS.           2.0     :   CWLS log ASCII Standard - VERSION 2.0
WRAP.           NO      :   One line per depth step
~Well Information Section
#MNEM       .UNIT                                         VALUE :DESCRIPTION
#------------------------------------------------------------------------------
STRT        .FT                                            3600 :START DEPTH
STOP        .FT                                            7940 :STOP DEPTH
STEP        .FT                                             0.5 :STEP      
NULL        .                                           -999.25 :NULL      
COMP        .                          SEAGULL ENERGY E & P INC :COMPANY   
WELL        .                               OCS G09015 ST00BP00 :WELL      
FLD         .                                 BRAZOS BLOCK 0431 :FIELD     
LOC         .                                                   :LOCATION  
CNTY        .                                BRAZOS LARGE BLOCK :LOCATION  
STAT        .                                             TEXAS :STATE     
CTRY        .                                     UNITED STATES :COUNTRY   
SRVC        .                                                   :SERVICE COMPANY
DATE        .                             9/13/2023 11:09:51 AM :LOG DATE  
API         .                                    42704402370000 :API NUMBER
UWI         .                                    42704402370000 :UNIQUE WELL ID
XCOORD      .                                  876086.487249857 :SURFACE X 
YCOORD      .                                  10366258.6106956 :SURFACE Y 
LAT         .                                        28.5443209 :LATITUDE  
LON         .                                       -95.3810825 :LONGITUDE 
ELEV        .FT                                              90 :ELEVATION VALUE
ELEV_TYPE   .                                                KB :ELEVATION REFERENCE TYPE
~Curve Information Section
#MNEM       .UNIT                                      API CODE :CURVE DESCRIPTION
#------------------------------------------------------------------------------
DEPT        .FT                                                 :DEPTH     
DCAL        .IN                                                 :          
DPHI        .%                                                  :          
GR          .GAPI                                               :          
GR_NORM     .GAPI                                               :GammaRay Normalized
ILD         .OHMM                                               :          
ILM         .OHMM                                               :          
NPHI        .%                                                  :          
SGRD        .OHMM                                               :          
SP          .MV                                                 :          
SP_NORM     .MV                                                 :SP Normalized
VSH_GR      .V/V                                                :Volume of Shale from GR
VSH_SP      .V/V                                                :Volume of Shale from SP
~A        DEPTH           DCAL           DPHI             GR        GR_NORM            ILD            ILM           NPHI           SGRD             SP        SP_NORM         VSH_GR         VSH_SP
# ...
      7925.5000         0.1676        69.2223       100.7981       81.25471         0.7653          0.774        74.1066         0.9027       -46.4678      -1.381096              1              1
      7926.0000         0.1637         69.231       100.8025       81.25969         0.7623         0.7725        74.1321         0.9201       -46.1706      -1.083897              1              1
      7926.5000         0.1597        69.2396       100.8073       81.26511         0.7582          0.771        74.1516          0.915       -46.2453      -1.158596              1              1
      7927.0000         0.1557        69.2535       100.8121       81.27056          0.758         0.7695        74.1595         0.8972       -46.3997      -1.312996              1              1
      7927.5000         0.1518        69.2762        100.817       81.27611         0.7608         0.7694        74.1445         0.8821       -46.4101      -1.323395              1              1
      7928.0000         0.1478         69.257       100.8218       81.28153         0.7648         0.7685        74.0557         0.8881       -46.3849      -1.298195              1              1
      7928.5000         0.1438        69.2135       100.8267       81.28708         0.7656         0.7605        74.0326         0.9012       -46.4495      -1.362797              1              1
      7929.0000         0.1398        69.1912       100.8314        81.2924         0.7633         0.7611        74.0741         0.8903       -46.5809      -1.494194              1              1
      7929.5000         0.1406        69.1632       100.8363       81.29794         0.7614         0.7659        74.1322         0.8734       -46.6859      -1.599197              1              1
      7930.0000         0.1459        69.1621       100.8412       81.30349         0.7611         0.7656        74.1593         0.8641       -46.7792      -1.692497              1              1
      7930.5000         0.1512          69.21       100.8459       81.30881         0.7618         0.7639         74.123         0.8631       -46.6771      -1.590397              1              1
      7931.0000         0.1565        69.2383       100.8508       81.31435         0.7621          0.765        74.1055         0.8729        -46.142      -1.055294              1              1
      7931.5000         0.1619         69.264       100.8556       81.31978         0.7602         0.7646        74.1243         0.8777       -46.0845     -0.9977951              1              1
      7932.0000         0.1672        69.2772       100.8605       81.32533         0.7608         0.7638        74.1431         0.8619       -46.1169      -1.030197              1              1
      7932.5000         0.1725        69.2689       100.8654       81.33087         0.7611         0.7631        74.1565         0.8483       -45.6566     -0.5698967              1              1
      7933.0000         0.1778         69.275       100.8571       81.32149         0.7612         0.7624        74.1693         0.8407       -45.2376     -0.1508942              1              1
      7933.5000         0.1831        69.2905       100.8368       81.29851         0.7612          0.762        74.1821         0.8433       -45.2661     -0.1793976              1              1
      7934.0000         0.1885        69.3198       100.8164       81.27541          0.759         0.7597        74.1949         0.8508       -45.3711     -0.2843971              1              1
      7934.5000         0.1798         69.349       100.7961       81.25245         0.7584          0.756        74.2076         0.8548       -45.4293     -0.3425941              1              1
      7935.0000         0.1678        69.3783       100.7759       81.22959         0.7581         0.7537        74.2205         0.8554        -45.437      -0.350296              1              1
      7935.5000         0.1559        69.4073       100.7555        81.2065         0.7584         0.7553        74.2284         0.8466       -45.4313     -0.3445969              1              1
      7936.0000          0.144        69.4576       100.7352       81.18353         0.7626         0.7582        74.2152         0.8346       -45.4257     -0.3389969              1              1
      7936.5000          0.132        69.5444       100.7148       81.16043         0.7675         0.7615         74.182         0.8202       -45.4127     -0.3259964              1              1
      7937.0000         0.1201        69.5984       100.6946       81.13758         0.7643         0.7649        74.0946         0.7904       -45.4012     -0.3144951              1              1
      7937.5000         0.1082        69.6265       100.6742       81.11449         0.7629         0.7666        74.0497         0.7715       -45.4345     -0.3477974              1              1
      7938.0000          0.101        69.6222       100.6539       81.09151         0.7653         0.7699        74.0974         0.7671       -45.4701     -0.3833961              1              1
      7938.5000         0.1035        69.5912       100.6335       81.06842          0.765         0.7706        74.1632          0.765       -45.5106     -0.4238968              1              1
      7939.0000          0.106        69.5388       100.6133       81.04556          0.766         0.7714        74.1748         0.7818       -45.6284     -0.5416946              1              1
      7939.5000         0.1086        69.4586       100.6152       81.04771         0.7709         0.7719        74.1714         0.8202       -45.7006     -0.6138954              1              1
      7940.0000         0.1111        69.3937       100.6211        81.0544          0.773         0.7717        74.1801         0.8337       -45.6936     -0.6068954              1              1
