#------------------------------------------------------------------------------
# Created by    : vladimir.rabinovich
# Created on    : 09/19/2023 17:20:18
#------------------------------------------------------------------------------
~Version Information Section
VERS.           2.0     :   CWLS log ASCII Standard - VERSION 2.0
WRAP.           NO      :   One line per depth step
~Well Information Section
#MNEM       .UNIT                                         VALUE :DESCRIPTION
#------------------------------------------------------------------------------
STRT        .FT                                             780 :START DEPTH
STOP        .FT                                            9803 :STOP DEPTH
STEP        .FT                                             0.5 :STEP      
NULL        .                                           -999.25 :NULL      
COMP        .                                  SAMEDAN OIL CORP :COMPANY   
WELL        .                               OCS G04076 ST00BP00 :WELL      
FLD         .                            HIGH ISLAND BLOCK 0105 :FIELD     
LOC         .                                                   :LOCATION  
CNTY        .                           HIGH ISLAND LARGE BLOCK :LOCATION  
STAT        .                                             TEXAS :STATE     
CTRY        .                                     UNITED STATES :COUNTRY   
SRVC        .                                                   :SERVICE COMPANY
DATE        .                             9/13/2023 11:19:59 AM :LOG DATE  
API         .                                    42708401630000 :API NUMBER
UWI         .                                    42708401630000 :UNIQUE WELL ID
XCOORD      .                                  1167393.84075462 :SURFACE X 
YCOORD      .                                  10652000.2522841 :SURFACE Y 
LAT         .                                        29.3430877 :LATITUDE  
LON         .                                       -94.4850788 :LONGITUDE 
ELEV        .FT                                              87 :ELEVATION VALUE
ELEV_TYPE   .                                                KB :ELEVATION REFERENCE TYPE
~Curve Information Section
#MNEM       .UNIT                                      API CODE :CURVE DESCRIPTION
#------------------------------------------------------------------------------
DEPT        .FT                                                 :DEPTH     
ASFL        .OHMM                                               :          
CILD        .MMHO                                               :          
DT          .US/F                                               :          
GR          .GAPI                                               :          
GR_1        .GAPI                                               :          
GR_NORM     .GAPI                                               :GammaRay Normalized
ILD         .OHMM                                               :          
SP          .MV                                                 :          
SP_NORM     .MV                                                 :SP Normalized
VSH_GR      .V/V                                                :Volume of Shale from GR
VSH_SP      .V/V                                                :Volume of Shale from SP
~A        DEPTH           ASFL           CILD             DT             GR           GR_1        GR_NORM            ILD             SP        SP_NORM         VSH_GR         VSH_SP
# ...
      1995.0000         0.5363       2052.281        -999.25        -999.25        46.3021       51.46065         0.5287      -132.5393      -5.819695      0.3927797      0.5755895
      1995.5000         0.5395       2037.377        -999.25        -999.25        48.3063       54.31179         0.5342      -132.2419      -5.525612      0.4534424      0.6082653
      1996.0000         0.5427       2022.471        -999.25        -999.25        49.9764       56.68771         0.5401      -131.9531      -5.240143      0.5039939      0.6399841
      1996.5000         0.5493       2007.566        -999.25        -999.25        51.6135        59.0167         0.5459      -131.6646      -4.954971      0.5535468      0.6716698
      1997.0000         0.5565       1989.082        -999.25        -999.25          53.23        61.3164         0.5518       -131.376      -4.669716      0.6024765      0.7033649
      1997.5000          0.562       1968.717        -999.25        -999.25        54.9476       63.75989         0.5577      -131.1182       -4.41523      0.6544658      0.7316411
      1998.0000         0.5667       1948.348        -999.25        -999.25        56.0366       65.30927         0.5636      -130.9551      -4.255455      0.6874313      0.7493939
      1998.5000         0.5715       1927.982        -999.25        -999.25        56.9717       66.63976         0.5695       -130.792      -4.095703      0.7157395      0.7671441
      1999.0000         0.5747        1905.42        -999.25        -999.25        57.7046       67.68266         0.5679      -131.0276      -4.334625      0.7379288      0.7405972
      1999.5000         0.5711       1880.512        -999.25        -999.25        58.4378       68.72598          0.564      -131.3635      -4.673843      0.7601273      0.7029063
      2000.0000         0.5675       1855.598        -999.25        -999.25        59.0287       69.56689         0.5602      -132.0825      -5.396187       0.778019      0.6226459
      2000.5000         0.5652       1830.686        -999.25        -999.25        59.5233       70.27084         0.5563      -132.8757      -6.192711      0.7929966      0.5341432
      2001.0000         0.5688       1803.182        -999.25        -999.25        60.0178       70.97464         0.5524      -134.6284      -7.948738      0.8079711      0.3390291
      2001.5000         0.5554        1774.58        -999.25        -999.25        39.7162       42.09893         0.5461      -137.2078      -10.53146      0.1935942      0.0520596
      2002.0000         0.5375       1748.434        -999.25        -999.25        38.2187       39.96938         0.5355      -137.5449       -10.8719      0.1482847     0.01423306
      2002.5000         0.5224       1966.012        -999.25        -999.25        39.6254       41.97066         0.5249      -137.6431      -10.97343      0.1908651    0.002952576
      2003.0000         0.5069       2089.699        -999.25        -999.25        41.0107        43.9415         0.5143      -137.7278      -11.06145      0.2327978              0
      2003.5000         0.4872       2126.766        -999.25        -999.25        42.3692       45.87422         0.5037      -137.5803      -10.91729      0.2739196    0.009190029
      2004.0000         0.4797       2164.879        -999.25        -999.25        43.6448       47.68902         0.4931      -137.4331      -10.77342      0.3125323     0.02517531
      2004.5000         0.4722       2213.488        -999.25        -999.25        44.7317       49.23544         0.4826      -137.2856      -10.62924      0.3454348     0.04119534
      2005.0000         0.4618       2262.043        -999.25        -999.25        43.9686       48.15048         0.4724      -137.1382      -10.48517      0.3223507     0.05720351
      2005.5000         0.4512       2305.203        -999.25        -999.25        42.0156       45.37305         0.4621      -136.9902      -10.34051      0.2632564     0.07327694
      2006.0000         0.4422       2348.363        -999.25        -999.25        40.0894       42.63375         0.4518      -136.8167      -10.17033      0.2049735     0.09218597
      2006.5000         0.4338       2402.051        -999.25        -999.25        38.8504       40.87189         0.4416      -136.6433      -10.00026      0.1674871      0.1110823
      2007.0000         0.4248       2456.641        -999.25        -999.25        37.7144       39.25654         0.4313        -136.47      -9.830292      0.1331178      0.1299676
      2007.5000         0.4142       2517.871        -999.25        -999.25        36.7053       37.82168         0.4216      -136.2964      -9.660019      0.1025889      0.1488868
      2008.0000         0.4093       2560.898        -999.25        -999.25        36.5592       37.61432         0.4127      -136.1936      -9.560555     0.09817699      0.1599384
      2008.5000          0.409       2589.707        -999.25        -999.25        36.4216       37.41904         0.4037      -136.1482      -9.518471     0.09402214      0.1646144
      2009.0000         0.4118       2618.504        -999.25        -999.25        36.9681       38.19681         0.3948      -136.1028      -9.476402      0.1105705      0.1692886
      2009.5000         0.4145       2628.938        -999.25        -999.25        38.0144       39.68547         0.3858      -136.1123      -9.489243      0.1422441      0.1678619
      2010.0000         0.4173        2615.34        -999.25        -999.25        44.3942       48.76028         0.3769      -136.1863      -9.566559       0.335325      0.1592712
      2010.5000         0.4201       2573.355        -999.25        -999.25        47.6683       53.41768         0.3832        -136.27      -9.653595      0.4344186      0.1496006
      2011.0000         0.4313       2529.793        -999.25        -999.25        47.1737       52.71461         0.3938      -136.4954      -9.882332      0.4194599      0.1241854
      2011.5000         0.4437       2473.219        -999.25        -999.25        46.5082       51.76849         0.4043      -136.7207      -10.11095      0.3993295     0.09878286
      2012.0000         0.4573       2456.699        -999.25        -999.25         45.771       50.72037         0.4148       -136.946      -10.33958      0.3770292     0.07337952
      2012.5000         0.4717       2457.566        -999.25        -999.25        44.2917       48.61672         0.4254      -137.1614      -10.55832      0.3322706     0.04907566
      2013.0000         0.4852        2462.68        -999.25        -999.25        42.8119       46.51236         0.4359      -137.3757      -10.77594       0.287497     0.02489556
      2013.5000          0.493       2467.797        -999.25        -999.25        41.6216       44.81977         0.4485      -137.5898      -10.99337      0.2514845   0.0007366604
      2014.0000         0.5008       2467.488        -999.25        -999.25        40.4564       43.16289         0.4632      -137.6526       -11.0595      0.2162316              0
      2014.5000         0.5086       2463.539        -999.25        -999.25        39.1644       41.32563         0.4779      -137.5312      -10.94143      0.1771411    0.006507874
      2015.0000         0.5219        2459.59        -999.25        -999.25        37.9123       39.54514         0.4926      -136.8284      -10.24196      0.1392584     0.08422682
      2015.5000         0.5357       2432.617        -999.25        -999.25         38.326       40.13401         0.5073       -136.166      -9.582886      0.1517875      0.1574571
      2016.0000         0.5543       2392.668        -999.25        -999.25        41.0186       43.96431          0.522      -135.6731      -9.093307      0.2332833      0.2118547
      2016.5000         0.5742       2240.648        -999.25        -999.25        42.8643          46.59         0.5368      -135.1802      -8.603752       0.289149      0.2662498
      2017.0000         0.5952       1851.898        -999.25        -999.25        43.5791       47.60715         0.5515      -134.9719      -8.398766      0.3107904      0.2890261
