#------------------------------------------------------------------------------
# Created by    : vladimir.rabinovich
# Created on    : 09/19/2023 17:21:24
#------------------------------------------------------------------------------
~Version Information Section
VERS.           2.0     :   CWLS log ASCII Standard - VERSION 2.0
WRAP.           NO      :   One line per depth step
~Well Information Section
#MNEM       .UNIT                                         VALUE :DESCRIPTION
#------------------------------------------------------------------------------
STRT        .FT                                            4234 :START DEPTH
STOP        .FT                                            7516 :STOP DEPTH
STEP        .FT                                             0.5 :STEP      
NULL        .                                           -999.25 :NULL      
COMP        .                          SEAGULL ENERGY E & P INC :COMPANY   
WELL        .                               OCS G11311 ST00BP00 :WELL      
FLD         .                                           WILDCAT :FIELD     
LOC         .                                                   :LOCATION  
CNTY        .                             GALVESTON LARGE BLOCK :LOCATION  
STAT        .                                             TEXAS :STATE     
CTRY        .                                     UNITED STATES :COUNTRY   
SRVC        .                                                   :SERVICE COMPANY
DATE        .                             9/13/2023 11:19:54 AM :LOG DATE  
API         .                                    42706403550000 :API NUMBER
UWI         .                                    42706403550000 :UNIQUE WELL ID
XCOORD      .                                  972569.007613557 :SURFACE X 
YCOORD      .                                  10477919.1442114 :SURFACE Y 
LAT         .                                         28.856272 :LATITUDE  
LON         .                                        -95.086774 :LONGITUDE 
ELEV        .FT                                              94 :ELEVATION VALUE
ELEV_TYPE   .                                                KB :ELEVATION REFERENCE TYPE
~Curve Information Section
#MNEM       .UNIT                                      API CODE :CURVE DESCRIPTION
#------------------------------------------------------------------------------
DEPT        .FT                                                 :DEPTH     
CALI        .IN                                                 :          
DPHI        .%                                                  :          
DRHO        .G/C3                                               :          
DTLN        .US/F                                               :          
GR          .GAPI                                               :          
GR_NORM     .GAPI                                               :GammaRay Normalized
IDPH        .OHMM                                               :          
IMPH        .OHMM                                               :          
NPHI        .%                                                  :          
SFLU        .OHMM                                               :          
SP          .MV                                                 :          
SP_NORM     .MV                                                 :SP Normalized
VSH_GR      .V/V                                                :Volume of Shale from GR
VSH_SP      .V/V                                                :Volume of Shale from SP
~A        DEPTH           CALI           DPHI           DRHO           DTLN             GR        GR_NORM           IDPH           IMPH           NPHI           SFLU             SP        SP_NORM         VSH_GR         VSH_SP
# ...
      5098.0000        11.2966        30.5215        -0.0236       108.2095        27.2325       37.84306         0.2577         0.2892        37.3938         0.4661      -129.0117      -61.74425      0.1030438      0.1179393
      5098.5000        11.3549        31.4695         -0.026        97.5266        27.6662        38.2104         0.2603         0.2897        40.2325         0.5243      -128.7197      -61.47171      0.1108595      0.1218327
      5099.0000        11.4762        32.4721        -0.0292        88.3381        28.3177       38.76263         0.2639         0.2887        43.3061          0.576      -128.6318      -61.38968      0.1226092      0.1230045
      5099.5000        11.5695        33.4747        -0.0323        91.8398        28.8929        39.2501         0.2694         0.2886        44.6196          0.575      -128.0769      -60.87177      0.1329807      0.1304033
      5100.0000        11.6136         33.889         -0.035       103.5238        29.1725        39.4866          0.276         0.2919        43.4931         0.5393       -127.217       -60.0692      0.1380127      0.1418686
      5100.5000        11.4764        34.0994        -0.0381       113.1904        28.7353       39.11452          0.286         0.2984        41.6525         0.4842      -127.2944      -60.14144      0.1300963      0.1408366
      5101.0000        11.2704        33.6835        -0.0422       114.4745        27.9281       38.42831         0.3034         0.3126          41.25         0.4512      -127.7684      -60.58384       0.115496      0.1345166
      5101.5000        11.0827         32.633        -0.0458       112.6473        26.9409       37.58928         0.3334         0.3417        41.9077         0.4778      -128.3679      -61.14338     0.09764424      0.1265232
      5102.0000        10.8949        31.1478        -0.0461       109.7263        27.3441       37.93071         0.3631         0.3825        41.0375         0.5671      -128.6704       -61.4257      0.1049087        0.12249
      5102.5000        10.7069         28.354        -0.0437       102.0171         28.731       39.10732          0.416         0.4392        37.3264         1.0705      -127.6298      -60.45448      0.1299429      0.1363646
      5103.0000         10.519         24.607        -0.0405        96.6256        28.4771       38.89086         0.5186         0.5202        31.8556         1.3663      -125.6415      -58.59873      0.1253374      0.1628752
      5103.5000         10.338        19.3696        -0.0365        87.1542        27.3992       37.97482          0.648         0.6972        28.4453         1.6161      -123.3447      -56.45505      0.1058473      0.1934993
      5104.0000        10.2551        14.0723        -0.0325        77.6827        26.0524       36.83049         0.7568         0.8954         23.757         1.9083      -121.3726      -54.61442     0.08149979       0.219794
      5104.5000        10.2597         8.8708        -0.0285        74.3475        24.7969       35.76366         0.8639         1.2087         16.293         2.4296      -118.4221      -51.86062     0.05880137       0.259134
      5105.0000        10.2988         4.7467        -0.0245        79.1245        24.2911       35.33334         0.9886         1.5005        12.4921         3.3304      -114.3177      -48.02985     0.04964561      0.3138592
      5105.5000        10.3086         3.9271        -0.0229        86.5485        25.5184       36.37445         1.0173         1.6818         11.645         4.3676      -111.1444       -45.0681     0.07179682      0.3561699
      5106.0000          10.29         4.7864        -0.0239        93.9674        27.7493       38.26762          0.976         1.6489        12.4136         4.6237      -108.4084       -42.5145       0.112077      0.3926499
      5106.5000        10.2513         6.0157        -0.0266        98.8383        29.3925       39.66183         0.8903         1.4454        13.5815         4.2725       -108.675      -42.76333      0.1417412      0.3890952
      5107.0000        10.1926         7.8937        -0.0305       107.9392        30.6248       40.70718         0.7884         1.1974        15.7333         2.9603      -110.2698      -44.25181      0.1639826      0.3678313
      5107.5000        10.1415         12.115        -0.0346       100.6404        31.0369       41.05617          0.692         0.9335        19.2319         2.0785      -113.8136      -47.55935      0.1714079      0.3205807
      5108.0000        10.0916        16.3469        -0.0403        88.8112         31.003        41.0265         0.6082         0.7335         22.533         1.6163       -117.429      -50.93373      0.1707767      0.2723753
      5108.5000        10.0311         16.521        -0.0389        83.7351        30.5704       40.65833         0.5373         0.6309        21.1892         1.6863      -121.0443      -54.30801      0.1629432      0.2241713
      5109.0000         9.9943        16.7524        -0.0345        82.4623        30.0612       40.22512         0.4746         0.5428        16.2481         1.8963      -124.6595       -57.6822       0.153726      0.1759686
      5109.5000        10.0494        18.6154        -0.0297        85.2468        29.8505       40.04535         0.4231         0.4776        15.0016         1.7714      -128.2786      -61.06002       0.149901      0.1277141
      5110.0000        10.1335         23.781        -0.0254        91.2592        30.5554       40.64293         0.3831         0.4282        21.8716         1.1656      -131.8225      -64.36766      0.1626156     0.08046199
      5110.5000        10.2229        28.9526        -0.0207       101.5215        31.4939       41.43884         0.3447         0.3939        30.1707         0.7003      -133.5586      -65.98801      0.1795498     0.05731408
      5111.0000        10.2978        31.8737        -0.0156       108.9504        32.2323       42.06486         0.3174         0.3716        33.3071         0.5398      -134.8247      -67.16972      0.1928694     0.04043252
      5111.5000        10.3539        31.7205        -0.0122       116.4769        31.5533        41.4875         0.2962         0.3538        34.7504          0.561      -135.4326      -67.73709      0.1805851     0.03232727
      5112.0000        10.3941        31.5137        -0.0096       117.1971        30.6898       40.75348         0.2764         0.3334        35.7253         0.5676      -135.7312      -68.01579      0.1649677     0.02834593
      5112.5000         10.462        31.3156        -0.0087       116.9841        30.1677       40.30933         0.2629          0.316        36.6111         0.5492      -135.5999      -67.89323      0.1555177     0.03009665
      5113.0000        10.5493        31.2001        -0.0079       117.4906        30.3547       40.46721         0.2534         0.2997        38.5221         0.5526      -135.3037      -67.61678      0.1588768     0.03404607
      5113.5000        10.6449        31.6192        -0.0074       119.6882        30.3578       40.46895         0.2443         0.2838        40.3477         0.5812      -135.0515      -67.38139      0.1589138     0.03740866
      5114.0000        10.7405        31.9903        -0.0037       119.5131        29.5494       39.78173         0.2388         0.2728        41.0476          0.591      -134.7493      -67.09934      0.1442921     0.04143796
      5114.5000        10.8334        32.2119        -0.0001        116.532         28.599       38.97393         0.2378          0.265        41.4211         0.5784       -134.511      -66.87693      0.1271048     0.04461528
      5115.0000        10.9179        32.2776         0.0035       113.0278        27.8268       38.31744         0.2387         0.2648        41.3555         0.5612      -135.3911      -67.69836       0.113137     0.03288062
      5115.5000        10.9631        32.2563         0.0066       111.1086        28.7922       39.13618          0.242         0.2739        40.8378         0.5505      -135.7876      -68.06842       0.130557     0.02759399
