#------------------------------------------------------------------------------
# Created by    : vladimir.rabinovich
# Created on    : 09/19/2023 17:20:33
#------------------------------------------------------------------------------
~Version Information Section
VERS.           2.0     :   CWLS log ASCII Standard - VERSION 2.0
WRAP.           NO      :   One line per depth step
~Well Information Section
#MNEM       .UNIT                                         VALUE :DESCRIPTION
#------------------------------------------------------------------------------
STRT        .FT                                             526 :START DEPTH
STOP        .FT                                            9568 :STOP DEPTH
STEP        .FT                                             0.5 :STEP      
NULL        .                                           -999.25 :NULL      
COMP        .                       BLUE DOLPHIN EXPLORATION CO :COMPANY   
WELL        .                                OCS 00713 ST00BP00 :WELL      
FLD         .                              GALVESTON BLOCK 0288 :FIELD     
LOC         .                                                   :LOCATION  
CNTY        .                             GALVESTON LARGE BLOCK :LOCATION  
STAT        .                                             TEXAS :STATE     
CTRY        .                                     UNITED STATES :COUNTRY   
SRVC        .                                                   :SERVICE COMPANY
DATE        .                             9/13/2023 11:19:25 AM :LOG DATE  
API         .                                    42706000630000 :API NUMBER
UWI         .                                    42706000630000 :UNIQUE WELL ID
XCOORD      .                                  1101981.32688909 :SURFACE X 
YCOORD      .                                  10481575.8265757 :SURFACE Y 
LAT         .                                          28.87198 :LATITUDE  
LON         .                                        -94.682732 :LONGITUDE 
ELEV        .FT                                              58 :ELEVATION VALUE
ELEV_TYPE   .                                                KB :ELEVATION REFERENCE TYPE
~Curve Information Section
#MNEM       .UNIT                                      API CODE :CURVE DESCRIPTION
#------------------------------------------------------------------------------
DEPT        .FT                                                 :DEPTH     
ASN         .OHMM                                               :          
CALI        .IN                                                 :          
DT          .US/F                                               :          
ILD         .OHMM                                               :          
SP          .MV                                                 :          
SP_NORM     .MV                                                 :SP Normalized
VSH_SP      .V/V                                                :Volume of Shale from SP
~A        DEPTH            ASN           CALI             DT            ILD             SP        SP_NORM         VSH_SP
# ...
      7728.5000         0.7929         10.032       110.6666         0.7681       -34.1927       0.691021              1
      7729.0000         0.8037          9.995       113.3883         0.7749        -33.907      0.9767189              1
      7729.5000         0.8047        10.1112       113.7734          0.781       -34.0526      0.8311195              1
      7730.0000         0.7955         9.9216        112.032         0.7765       -34.2645      0.6192207              1
      7730.5000         0.7825         9.6954       107.4644         0.7642       -34.3139      0.5698204              1
      7731.0000          0.764         9.5755       105.8912         0.7492       -34.1441      0.7396202              1
      7731.5000         0.7521         9.4877       105.6117         0.7225       -33.9693      0.9144211              1
      7732.0000         0.7434          9.435       107.2937         0.7018       -33.7411        1.14262              1
      7732.5000         0.7434         9.4134       111.2056         0.6909       -33.5419        1.34182              1
      7733.0000         0.7398         9.4102       112.4631         0.6842       -33.1044        1.77932              1
      7733.5000         0.7255         9.4178       111.9871         0.6812       -32.9038       1.979919              1
      7734.0000         0.7082         9.3886       114.5897         0.6897         -32.97       1.913719              1
      7734.5000          0.698         9.3918       115.4835         0.6831       -32.5264       2.357319              1
      7735.0000         0.7011         9.4449        114.327         0.6921        -32.063       2.820721              1
      7735.5000         0.7188         9.4381       114.3214         0.7082       -32.4612        2.42252              1
      7736.0000         0.7423         9.3932       115.1714         0.7346       -32.4343       2.449421              1
      7736.5000         0.7715         9.3338       114.4348          0.774       -32.4624       2.421322              1
      7737.0000         0.8007         9.3504       113.4801         0.7969       -32.9989       1.884819              1
      7737.5000           0.83         9.4161       113.8296         0.8246       -33.8699       1.013821              1
      7738.0000         0.8592         9.4785       112.6698         0.8516       -34.8499     0.03382111              1
      7738.5000         0.8885         9.5558       110.0469         0.8711       -35.9971       -1.11338      0.9970928
      7739.0000         0.9216         9.5642       107.0825         0.9003       -37.4675      -2.583778      0.9593903
      7739.5000          0.942         9.5321       106.9142         0.9188       -39.0861      -4.202381      0.9178877
      7740.0000          0.958         9.5759       104.9537         0.9119       -40.9224      -6.038681      0.8708031
      7740.5000         0.9527          9.688        96.2406         0.9097       -41.9664       -7.08268      0.8440338
      7741.0000          0.944         9.7434         94.233         0.9032       -42.2335      -7.349781      0.8371851
      7741.5000         0.9374         9.7878        91.4978         0.8827       -42.2407      -7.356979      0.8370005
      7742.0000         0.9244         9.7659        90.4366         0.8509       -42.2294       -7.34568      0.8372902
      7742.5000         0.9083         9.6932        94.2599         0.7726       -42.3688      -7.485081      0.8337159
      7743.0000         0.8937         9.5872        94.5035         0.7432       -42.9328       -8.04908      0.8192543
      7743.5000         0.8791          9.558        97.7137         0.7035       -44.4088      -9.525078      0.7814083
      7744.0000         0.8666         9.5933        94.3184         0.6806       -46.5168      -11.63308      0.7273569
      7744.5000         0.8574         9.6367        92.4882          0.678       -49.8977      -15.01398      0.6406671
      7745.0000         0.8517         9.6415        96.8065         0.6861       -53.4357      -18.55198      0.5499492
      7745.5000         0.8492         9.6236       100.1479          0.704       -56.8975      -22.01378      0.4611852
      7746.0000         0.8552         9.5861        103.613         0.7308       -58.6081      -23.72438      0.4173236
      7746.5000         0.8874         9.5338       105.1333         0.7693       -56.1566      -21.27288      0.4801826
      7747.0000         0.9323          9.487       101.1271         0.8151        -50.239      -15.35528      0.6319159
      7747.5000          1.003         9.4692        96.5774          0.863       -46.1262      -11.24248      0.7373723
      7748.0000         1.0368         9.3833       108.1066         0.9102       -42.9205      -8.036781      0.8195697
      7748.5000          1.048         9.2534       107.4374         0.9524       -40.6688       -5.78508      0.8773056
      7749.0000         1.0655         9.1388        95.5209         0.9921       -39.3038      -4.420078      0.9123057
      7749.5000         1.0823         9.0756        95.2856         1.0245       -38.2756       -3.39188      0.9386697
      7750.0000         1.1032         9.0461        94.5383         1.0328         -37.39      -2.506279      0.9613774
      7750.5000         1.1141         9.0939         93.054         1.0283        -36.993       -2.10928       0.971557
      7751.0000         1.1179         9.1981        94.0533         1.0347       -36.9226      -2.038879      0.9733621
      7751.5000         1.1209         9.3638        97.5251          1.032       -37.0087      -2.124981      0.9711543
      7752.0000         1.1364         9.6843       100.7095         1.0257       -37.2867      -2.402981      0.9640262
      7752.5000         1.1558         9.9392        99.1061         1.0213       -37.4229      -2.539181      0.9605338
      7753.0000         1.1724         9.9992        94.8573          1.024        -37.179       -2.29528      0.9667877
      7753.5000         1.1817        10.0135        94.3789         1.0273       -36.8637       -1.97998      0.9748723
      7754.0000         1.1859         9.9981         96.564         1.0309       -37.0392      -2.155479      0.9703723
      7754.5000          1.184         9.9714        95.8993         1.0416       -37.1502      -2.266479      0.9675261
      7755.0000         1.1849         9.9187        95.0483         1.0328       -37.3013       -2.41758      0.9636518
      7755.5000         1.1904         9.8537        97.3904         1.0305       -37.6145      -2.730778      0.9556211
      7756.0000         1.1864         9.7812        101.345          1.027       -38.0439      -3.160179      0.9446108
      7756.5000         1.1769         9.6985         96.052         1.0162       -38.2925      -3.408779      0.9382364
      7757.0000         1.1655         9.6451        97.1478         1.0053       -38.1365      -3.252781      0.9422364
      7757.5000         1.1434         9.7066       102.7406         0.9981       -37.7952       -2.91148      0.9509877
      7758.0000         1.1241         9.7672        94.9089         0.9905       -37.4158      -2.532078      0.9607159
      7758.5000         1.1126         9.6581        93.8866         0.9763       -37.0561      -2.172379       0.969939
      7759.0000         1.1025         9.6537        95.0616         0.9605       -36.6924      -1.808681      0.9792646
      7759.5000         1.0912         9.7142        99.2498         0.9605       -36.5432      -1.659481      0.9830902
      7760.0000         1.0772         9.7389       101.1968         0.9553       -36.4371      -1.553379      0.9858108
      7760.5000         1.0732         9.6705       100.8397         0.9499       -36.4752       -1.59148      0.9848338
      7761.0000         1.0809         9.5693       103.4625          0.949       -36.6376       -1.75388      0.9806697
      7761.5000         1.0934         9.5986       100.4445         0.9502       -36.5218      -1.638081      0.9836389
