#------------------------------------------------------------------------------
# Created by    : vladimir.rabinovich
# Created on    : 09/19/2023 17:19:49
#------------------------------------------------------------------------------
~Version Information Section
VERS.           2.0     :   CWLS log ASCII Standard - VERSION 2.0
WRAP.           NO      :   One line per depth step
~Well Information Section
#MNEM       .UNIT                                         VALUE :DESCRIPTION
#------------------------------------------------------------------------------
STRT        .FT                                             790 :START DEPTH
STOP        .FT                                           12500 :STOP DEPTH
STEP        .FT                                             0.5 :STEP      
NULL        .                                           -999.25 :NULL      
COMP        .                                 CHEVRON U S A INC :COMPANY   
WELL        .                               OCS G04596 ST00BP00 :WELL      
FLD         .                                           WILDCAT :FIELD     
LOC         .                                                   :LOCATION  
CNTY        .                        MUSTANG ISLAND LARGE BLOCK :LOCATION  
STAT        .                                             TEXAS :STATE     
CTRY        .                                     UNITED STATES :COUNTRY   
SRVC        .                                                   :SERVICE COMPANY
DATE        .                             9/13/2023 11:19:13 AM :LOG DATE  
API         .                                    42702401310000 :API NUMBER
UWI         .                                    42702401310000 :UNIQUE WELL ID
XCOORD      .                                  486632.184756912 :SURFACE X 
YCOORD      .                                  10088502.2555927 :SURFACE Y 
LAT         .                                          27.75488 :LATITUDE  
LON         .                                        -96.567316 :LONGITUDE 
ELEV        .FT                                              90 :ELEVATION VALUE
ELEV_TYPE   .                                                KB :ELEVATION REFERENCE TYPE
~Curve Information Section
#MNEM       .UNIT                                      API CODE :CURVE DESCRIPTION
#------------------------------------------------------------------------------
DEPT        .FT                                                 :DEPTH     
ASFL        .OHMM                                               :          
CILD        .MMHO                                               :          
GR          .GAPI                                               :          
GR_NORM     .GAPI                                               :GammaRay Normalized
ILD         .OHMM                                               :          
SP          .MV                                                 :          
SP_NORM     .MV                                                 :SP Normalized
VSH_GR      .V/V                                                :Volume of Shale from GR
VSH_SP      .V/V                                                :Volume of Shale from SP
~A        DEPTH           ASFL           CILD             GR        GR_NORM            ILD             SP        SP_NORM         VSH_GR         VSH_SP
# ...
     10939.5000         1.3658       705.5654        39.5247       71.64672         1.4087       -39.9406      -1.344112      0.8222706      0.9929773
     10940.0000         1.3856       679.2461        33.8403       62.87986         1.4424       -39.8814      -1.284912      0.6357416      0.9941854
     10940.5000         1.4089       664.7344        34.5547       63.98043          1.489       -39.8223      -1.225811      0.6591581      0.9953916
     10941.0000         1.4356       650.4922        35.2703       65.08283         1.4897       -39.7633      -1.166813      0.6826134      0.9965957
     10941.5000         1.4641       641.0967        35.9847       66.18339         1.4213       -39.7042      -1.107712      0.7060295      0.9978018
     10942.0000         1.4954        632.168        37.7749        68.9429          1.314       -39.6452       -1.04871      0.7647426      0.9990059
     10942.5000          1.397       620.9512         39.657       71.84416          1.207       -39.5896     -0.9931107      0.8264715              1
     10943.0000         1.1594       762.2373        41.1838       74.19749         1.0531       -39.5514     -0.9549103      0.8765424              1
     10943.5000         1.0073       848.1299        42.2805       75.88761         0.9459       -39.5132     -0.9167099      0.9125023              1
     10944.0000         0.9302       897.5205        43.0329       77.04678          0.876        -39.475     -0.8785095      0.9371654              1
     10944.5000         0.8288       958.8164        43.7864       78.20763         0.8215       -39.4368     -0.8403091      0.9618645              1
     10945.0000         0.7888       1025.523        44.5388       79.36679         0.7865       -39.3986     -0.8021126      0.9865274              1
     10945.5000         0.7602       1079.637        45.4824        80.8208         0.7515        -39.376     -0.7795105              1              1
     10946.0000         0.7419       1201.049        46.4258        82.2745         0.7655       -39.3594     -0.7629128              1              1
     10946.5000         0.7523       1418.684        45.7323       81.20396         0.8245       -39.3438     -0.7473106              1              1
     10947.0000         0.7701       1457.301         44.605        79.4645         0.8834       -39.4177     -0.8212128      0.9886064              1
     10947.5000          0.788       1387.002        43.4777       77.72503         0.9425       -39.4915     -0.8950119      0.9515964              1
     10948.0000         0.8549       1285.859        41.5686       74.77996         1.0094       -39.5652     -0.9687119      0.8889353              1
     10948.5000         0.9506        1122.73        40.1349       72.56799         1.0818        -39.639      -1.042511      0.8418722      0.9991325
     10949.0000         1.0254       1026.213        40.1717       72.62365         1.1542       -39.7128       -1.11631      0.8430564      0.9976263
     10949.5000         1.1197       963.5391        41.1226       74.08891         1.2267       -39.7865       -1.19001      0.8742322      0.9961222
     10950.0000         1.2736        918.625        42.0734       75.55401         1.2126       -39.7939      -1.197411      0.9054044      0.9959712
     10950.5000         1.1319       886.2559        43.0243       77.01929         1.1838       -39.7864      -1.189911      0.9365806      0.9961243
     10951.0000         1.0931       863.7734        43.9752       78.48455         1.1551       -39.7787      -1.182213      0.9677564      0.9962814
     10951.5000         1.0718       902.2432         44.461        79.2326         1.1263       -39.7711       -1.17461      0.9836723      0.9964365
     10952.0000         1.0577       950.1582        44.1712       78.78461         1.0976       -39.7635      -1.167011      0.9741406      0.9965916
     10952.5000         1.0676       989.7109        43.9378       78.42361         1.0688       -39.7559      -1.159412      0.9664597      0.9967467
     10953.0000         1.0774       1017.506        44.3863       79.11413         1.0465       -39.7483       -1.15181      0.9811516      0.9969019
     10953.5000         1.0873       1025.037        44.9738         80.019         1.0327       -39.7092      -1.112713              1      0.9976997
     10954.0000         1.0972       1028.641        45.5865       80.96274          1.019        -39.652      -1.055511              1      0.9988671
     10954.5000          1.107       1024.725        45.2348       80.41929         1.0053       -39.5444     -0.9479103              1              1
     10955.0000         1.1169       1017.309        44.4089       79.14462         0.9915       -39.3857     -0.7892113      0.9818003              1
     10955.5000         1.1267       999.1064        43.5831       77.87007         0.9733       -39.2895     -0.6930122      0.9546824              1
     10956.0000         1.1379       971.8037        42.7621       76.60292         0.9513       -39.2147     -0.6182098      0.9277217              1
     10956.5000         1.1299       956.8486        41.9509       75.35091         0.9293       -39.1398     -0.5433121      0.9010831              1
     10957.0000         1.0938       995.0234        41.1397       74.09889         0.9073       -39.0651     -0.4686127      0.8744445              1
     10957.5000         0.9779       1056.221        40.4952       73.10392         0.8854       -38.9903     -0.3938103      0.8532749              1
     10958.0000          0.918       1121.648        40.0957       72.48677         0.8634       -38.9896     -0.3931122       0.840144              1
     10958.5000         0.8543       1167.301        41.3309       74.39046         0.8415       -38.9987     -0.4022102       0.880648              1
     10959.0000         0.7905       1214.035        42.5023       76.19575         0.8089       -39.0078     -0.4113121      0.9190584              1
     10959.5000           0.79       1308.883        43.5953       77.88013         0.7756       -39.0169     -0.4204102      0.9548963              1
     10960.0000         0.7895       1390.938        44.6907       79.56822         0.7422       -39.0259     -0.4294128      0.9908133              1
     10960.5000         0.7892       1459.613        45.7397       81.18477         0.7088        -39.035     -0.4385109              1              1
     10961.0000         0.7889        1512.25        46.2678       81.99803         0.6849       -39.0441     -0.4476128              1              1
     10961.5000         0.7805       1548.359        45.4885       80.79521         0.6725       -39.0303     -0.4338112              1              1
     10962.0000         0.7642       1575.514         44.757       79.66609         0.6602        -39.014      -0.417511      0.9928955              1
     10962.5000         0.7495       1588.822         44.072       78.60868         0.6478       -38.9978       -0.40131      0.9703975              1
     10963.0000         0.7381       1591.656        43.4152       77.59475          0.652       -38.9816     -0.3851128      0.9488245              1
     10963.5000         0.7463        1587.85        42.8527       76.72624         0.6574       -38.9653     -0.3688126      0.9303456              1
     10964.0000         0.7545       1584.043        42.3779       75.99296         0.6627       -38.9491     -0.3526115      0.9147438              1
     10964.5000         0.7627       1580.242        42.4067       76.03628          0.668       -38.9329     -0.3364105      0.9156655              1
     10965.0000         0.7748       1576.438         43.251       77.33716         0.6733       -38.9166     -0.3201103      0.9433438              1
     10965.5000         0.7781       1570.816         44.094       78.63605         0.6791       -38.9058     -0.3093109      0.9709798              1
