#------------------------------------------------------------------------------
# Created by    : vladimir.rabinovich
# Created on    : 09/19/2023 17:22:53
#------------------------------------------------------------------------------
~Version Information Section
VERS.           2.0     :   CWLS log ASCII Standard - VERSION 2.0
WRAP.           NO      :   One line per depth step
~Well Information Section
#MNEM       .UNIT                                         VALUE :DESCRIPTION
#------------------------------------------------------------------------------
STRT        .FT                                             252 :START DEPTH
STOP        .FT                                           11321 :STOP DEPTH
STEP        .FT                                             0.5 :STEP      
NULL        .                                           -999.25 :NULL      
COMP        .                          HUMBLE OIL & REFINING CO :COMPANY   
WELL        .                                OCS 00615 ST00BP00 :WELL      
FLD         .                                           WILDCAT :FIELD     
LOC         .                                                   :LOCATION  
CNTY        .                             GALVESTON LARGE BLOCK :LOCATION  
STAT        .                                             TEXAS :STATE     
CTRY        .                                     UNITED STATES :COUNTRY   
SRVC        .                                                   :SERVICE COMPANY
DATE        .                             9/13/2023 11:19:42 AM :LOG DATE  
API         .                                    42706000270000 :API NUMBER
UWI         .                                    42706000270000 :UNIQUE WELL ID
XCOORD      .                                  1043929.24471964 :SURFACE X 
YCOORD      .                                  10527500.2798036 :SURFACE Y 
LAT         .                                         28.995876 :LATITUDE  
LON         .                                        -94.866344 :LONGITUDE 
ELEV        .FT                                              67 :ELEVATION VALUE
ELEV_TYPE   .                                                KB :ELEVATION REFERENCE TYPE
~Curve Information Section
#MNEM       .UNIT                                      API CODE :CURVE DESCRIPTION
#------------------------------------------------------------------------------
DEPT        .FT                                                 :DEPTH     
LAT         .OHMM                                               :          
LN          .OHMM                                               :          
SN          .OHMM                                               :          
SP          .MV                                                 :          
SP_NORM     .MV                                                 :SP Normalized
VSH_SP      .V/V                                                :Volume of Shale from SP
~A        DEPTH            LAT             LN             SN             SP        SP_NORM         VSH_SP
# ...
       974.0000         2.5336         1.7804         1.6931       -99.0056         0.9944              1
       974.5000         2.5062         1.7734         1.6898       -99.0872      0.9128036              1
       975.0000         2.4787         1.7663         1.6864       -99.1688      0.8311996              1
       975.5000         2.4495         1.7592          1.683       -99.2504      0.7496033              1
       976.0000         2.4174         1.7522         1.6813        -99.332      0.6679993              1
       976.5000         2.3854         1.7451         1.6799       -99.4136      0.5864029              1
       977.0000         2.3533         1.7381         1.6785       -99.4952      0.5047989              1
       977.5000         2.3212          1.731         1.6771       -99.5768      0.4232025              1
       978.0000         2.2891         1.7365         1.6757       -99.6584      0.3415985              1
       978.5000          2.257         1.7498         1.6743       -99.9509     0.04910278              1
       979.0000         2.2249         1.7631         1.6688      -100.2871     -0.2871017              1
       979.5000         2.1928         1.7955         1.6613      -100.6234     -0.6233978              1
       980.0000         2.1622         1.8543         1.6538      -100.9597     -0.9597015              1
       980.5000         2.1359          1.913         1.6632      -101.2654      -1.265404      0.9852554
       981.0000         2.1096         1.9718         1.6796      -101.5428      -1.542801      0.9698444
       981.5000         2.0833         2.0306         1.6961      -101.8204      -1.820396      0.9544224
       982.0000          2.057         2.0893         1.7531       -102.098         -2.098          0.939
       982.5000         2.0307         2.1481         1.8145      -102.3756      -2.375603      0.9235776
       983.0000         2.0045         2.2067         1.8758      -102.6532      -2.653198      0.9081557
       983.5000         1.9782         2.2613         1.9372      -102.8983        -2.8983      0.8945389
       984.0000         1.9579          2.316         1.9986      -103.0437      -3.043701       0.886461
       984.5000         1.9568         2.3706           2.06      -103.1891      -3.189102      0.8783832
       985.0000         1.9556         2.4066         2.1092      -103.3346      -3.334602      0.8702999
       985.5000         1.9545         2.4275         2.1474      -103.7112      -3.711197      0.8493779
       986.0000         1.9503         2.4484         2.1857       -104.191      -4.191002      0.8227221
       986.5000         1.9361         2.4629          2.224       -104.671      -4.670998      0.7960557
       987.0000          1.903         2.4376         2.2622      -104.8433        -4.8433      0.7864833
       987.5000           1.87         2.4123         2.2685      -104.5304      -4.530403      0.8038665
       988.0000         1.8369          2.387         2.2584      -104.1643      -4.164299      0.8242056
       988.5000         1.8039         2.3617         2.2503      -103.7078      -3.707802      0.8495666
       989.0000         1.7708         2.3364           2.26      -103.2511      -3.251099       0.874939
       989.5000          1.739         2.3111         2.2697      -102.7946      -2.794601      0.9002999
       990.0000         1.7241         2.2852         2.2794      -102.3379      -2.337898      0.9256723
       990.5000         1.7093         2.2548         2.2893      -101.8813      -1.881302      0.9510388
       991.0000         1.7032         2.2243         2.3007      -101.4247      -1.424698      0.9764057
       991.5000          1.763         2.2017         2.3121      -100.9681     -0.9681015              1
       992.0000         1.8228         2.1795         2.3152      -101.3171      -1.317101      0.9823833
       992.5000         1.9182         2.1573         2.3003      -102.1079      -2.107903      0.9384499
       993.0000         2.0613         2.1351         2.2854      -102.5968      -2.596802      0.9112888
       993.5000         2.1894         2.1129          2.285      -103.0599      -3.059898      0.8855612
       994.0000          2.299         2.0907         2.3095      -103.0262      -3.026199      0.8874334
       994.5000         2.3824         2.0685          2.334      -102.6439      -2.643898      0.9086723
       995.0000         2.4415         2.0462         2.3585      -102.2616      -2.261597      0.9299113
       995.5000         2.4952         2.0674         2.3888      -101.8793      -1.879303      0.9511498
       996.0000         2.4037         2.0918         2.4198      -101.6023      -1.602303      0.9665387
       996.5000         2.3248         2.1162          2.377      -101.4159      -1.415901      0.9768944
       997.0000         2.2458         2.1406         2.3255      -101.2295        -1.2295        0.98725
       997.5000          2.179         2.1621         2.2737      -101.5316      -1.531601      0.9704666
       998.0000         2.1266         2.1589         2.2219      -101.8707      -1.870697       0.951628
       998.5000         2.0742         2.1556           2.17      -102.2871      -2.287102      0.9284943
       999.0000         2.0795         2.1304         2.1182      -102.7589      -2.758904      0.9022831
       999.5000         2.1016         2.0968         2.0744      -103.0896        -3.0896      0.8839111
      1000.0000         2.1236         2.0633         2.0438      -103.2434      -3.243401      0.8753666
      1000.5000         2.1456         2.0298         2.0132      -103.3778        -3.3778         0.8679
      1001.0000         2.1677         1.9963         1.9826      -102.9722      -2.972198      0.8904334
      1001.5000         2.1921         1.9627          1.952      -102.5667      -2.566704      0.9129609
      1002.0000         2.2179         1.9292         1.9215       -102.161      -2.161003      0.9354998
      1002.5000         2.2437         1.8957         1.8909      -101.7555      -1.755501      0.9580277
      1003.0000         2.2696         1.8622         1.8603      -101.3499      -1.349899      0.9805611
      1003.5000         2.2954         1.8286         1.8304      -100.9443     -0.9442978              1
      1004.0000         2.3213         1.7951         1.8082      -100.5387     -0.5386963              1
      1004.5000         2.3471         1.7616          1.786      -100.1332     -0.1332016              1
      1005.0000          2.373         1.7281         1.7639       -99.7239      0.2761002              1
      1005.5000         2.3988         1.6945         1.7417       -99.2946      0.7053986              1
      1006.0000         2.4247          1.676         1.7196       -98.8654       1.134598              1
      1006.5000         2.4332         1.6616         1.6974        -98.436       1.564003              1
      1007.0000         2.4336         1.6473         1.6752       -98.0067       1.993301              1
      1007.5000          2.434         1.6329          1.655       -98.2822       1.717796              1
      1008.0000         2.4343         1.6185         1.6421       -98.8878       1.112198              1
      1008.5000         2.4347         1.6042         1.6291        -99.441      0.5589981              1
      1009.0000         2.4351         1.5898         1.6162       -99.9667     0.03330231              1
      1009.5000         2.4271         1.5754         1.6032      -100.4923     -0.4923019              1
      1010.0000         2.3995         1.5611         1.5903      -101.0178      -1.017799      0.9990112
      1010.5000         2.3718         1.5467         1.5774      -101.5435      -1.543503      0.9698054
      1011.0000         2.3441         1.5323         1.5644      -102.0691      -2.069099      0.9406056
      1011.5000         2.3164          1.518         1.5556       -102.485      -2.485001         0.9175
