#------------------------------------------------------------------------------
# Created by    : vladimir.rabinovich
# Created on    : 09/19/2023 17:22:30
#------------------------------------------------------------------------------
~Version Information Section
VERS.           2.0     :   CWLS log ASCII Standard - VERSION 2.0
WRAP.           NO      :   One line per depth step
~Well Information Section
#MNEM       .UNIT                                         VALUE :DESCRIPTION
#------------------------------------------------------------------------------
STRT        .FT                                            1687 :START DEPTH
STOP        .FT                                            6155 :STOP DEPTH
STEP        .FT                                             0.5 :STEP      
NULL        .                                           -999.25 :NULL      
COMP        .                       AMERICAN COASTAL ENERGY INC :COMPANY   
WELL        .                                ST TR 00596-L NE/4 :WELL      
FLD         .                        SHERMAN OFFSHORE SOUTHWEST :FIELD     
LOC         .                                                   :LOCATION  
CNTY        .                      MATAGORDA ISLAND LARGE BLOCK :LOCATION  
STAT        .                                             TEXAS :STATE     
CTRY        .                                     UNITED STATES :COUNTRY   
SRVC        .                                                   :SERVICE COMPANY
DATE        .                             9/13/2023 11:12:01 AM :LOG DATE  
API         .                                    42703302820000 :API NUMBER
UWI         .                                    42703302820000 :UNIQUE WELL ID
XCOORD      .                                  484247.709270029 :SURFACE X 
YCOORD      .                                   10242127.767654 :SURFACE Y 
LAT         .                                        28.1765839 :LATITUDE  
LON         .                                       -96.5886238 :LONGITUDE 
ELEV        .FT                                              79 :ELEVATION VALUE
ELEV_TYPE   .                                                KB :ELEVATION REFERENCE TYPE
~Curve Information Section
#MNEM       .UNIT                                      API CODE :CURVE DESCRIPTION
#------------------------------------------------------------------------------
DEPT        .FT                                                 :DEPTH     
CILD        .MMHO                                               :          
DT          .US/F                                               :          
ILD         .OHMM                                               :          
SN          .OHMM                                               :          
SP          .MV                                                 :          
SP_NORM     .MV                                                 :SP Normalized
VSH_SP      .V/V                                                :Volume of Shale from SP
~A        DEPTH           CILD             DT            ILD             SN             SP        SP_NORM         VSH_SP
# ...
      6109.0000       1235.218        117.379         0.8402         1.0142       -15.8975        -3.1001      0.9849302
      6109.5000       1235.193       118.1741         0.8404         1.0237       -16.0398        -3.2744      0.9825425
      6110.0000       1219.231       118.1729         0.8482         1.0573       -16.1374         -3.404      0.9807671
      6110.5000        1187.34       117.1757         0.8681         1.1021       -15.9373        -3.2359      0.9830698
      6111.0000       1139.512       115.7801         0.9007         1.1278       -15.7364        -3.0671      0.9853822
      6111.5000       1063.789       113.9858          0.965         1.1702       -15.9332        -3.2959      0.9822479
      6112.0000       1004.006       111.3951         1.0483         1.2141       -16.0315        -3.4262       0.980463
      6112.5000       940.2409       109.8004         1.1078         1.3008       -15.9306        -3.3573      0.9814069
      6113.0000       940.2218       107.6082         1.1182         1.3434       -15.4327        -2.8914       0.987789
      6113.5000       972.0583       101.5319         1.1081         1.2952       -15.2317        -2.7225      0.9901028
      6114.0000       987.9743       100.7347         1.0921         1.2895       -15.4286        -2.9514      0.9869671
      6114.5000       995.9221       105.2151         1.0724         1.2956       -15.7247        -3.2795      0.9824726
      6115.0000       1011.837       110.8914         1.0531         1.2377       -15.8223        -3.4091      0.9806973
      6115.5000       1027.751       111.8863         1.0341         1.1878       -15.8207        -3.4395      0.9802808
      6116.0000       1043.665       112.1836         1.0201         1.1934       -15.7197        -3.3706      0.9812247
      6116.5000       1067.545       109.1946         0.9926         1.2157       -15.1224        -2.8053      0.9889685
      6117.0000        1075.49        105.609         0.9882         1.2614       -14.9222        -2.6371      0.9912726
      6117.5000       1075.469       102.7205         0.9929         1.2105       -14.9204        -2.6673      0.9908589
      6118.0000        1067.48       103.6156          0.993         1.1941       -15.1172        -2.8962      0.9877233
      6118.5000       1059.493       105.4071         0.9887         1.1888       -15.2148        -3.0258       0.985948
      6119.0000       1067.438       107.3977         0.9888         1.1567       -14.9153        -2.7583      0.9896123
      6119.5000       1083.344       109.5874         0.9844         1.1255       -14.7146        -2.5896      0.9919233
      6120.0000       1107.224        114.565         0.9756         1.1154       -14.7134        -2.6204      0.9915014
      6120.5000       1107.202       116.3569         0.9624         1.1258       -14.7117        -2.6508      0.9910849
      6121.0000        1107.18       114.9611         0.9494         1.1574       -14.5114        -2.4825      0.9933904
      6121.5000       1099.193       112.9687         0.9503         1.1683        -14.609        -2.6121      0.9916151
      6122.0000       1091.206       111.5737         0.9637         1.1631       -14.6074        -2.6425      0.9911987
      6122.5000       1075.254        110.378         0.9772         1.1474       -14.8043        -2.8714       0.988063
      6123.0000       1075.232       109.9787         0.9818         1.1267       -14.7033        -2.8025      0.9890069
      6123.5000        1091.14        110.376          0.973         1.1217       -15.1981        -3.3293      0.9817904
      6124.0000       1115.012       111.1714         0.9598          1.127       -15.4943        -3.6575      0.9772945
      6124.5000       1154.812       111.9668         0.9382         1.1118       -14.6982        -2.8934      0.9877616
      6125.0000       1178.681       111.9666         0.9171         1.1018       -14.5972        -2.8245      0.9887055
      6125.5000       1186.622       112.7612         0.9047         1.0919       -14.9928        -3.2521      0.9828479
      6126.0000       1178.634       113.3574         0.9048          1.092       -15.3883        -3.6796      0.9769918
      6126.5000        1154.72       114.1527         0.9217         1.0972       -15.2874        -3.6107      0.9779356
      6127.0000       1130.806       115.1471         0.9519         1.1177       -14.9877         -3.343      0.9816027
      6127.5000       1106.894       114.9469         0.9742         1.1544       -14.6881        -3.0755      0.9852671
      6128.0000       1082.981       113.7513         0.9969         1.1922       -14.1899        -2.6093      0.9916534
      6128.5000       1067.034       110.7641         0.9971         1.2144       -13.6914        -2.1428      0.9980438
      6129.0000       1067.012       109.1705         0.9972         1.2146        -13.789        -2.2724      0.9962685
      6129.5000       1059.028       106.7807         0.9928         1.2148       -14.0851        -2.6005       0.991774
      6130.0000       1063.005        106.681          0.993         1.1766       -14.0843        -2.6318      0.9913452
      6130.5000        1066.97       108.1726         1.0023         1.1876       -13.8323        -2.4118      0.9943589
      6131.0000       1058.965       110.3613         1.0304         1.2042       -13.5804        -2.1919      0.9973713
      6131.5000       1035.058       111.4551         1.0448         1.2437       -13.3285         -1.972              1
      6132.0000       995.2274       111.8522          1.089         1.3083       -13.0765         -1.752              1
      6132.5000       931.5132         107.77         1.1351         1.4016       -12.7841        -1.4633              1
      6133.0000       883.7243       102.9924         1.2273         1.4879        -12.484        -1.1632              1
      6133.5000       867.7837        97.8166         1.2617         1.5296       -12.3829        -1.0621              1
      6134.0000       859.8051         91.646         1.2561         1.4414       -12.7786        -1.4578              1
      6134.5000       875.7104        91.0485         1.2278         1.4219       -13.5716        -2.2508      0.9965644
      6135.0000        899.576        91.2469         1.1677         1.3771       -13.8679        -2.5471      0.9925055
      6135.5000       939.3624        -999.25         1.1309         1.3096       -13.9656        -2.6448      0.9911671
      6136.0000       979.1472        -999.25         1.0804         1.2684       -13.7652        -2.4444      0.9939123
      6136.5000       1038.851        -999.25         1.0312         1.2342       -13.8628         -2.542      0.9925753
      6137.0000        1070.67        -999.25         0.9897         1.2175       -13.5631        -2.2423      0.9966808
      6137.5000       1074.629        -999.25         0.9808         1.2121       -13.7601        -2.4393      0.9939822
      6138.0000       1042.765        -999.25         1.0222         1.2347       -13.5596        -2.2388      0.9967288
      6138.5000       1006.925        -999.25         1.0557         1.2578       -13.1605        -1.8397              1
      6139.0000       967.1066        -999.25         1.1003          1.293       -12.5626        -1.2418              1
      6139.5000       943.2087        -999.25         1.1364         1.3171        -12.362        -1.0412              1
      6140.0000       907.3781        -999.25         1.1417         1.3234       -12.0622        -0.7414              1
      6140.5000       955.0899        -999.25         1.1212         1.3055       -12.0604        -0.7396              1
      6141.0000       978.9482        -999.25         1.0909         1.2761       -11.9593        -0.6385              1
      6141.5000       986.8876        -999.25         1.0664         1.2417       -12.4549        -1.1341              1
      6142.0000        986.868        -999.25         1.0714         1.2137       -12.6521        -1.3313              1
