#------------------------------------------------------------------------------
# Created by    : vladimir.rabinovich
# Created on    : 09/19/2023 17:21:40
#------------------------------------------------------------------------------
~Version Information Section
VERS.           2.0     :   CWLS log ASCII Standard - VERSION 2.0
WRAP.           NO      :   One line per depth step
~Well Information Section
#MNEM       .UNIT                                         VALUE :DESCRIPTION
#------------------------------------------------------------------------------
STRT        .FT                                             957 :START DEPTH
STOP        .FT                                           10053 :STOP DEPTH
STEP        .FT                                             0.5 :STEP      
NULL        .                                           -999.25 :NULL      
COMP        .                                    EXXON CO U S A :COMPANY   
WELL        .                               OCS G03237 ST00BP00 :WELL      
FLD         .                                           WILDCAT :FIELD     
LOC         .                                                   :LOCATION  
CNTY        .                           HIGH ISLAND LARGE BLOCK :LOCATION  
STAT        .                                             TEXAS :STATE     
CTRY        .                                     UNITED STATES :COUNTRY   
SRVC        .                                                   :SERVICE COMPANY
DATE        .                             9/13/2023 11:20:04 AM :LOG DATE  
API         .                                    42708400420000 :API NUMBER
UWI         .                                    42708400420000 :UNIQUE WELL ID
XCOORD      .                                  1163347.66403634 :SURFACE X 
YCOORD      .                                  10583934.5995257 :SURFACE Y 
LAT         .                                         29.155753 :LATITUDE  
LON         .                                        -94.495054 :LONGITUDE 
ELEV        .FT                                              94 :ELEVATION VALUE
ELEV_TYPE   .                                                KB :ELEVATION REFERENCE TYPE
~Curve Information Section
#MNEM       .UNIT                                      API CODE :CURVE DESCRIPTION
#------------------------------------------------------------------------------
DEPT        .FT                                                 :DEPTH     
CALI        .IN                                                 :          
DRHO        .G/C3                                               :          
DT          .US/F                                               :          
GR          .GAPI                                               :          
GR_1        .GAPI                                               :          
GR_NORM     .GAPI                                               :GammaRay Normalized
ILD         .OHMM                                               :          
NPHI        .%                                                  :          
RHOB        .G/C3                                               :          
SFL         .OHMM                                               :          
SP          .MV                                                 :          
SP_NORM     .MV                                                 :SP Normalized
VSH_GR      .V/V                                                :Volume of Shale from GR
VSH_SP      .V/V                                                :Volume of Shale from SP
~A        DEPTH           CALI           DRHO             DT             GR           GR_1        GR_NORM            ILD           NPHI           RHOB            SFL             SP        SP_NORM         VSH_GR         VSH_SP
# ...
      1659.0000        -999.25        -999.25        -999.25        -999.25        33.7156       36.21144         0.6904        -999.25        -999.25         0.7171       -95.8463      -26.01585     0.06832846     0.07631361
      1659.5000        -999.25        -999.25        -999.25        -999.25        34.0192       36.53041         0.6749        -999.25        -999.25          0.709       -95.5541      -25.72702     0.07511512      0.0874223
      1660.0000        -999.25        -999.25        -999.25        -999.25        34.4082       36.94024         0.6681        -999.25        -999.25         0.6828       -95.2777      -25.45399     0.08383487     0.09792328
      1660.5000        -999.25        -999.25        -999.25        -999.25        34.5461       37.08295         0.6658        -999.25        -999.25         0.6557       -95.0846      -25.26427     0.08687137      0.1052205
      1661.0000        -999.25        -999.25        -999.25        -999.25         34.684       37.22566         0.6763        -999.25        -999.25         0.6243        -95.151      -25.33404     0.08990771       0.102537
      1661.5000        -999.25        -999.25        -999.25        -999.25        34.3384       36.85403         0.6935        -999.25        -999.25         0.6132       -95.4417      -25.62811     0.08200065     0.09122643
      1662.0000        -999.25        -999.25        -999.25        -999.25        33.8665       36.34806         0.7125        -999.25        -999.25         0.6148       -95.9977      -26.18748     0.07123525     0.06971212
      1662.5000        -999.25        -999.25        -999.25        -999.25        33.4432       35.89378         0.7394        -999.25        -999.25         0.6203       -96.0406      -26.23376     0.06156978     0.06793242
      1663.0000        -999.25        -999.25        -999.25        -999.25        33.1953       35.62609         0.7672        -999.25        -999.25         0.6332        -95.011      -25.20753     0.05587428      0.1074028
      1663.5000        -999.25        -999.25        -999.25        -999.25        32.9474        35.3584         0.7926        -999.25        -999.25         0.6465       -94.6501         -24.85     0.05017869      0.1211539
      1664.0000        -999.25        -999.25        -999.25        -999.25        33.4742       35.91481         0.8181        -999.25        -999.25         0.6644       -94.5399      -24.74317     0.06201716      0.1252626
      1664.5000        -999.25        -999.25        -999.25        -999.25        34.3126       36.80269         0.8305        -999.25        -999.25           0.65       -94.3054      -24.51204     0.08090835      0.1341523
      1665.0000        -999.25        -999.25        -999.25        -999.25        35.1528        37.6925         0.8264        -999.25        -999.25         0.6366       -94.0597      -24.26971     0.09984053      0.1434725
      1665.5000        -999.25        -999.25        -999.25        -999.25        36.0386       38.63079         0.8158        -999.25        -999.25         0.6283       -93.5828      -23.79619      0.1198041      0.1616851
      1666.0000        -999.25        -999.25        -999.25        -999.25        35.9995       38.58522         0.7941        -999.25        -999.25         0.6239       -93.9437      -24.16046      0.1188345      0.1476746
      1666.5000        -999.25        -999.25        -999.25        -999.25        35.3118       37.84968         0.7729        -999.25        -999.25         0.6198       -94.0765      -24.29663      0.1031846      0.1424373
      1667.0000        -999.25        -999.25        -999.25        -999.25        34.7457        37.2435         0.7476        -999.25        -999.25          0.626       -94.2094       -24.4329     0.09028715      0.1371962
      1667.5000        -999.25        -999.25        -999.25        -999.25         35.821        38.3834         0.7199        -999.25        -999.25         0.6321       -94.2034      -24.43027      0.1145403      0.1372971
      1668.0000        -999.25        -999.25        -999.25        -999.25        36.8962       39.52318          0.697        -999.25        -999.25         0.6381       -94.3168      -24.54705      0.1387911      0.1328057
      1668.5000        -999.25        -999.25        -999.25        -999.25        38.6394       41.37357          0.681        -999.25        -999.25         0.6433       -94.4769      -24.71052      0.1781611      0.1265185
      1669.0000        -999.25        -999.25        -999.25        -999.25        38.3808       41.09449         0.6706        -999.25        -999.25          0.647       -94.2858      -24.52279      0.1722232      0.1337389
      1669.5000        -999.25        -999.25        -999.25        -999.25        37.0144       39.63696         0.6698        -999.25        -999.25         0.6398       -93.7119      -23.95226       0.141212      0.1556822
      1670.0000        -999.25        -999.25        -999.25        -999.25        35.6471       38.17848          0.669        -999.25        -999.25         0.6327       -93.4637      -23.70744      0.1101805      0.1650986
      1670.5000        -999.25        -999.25        -999.25        -999.25        34.3773       36.82372         0.6695        -999.25        -999.25         0.6256       -93.1086      -23.35571     0.08135565      0.1786267
      1671.0000        -999.25        -999.25        -999.25        -999.25         33.129       35.49184          0.671        -999.25        -999.25         0.6252       -93.5419      -23.79238     0.05301788      0.1618315
      1671.5000        -999.25        -999.25        -999.25        -999.25         31.951       34.23472         0.6702        -999.25        -999.25         0.6279       -94.2919      -24.54575      0.0262706      0.1328556
      1672.0000        -999.25        -999.25        -999.25        -999.25        31.9893       34.27148         0.6674        -999.25        -999.25         0.6417       -94.7504      -25.00762      0.0270527      0.1150915
      1672.5000        -999.25        -999.25        -999.25        -999.25        32.1329       34.42025         0.6646        -999.25        -999.25         0.6596       -94.3065       -24.5671     0.03021817      0.1320346
      1673.0000        -999.25        -999.25        -999.25        -999.25        32.7199        35.0407         0.6618        -999.25        -999.25          0.667       -93.7928      -24.05677     0.04341913      0.1516627
      1673.5000        -999.25        -999.25        -999.25        -999.25        33.3068       35.66105         0.6622        -999.25        -999.25         0.6658       -93.2661      -23.53344     0.05661806      0.1717908
      1674.0000        -999.25        -999.25        -999.25        -999.25        32.4129       34.70617         0.6629        -999.25        -999.25         0.6462       -92.6859      -22.95661     0.03630139      0.1939765
      1674.5000        -999.25        -999.25        -999.25        -999.25         31.204       33.41618         0.6636        -999.25        -999.25         0.6272       -92.2423      -22.51639    0.008854887      0.2109082
      1675.0000        -999.25        -999.25        -999.25        -999.25        30.0736       32.20971         0.6643        -999.25        -999.25         0.6029       -93.0917      -23.36916              0      0.1781094
      1675.5000        -999.25        -999.25        -999.25        -999.25        30.6552       32.82441         0.6648        -999.25        -999.25         0.5788       -94.4241      -24.70494              0       0.126733
      1676.0000        -999.25        -999.25        -999.25        -999.25        32.2966       34.56651          0.665        -999.25        -999.25         0.5731         -95.48      -25.76421     0.03332998     0.08599178
      1676.5000        -999.25        -999.25        -999.25        -999.25        32.6409       34.92879         0.6653        -999.25        -999.25         0.5734       -95.8848      -26.17239     0.04103803     0.07029284
