#------------------------------------------------------------------------------
# Created by    : vladimir.rabinovich
# Created on    : 09/19/2023 17:19:48
#------------------------------------------------------------------------------
~Version Information Section
VERS.           2.0     :   CWLS log ASCII Standard - VERSION 2.0
WRAP.           NO      :   One line per depth step
~Well Information Section
#MNEM       .UNIT                                         VALUE :DESCRIPTION
#------------------------------------------------------------------------------
STRT        .FT                                             960 :START DEPTH
STOP        .FT                                            9172 :STOP DEPTH
STEP        .FT                                             0.5 :STEP      
NULL        .                                           -999.25 :NULL      
COMP        .                                ODECO OIL & GAS CO :COMPANY   
WELL        .                               OCS G06101 ST00BP00 :WELL      
FLD         .                                           WILDCAT :FIELD     
LOC         .                                                   :LOCATION  
CNTY        .                             GALVESTON LARGE BLOCK :LOCATION  
STAT        .                                             TEXAS :STATE     
CTRY        .                                     UNITED STATES :COUNTRY   
SRVC        .                                                   :SERVICE COMPANY
DATE        .                             9/13/2023 11:19:27 AM :LOG DATE  
API         .                                    42706401070000 :API NUMBER
UWI         .                                    42706401070000 :UNIQUE WELL ID
XCOORD      .                                  1041316.87817256 :SURFACE X 
YCOORD      .                                  10447909.9182991 :SURFACE Y 
LAT         .                                         28.776905 :LATITUDE  
LON         .                                        -94.870587 :LONGITUDE 
ELEV        .FT                                              92 :ELEVATION VALUE
ELEV_TYPE   .                                                KB :ELEVATION REFERENCE TYPE
~Curve Information Section
#MNEM       .UNIT                                      API CODE :CURVE DESCRIPTION
#------------------------------------------------------------------------------
DEPT        .FT                                                 :DEPTH     
ASFL        .OHMM                                               :          
GR          .GAPI                                               :          
GR_NORM     .GAPI                                               :GammaRay Normalized
ILD         .OHMM                                               :          
SP          .MV                                                 :          
SP_NORM     .MV                                                 :SP Normalized
VSH_GR      .V/V                                                :Volume of Shale from GR
VSH_SP      .V/V                                                :Volume of Shale from SP
~A        DEPTH           ASFL             GR        GR_NORM            ILD             SP        SP_NORM         VSH_GR         VSH_SP
# ...
      8600.5000         0.7921        63.4473       64.13617         0.8052       -55.8937      -14.26501      0.6624717      0.7622498
      8601.0000         0.7745        62.1065       62.36262         0.7667       -58.8843      -18.46126      0.6247366      0.6923124
      8601.5000         0.7499        61.2507       61.23061         0.7282       -61.2961      -21.84719      0.6006513      0.6358802
      8602.0000         0.7252        60.3936       60.09688         0.6897       -63.5475      -25.00856      0.5765293      0.5831907
      8602.5000         0.7005        59.5378       58.96487         0.6547       -66.0322      -28.49655       0.552444      0.5250575
      8603.0000          0.677        58.7148       57.87624         0.6212       -68.9717      -32.62126      0.5292818      0.4563124
      8603.5000         0.6537        57.9283        56.8359         0.5877       -70.8049      -35.19715      0.5071467      0.4133809
      8604.0000          0.633        57.1418       55.79556         0.5543       -72.5603      -37.66412      0.4850118      0.3722647
      8604.5000         0.6215        56.3443       54.74066         0.5231       -73.9705       -39.6478      0.4625673      0.3392033
      8605.0000           0.61        55.5225       53.65363         0.5038       -75.3125      -41.53601      0.4394388      0.3077331
      8605.5000         0.6008        54.7007       52.56658         0.4846       -76.6133      -43.36654      0.4163103      0.2772243
      8606.0000          0.599         53.879       51.47968         0.4654       -76.2438      -42.85865      0.3931848      0.2856892
      8606.5000         0.5971         53.992       51.62915         0.4571       -74.5905      -40.55344      0.3963649      0.3241093
      8607.0000         0.5953        56.2556       54.62333         0.4686       -72.9396      -38.25159      0.4600709      0.3624735
      8607.5000         0.5934        58.5555       57.66553         0.4802       -71.5441       -36.3073      0.5247985      0.3948784
      8608.0000         0.5918        60.8751       60.73378         0.4917       -70.4924      -34.84433      0.5900805      0.4192611
      8608.5000         0.5911        62.5538       62.95428         0.5033       -69.4409      -33.38165      0.6373251      0.4436392
      8609.0000         0.5904        63.4376       64.12333         0.5168       -68.3882      -31.91727      0.6621985      0.4680455
      8609.5000         0.5985        64.3214       65.29238         0.5362       -67.3585       -30.4851      0.6870719       0.491915
      8610.0000         0.6203         65.193       66.44529         0.5555       -66.3751      -29.11775      0.7116019      0.5147042
      8610.5000         0.6421        50.1287       46.51897         0.5749       -65.3904      -27.74859      0.2876376      0.5375236
      8611.0000         0.6499        54.1598       51.85111         0.5943       -65.2015      -27.49353      0.4010875      0.5417746
      8611.5000         0.6572        58.1909       57.18325         0.6136       -65.2455      -27.56454      0.5145373      0.5405911
      8612.0000         0.6645        62.0955       62.34806          0.633       -65.4664      -27.88321      0.6244269      0.5352799
      8612.5000         0.6718        64.3955        65.3904         0.6462       -65.5182      -27.96514      0.6891574      0.5339143
      8613.0000         0.6759        66.9679       68.79305         0.6555       -65.4244      -27.84323      0.7615541      0.5359462
      8613.5000         0.6791        69.6277        72.3113         0.6648       -64.8689      -27.07493      0.8364107      0.5487511
      8614.0000         0.6822        71.4098       74.66857         0.6741       -64.3134      -26.30665      0.8865653      0.5615559
      8614.5000         0.6853        71.8329       75.22823         0.6834       -63.1293      -24.65832      0.8984729      0.5890281
      8615.0000         0.6884        68.7914       71.20507         0.6928       -61.6171      -22.55065      0.8128738      0.6241559
      8615.5000         0.6915        66.8669       68.65944         0.7021       -61.4347       -22.3047      0.7587115      0.6282551
      8616.0000         0.6947        65.8932       67.37149         0.7024       -62.4243      -23.69954      0.7313083      0.6050076
      8616.5000         0.6969        66.6664       68.39423         0.7025        -63.381      -25.04833      0.7530686      0.5825278
      8617.0000         0.6988        67.6814       69.73682         0.7026       -64.0337      -25.97152      0.7816344      0.5671413
      8617.5000         0.7007        68.6965       71.07955         0.7028       -63.4162      -25.11643      0.8102033      0.5813928
      8618.0000         0.7027        69.7115       72.42215         0.7017       -62.7986       -24.2612      0.8387691      0.5956466
      8618.5000         0.7046        70.7279       73.76658         0.6963       -62.1811      -23.40611       0.867374      0.6098981
      8619.0000         0.7075        71.7429       75.10918         0.6909       -61.6644      -22.69214      0.8959399      0.6217977
      8619.5000         0.7112        72.7581       76.45203         0.6854       -61.1788      -22.02171      0.9245114      0.6329715
      8620.0000          0.715        73.7731       77.79463           0.68       -60.6932      -21.35128      0.9530773      0.6441453
      8620.5000         0.7185        72.3702       75.93894         0.6746       -61.3447      -22.27279      0.9135945      0.6287868
      8621.0000         0.7207        63.5494       64.27122         0.6705       -63.0831      -24.71596      0.6653451      0.5880674
      8621.5000         0.7146         57.746       56.59476         0.6683       -63.7408      -25.64615      0.5020162      0.5725642
      8622.0000         0.7085        59.9609       59.52452          0.666       -64.0957      -26.15242      0.5643516      0.5641263
      8622.5000         0.7023        62.1758       62.45428         0.6638       -64.3279      -26.48691      0.6266869      0.5585514
      8623.0000         0.6962        63.5276       64.24238         0.6616       -64.3108      -26.47238      0.6647314      0.5587937
      8623.5000         0.6901        64.4928        65.5191         0.6594       -64.5243      -26.78069      0.6918957      0.5536552
      8624.0000         0.6837         65.458       66.79581         0.6572       -65.0986      -27.59412      0.7190599       0.540098
      8624.5000          0.677        65.0228       66.22015         0.6549       -65.7502      -28.51577      0.7068118      0.5247372
      8625.0000         0.6703        63.9397        64.7875         0.6368       -66.4019      -29.43756      0.6763297       0.509374
      8625.5000         0.6636        62.4189       62.77584         0.6096       -67.3367      -30.75569      0.6335286      0.4874052
      8626.0000         0.6569        60.7365       60.55045         0.5789       -68.3517       -32.1861      0.5861798       0.463565
      8626.5000         0.6502        58.9932       58.24449         0.5475       -69.3668      -33.61664      0.5371168      0.4397226
      8627.0000         0.6435         56.968       55.56565         0.5161       -70.6348      -35.40126      0.4801203       0.409979
      8627.5000         0.6358        54.9426       52.88656         0.4848        -71.933      -37.22814      0.4231183       0.379531
      8628.0000         0.6275        53.5131       50.99569          0.474        -73.224      -39.04495      0.3828869      0.3492508
      8628.5000         0.6192        52.2634       49.34265         0.4742       -74.4664      -40.79372      0.3477159      0.3201046
      8629.0000         0.6109        51.0599       47.75071         0.4745       -75.7089      -42.54263      0.3138449      0.2909561
      8629.5000         0.6026        49.9694       46.30825         0.4748       -77.0631      -44.44793      0.2831543      0.2592012
