#------------------------------------------------------------------------------
# Created by    : vladimir.rabinovich
# Created on    : 09/19/2023 17:20:12
#------------------------------------------------------------------------------
~Version Information Section
VERS.           2.0     :   CWLS log ASCII Standard - VERSION 2.0
WRAP.           NO      :   One line per depth step
~Well Information Section
#MNEM       .UNIT                                         VALUE :DESCRIPTION
#------------------------------------------------------------------------------
STRT        .FT                                             309 :START DEPTH
STOP        .FT                                            9124 :STOP DEPTH
STEP        .FT                                             0.5 :STEP      
NULL        .                                           -999.25 :NULL      
COMP        .                         SONAT EXPLORATION GOM INC :COMPANY   
WELL        .                               OCS G03084 ST00BP00 :WELL      
FLD         .                                           WILDCAT :FIELD     
LOC         .                                                   :LOCATION  
CNTY        .                      MATAGORDA ISLAND LARGE BLOCK :LOCATION  
STAT        .                                             TEXAS :STATE     
CTRY        .                                     UNITED STATES :COUNTRY   
SRVC        .                                                   :SERVICE COMPANY
DATE        .                             9/13/2023 11:12:09 AM :LOG DATE  
API         .                                    42703400260000 :API NUMBER
UWI         .                                    42703400260000 :UNIQUE WELL ID
XCOORD      .                                  563826.313549269 :SURFACE X 
YCOORD      .                                  10238444.2560225 :SURFACE Y 
LAT         .                                         28.172716 :LATITUDE  
LON         .                                        -96.341662 :LONGITUDE 
ELEV        .FT                                              97 :ELEVATION VALUE
ELEV_TYPE   .                                                KB :ELEVATION REFERENCE TYPE
~Curve Information Section
#MNEM       .UNIT                                      API CODE :CURVE DESCRIPTION
#------------------------------------------------------------------------------
DEPT        .FT                                                 :DEPTH     
ASFL        .OHMM                                               :          
CILD        .MMHO                                               :          
DT          .US/F                                               :          
GR          .GAPI                                               :          
GR_NORM     .GAPI                                               :GammaRay Normalized
ILD         .OHMM                                               :          
SP          .MV                                                 :          
SP_NORM     .MV                                                 :SP Normalized
VSH_GR      .V/V                                                :Volume of Shale from GR
VSH_SP      .V/V                                                :Volume of Shale from SP
~A        DEPTH           ASFL           CILD             DT             GR        GR_NORM            ILD             SP        SP_NORM         VSH_GR         VSH_SP
# ...
      4988.5000         0.8106       1276.768       129.5066        -999.25        -999.25         0.6132       -74.1763       1.096855        -999.25              1
      4989.0000         0.7916       1292.641       133.0256        -999.25        -999.25         0.6085       -73.1162       2.158813        -999.25              1
      4989.5000         0.7682       1326.166          135.8        -999.25        -999.25         0.6038       -72.0571        3.21978        -999.25              1
      4990.0000         0.7424       1378.254       135.8826        -999.25        -999.25          0.599       -71.7039       3.574837        -999.25              1
      4990.5000         0.7212       1433.926       134.8315        -999.25        -999.25         0.5931       -71.7633       3.517303        -999.25              1
      4991.0000         0.7021       1489.326       133.6025        -999.25        -999.25         0.5784       -71.8229       3.459564        -999.25              1
      4991.5000         0.7081       1529.486       131.7729        -999.25        -999.25         0.5638       -71.9899       3.294426        -999.25              1
      4992.0000         0.7164       1543.928       131.0654        -999.25        -999.25         0.5634       -72.1791       3.107086        -999.25              1
      4992.5000         0.7247       1536.197       131.0581        -999.25        -999.25         0.5684       -72.3683       2.919754        -999.25              1
      4993.0000          0.733        1521.73       131.2712        -999.25        -999.25         0.5734       -72.4833       2.806618        -999.25              1
      4993.5000         0.7426       1504.938         132.48        -999.25        -999.25         0.5784       -72.5017       2.790077        -999.25              1
      4994.0000         0.7528        1486.15       133.5779        -999.25        -999.25         0.5834       -72.5201       2.773537        -999.25              1
      4994.5000          0.764       1467.354       133.0208        -999.25        -999.25         0.6043       -72.6241       2.671402        -999.25              1
      4995.0000         0.7781       1448.566       130.6279        -999.25        -999.25         0.6317       -72.7454       2.551964        -999.25              1
      4995.5000         0.8103       1422.449       125.5671        -999.25        -999.25         0.6591       -72.8668       2.432426        -999.25              1
      4996.0000         0.9415       1393.268       118.2988        -999.25        -999.25         0.6961       -72.9967        2.30439        -999.25              1
      4996.5000         0.9915       1352.807       109.9192        -999.25        -999.25         0.7431       -73.3744       1.928558        -999.25              1
      4997.0000         1.0154       1272.436       105.8571        -999.25        -999.25         0.7944       -73.7522        1.55262        -999.25              1
      4997.5000         1.0399        1192.91       102.3304        -999.25        -999.25         0.8281       -74.2518       1.054878        -999.25              1
      4998.0000         1.0653       1137.734       101.9075        -999.25        -999.25         0.8107       -74.7749       0.533638        -999.25              1
      4998.5000         1.0752       1094.014       104.5155        -999.25        -999.25         0.7933       -75.2975     0.01290131        -999.25              1
      4999.0000         1.0494       1069.414       108.4875        -999.25        -999.25         0.7759       -75.8204     -0.5081329        -999.25              1
      4999.5000         1.0218       1067.371       115.4856        -999.25        -999.25         0.7604        -76.371      -1.056877        -999.25      0.9990676
      5000.0000         0.9852        1084.49       119.0471        -999.25        -999.25         0.7459       -77.8878      -2.571815        -999.25      0.9742326
      5000.5000         0.9593       1101.594       117.7131        -999.25        -999.25         0.7315       -79.0945      -3.776642        -999.25      0.9544813
      5001.0000         1.0469       1124.961         110.62        -999.25        -999.25          0.717       -81.8721      -6.552383        -999.25      0.9089773
      5001.5000         1.0791       1148.689       106.2224        -999.25        -999.25         0.7171       -83.5551      -8.233521        -999.25      0.8814177
      5002.0000         1.1075       1171.496       102.9888        -999.25        -999.25         0.7448       -84.5983      -9.274857        -999.25      0.8643466
      5002.5000         1.1454       1144.184       101.3768        -999.25        -999.25         0.7724         -86.17       -10.8447        -999.25      0.8386115
      5003.0000         1.1655       1116.895       105.7194        -999.25        -999.25         0.8001       -87.7896      -12.46243        -999.25      0.8120913
      5003.5000         1.1819        1089.58       106.0485        -999.25        -999.25         0.8377       -90.5129      -15.18388        -999.25      0.7674775
      5004.0000         1.2103       1062.293       101.2393        -999.25        -999.25          0.879       -92.5602      -17.22932        -999.25      0.7339456
      5004.5000         1.2685       1028.979        97.4148        -999.25        -999.25         0.9198       -94.4449      -19.11214        -999.25      0.7030796
      5005.0000         1.4064         995.54        94.4514        -999.25        -999.25         0.9595         -96.38      -21.04538        -999.25      0.6713872
      5005.5000          1.544       963.9189         91.418        -999.25        -999.25         0.9968       -98.5768      -23.24032        -999.25      0.6354046
      5006.0000         1.6815       935.5596        87.4684        -999.25        -999.25         1.0089       -96.9404      -21.60206        -999.25      0.6622614
      5006.5000         1.4589       907.2256         84.306        -999.25        -999.25         0.9728        -95.306       -19.9658        -999.25      0.6890853
      5007.0000         1.2461       885.1904        84.9844        -999.25        -999.25         0.9367       -92.7694      -17.42734        -999.25      0.7306994
      5007.5000         1.1716       887.3066        93.5804        -999.25        -999.25         0.8945       -87.6962      -12.35227        -999.25      0.8138972
      5008.0000         1.0972        911.582       101.3143        -999.25        -999.25         0.8516       -84.5712      -9.225403        -999.25      0.8651573
      5008.5000         1.0227        935.834       114.4243        -999.25        -999.25         0.8086       -82.3745       -7.02684        -999.25      0.9011993
      5009.0000         0.9482        960.085       122.5049        -999.25        -999.25           0.77       -80.3945      -5.044983        -999.25      0.9336888
      5009.5000         0.8738       996.1377       121.8159        -999.25        -999.25          0.736       -78.1212      -2.769821        -999.25      0.9709865
      5010.0000         0.7993       1036.771       114.4543        -999.25        -999.25         0.7202       -76.8207      -1.467461        -999.25      0.9923367
      5010.5000         0.8511       1102.826       109.3986        -999.25        -999.25         0.7519       -76.2863     -0.9311981        -999.25              1
      5011.0000           0.92       1171.746       106.2625        -999.25        -999.25         0.7835       -76.7021      -1.345139        -999.25       0.994342
      5011.5000         0.9888       1196.943       103.9899        -999.25        -999.25         0.8152       -77.4343      -2.075478        -999.25      0.9823692
      5012.0000         1.0577       1172.369       102.2754        -999.25        -999.25         0.8469        -78.167      -2.806305        -999.25      0.9703885
      5012.5000         1.1266        1147.77       101.0021        -999.25        -999.25         0.8785       -78.8993      -3.536743        -999.25       0.958414
