#------------------------------------------------------------------------------
# Created by    : vladimir.rabinovich
# Created on    : 09/19/2023 17:20:23
#------------------------------------------------------------------------------
~Version Information Section
VERS.           2.0     :   CWLS log ASCII Standard - VERSION 2.0
WRAP.           NO      :   One line per depth step
~Well Information Section
#MNEM       .UNIT                                         VALUE :DESCRIPTION
#------------------------------------------------------------------------------
STRT        .FT                                            3532 :START DEPTH
STOP        .FT                                           13690 :STOP DEPTH
STEP        .FT                                             0.5 :STEP      
NULL        .                                           -999.25 :NULL      
COMP        .                              VASTAR RESOURCES INC :COMPANY   
WELL        .                                     ST TR 00023-L :WELL      
FLD         .                          HIGH ISLAND BLOCK 0024-L :FIELD     
LOC         .                                                   :LOCATION  
CNTY        .                           HIGH ISLAND LARGE BLOCK :LOCATION  
STAT        .                                             TEXAS :STATE     
CTRY        .                                     UNITED STATES :COUNTRY   
SRVC        .                                                   :SERVICE COMPANY
DATE        .                             9/13/2023 11:19:15 AM :LOG DATE  
API         .                                    42708300330000 :API NUMBER
UWI         .                                    42708300330000 :UNIQUE WELL ID
XCOORD      .                                  1290562.53578251 :SURFACE X 
YCOORD      .                                  10712997.1214806 :SURFACE Y 
LAT         .                                        29.5146054 :LATITUDE  
LON         .                                       -94.1002609 :LONGITUDE 
ELEV        .FT                                              79 :ELEVATION VALUE
ELEV_TYPE   .                                                KB :ELEVATION REFERENCE TYPE
~Curve Information Section
#MNEM       .UNIT                                      API CODE :CURVE DESCRIPTION
#------------------------------------------------------------------------------
DEPT        .FT                                                 :DEPTH     
ASN         .OHMM                                               :          
CILD        .MMHO                                               :          
ILD         .OHMM                                               :          
SP          .MV                                                 :          
SP_NORM     .MV                                                 :SP Normalized
VSH_SP      .V/V                                                :Volume of Shale from SP
~A        DEPTH            ASN           CILD            ILD             SP        SP_NORM         VSH_SP
# ...
      6914.0000         0.7962       4683.898         0.2546      -170.2036      -101.9721              0
      6914.5000         0.7946       4678.102         0.2522      -170.1179      -101.8892              0
      6915.0000          0.793       4672.297         0.2499      -170.0903      -101.8644              0
      6915.5000         0.7914       4666.477         0.2475       -170.063      -101.8399              0
      6916.0000         0.7933       4648.758         0.2451      -170.0359      -101.8156              0
      6916.5000         0.8009       4680.453         0.2436      -170.0088      -101.7913              0
      6917.0000         0.8085       4733.656         0.2428      -169.9817       -101.767              0
      6917.5000         0.8162       4786.813         0.2419      -169.9546      -101.7427              0
      6918.0000         0.8217       4835.008          0.241      -169.9272      -101.7181              0
      6918.5000         0.8172       4882.609         0.2401      -169.9001      -101.6938              0
      6919.0000         0.8126       4930.203         0.2393      -169.9321      -101.7286              0
      6919.5000         0.8081       4988.375         0.2384      -170.1047       -101.904              0
      6920.0000         0.8036       5034.758         0.2375      -170.2773      -102.0794              0
      6920.5000          0.799       5050.141         0.2366        -170.45      -102.2549              0
      6921.0000         0.7945       5032.477         0.2358      -170.6226      -102.4304              0
      6921.5000           0.79       5008.922         0.2349      -170.7952      -102.6058              0
      6922.0000         0.7854       4985.344          0.234      -170.8135      -102.6269              0
      6922.5000         0.7785       4961.797         0.2331      -170.7668       -102.583              0
      6923.0000         0.7699       4942.711         0.2323      -170.7202      -102.5392              0
      6923.5000         0.7614       4974.227         0.2314      -170.6736      -102.4954              0
      6924.0000         0.7528         5005.5         0.2305       -170.627      -102.4516              0
      6924.5000         0.7442       5036.719         0.2295      -170.5803      -102.4077              0
      6925.0000         0.7356       5067.984         0.2285      -170.5647      -102.3949              0
      6925.5000         0.7271       5099.258         0.2275      -170.5579      -102.3909              0
      6926.0000         0.7185       5130.477         0.2265       -170.551      -102.3868              0
      6926.5000         0.7099       5157.273         0.2256      -170.5444       -102.383              0
      6927.0000         0.7013       5181.148         0.2246      -170.5376       -102.379              0
      6927.5000         0.6928       5205.047         0.2236      -170.5308       -102.375              0
      6928.0000          0.682       5228.922         0.2226      -170.4355      -102.2825              0
      6928.5000         0.6643        5252.82         0.2216      -168.8481      -100.6979              0
      6929.0000         0.6466       5231.281         0.2207      -167.2627      -99.11533    0.008936024
      6929.5000         0.6289       5120.297         0.2198      -165.6753      -97.53074     0.02494203
      6930.0000         0.6112       4848.508         0.2194      -163.4722      -95.33045     0.04716715
      6930.5000         0.5935       4375.211         0.2189      -158.9075      -90.76855     0.09324692
      6931.0000         0.5702        4292.07         0.2184      -154.3352      -86.19907      0.1394034
      6931.5000         0.5367       4272.961          0.218      -151.5823      -83.44897      0.1671821
      6932.0000         0.5031       4358.383         0.2175      -152.1294      -83.99886      0.1616277
      6932.5000         0.4763       4417.344         0.2171      -152.7368      -84.60908      0.1554639
      6933.0000         0.4738       4476.258         0.2166       -153.512      -85.38708      0.1476053
      6933.5000         0.4719       4535.227         0.2161      -154.2874      -86.16529      0.1397445
      6934.0000          0.484       4593.492         0.2154      -155.0625      -86.94319       0.131887
      6934.5000          0.496       4651.414         0.2143      -155.8379      -87.72141      0.1240262
      6935.0000         0.5081       4709.336         0.2132       -156.613      -88.49931      0.1161686
      6935.5000         0.5202       4683.133          0.212      -157.3882      -89.27731        0.10831
      6936.0000         0.5323       4596.969         0.2109      -158.1626      -90.05451      0.1004595
      6936.5000         0.5444       4456.406         0.2098      -158.9377      -90.83242     0.09260181
      6937.0000         0.5565       4357.883         0.2087      -159.7131      -91.61063     0.08474107
      6937.5000         0.5686       4303.633         0.2076      -160.3745      -92.27483     0.07803206
      6938.0000         0.5807       4296.836         0.2065      -160.8528      -92.75594     0.07317237
      6938.5000         0.5821       4347.359         0.2053      -161.3308      -93.23674     0.06831576
      6939.0000         0.5707       4397.891          0.204      -161.8088      -93.71756     0.06345899
      6939.5000         0.5593       4457.797         0.2018      -162.2808      -94.19236     0.05866303
      6940.0000         0.5479       4548.031         0.1996      -162.7117      -94.62606     0.05428222
      6940.5000         0.5365       4638.266         0.1974      -163.1423      -95.05947     0.04990433
      6941.0000          0.525       4735.547         0.1952      -163.3979      -95.31787     0.04729423
      6941.5000         0.5136       4834.117          0.193      -163.2336      -95.15637     0.04892553
      6942.0000         0.5022       4977.453         0.1908      -163.0693      -94.99489     0.05055668
      6942.5000         0.5078       5027.141         0.1886      -162.9053      -94.83369     0.05218491
      6943.0000         0.5159       4773.063         0.1864      -162.7622       -94.6934     0.05360204
      6943.5000         0.5241       4526.492         0.1847      -162.7205       -94.6545     0.05399492
      6944.0000          0.538        4454.32         0.1851      -162.6785       -94.6153     0.05439088
      6944.5000         0.5533       4489.461         0.1856      -162.6365      -94.57611     0.05478676
      6945.0000         0.5685       4555.078          0.186      -162.5945      -94.53691     0.05518272
      6945.5000         0.5837       4660.594         0.1864      -162.5525      -94.49773     0.05557852
      6946.0000          0.599       4766.117         0.1869      -162.5107      -94.45872     0.05597248
      6946.5000         0.6127       4848.703         0.1873      -161.9475      -93.89832      0.0616331
      6947.0000         0.6021       4928.023         0.2065      -160.7659      -92.71954     0.07354004
      6947.5000         0.5914       4997.805          0.234      -159.5859      -91.54235      0.0854308
      6948.0000         0.5808       5060.539         0.2615       -158.406      -90.36526     0.09732063
      6948.5000         0.5702       4962.859          0.289      -155.1465      -87.10855      0.1302167
      6949.0000         0.5595       4636.078         0.3165      -150.1096      -82.07446       0.181066
      6949.5000         0.5489       3934.484          0.344       -133.082      -65.04967      0.3530337
      6950.0000         0.5382       3687.109         0.3827      -125.7517      -57.72217      0.4270488
      6950.5000         0.5871       3439.344         0.4313      -121.8691      -53.84238      0.4662386
      6951.0000         0.6292       3191.973         0.4799      -117.9865      -49.96259      0.5054284
      6951.5000         0.6713       2944.602         0.5285      -114.1038      -46.08269      0.5446193
