#------------------------------------------------------------------------------
# Created by    : vladimir.rabinovich
# Created on    : 09/19/2023 17:19:46
#------------------------------------------------------------------------------
~Version Information Section
VERS.           2.0     :   CWLS log ASCII Standard - VERSION 2.0
WRAP.           NO      :   One line per depth step
~Well Information Section
#MNEM       .UNIT                                         VALUE :DESCRIPTION
#------------------------------------------------------------------------------
STRT        .FT                                             290 :START DEPTH
STOP        .FT                                         11377.5 :STOP DEPTH
STEP        .FT                                             0.5 :STEP      
NULL        .                                           -999.25 :NULL      
COMP        .                         SONAT EXPLORATION GOM INC :COMPANY   
WELL        .                               OCS G04571 ST00BP00 :WELL      
FLD         .                                           WILDCAT :FIELD     
LOC         .                                                   :LOCATION  
CNTY        .                           HIGH ISLAND LARGE BLOCK :LOCATION  
STAT        .                                             TEXAS :STATE     
CTRY        .                                     UNITED STATES :COUNTRY   
SRVC        .                                                   :SERVICE COMPANY
DATE        .                             9/13/2023 11:19:19 AM :LOG DATE  
API         .                                    42708401190000 :API NUMBER
UWI         .                                    42708401190000 :UNIQUE WELL ID
XCOORD      .                                  1324427.25220013 :SURFACE X 
YCOORD      .                                  10679041.7751219 :SURFACE Y 
LAT         .                                         29.422046 :LATITUDE  
LON         .                                        -93.992863 :LONGITUDE 
ELEV        .FT                                             116 :ELEVATION VALUE
ELEV_TYPE   .                                                KB :ELEVATION REFERENCE TYPE
~Curve Information Section
#MNEM       .UNIT                                      API CODE :CURVE DESCRIPTION
#------------------------------------------------------------------------------
DEPT        .FT                                                 :DEPTH     
ASFL        .OHMM                                               :          
CALI        .IN                                                 :          
CILD        .MMHO                                               :          
GR          .GAPI                                               :          
GR_NORM     .GAPI                                               :GammaRay Normalized
ILD         .OHMM                                               :          
RHOB        .G/C3                                               :          
SP          .MV                                                 :          
SP_NORM     .GAPI                                               :SP Normalized
VSH_GR      .V/V                                                :Volume of Shale from GR
VSH_SP      .V/V                                                :Volume of Shale from SP
~A        DEPTH           ASFL           CALI           CILD             GR        GR_NORM            ILD           RHOB             SP        SP_NORM         VSH_GR         VSH_SP
# ...
      1775.0000         0.5325        -999.25       2905.156         39.831       43.58475         0.3742        -999.25       -60.0672      -36.67724      0.2252076      0.2664551
      1775.5000         0.5307        -999.25       2901.008        40.2455       44.11583         0.3691        -999.25       -61.1542        -38.373       0.236507        0.23254
      1776.0000         0.5289        -999.25       2896.008        39.2916       42.89365          0.366        -999.25       -62.2416      -40.06938      0.2105031      0.1986124
      1776.5000         0.5271        -999.25        2901.41         37.716       40.87491         0.3639        -999.25       -63.5618      -42.12853      0.1675512      0.1574294
      1777.0000         0.5252        -999.25       2910.039        36.5967       39.44081         0.3618        -999.25       -64.9452      -44.28616      0.1370385      0.1142767
      1777.5000         0.5234        -999.25       2918.664        35.5549         38.106         0.3597        -999.25       -65.2045      -44.69214      0.1086384      0.1061572
      1778.0000         0.5217        -999.25       2927.746        34.5132       36.77132         0.3577        -999.25       -65.4636      -45.09781     0.08024086     0.09804382
      1778.5000         0.5296        -999.25       2938.406         34.389       36.61219         0.3556        -999.25       -65.7228      -45.50363     0.07685511     0.08992737
      1779.0000         0.5375        -999.25       2949.063        34.7335       37.05359         0.3528        -999.25       -65.5049        -45.166     0.08624649     0.09667992
      1779.5000         0.5454        -999.25       2959.727         35.078       37.49497           0.35        -999.25       -63.7003      -42.35586     0.09563771      0.1528828
      1780.0000         0.5533        -999.25       2970.383        35.4225       37.93636         0.3472        -999.25       -59.4046      -35.66392       0.105029      0.2867216
      1780.5000         0.5576        -999.25        2992.34        35.0504       37.45961         0.3443        -999.25       -58.2813      -33.91544     0.09488532      0.3216913
      1781.0000          0.551        -999.25       3018.965         34.301       36.49944         0.3415        -999.25       -58.0867      -33.61411     0.07445616      0.3277178
      1781.5000          0.544        -999.25        3045.59        33.5029       35.47688         0.3387        -999.25        -57.892      -33.31263     0.05269947      0.3337473
      1782.0000         0.5369        -999.25        3071.91        32.6892       34.43432         0.3359        -999.25       -57.7498      -33.09297      0.0305175      0.3381406
      1782.5000         0.5299        -999.25       3097.289         33.405       35.35144         0.3391        -999.25       -57.6388      -32.92192     0.05003065      0.3415616
      1783.0000         0.5228        -999.25        3110.91        34.3794       36.59989         0.3433        -999.25       -57.5278      -32.75087     0.07659336      0.3449825
      1783.5000         0.5186        -999.25       3104.109        35.3538       37.84834         0.3475        -999.25       -57.4169      -32.57998      0.1031562      0.3484004
      1784.0000          0.519        -999.25       3020.516        36.3282       39.09679         0.3517        -999.25       -57.0643      -32.03245       0.129719       0.359351
      1784.5000         0.5293        -999.25        2917.91        36.0635       38.75764         0.3572        -999.25       -56.4125      -31.01868      0.1225031      0.3796263
      1785.0000         0.5462        -999.25       2803.313         34.642       36.93634         0.3723        -999.25       -55.7607      -30.00493     0.08375201      0.3999015
      1785.5000         0.5632        -999.25       2670.152        33.2203       35.11479         0.3875        -999.25       -54.6577      -28.28807     0.04499557      0.4342385
      1786.0000         0.5802        -999.25       2501.918        31.8019       33.29747         0.4027        -999.25       -53.3334      -26.22638    0.006329151      0.4754725
      1786.5000         0.5988        -999.25       2222.309        30.6922       31.87567         0.4178        -999.25       -51.5344      -23.42496              0      0.5315008
      1787.0000           0.62        -999.25       1941.002        37.6418       40.77984          0.433        -999.25       -48.7826      -19.13883      0.1655286      0.6172234
      1787.5000         0.6412        -999.25       1659.592        45.7806       51.20768         0.4655        -999.25       -44.5568      -12.55581      0.3873974      0.7488838
      1788.0000         0.6628        -999.25       1391.875         52.654       60.01423         0.5106        -999.25       -42.9659      -10.07868      0.5747707      0.7984265
      1788.5000          0.686        -999.25       1266.811        58.1915       67.10915         0.5556        -999.25       -41.5023       -7.79991      0.7257265      0.8440018
      1789.0000         0.7092        -999.25       1144.006        62.1058       72.12434         0.6007        -999.25       -40.6754      -6.513294      0.8324327      0.8697341
      1789.5000         0.7323        -999.25       1105.408        64.7391       75.49826         0.6458        -999.25       -39.8484      -5.226518      0.9042183      0.8954697
      1790.0000         0.7458        -999.25       1068.613        65.7537       76.79821         0.7072        -999.25       -39.2122      -4.237067      0.9318768      0.9152586
      1790.5000         0.7591        -999.25       1038.859        66.0635       77.19514         0.7786        -999.25       -38.8603      -3.690628      0.9403222      0.9261875
      1791.0000         0.7725        -999.25        1022.75        66.3733       77.59208           0.85        -999.25       -38.5084      -3.144195      0.9487677      0.9371161
      1791.5000         0.7817        -999.25       1022.177        65.7235       76.75952         0.8962        -999.25       -38.1564      -2.597602      0.9310536      0.9480479
      1792.0000         0.7849        -999.25       1045.654        64.9635       75.78577          0.909        -999.25       -38.1304      -2.559005      0.9103355      0.9488199
      1792.5000          0.788        -999.25       1086.846        64.2037       74.81227          0.913        -999.25       -38.1238      -2.550636      0.8896228      0.9489873
      1793.0000         0.7907        -999.25        1131.34        63.4438       73.83865         0.8914        -999.25       -38.1172      -2.542272      0.8689075      0.9491546
      1793.5000         0.7897        -999.25       1175.822        62.6838       72.86491         0.8699        -999.25       -38.1107      -2.534063      0.8481895      0.9493188
      1794.0000         0.7795        -999.25       1258.865        61.9241       71.89154         0.8472        -999.25       -39.7731      -5.126458      0.8274796      0.8974708
      1794.5000         0.7693        -999.25       1355.961        61.1641       70.91779         0.8163        -999.25       -42.4709      -9.332281      0.8067614      0.8133544
      1795.0000         0.7588        -999.25       1412.674        60.7114       70.33777         0.7854        -999.25       -42.8629      -9.945035      0.7944206      0.8010993
      1795.5000          0.748        -999.25       1450.004        61.0137       70.72508         0.7545        -999.25       -43.2549       -10.5578      0.8026613       0.788844
      1796.0000         0.7372        -999.25       1471.553         61.316       71.11241         0.7236        -999.25       -43.6469      -11.17056      0.8109024      0.7765888
      1796.5000         0.7305        -999.25       1464.502        62.4363        72.5478         0.7015        -999.25       -42.1436       -8.82993      0.8414425      0.8234014
      1797.0000         0.7412        -999.25       1457.156        64.1478       74.74065         0.7143        -999.25       -40.2587      -5.894668      0.8880988      0.8821067
