#------------------------------------------------------------------------------
# Created by    : vladimir.rabinovich
# Created on    : 09/19/2023 17:20:30
#------------------------------------------------------------------------------
~Version Information Section
VERS.           2.0     :   CWLS log ASCII Standard - VERSION 2.0
WRAP.           NO      :   One line per depth step
~Well Information Section
#MNEM       .UNIT                                         VALUE :DESCRIPTION
#------------------------------------------------------------------------------
STRT        .FT                                             617 :START DEPTH
STOP        .FT                                           12396 :STOP DEPTH
STEP        .FT                                             0.5 :STEP      
NULL        .                                           -999.25 :NULL      
COMP        .                                        SUN OIL CO :COMPANY   
WELL        .                               OCS G01781 ST00BP00 :WELL      
FLD         .                                           WILDCAT :FIELD     
LOC         .                                                   :LOCATION  
CNTY        .                             GALVESTON LARGE BLOCK :LOCATION  
STAT        .                                             TEXAS :STATE     
CTRY        .                                     UNITED STATES :COUNTRY   
SRVC        .                                                   :SERVICE COMPANY
DATE        .                             9/13/2023 11:19:24 AM :LOG DATE  
API         .                                    42706001390000 :API NUMBER
UWI         .                                    42706001390000 :UNIQUE WELL ID
XCOORD      .                                  1010631.41746955 :SURFACE X 
YCOORD      .                                  10491097.5822315 :SURFACE Y 
LAT         .                                         28.894296 :LATITUDE  
LON         .                                        -94.968586 :LONGITUDE 
ELEV        .FT                                              65 :ELEVATION VALUE
ELEV_TYPE   .                                                KB :ELEVATION REFERENCE TYPE
~Curve Information Section
#MNEM       .UNIT                                      API CODE :CURVE DESCRIPTION
#------------------------------------------------------------------------------
DEPT        .FT                                                 :DEPTH     
ASN         .OHMM                                               :          
CILD        .MMHO                                               :          
DT          .US/F                                               :          
ILD         .OHMM                                               :          
SP          .MV                                                 :          
SP_NORM     .MV                                                 :SP Normalized
VSH_SP      .V/V                                                :Volume of Shale from SP
~A        DEPTH            ASN           CILD             DT            ILD             SP        SP_NORM         VSH_SP
# ...
      3766.0000         1.9857       963.1592       146.9224          0.976      -114.1909      -36.97943      0.3400107
      3766.5000         1.9863       966.4775       152.1719         0.9699      -114.3237      -37.11324       0.337486
      3767.0000         1.9869       969.7979       117.7239         0.9638      -114.4565      -37.24705      0.3349614
      3767.5000         1.9876       973.1162       116.0803         0.9576      -114.5892      -37.38077      0.3324383
      3768.0000         1.9786        991.624       130.4294         0.9515       -114.722      -37.51457      0.3299137
      3768.5000         1.9696       1017.256       156.0945         0.9228       -114.812      -37.60558      0.3281966
      3769.0000         1.9429       1118.818        148.304         0.8939        -114.88       -37.6746      0.3268944
      3769.5000         1.7815        1197.99       118.5195          0.865       -114.948      -37.74361      0.3255923
      3770.0000         1.4715       1249.748       106.2261         0.8278       -115.016      -37.81262      0.3242902
      3770.5000         1.4123       1289.309       116.0089         0.7828       -115.084      -37.88163      0.3229881
      3771.0000         1.3446       1319.543       126.8326         0.7377       -115.152      -37.95065      0.3216859
      3771.5000         1.2731       1339.213       130.6414         0.6927      -115.2405      -38.04016       0.319997
      3772.0000         1.2235       1358.881       122.8262         0.6625      -116.1384      -38.93906      0.3030365
      3772.5000         1.1941       1378.551       119.0173         0.6577      -117.0365      -39.83818      0.2860721
      3773.0000         1.1647       1398.221        125.575         0.6528       -117.934      -40.73669      0.2691191
      3773.5000         1.1198       1417.877       126.8488          0.648      -118.7213        -41.525      0.2542453
      3774.0000         1.0759       1430.707       126.8129         0.6432      -119.3601      -42.16482      0.2421733
      3774.5000         1.0437       1437.326       126.8148         0.6383      -119.9989      -42.80463      0.2301014
      3775.0000         1.0172       1443.945       127.0757         0.6365      -120.6377      -43.44444      0.2180294
      3775.5000         1.0096       1447.244       137.2849         0.6371      -121.2433      -44.05105       0.206584
      3776.0000         1.0021        1446.32       135.9651         0.6377      -121.2625      -44.07126      0.2062027
      3776.5000         1.0056       1445.396       129.6482         0.6383      -121.2816      -44.09138      0.2058231
      3777.0000         1.0182       1444.473        98.1154         0.6389      -121.3009      -44.11169      0.2054399
      3777.5000         1.0308       1443.549         85.729         0.6395      -121.3201       -44.1319      0.2050585
      3778.0000         1.0429       1450.801        85.5908         0.6401      -121.3392      -44.15202       0.204679
      3778.5000         1.0524       1459.145        98.5583         0.6407      -120.9368      -43.75062      0.2122525
      3779.0000         1.0619       1479.271       115.2896         0.6413       -120.455      -43.26984      0.2213238
      3779.5000         1.0649       1502.195       134.4502         0.6417      -119.9733      -42.78914      0.2303936
      3780.0000         1.0598       1522.895       149.3735         0.6417      -119.4911      -42.30795      0.2394726
      3780.5000         1.0546       1527.328       154.3401         0.6418      -119.0094      -41.82727      0.2485421
      3781.0000         1.0495       1531.766       153.2754         0.6419      -118.5272      -41.34608      0.2576212
      3781.5000         1.0443       1533.059       145.1787         0.6419      -118.0874       -40.9073      0.2659001
      3782.0000         1.0498       1530.889       135.5317          0.642      -117.7914       -40.6123      0.2714661
      3782.5000         1.0559       1528.715       131.7051         0.6421      -117.4952      -40.31712      0.2770356
      3783.0000         1.0735       1526.545       129.7695         0.6422      -117.1993      -40.02223      0.2825994
      3783.5000         1.1074       1531.797       121.7781         0.6344      -116.9033      -39.72723      0.2881654
      3784.0000         1.1412       1539.738       112.4788         0.6245      -116.7214      -39.54635      0.2915783
      3784.5000         1.1741       1557.924       106.8215         0.6146      -116.5527      -39.37865      0.2947424
      3785.0000         1.1764       1588.381       110.2349         0.6047       -116.384      -39.21098      0.2979061
      3785.5000         1.1549       1618.836       116.5043         0.5948      -116.2153      -39.04329        0.30107
      3786.0000         1.1335       1649.293       122.9882         0.5843      -116.0465       -38.8755      0.3042359
      3786.5000         1.1122       1679.725       126.8052         0.5707      -115.7664      -38.59641      0.3095016
      3787.0000         1.0909       1707.893       126.6412         0.5571      -114.8486      -37.67962      0.3267996
      3787.5000         1.0696       1734.156        122.667         0.5435      -113.9314      -36.76343      0.3440863
      3788.0000           1.05       1760.418       122.2899         0.5299      -113.4496      -36.28265      0.3531576
      3788.5000         1.0368       1787.064       121.3198         0.5163      -113.1711      -36.00515      0.3583934
      3789.0000         1.0236       1813.834       120.8003         0.5027      -112.8927      -35.72777       0.363627
      3789.5000         1.0105       1840.221       114.5144         0.4957      -112.6141      -35.45017      0.3688647
      3790.0000         1.0077       1861.301       109.6007         0.4956      -111.9873      -34.82439      0.3806719
      3790.5000         1.0198       1882.393        107.537         0.4956      -111.3386       -34.1767      0.3928924
      3791.0000          1.032       1907.863        113.385         0.4955      -110.7357      -33.57481      0.4042488
      3791.5000         1.0441       1953.139       115.8591         0.4954      -110.8503      -33.69043      0.4020674
      3792.0000         1.0475       1993.047       125.2629         0.4954      -111.6298      -34.47093      0.3873409
      3792.5000         1.0386       2036.094       128.5266         0.4956      -112.4091      -35.25125      0.3726179
      3793.0000         1.0296       2043.508        129.645         0.4962      -113.1885      -36.03166      0.3578932
      3793.5000         1.0143       2038.977       125.2079         0.4968      -114.1768      -37.02097      0.3392269
      3794.0000         0.9965       2034.449        122.132         0.4974      -115.4005      -38.24568      0.3161192
      3794.5000         0.9786       2029.922       122.1068          0.498      -116.6243       -39.4705      0.2930095
      3795.0000         0.9608       2025.395       118.4984         0.4986       -117.848      -40.69521      0.2699018
      3795.5000         0.9429       2020.867       116.7134         0.4867      -118.9382      -41.78642      0.2493128
      3796.0000         0.9514       2011.773       116.3215         0.4696      -119.9965      -42.84573      0.2293259
      3796.5000         0.9683       2098.242       121.3674         0.4525       -121.054      -43.90424      0.2093539
      3797.0000         0.9851       2161.332       133.6809         0.4353      -122.1115      -44.96276      0.1893819
      3797.5000         1.0019       2273.855       138.9282         0.4211      -122.9248      -45.77706      0.1740177
      3798.0000         1.0159       2504.246       136.6025         0.4151      -123.6486      -46.50188      0.1603419
      3798.5000         1.0225       2685.449       131.3359         0.4091      -124.3722      -47.22649      0.1466701
      3799.0000         1.0132       2692.648       124.8585         0.4032      -125.0959       -47.9512      0.1329962
