#------------------------------------------------------------------------------
# Created by    : vladimir.rabinovich
# Created on    : 09/19/2023 17:20:40
#------------------------------------------------------------------------------
~Version Information Section
VERS.           2.0     :   CWLS log ASCII Standard - VERSION 2.0
WRAP.           NO      :   One line per depth step
~Well Information Section
#MNEM       .UNIT                                         VALUE :DESCRIPTION
#------------------------------------------------------------------------------
STRT        .FT                                             546 :START DEPTH
STOP        .FT                                            8737 :STOP DEPTH
STEP        .FT                                             0.5 :STEP      
NULL        .                                           -999.25 :NULL      
COMP        .                                      SHELL OIL CO :COMPANY   
WELL        .                                OCS 00702 ST00BP00 :WELL      
FLD         .                                           WILDCAT :FIELD     
LOC         .                                                   :LOCATION  
CNTY        .                             GALVESTON LARGE BLOCK :LOCATION  
STAT        .                                             TEXAS :STATE     
CTRY        .                                     UNITED STATES :COUNTRY   
SRVC        .                                                   :SERVICE COMPANY
DATE        .                             9/13/2023 11:19:42 AM :LOG DATE  
API         .                                    42706000140000 :API NUMBER
UWI         .                                    42706000140000 :UNIQUE WELL ID
XCOORD      .                                  1138683.88536091 :SURFACE X 
YCOORD      .                                  10533063.1188688 :SURFACE Y 
LAT         .                                         29.014964 :LATITUDE  
LON         .                                        -94.570199 :LONGITUDE 
ELEV        .FT                                              72 :ELEVATION VALUE
ELEV_TYPE   .                                                KB :ELEVATION REFERENCE TYPE
~Curve Information Section
#MNEM       .UNIT                                      API CODE :CURVE DESCRIPTION
#------------------------------------------------------------------------------
DEPT        .FT                                                 :DEPTH     
ASN         .OHMM                                               :          
CILD        .MMHO                                               :          
ILD         .OHMM                                               :          
SP          .MV                                                 :          
SP_NORM     .MV                                                 :SP Normalized
VSH_SP      .V/V                                                :Volume of Shale from SP
~A        DEPTH            ASN           CILD            ILD             SP        SP_NORM         VSH_SP
# ...
      2180.0000          0.715        -999.25         0.5133        -67.217      -19.35709      0.6383939
      2180.5000         0.6971        -999.25         0.5124        -69.265      -21.41048      0.5956151
      2181.0000          0.699        -999.25         0.5116       -70.8824      -23.03326       0.561807
      2181.5000          0.702        -999.25         0.5107        -72.797      -24.95325      0.5218073
      2182.0000         0.7049        -999.25          0.508        -75.348      -27.50964      0.4685492
      2182.5000         0.7063        -999.25         0.5048       -77.4766      -29.64363      0.4240911
      2183.0000         0.6988        -999.25         0.5017       -79.1125      -31.28492      0.3898976
      2183.5000         0.6901        -999.25         0.4985       -79.8259       -32.0037       0.374923
      2184.0000         0.6811        -999.25         0.4953       -79.2271      -31.41029      0.3872857
      2184.5000         0.6768        -999.25         0.4923       -77.0663      -29.25488      0.4321901
      2185.0000          0.683        -999.25         0.4904       -74.5385      -26.73246      0.4847404
      2185.5000         0.6893        -999.25         0.4884       -73.3274      -25.52675      0.5098594
      2186.0000          0.694        -999.25         0.4865       -72.0413      -24.24603       0.536541
      2186.5000         0.6913        -999.25         0.4846       -70.7301      -22.94022      0.5637453
      2187.0000         0.6822        -999.25         0.4827       -69.5502      -21.76571      0.5882143
      2187.5000         0.6732        -999.25         0.4867       -68.3552       -20.5761      0.6129979
      2188.0000         0.6642        -999.25         0.4955       -66.8795      -19.10579      0.6436295
      2188.5000         0.6552        -999.25         0.5043       -64.7432      -16.97487      0.6880235
      2189.0000         0.6546        -999.25         0.5131       -62.3206      -14.55766      0.7383822
      2189.5000         0.6581        -999.25         0.5269       -60.2732      -12.51565       0.780924
      2190.0000         0.6617        -999.25         0.5446       -58.5406      -10.78843      0.8169076
      2190.5000         0.6652        -999.25         0.5623       -57.8522      -10.10542      0.8311371
      2191.0000         0.6687        -999.25           0.58       -57.1638      -9.422405      0.8453665
      2191.5000         0.6723        -999.25         0.5977       -56.9305      -9.194492      0.8501148
      2192.0000          0.681        -999.25         0.6074       -56.7066      -8.975983       0.854667
      2192.5000         0.6903        -999.25         0.6147       -56.7784      -9.053169       0.853059
      2193.0000         0.6996        -999.25         0.6189       -56.9449      -9.225056       0.849478
      2193.5000           0.71        -999.25         0.6176       -57.1115      -9.397041       0.845895
      2194.0000         0.7224        -999.25         0.6164        -57.286      -9.576927      0.8421474
      2194.5000         0.7348        -999.25         0.6146       -57.5184      -9.814713      0.8371935
      2195.0000         0.7473        -999.25         0.6116       -57.7508      -10.05251      0.8322394
      2195.5000         0.7597        -999.25         0.6086       -57.9832      -10.29029      0.8272856
      2196.0000         0.7712        -999.25         0.6056       -58.2156      -10.52808      0.8223317
      2196.5000         0.7793        -999.25         0.6027       -57.6651      -9.982964      0.8336883
      2197.0000         0.7869        -999.25         0.6003       -56.5688      -8.892052      0.8564156
      2197.5000         0.7793        -999.25         0.5984       -55.4473       -7.77594      0.8796679
      2198.0000         0.7718        -999.25         0.5965       -54.3257      -6.659725      0.9029224
      2198.5000         0.7658        -999.25         0.5946       -53.2073      -5.546711      0.9261102
      2199.0000         0.7608        -999.25         0.5855       -52.1859      -4.530701      0.9472771
      2199.5000         0.7558        -999.25         0.5741       -51.1849      -3.535084      0.9680191
      2200.0000         0.7508        -999.25         0.5627       -52.2383      -4.593876      0.9459609
      2200.5000         0.7489        -999.25         0.5513       -53.2918      -5.652763      0.9239008
      2201.0000         0.7502        -999.25         0.5403        -54.345      -6.711349      0.9018469
      2201.5000         0.7516        -999.25         0.5328       -55.2699      -7.641636      0.8824659
      2202.0000          0.753        -999.25         0.5252       -55.6472      -8.024323      0.8744933
      2202.5000         0.7543        -999.25         0.5229       -55.4017      -7.784206      0.8794957
      2203.0000         0.7486        -999.25          0.534        -54.974      -7.361897      0.8882938
      2203.5000         0.7237        -999.25         0.5496       -54.5461      -6.939384      0.8970962
      2204.0000         0.6988        -999.25         0.5673       -53.5373       -5.93597      0.9180006
      2204.5000         0.6812        -999.25          0.585       -52.1661      -4.570156      0.9464551
      2205.0000         0.6744        -999.25         0.6027       -54.3597      -6.769142      0.9006429
      2205.5000         0.6677        -999.25         0.5915       -59.4041      -11.81893      0.7954389
      2206.0000         0.6678        -999.25         0.5766       -70.2224      -22.64262      0.5699455
      2206.5000           0.67        -999.25         0.5618       -72.3293      -24.75491      0.5259395
      2207.0000         0.6721        -999.25         0.5469       -73.4375      -25.86849      0.5027397
      2207.5000         0.6742        -999.25         0.5321       -74.1422      -26.57858      0.4879464
      2208.0000         0.6772        -999.25         0.5172       -74.5715      -27.01327      0.4788903
      2208.5000         0.6804        -999.25         0.5043       -74.3785      -26.82566      0.4827988
      2209.0000         0.6952        -999.25         0.4938       -73.9988      -26.45134       0.490597
      2209.5000         0.7185        -999.25          0.496       -72.4906      -24.94853      0.5219057
      2210.0000         0.7278        -999.25         0.5137        -70.972      -23.43531       0.553431
      2210.5000         0.7179        -999.25         0.5314       -68.7501       -21.2188      0.5996084
      2211.0000          0.708        -999.25         0.5437       -65.6034      -18.07749      0.6650522
      2211.5000         0.6981        -999.25         0.5551       -64.1844      -16.66388      0.6945025
      2212.0000         0.7045        -999.25         0.5665       -62.8635      -15.34836      0.7219091
      2212.5000         0.7155        -999.25         0.5779       -66.2401      -18.73035      0.6514511
      2213.0000         0.7483        -999.25         0.5893       -69.4418      -21.93744      0.5846367
      2213.5000         0.7883        -999.25         0.6007       -73.4008      -25.90183      0.5020452
      2214.0000         0.8143        -999.25         0.6064       -78.7344      -31.24081      0.3908165
      2214.5000         0.8296        -999.25          0.609       -81.3223       -33.8341      0.3367895
      2215.0000           0.84        -999.25         0.6117       -83.6732      -36.19039      0.2877003
      2215.5000         0.8458        -999.25         0.6143       -86.0242      -38.54677      0.2386089
      2216.0000          0.841        -999.25         0.6147       -85.2018      -37.72976      0.2556301
      2216.5000         0.8362        -999.25         0.6138       -83.5331      -36.06644      0.2902824
      2217.0000         0.8314        -999.25         0.6129       -81.0642      -33.60294      0.3416055
      2217.5000         0.8266        -999.25         0.6121       -79.4906      -32.03472      0.3742766
