#------------------------------------------------------------------------------
# Created by    : vladimir.rabinovich
# Created on    : 09/19/2023 17:22:54
#------------------------------------------------------------------------------
~Version Information Section
VERS.           2.0     :   CWLS log ASCII Standard - VERSION 2.0
WRAP.           NO      :   One line per depth step
~Well Information Section
#MNEM       .UNIT                                         VALUE :DESCRIPTION
#------------------------------------------------------------------------------
STRT        .FT                                             494 :START DEPTH
STOP        .FT                                            6854 :STOP DEPTH
STEP        .FT                                             0.5 :STEP      
NULL        .                                           -999.25 :NULL      
COMP        .                          HUMBLE OIL & REFINING CO :COMPANY   
WELL        .                                     ST TR 00247-L :WELL      
FLD         .                                           WILDCAT :FIELD     
LOC         .                                                   :LOCATION  
CNTY        .                             GALVESTON LARGE BLOCK :LOCATION  
STAT        .                                             TEXAS :STATE     
CTRY        .                                     UNITED STATES :COUNTRY   
SRVC        .                                                   :SERVICE COMPANY
DATE        .                             9/13/2023 11:19:42 AM :LOG DATE  
API         .                                    42706000180000 :API NUMBER
UWI         .                                    42706000180000 :UNIQUE WELL ID
XCOORD      .                                  979775.061814126 :SURFACE X 
YCOORD      .                                  10543201.0009156 :SURFACE Y 
LAT         .                                        29.0361078 :LATITUDE  
LON         .                                       -95.0678326 :LONGITUDE 
ELEV        .FT                                              11 :ELEVATION VALUE
ELEV_TYPE   .                                                KB :ELEVATION REFERENCE TYPE
~Curve Information Section
#MNEM       .UNIT                                      API CODE :CURVE DESCRIPTION
#------------------------------------------------------------------------------
DEPT        .FT                                                 :DEPTH     
LAT         .OHMM                                               :          
LN          .OHMM                                               :          
SN          .OHMM                                               :          
SP          .MV                                                 :          
SP_NORM     .MV                                                 :SP Normalized
VSH_SP      .V/V                                                :Volume of Shale from SP
~A        DEPTH            LAT             LN             SN             SP        SP_NORM         VSH_SP
# ...
      2166.0000         0.6472         0.5669         0.4899       -78.7137      -8.888763      0.7867902
      2166.5000         0.6452         0.5655         0.4886       -79.5713      -9.731491      0.7640138
      2167.0000         0.6522         0.5642         0.4872       -80.0077      -10.15302       0.752621
      2167.5000         0.6593         0.5629         0.4859       -80.4443      -10.57475      0.7412229
      2168.0000         0.6659         0.5616         0.4845       -80.8169       -10.9325      0.7315542
      2168.5000         0.6468         0.5603         0.4832       -81.1682      -11.26892      0.7224616
      2169.0000         0.6277          0.559         0.4792       -81.3949      -11.48075      0.7167364
      2169.5000         0.6086         0.5576         0.4752       -81.5006      -11.57159      0.7142814
      2170.0000         0.5895         0.5563         0.4711        -81.188      -11.24412       0.723132
      2170.5000          0.573         0.5558          0.467       -80.4684      -10.50965      0.7429824
      2171.0000         0.5583         0.5557          0.463       -79.9197      -9.946083       0.758214
      2171.5000         0.5436         0.5556         0.4589       -78.8903       -8.90181      0.7864376
      2172.0000         0.5289         0.5555         0.4549       -76.4464      -6.443047      0.8528906
      2172.5000         0.5365         0.5554         0.4538       -74.0808      -4.062576      0.9172277
      2173.0000         0.5515         0.5553         0.4573       -74.8102      -4.777107       0.897916
      2173.5000         0.5666         0.5551         0.4609       -76.3108       -6.26284      0.8577611
      2174.0000          0.565          0.555         0.4645       -78.8688      -8.805969      0.7890279
      2174.5000         0.5519         0.5549          0.468       -80.8618       -10.7841      0.7355648
      2175.0000         0.5388         0.5548         0.4716       -81.7528      -11.66023      0.7118856
      2175.5000         0.5257         0.5547         0.4751       -82.6572      -12.54977      0.6878442
      2176.0000         0.5111         0.5557         0.4787       -83.3557       -13.2334      0.6693676
      2176.5000         0.4952         0.5577         0.4803       -80.5615      -10.42433      0.7452883
      2177.0000         0.4793         0.5596         0.4815        -81.097      -10.94496      0.7312173
      2177.5000         0.4634         0.5616         0.4828       -81.6324      -11.46549      0.7171488
      2178.0000         0.4552         0.5636          0.484       -82.1681      -11.98632      0.7030724
      2178.5000         0.4951         0.5656         0.4853       -82.7035      -12.50686      0.6890038
      2179.0000         0.5351         0.5676         0.4865       -82.8279      -12.61639      0.6860434
      2179.5000         0.5417         0.5696         0.4878       -82.1381      -11.91172      0.7050886
      2180.0000         0.5269         0.5738         0.4936        -81.448      -11.20675      0.7241419
      2180.5000          0.512         0.5819         0.4999       -80.9111      -10.65498      0.7390545
      2181.0000         0.4972           0.59         0.5061       -80.5234      -10.25241      0.7499349
      2181.5000         0.4791         0.5981         0.5124       -80.1356      -9.849747      0.7608176
      2182.0000         0.4587         0.6062         0.5187       -79.6177      -9.316978      0.7752168
      2182.5000         0.4383         0.6143          0.525       -78.9215      -8.605911      0.7944348
      2183.0000         0.4179         0.6141         0.5301       -78.2252      -7.894737      0.8136557
      2183.5000         0.4491         0.6032         0.5331       -77.5291      -7.183769      0.8328711
      2184.0000         0.4833         0.5923         0.5362       -77.0243      -6.664108       0.846916
      2184.5000         0.4998         0.5814         0.5392       -76.5562      -6.181137      0.8599693
      2185.0000         0.4905         0.5739         0.5423        -76.088      -5.698067      0.8730252
      2185.5000         0.4813         0.5777         0.5453       -75.6199      -5.215103      0.8860783
      2186.0000         0.4672         0.5817         0.5483       -75.0981      -4.678429       0.900583
      2186.5000         0.4458         0.5859          0.547       -74.5057      -4.071159      0.9169957
      2187.0000         0.4244         0.5873         0.5457       -74.5145      -4.065102      0.9171594
      2187.5000         0.4031         0.5854         0.5444       -74.7552      -4.290932      0.9110559
      2188.0000         0.3817         0.5835         0.5431        -74.996      -4.516861      0.9049497
      2188.5000         0.3603         0.5821         0.5411       -75.2368       -4.74279      0.8988435
      2189.0000         0.3969         0.5865         0.5371       -75.7079       -5.19902      0.8865129
      2189.5000         0.4374         0.5909         0.5331       -76.7832       -6.25946      0.8578524
      2190.0000         0.4778         0.5923         0.5291       -77.8588       -7.32019      0.8291841
      2190.5000         0.4948         0.5906         0.5251       -78.6521      -8.098618      0.8081455
      2191.0000         0.4982         0.5889         0.5211       -79.1016      -8.533249      0.7963987
      2191.5000         0.5017         0.5872         0.5167       -78.7412      -8.157982       0.806541
      2192.0000         0.5052         0.5809         0.5109       -78.3809      -7.782814      0.8166807
      2192.5000          0.509         0.5728         0.5051       -78.0204      -7.407448      0.8268257
      2193.0000         0.5128         0.5647         0.4993         -77.66      -7.032181      0.8369681
      2193.5000         0.5166         0.5566         0.4935       -77.3199      -6.677208       0.846562
      2194.0000         0.5203         0.5485         0.4877       -77.0614      -6.403839      0.8539503
      2194.5000         0.5241         0.5444         0.4819       -76.8027      -6.130264      0.8613442
      2195.0000         0.5296         0.5438         0.4761       -76.7888      -6.101509      0.8621214
      2195.5000         0.5538         0.5432         0.4703       -76.8965      -6.194336      0.8596125
      2196.0000         0.5781         0.5426         0.4758       -77.0043       -6.28727      0.8571008
      2196.5000         0.6023         0.5421         0.4827       -77.1001      -6.368195      0.8549137
      2197.0000          0.604         0.5482         0.4897       -77.0314       -6.28463      0.8571722
      2197.5000         0.6043         0.5547         0.4967       -76.9628      -6.201164       0.859428
      2198.0000         0.5958         0.5612         0.5037       -76.5325      -5.755997      0.8714595
      2198.5000         0.5711         0.5677         0.5106       -76.3588      -5.567429       0.876556
      2199.0000         0.5465         0.5742         0.5176         -76.71      -5.903755      0.8674661
      2199.5000         0.5218         0.5893         0.5272       -77.0612      -6.240089       0.858376
      2200.0000         0.4971         0.6064         0.5368       -77.8411      -7.005119      0.8376995
      2200.5000         0.5059         0.6186         0.5465       -78.6592      -7.808357      0.8159903
      2201.0000         0.5255          0.616         0.5562       -79.4775      -8.611786      0.7942761
      2201.5000          0.545         0.6134         0.5659       -80.2957      -9.415115      0.7725645
      2202.0000         0.5353         0.6108         0.5687       -80.8818      -9.986343      0.7571259
      2202.5000         0.5081         0.6082         0.5676       -81.4359      -10.52557       0.742552
      2203.0000         0.4809         0.6051         0.5665       -81.9904      -11.06522      0.7279671
      2203.5000         0.4536         0.5976         0.5654       -82.4125      -11.47244       0.716961
