#------------------------------------------------------------------------------
# Created by    : vladimir.rabinovich
# Created on    : 09/19/2023 17:21:39
#------------------------------------------------------------------------------
~Version Information Section
VERS.           2.0     :   CWLS log ASCII Standard - VERSION 2.0
WRAP.           NO      :   One line per depth step
~Well Information Section
#MNEM       .UNIT                                         VALUE :DESCRIPTION
#------------------------------------------------------------------------------
STRT        .FT                                             930 :START DEPTH
STOP        .FT                                           10010 :STOP DEPTH
STEP        .FT                                             0.5 :STEP      
NULL        .                                           -999.25 :NULL      
COMP        .                 FAIRWAYS SPEC SALES & SERVICE INC :COMPANY   
WELL        .                               OCS G02357 ST00BP00 :WELL      
FLD         .                            HIGH ISLAND BLOCK 0154 :FIELD     
LOC         .                                                   :LOCATION  
CNTY        .                           HIGH ISLAND LARGE BLOCK :LOCATION  
STAT        .                                             TEXAS :STATE     
CTRY        .                                     UNITED STATES :COUNTRY   
SRVC        .                                                   :SERVICE COMPANY
DATE        .                             9/13/2023 11:20:04 AM :LOG DATE  
API         .                                    42708400540000 :API NUMBER
UWI         .                                    42708400540000 :UNIQUE WELL ID
XCOORD      .                                  1183911.52517142 :SURFACE X 
YCOORD      .                                  10615048.6542629 :SURFACE Y 
LAT         .                                         29.242029 :LATITUDE  
LON         .                                        -94.431816 :LONGITUDE 
ELEV        .FT                                              73 :ELEVATION VALUE
ELEV_TYPE   .                                                KB :ELEVATION REFERENCE TYPE
~Curve Information Section
#MNEM       .UNIT                                      API CODE :CURVE DESCRIPTION
#------------------------------------------------------------------------------
DEPT        .FT                                                 :DEPTH     
CALI        .IN                                                 :          
DRHO        .G/C3                                               :          
DT          .US/F                                               :          
GR          .GAPI                                               :          
GR_1        .GAPI                                               :          
GR_NORM     .GAPI                                               :GammaRay Normalized
ILD         .OHMM                                               :          
NPHI        .%                                                  :          
RHOB        .G/C3                                               :          
SFL         .OHMM                                               :          
SP          .MV                                                 :          
SP_NORM     .MV                                                 :SP Normalized
VSH_GR      .V/V                                                :Volume of Shale from GR
VSH_SP      .V/V                                                :Volume of Shale from SP
~A        DEPTH           CALI           DRHO             DT             GR           GR_1        GR_NORM            ILD           NPHI           RHOB            SFL             SP        SP_NORM         VSH_GR         VSH_SP
# ...
      3288.0000        -999.25        -999.25        -999.25        -999.25        59.7906        77.3773         0.5767        -999.25        -999.25         0.5937        38.1925     -0.4016838      0.9441978              1
      3288.5000        -999.25        -999.25        -999.25        -999.25        60.5402       78.40518         0.5691        -999.25        -999.25          0.593        36.2935      -2.305634      0.9660677      0.9549782
      3289.0000        -999.25        -999.25        -999.25        -999.25        62.8229       81.53608          0.561        -999.25        -999.25         0.5787        37.7596     -0.8454933              1              1
      3289.5000        -999.25        -999.25        -999.25        -999.25        64.9484       84.45135         0.5526        -999.25        -999.25         0.5687         37.484       -1.12706              1      0.9956186
      3290.0000        -999.25        -999.25        -999.25        -999.25        65.6028       85.34865         0.5443        -999.25        -999.25         0.5692        36.3163      -2.300724              1      0.9551474
      3290.5000        -999.25        -999.25        -999.25        -999.25        61.0977       79.16842         0.5524        -999.25        -999.25         0.5813        36.8615       -1.76149      0.9823068      0.9737417
      3291.0000        -999.25        -999.25        -999.25        -999.25        58.3945       75.45998         0.5686        -999.25        -999.25         0.5893        38.4946     -0.1343575      0.9034038              1
      3291.5000        -999.25        -999.25        -999.25        -999.25        57.9683       74.87496         0.5853        -999.25        -999.25         0.5936        39.9852       1.350281      0.8909566              1
      3292.0000        -999.25        -999.25        -999.25        -999.25        56.6613       73.08173         0.6129        -999.25        -999.25         0.6067        37.9764     -0.6644859      0.8528027              1
      3292.5000        -999.25        -999.25        -999.25        -999.25        55.2431       71.13594         0.6434        -999.25        -999.25         0.6326        36.2131      -2.433746       0.811403      0.9505605
      3293.0000        -999.25        -999.25        -999.25        -999.25        53.4761        68.7117         0.6668        -999.25        -999.25         0.6554        35.6765      -2.976315      0.7598234      0.9318512
      3293.5000        -999.25        -999.25        -999.25        -999.25        53.8292       69.19569         0.6804        -999.25        -999.25         0.6745        35.8619      -2.796875       0.770121      0.9380388
      3294.0000        -999.25        -999.25        -999.25        -999.25        55.1387       70.99161         0.6821        -999.25        -999.25         0.6804        35.9332      -2.731541      0.8083321      0.9402917
      3294.5000        -999.25        -999.25        -999.25        -999.25        56.4796        72.8306          0.677        -999.25        -999.25          0.682        34.7974      -3.873306      0.8474597      0.9009205
      3295.0000        -999.25        -999.25        -999.25        -999.25        55.3579       71.29156          0.672        -999.25        -999.25         0.6733         33.788      -4.888672       0.814714      0.8659078
      3295.5000        -999.25        -999.25        -999.25        -999.25        54.1048       69.57224         0.6626        -999.25        -999.25          0.664        33.0807      -5.601936      0.7781328      0.8413125
      3296.0000        -999.25        -999.25        -999.25        -999.25        56.7141       73.15117          0.651        -999.25        -999.25         0.6505        34.6058      -4.082798      0.8542802      0.8936966
      3296.5000        -999.25        -999.25        -999.25        -999.25        59.6365       77.15958         0.6396        -999.25        -999.25         0.6308        34.9042      -3.790363      0.9395655      0.9037806
      3297.0000        -999.25        -999.25        -999.25        -999.25        61.9443       80.32491         0.6336        -999.25        -999.25         0.6146         38.804      0.1034737              1              1
      3297.5000        -999.25        -999.25        -999.25        -999.25        61.5778       79.82179         0.6343        -999.25        -999.25         0.6103        37.7689     -0.9375916      0.9962084              1
      3298.0000        -999.25        -999.25        -999.25        -999.25        59.7446       77.30673          0.635        -999.25        -999.25         0.6071        38.1446     -0.5678558      0.9426965              1
      3298.5000        -999.25        -999.25        -999.25        -999.25        60.0233       77.68867         0.6371        -999.25        -999.25         0.6039        39.5051      0.7866783      0.9508227              1
      3299.0000        -999.25        -999.25        -999.25        -999.25        61.7497       80.05647         0.6399        -999.25        -999.25         0.6027        40.5043       1.779911              1              1
      3299.5000        -999.25        -999.25        -999.25        -999.25        62.3821       80.92359         0.6411        -999.25        -999.25         0.6045        38.7438     0.01345062              1              1
      3300.0000        -999.25        -999.25        -999.25        -999.25        60.8822       78.86575          0.642        -999.25        -999.25         0.6064        35.8804      -2.855915      0.9758669      0.9360029
      3300.5000        -999.25        -999.25        -999.25        -999.25        60.2897       78.05261         0.6358        -999.25        -999.25         0.6082        33.9495      -4.792778      0.9585662      0.8692145
      3301.0000        -999.25        -999.25        -999.25        -999.25        60.3002       78.06664         0.6296        -999.25        -999.25         0.6058        36.8688      -1.879444      0.9588646      0.9696743
      3301.5000        -999.25        -999.25        -999.25        -999.25        61.5576       79.79109         0.6234        -999.25        -999.25         0.6032        38.0863     -0.6679077      0.9955552              1
      3302.0000        -999.25        -999.25        -999.25        -999.25        62.7652       81.44724         0.6164        -999.25        -999.25         0.6006        37.8177     -0.9424744              1              1
      3302.5000        -999.25        -999.25        -999.25        -999.25        63.6241       82.62505         0.6071        -999.25        -999.25         0.5971        37.6707       -1.09544              1       0.996709
      3303.0000        -999.25        -999.25        -999.25        -999.25        64.4836       83.80369          0.598        -999.25        -999.25         0.5932        36.6545      -2.117603              1       0.961462
      3303.5000        -999.25        -999.25        -999.25        -999.25        64.4603       83.77135          0.589        -999.25        -999.25         0.5892        35.5838      -3.194267              1      0.9243356
      3304.0000        -999.25        -999.25        -999.25        -999.25        63.4995       82.45301         0.5802        -999.25        -999.25         0.5846        36.6152      -2.168831              1      0.9596955
      3304.5000        -999.25        -999.25        -999.25        -999.25        62.8536       81.56664         0.5714        -999.25        -999.25         0.5801         37.356      -1.433998              1      0.9850345
      3305.0000        -999.25        -999.25        -999.25        -999.25        63.9921       83.12798         0.5627        -999.25        -999.25         0.5755         38.101     -0.6949577              1              1
      3305.5000        -999.25        -999.25        -999.25        -999.25        62.6424       81.27617         0.5541        -999.25        -999.25         0.5713        39.5002      0.6982727              1              1
