#------------------------------------------------------------------------------
# Created by    : vladimir.rabinovich
# Created on    : 09/19/2023 17:21:20
#------------------------------------------------------------------------------
~Version Information Section
VERS.           2.0     :   CWLS log ASCII Standard - VERSION 2.0
WRAP.           NO      :   One line per depth step
~Well Information Section
#MNEM       .UNIT                                         VALUE :DESCRIPTION
#------------------------------------------------------------------------------
STRT        .FT                                            6712 :START DEPTH
STOP        .FT                                           10254 :STOP DEPTH
STEP        .FT                                             0.5 :STEP      
NULL        .                                           -999.25 :NULL      
COMP        .                                SHELL OFFSHORE INC :COMPANY   
WELL        .                               OCS G17145 ST00BP00 :WELL      
FLD         .                                           WILDCAT :FIELD     
LOC         .                                                   :LOCATION  
CNTY        .                           HIGH ISLAND LARGE BLOCK :LOCATION  
STAT        .                                             TEXAS :STATE     
CTRY        .                                     UNITED STATES :COUNTRY   
SRVC        .                                                   :SERVICE COMPANY
DATE        .                             9/13/2023 11:19:48 AM :LOG DATE  
API         .                                    42708404610000 :API NUMBER
UWI         .                                    42708404610000 :UNIQUE WELL ID
XCOORD      .                                  1236256.25309123 :SURFACE X 
YCOORD      .                                  10648843.7308139 :SURFACE Y 
LAT         .                                         29.336637 :LATITUDE  
LON         .                                        -94.268822 :LONGITUDE 
ELEV        .FT                                             110 :ELEVATION VALUE
ELEV_TYPE   .                                                KB :ELEVATION REFERENCE TYPE
~Curve Information Section
#MNEM       .UNIT                                      API CODE :CURVE DESCRIPTION
#------------------------------------------------------------------------------
DEPT        .FT                                                 :DEPTH     
CALI        .IN                                                 :          
CPCHM       .MMHO                                               :          
CPCM        .MMHO                                               :          
DFL         .OHMM                                               :          
DPHI        .%                                                  :          
DRHO        .G/C3                                               :          
DT          .US/F                                               :          
GR          .GAPI                                               :          
GR_NORM     .GAPI                                               :GammaRay Normalized
GRAM        .GAPI                                               :          
HDCN        .MMHO                                               :          
HDRS        .OHMM                                               :          
HMRS        .OHMM                                               :          
NPHI        .%                                                  :          
PE          .G/C3                                               :          
RACHM       .OHMM                                               :          
RACM        .OHMM                                               :          
RHOB        .G/C3                                               :          
ROPS        .F/HR                                               :          
RPCHM       .OHMM                                               :          
RPCM        .OHMM                                               :          
RPTHM       .MINS                                               :          
RPTM        .MINS                                               :          
SP01        .MV                                                 :          
TENS        .LBS                                                :          
VSH_GR      .V/V                                                :Volume of Shale from GR
~A        DEPTH           CALI          CPCHM           CPCM            DFL           DPHI           DRHO             DT             GR        GR_NORM           GRAM           HDCN           HDRS           HMRS           NPHI             PE          RACHM           RACM           RHOB           ROPS          RPCHM           RPCM          RPTHM           RPTM           SP01           TENS         VSH_GR
# ...
      8752.0000        16.2749       2271.633        -999.25         0.5765        21.6521        -0.0364       122.9125         57.202       89.20732         93.569       2048.965         0.4881         0.5017         36.156         7.1753          0.455        -999.25         2.2927         22.061           0.44        -999.25       113.3787        -999.25       500.6104       4095.988              1
      8752.5000        16.4132       2283.887        -999.25         0.5555        22.0701        -0.0351       123.5577        59.4957       89.57703        93.8319       2081.535         0.4804         0.4939        35.5794         7.1549          0.453        -999.25         2.2858         18.951          0.438        -999.25       112.9226        -999.25       499.7563       4097.969              1
      8753.0000        16.3888       2257.625        -999.25         0.5486        21.4876        -0.0318        123.464        59.6361       89.88655         94.052       2086.523         0.4793         0.4927        34.8064         7.2102          0.456        -999.25         2.2955         18.951          0.443        -999.25       111.2932        -999.25       498.8188       4110.766              1
      8753.5000        16.2261       2238.141        -999.25         0.5679        21.3255        -0.0308        123.225        60.6659       87.84467           92.6       2073.113         0.4824         0.4961        35.1669         7.1582          0.459        -999.25         2.2981         34.877          0.447        -999.25       113.2073        -999.25       495.5776       4127.875              1
      8754.0000        16.0878       2261.207        -999.25         0.5824        21.7616        -0.0339       123.3171        61.7894       84.95609        90.5459       2066.273          0.484         0.4985        34.2842         7.2437          0.458        -999.25         2.2909         34.877          0.442        -999.25       119.1553        -999.25        495.189       4132.984              1
      8754.5000        15.9983       2263.605        -999.25          0.565        21.9368        -0.0346       123.5343        58.2318       85.49483         90.929       2070.094         0.4831         0.4988        35.2112         7.4518          0.462        -999.25          2.288         25.659          0.442        -999.25       118.7742        -999.25       495.0479       4128.828              1
      8755.0000        16.0471       2191.434        -999.25         0.5661        21.5709        -0.0352       123.7328        58.0914       89.39717         93.704        2064.57         0.4844         0.5013        36.4389         7.4763          0.472        -999.25         2.2941         25.659          0.456        -999.25       117.6439        -999.25       494.7817       4118.758              1
      8755.5000        16.1284       2098.688        -999.25         0.5864        21.6622        -0.0377       123.1875        59.4957       89.74437        93.9509       2041.596         0.4898         0.5074        35.7496         7.5588          0.478        -999.25         2.2926         23.475          0.477        -999.25       117.1715        -999.25       494.8965       4111.719              1
      8756.0000        16.1122       2021.082        -999.25         0.5939        21.5635        -0.0392       123.3093         58.934       90.80202         94.703       2018.672         0.4954         0.5131        36.1589         7.6671          0.479        -999.25         2.2942         23.475          0.495        -999.25       118.8369        -999.25       494.9824       4108.172              1
      8756.5000        16.2098       2148.406        -999.25         0.6005        21.0287        -0.0396       124.6281           60.9       89.61359        93.8579       2013.611         0.4966         0.5141        35.4581         7.6889          0.478        -999.25          2.303         34.076          0.466        -999.25       120.2968        -999.25       494.7295       4105.945              1
      8757.0000        16.4702       2215.191        -999.25         0.6047        21.3742        -0.0432       124.4844        63.9894       89.91045         94.069       2029.828         0.4927          0.509        35.3451         7.4777          0.474        -999.25         2.2973         34.076          0.451        -999.25       120.9972        -999.25       494.8052       4104.023              1
      8757.5000        16.5434        2158.68        -999.25         0.5837        21.9638        -0.0463       123.2891        63.5681        90.7175        94.6429       2069.867         0.4831         0.4981        35.5164          7.351          0.471        -999.25         2.2876         34.548          0.463        -999.25       121.1722        -999.25       494.5859       4106.977              1
      8758.0000        16.5108       2141.332        -999.25         0.5541        21.9285        -0.0461       123.2094        63.6149       91.75953        95.3839       2122.781         0.4711          0.486        35.7811         7.3428          0.472        -999.25         2.2882         34.548          0.467        -999.25       121.2229        -999.25       494.1108       4114.906              1
      8758.5000        16.5271       2205.398        -999.25         0.5421        22.2365        -0.0466       123.3999        62.3511       91.78358         95.401       2150.719          0.465           0.48        36.2028         7.3617          0.467        -999.25         2.2831         25.134          0.453        -999.25        121.218        -999.25       494.4312       4125.125              1
      8759.0000        16.5271       2248.762        -999.25         0.5453        22.1789        -0.0449       123.1812        59.7765           90.2        94.2749       2140.566         0.4672         0.4818        36.9982         7.3632          0.461        -999.25          2.284         25.134          0.445        -999.25        121.464        -999.25       494.7012       4131.375              1
      8759.5000        16.4132       2259.047        -999.25         0.5718        21.6412        -0.0413            124         59.168       89.40688        93.7109       2119.328         0.4718         0.4861        38.2083         7.2832           0.46        -999.25         2.2929         24.893          0.443        -999.25       121.7866        -999.25       495.0474        4130.93              1
      8760.0000        16.4132        2107.52        -999.25         0.5843        21.5024        -0.0401       124.9406        59.5893       90.24092         94.304       2115.402         0.4727         0.4871        37.2468         7.3924          0.468        -999.25         2.2952         24.893          0.475        -999.25       122.0652        -999.25       495.1948       4125.297              1
      8760.5000        16.5027           2130        -999.25         0.5707        21.2422        -0.0351       125.4906        57.9041        91.2942         95.053       2129.551         0.4696         0.4841        37.0638         7.2855          0.474        -999.25         2.2995         26.447          0.469        -999.25        122.311        -999.25       495.1973       4119.781              1
      8761.0000        16.4864       2155.863        -999.25         0.5552        21.2026        -0.0322       125.4359        57.1552       90.11436         94.214       2143.863         0.4664         0.4805        37.3493         7.2298          0.472        -999.25         2.3002         26.447          0.464        -999.25       122.6312        -999.25       495.1685       4113.977              1
      8761.5000        16.5108       2226.488        -999.25         0.5623        21.6853        -0.0337       125.6671        56.5934       91.71452        95.3519       2146.113          0.466         0.4795        37.0339         7.1541          0.468        -999.25         2.2922         36.621          0.449        -999.25       123.3102        -999.25       494.6001       4112.719              1
