#------------------------------------------------------------------------------
# Created by    : vladimir.rabinovich
# Created on    : 09/19/2023 17:20:35
#------------------------------------------------------------------------------
~Version Information Section
VERS.           2.0     :   CWLS log ASCII Standard - VERSION 2.0
WRAP.           NO      :   One line per depth step
~Well Information Section
#MNEM       .UNIT                                         VALUE :DESCRIPTION
#------------------------------------------------------------------------------
STRT        .FT                                             504 :START DEPTH
STOP        .FT                                            9361 :STOP DEPTH
STEP        .FT                                             0.5 :STEP      
NULL        .                                           -999.25 :NULL      
COMP        .                                      SHELL OIL CO :COMPANY   
WELL        .                                OCS 00704 ST00BP00 :WELL      
FLD         .                                           WILDCAT :FIELD     
LOC         .                                                   :LOCATION  
CNTY        .                             GALVESTON LARGE BLOCK :LOCATION  
STAT        .                                             TEXAS :STATE     
CTRY        .                                     UNITED STATES :COUNTRY   
SRVC        .                                                   :SERVICE COMPANY
DATE        .                             9/13/2023 11:19:25 AM :LOG DATE  
API         .                                    42706000430000 :API NUMBER
UWI         .                                    42706000430000 :UNIQUE WELL ID
XCOORD      .                                  1136254.96267488 :SURFACE X 
YCOORD      .                                  10526383.5552877 :SURFACE Y 
LAT         .                                         28.996505 :LATITUDE  
LON         .                                        -94.577519 :LONGITUDE 
ELEV        .FT                                              42 :ELEVATION VALUE
ELEV_TYPE   .                                                KB :ELEVATION REFERENCE TYPE
~Curve Information Section
#MNEM       .UNIT                                      API CODE :CURVE DESCRIPTION
#------------------------------------------------------------------------------
DEPT        .FT                                                 :DEPTH     
ASN         .OHMM                                               :          
DT          .US/F                                               :          
LN          .OHMM                                               :          
SP          .MV                                                 :          
SP_NORM     .MV                                                 :SP Normalized
VSH_SP      .V/V                                                :Volume of Shale from SP
~A        DEPTH            ASN             DT             LN             SP        SP_NORM         VSH_SP
# ...
      4608.0000         0.8308       148.2809        -999.25       -50.6658      0.7436028              1
      4608.5000          0.827       153.0059        -999.25        -50.821      0.5862503              1
      4609.0000         0.8304       152.8459        -999.25       -50.9761      0.4289932              1
      4609.5000         0.8338        152.415        -999.25       -51.1313       0.271637              1
      4610.0000         0.8372       151.6282        -999.25       -51.1957      0.2050858              1
      4610.5000          0.844        148.795        -999.25       -51.1097      0.2889328              1
      4611.0000         0.8509        148.838        -999.25       -51.0236      0.3728752              1
      4611.5000         0.8577        150.136        -999.25       -50.9376      0.4567261              1
      4612.0000         0.8645        156.455        -999.25       -50.8514      0.5407715              1
      4612.5000         0.8714       162.6515        -999.25       -50.7286      0.6614189              1
      4613.0000         0.8804       163.3352        -999.25       -50.5979      0.7899628              1
      4613.5000         0.8908       161.5569        -999.25       -50.4672      0.9185066              1
      4614.0000         0.9011       157.0874        -999.25       -50.4246      0.9589577              1
      4614.5000         0.9114       157.2339        -999.25       -50.6215       0.759903              1
      4615.0000         0.9282       161.3165        -999.25       -50.8375      0.5417442              1
      4615.5000         0.9484       165.2867        -999.25       -51.3197     0.05739594              1
      4616.0000         0.9758       166.6846        -999.25       -51.8022     -0.4272614              1
      4616.5000         1.0111       166.6981        -999.25       -52.2763      -0.903511              1
      4617.0000         1.0599       166.2514        -999.25       -52.7214      -1.350769      0.9879045
      4617.5000         1.0932       161.6777        -999.25       -53.1666      -1.798122      0.9724785
      4618.0000         1.1226       153.3265        -999.25       -53.6117      -2.245373      0.9570561
      4618.5000         1.1302       135.9124        -999.25       -54.1572       -2.79303      0.9381714
      4619.0000         1.1212       122.9374        -999.25       -54.7032      -3.341183      0.9192696
      4619.5000         1.1058       124.1903        -999.25       -54.7372      -3.377338      0.9180228
      4620.0000         1.0904         123.31        -999.25       -54.2933      -2.935593      0.9332554
      4620.5000         1.0768       122.7299        -999.25       -53.6161      -2.260544       0.956533
      4621.0000         1.0747       123.7494        -999.25       -52.9435      -1.590099      0.9796517
      4621.5000         1.0726       128.0935        -999.25       -52.3638      -1.012554      0.9995671
      4622.0000         1.0705       133.1029        -999.25       -52.2025      -0.853405              1
      4622.5000         1.0673        137.132        -999.25       -52.4498      -1.102859      0.9964531
      4623.0000         1.0637        137.927        -999.25       -52.6971      -1.352314      0.9878513
      4623.5000         1.0602       143.7565        -999.25       -52.8187      -1.476067      0.9835839
      4624.0000         1.0364       145.4272        -999.25       -52.6371      -1.296623      0.9897716
      4624.5000          1.001        139.314        -999.25       -52.4553      -1.116974      0.9959664
      4625.0000         0.9502       133.2007        -999.25       -52.2735     -0.9373283              1
      4625.5000         0.9174       127.0874        -999.25       -51.9451      -0.611084              1
      4626.0000          0.906       123.7646        -999.25       -51.5669     -0.2350349              1
      4626.5000         0.9074       133.8119        -999.25       -51.1887      0.1410065              1
      4627.0000         0.9088       142.3784        -999.25       -50.9402      0.3873558              1
      4627.5000         0.9102       150.9449        -999.25       -50.8685      0.4569016              1
      4628.0000         0.9102       153.2961        -999.25       -50.8544      0.4688454              1
      4628.5000         0.9086       151.8784        -999.25       -50.9128      0.4082947              1
      4629.0000          0.907       147.9619        -999.25       -50.9713       0.347641              1
      4629.5000         0.9054       144.0453        -999.25       -51.0297      0.2870865              1
      4630.0000         0.9038       140.7937        -999.25       -51.0958      0.2188339              1
      4630.5000         0.9022       140.0581        -999.25       -51.2764     0.03607559              1
      4631.0000         0.8925        145.365        -999.25       -51.4572     -0.1468735              1
      4631.5000         0.8785        146.777        -999.25       -51.6379      -0.329731              1
      4632.0000         0.8658       151.9816        -999.25        -51.684     -0.3779831              1
      4632.5000         0.8572        149.367        -999.25       -51.5721     -0.2682381              1
      4633.0000         0.8486       148.5546        -999.25       -51.4604     -0.1586914              1
      4633.5000         0.8399       147.2033        -999.25       -51.3485    -0.04894257              1
      4634.0000         0.8313        144.575        -999.25       -51.2213     0.07610321              1
      4634.5000         0.8227       146.1446        -999.25         -51.06      0.2352448              1
      4635.0000         0.8141       151.2152        -999.25       -50.8987      0.3943939              1
      4635.5000         0.8064       156.9345        -999.25       -50.7375      0.5534401              1
      4636.0000         0.7989       157.7351        -999.25       -50.5761      0.7126884              1
      4636.5000         0.7996       156.6592        -999.25       -50.4149      0.8717308              1
      4637.0000         0.8059       152.9019        -999.25       -50.3468      0.9376755              1
      4637.5000         0.8122       149.6005        -999.25       -50.2802       1.002125              1
      4638.0000         0.8185       150.7804        -999.25       -50.2136        1.06657              1
      4638.5000         0.8248       155.2596        -999.25        -50.147       1.131016              1
      4639.0000         0.8314       159.7387        -999.25       -50.0804       1.195465              1
      4639.5000         0.8379        165.014        -999.25       -50.0139       1.259808              1
      4640.0000         0.8445       165.6693        -999.25       -49.9525       1.319057              1
      4640.5000          0.851       161.8727        -999.25       -49.9863         1.2831              1
      4641.0000         0.8576       155.3244        -999.25       -50.0201       1.247147              1
      4641.5000         0.8642       148.7761        -999.25       -50.3162      0.9488945              1
      4642.0000          0.869       142.2278        -999.25        -50.653      0.6099396              1
      4642.5000         0.8728       138.8606        -999.25       -50.9902      0.2705841              1
      4643.0000         0.8767       142.5108        -999.25       -51.3026     -0.0439682              1
      4643.5000         0.8805       148.5652        -999.25       -51.5837     -0.3272209              1
      4644.0000         0.8843       152.3099        -999.25       -51.8649     -0.6105728              1
      4644.5000         0.8882       153.8745        -999.25       -52.1458      -0.893631              1
      4645.0000         0.8921        149.672        -999.25        -52.427      -1.176983      0.9938971
      4645.5000          0.898       145.4107        -999.25       -51.8807     -0.6328354              1
