#------------------------------------------------------------------------------
# Created by    : vladimir.rabinovich
# Created on    : 09/19/2023 17:21:31
#------------------------------------------------------------------------------
~Version Information Section
VERS.           2.0     :   CWLS log ASCII Standard - VERSION 2.0
WRAP.           NO      :   One line per depth step
~Well Information Section
#MNEM       .UNIT                                         VALUE :DESCRIPTION
#------------------------------------------------------------------------------
STRT        .FT                                              40 :START DEPTH
STOP        .FT                                           13401 :STOP DEPTH
STEP        .FT                                             0.5 :STEP      
NULL        .                                           -999.25 :NULL      
COMP        .                                        TEXACO USA :COMPANY   
WELL        .                               OCS G01759 ST00BP00 :WELL      
FLD         .                                           WILDCAT :FIELD     
LOC         .                                                   :LOCATION  
CNTY        .                             GALVESTON LARGE BLOCK :LOCATION  
STAT        .                                             TEXAS :STATE     
CTRY        .                                     UNITED STATES :COUNTRY   
SRVC        .                                                   :SERVICE COMPANY
DATE        .                             9/13/2023 11:19:24 AM :LOG DATE  
API         .                                    42706001440000 :API NUMBER
UWI         .                                    42706001440000 :UNIQUE WELL ID
XCOORD      .                                   1131482.4965331 :SURFACE X 
YCOORD      .                                  10562344.6824913 :SURFACE Y 
LAT         .                                         29.095227 :LATITUDE  
LON         .                                        -94.593967 :LONGITUDE 
ELEV        .FT                                              83 :ELEVATION VALUE
ELEV_TYPE   .                                                KB :ELEVATION REFERENCE TYPE
~Curve Information Section
#MNEM       .UNIT                                      API CODE :CURVE DESCRIPTION
#------------------------------------------------------------------------------
DEPT        .FT                                                 :DEPTH     
CALI        .IN                                                 :          
DT          .US/F                                               :          
GR          .GAPI                                               :          
GR_NORM     .GAPI                                               :GammaRay Normalized
RHOB        .G/C3                                               :          
SP          .MV                                                 :          
SP_NORM     .MV                                                 :SP Normalized
VSH_GR      .V/V                                                :Volume of Shale from GR
VSH_SP      .V/V                                                :Volume of Shale from SP
~A        DEPTH           CALI             DT             GR        GR_NORM           RHOB             SP        SP_NORM         VSH_GR         VSH_SP
# ...
      3140.5000        12.7758       142.1221        54.7166        79.3812         2.7047        -999.25        -999.25      0.9868341        -999.25
      3141.0000        12.7361       146.6846        54.1541       78.44133         2.7028        -999.25        -999.25      0.9668368        -999.25
      3141.5000        12.8396       155.7227        54.0947       78.35347         2.6989        -999.25        -999.25      0.9649674        -999.25
      3142.0000        12.9562       162.8584         54.659       79.32185          2.726        -999.25        -999.25      0.9855712        -999.25
      3142.5000        13.0492       165.3347        55.1373       80.14457         2.7429        -999.25        -999.25              1        -999.25
      3143.0000        13.4084        165.374        55.5685       80.88756         2.7512        -999.25        -999.25              1        -999.25
      3143.5000        13.6939       164.4277        57.0894       83.47596         2.7414        -999.25        -999.25              1        -999.25
      3144.0000        13.7996       163.5923        58.7645        86.3255         2.7286        -999.25        -999.25              1        -999.25
      3144.5000        13.7903       166.3264        59.3273       87.29133         2.7163        -999.25        -999.25              1        -999.25
      3145.0000        13.8817       161.3848        57.9408       84.95599         2.7022        -999.25        -999.25              1        -999.25
      3145.5000        13.8696       158.7202        56.3087       82.20476         2.7056        -999.25        -999.25              1        -999.25
      3146.0000        13.4643       158.2097        54.6041       79.33072         2.7127        -999.25        -999.25        0.98576        -999.25
      3146.5000        13.2569       155.8291        52.8231       76.32732         2.6779        -999.25        -999.25      0.9218578        -999.25
      3147.0000        13.0325       153.6992         50.631       72.62772          2.613        -999.25        -999.25       0.843143        -999.25
      3147.5000        12.9052        152.248        48.1158       68.38092         2.5821        -999.25        -999.25      0.7527856        -999.25
      3148.0000        13.0012       152.8916        47.8968       68.02278         2.5551        -999.25        -999.25      0.7451656        -999.25
      3148.5000        13.2256       151.9792        48.2833       68.69006         2.5883        -999.25        -999.25      0.7593631        -999.25
      3149.0000        13.5269        151.385        48.5706       69.18932         2.6242        -999.25        -999.25      0.7699856        -999.25
      3149.5000        13.7538       152.4485        48.5683       69.19817         2.6252        -999.25        -999.25      0.7701737        -999.25
      3150.0000        13.6409       154.3677        48.5297       69.14554         2.6158        -999.25        -999.25       0.769054        -999.25
      3150.5000        14.0527       158.8079        49.6625       71.07668         2.6117        -999.25        -999.25       0.810142        -999.25
      3151.0000        14.3361       163.2605        50.8444       73.09097         2.6142        -999.25        -999.25      0.8529993        -999.25
      3151.5000        14.1972       164.2615         52.139       75.29611         2.6024        -999.25        -999.25      0.8999173        -999.25
      3152.0000        13.5957       165.4521        52.3444       75.65668         2.5983        -999.25        -999.25       0.907589        -999.25
      3152.5000        13.2397       167.1182        52.4001       75.76375         2.6123        -999.25        -999.25       0.909867        -999.25
      3153.0000        13.2285       168.2014         53.213       77.15314         2.6233        -999.25        -999.25      0.9394284        -999.25
      3153.5000        13.3216       167.5627        54.3826       79.14658         2.6224        -999.25        -999.25       0.981842        -999.25
      3154.0000        13.1961       166.9639        54.6753       79.65501         2.6182        -999.25        -999.25      0.9926597        -999.25
      3154.5000        13.2324       166.8198        54.1897       78.84538         2.6389        -999.25        -999.25      0.9754336        -999.25
      3155.0000        13.3029       165.4268        53.1894       77.16409         2.6623        -999.25        -999.25      0.9396614        -999.25
      3155.5000        13.3433       163.7666        52.2354       75.56121         2.6773        -999.25        -999.25      0.9055577        -999.25
      3156.0000        13.3321       162.8992         51.645        74.5741         2.6767        -999.25        -999.25      0.8845552        -999.25
      3156.5000         13.302       163.5208        51.6431       74.58361         2.6932        -999.25        -999.25      0.8847577        -999.25
      3157.0000        13.3141       164.8623        51.4725       74.30743         2.7068        -999.25        -999.25      0.8788816        -999.25
      3157.5000          13.22       166.8943        51.3279       74.07527         2.7156        -999.25        -999.25       0.873942        -999.25
      3158.0000        12.9002       171.7063        51.2021       73.87495         2.7203        -999.25        -999.25      0.8696799        -999.25
      3158.5000         13.078       175.6252        51.1381        73.7793         2.7026        -999.25        -999.25      0.8676448        -999.25
      3159.0000        13.3533       175.0762        51.2366       73.95885          2.713        -999.25        -999.25      0.8714648        -999.25
      3159.5000        13.3627       173.4282        51.6132       74.60935         2.7293        -999.25        -999.25      0.8853053        -999.25
      3160.0000        13.1196       169.8403        51.6365       74.66155         2.7428        -999.25        -999.25       0.886416        -999.25
      3160.5000         12.659       165.6252         51.496       74.43634         2.7852        -999.25        -999.25      0.8816243        -999.25
      3161.0000        12.4468        160.749        49.9883       71.89578         2.7794        -999.25        -999.25      0.8275698        -999.25
      3161.5000         12.602       158.8032        49.3212       70.77878         2.7592        -999.25        -999.25      0.8038038        -999.25
      3162.0000        12.9071       157.5911        48.9567        70.1742         2.7216        -999.25        -999.25      0.7909405        -999.25
      3162.5000        12.8379       159.6023        47.1191       67.07495         2.6877        -999.25        -999.25       0.724999        -999.25
      3163.0000        13.2154       159.7017        46.2711       65.65158         2.6311        -999.25        -999.25      0.6947145        -999.25
      3163.5000        13.6206       158.8733        46.2817       65.68227         2.6251        -999.25        -999.25      0.6953674        -999.25
      3164.0000        14.1229       161.5059        47.2906       67.40356          2.638        -999.25        -999.25      0.7319908        -999.25
      3164.5000        14.3546       162.9333        49.3975       70.98437         2.6672        -999.25        -999.25       0.808178        -999.25
      3165.0000        14.4546       167.1484        51.9286       75.28352         2.7152        -999.25        -999.25      0.8996494        -999.25
      3165.5000        13.8754        162.804        52.9012       76.94336         2.7467        -999.25        -999.25      0.9349651        -999.25
      3166.0000        13.3532       157.1079        54.0444       78.89213         2.7929        -999.25        -999.25      0.9764283        -999.25
      3166.5000        13.0607       152.7947        53.4894       77.96495         2.8138        -999.25        -999.25      0.9567011        -999.25
