#------------------------------------------------------------------------------
# Created by    : vladimir.rabinovich
# Created on    : 09/19/2023 17:22:44
#------------------------------------------------------------------------------
~Version Information Section
VERS.           2.0     :   CWLS log ASCII Standard - VERSION 2.0
WRAP.           NO      :   One line per depth step
~Well Information Section
#MNEM       .UNIT                                         VALUE :DESCRIPTION
#------------------------------------------------------------------------------
STRT        .FT                                            3420 :START DEPTH
STOP        .FT                                           11707 :STOP DEPTH
STEP        .FT                                             0.5 :STEP      
NULL        .                                           -999.25 :NULL      
COMP        .                        TRI-UNION DEVELOPMENT CORP :COMPANY   
WELL        .                               OCS G08154 ST00BP00 :WELL      
FLD         .                                           WILDCAT :FIELD     
LOC         .                                                   :LOCATION  
CNTY        .                           HIGH ISLAND LARGE BLOCK :LOCATION  
STAT        .                                             TEXAS :STATE     
CTRY        .                                     UNITED STATES :COUNTRY   
SRVC        .                                                   :SERVICE COMPANY
DATE        .                             9/13/2023 11:19:57 AM :LOG DATE  
API         .                                    42708403520000 :API NUMBER
UWI         .                                    42708403520000 :UNIQUE WELL ID
XCOORD      .                                  1180527.91159004 :SURFACE X 
YCOORD      .                                  10524923.1623167 :SURFACE Y 
LAT         .                                        28.9940426 :LATITUDE  
LON         .                                       -94.4389714 :LONGITUDE 
ELEV        .FT                                             100 :ELEVATION VALUE
ELEV_TYPE   .                                                KB :ELEVATION REFERENCE TYPE
~Curve Information Section
#MNEM       .UNIT                                      API CODE :CURVE DESCRIPTION
#------------------------------------------------------------------------------
DEPT        .FT                                                 :DEPTH     
DCAL        .IN                                                 :          
DPHI        .%                                                  :          
DRHO        .G/C3                                               :          
GR          .GAPI                                               :          
GR_NORM     .GAPI                                               :GammaRay Normalized
ILD         .OHMM                                               :          
ILM         .OHMM                                               :          
NPHI        .%                                                  :          
SFL         .OHMM                                               :          
SP          .MV                                                 :          
SP_NORM     .MV                                                 :SP Normalized
VSH_GR      .V/V                                                :Volume of Shale from GR
VSH_SP      .V/V                                                :Volume of Shale from SP
~A        DEPTH           DCAL           DPHI           DRHO             GR        GR_NORM            ILD            ILM           NPHI            SFL             SP        SP_NORM         VSH_GR         VSH_SP
# ...
      8417.0000         2.2528        23.9722         -0.014        71.9442       73.17967         0.6521         0.8021        29.6922         0.8139       -54.2382       -20.2759      0.8548867      0.4461848
      8417.5000         2.3294        25.2681        -0.0144        72.7777       74.12566         0.7679         0.7983        28.7795         0.8085       -51.3815       -17.4192      0.8750139      0.5327515
      8418.0000         2.3233        25.2408         -0.013        72.8262       74.18084         0.8556         0.7989        28.6573         0.8004       -49.7656       -15.8033      0.8761881      0.5817182
      8418.5000         2.2774        24.4415        -0.0096        69.3893       70.28098          0.868         0.8007        28.9924         0.7976       -49.2981       -15.3358      0.7932124      0.5958849
      8419.0000         2.2361        22.4969        -0.0019        66.7239       67.25657         0.8652         0.8033        29.9453         0.7996       -49.4007       -15.4384      0.7288632      0.5927758
      8419.5000         2.2059        21.4492         0.0041         68.259       68.99869         0.8571         0.8031        30.3481         0.8024        -49.243       -15.2807      0.7659295      0.5975546
      8420.0000         2.2199        20.5994         0.0053        69.7968       70.74387         0.8478         0.8017        30.7062         0.8032       -49.0651       -15.1028      0.8030611      0.6029454
      8420.5000         2.3695        20.3293         0.0058        69.9631       70.93272         0.8368         0.8027        30.9966         0.8009       -48.8424       -14.8801      0.8070793      0.6096939
      8421.0000         2.5298        21.0994         0.0055        66.0656       66.51019         0.8195         0.8049        31.3494          0.784       -48.5586       -14.5963      0.7129827      0.6182939
      8421.5000          2.776        22.8601         0.0014        59.8453       59.45186         0.8166         0.8055        32.6329         0.7256       -48.2497       -14.2874      0.5628055      0.6276546
      8422.0000         2.6522          25.15        -0.0104        57.0433       56.27245         0.8087         0.8049        36.9509         0.6937       -48.2403        -14.278      0.4951584      0.6279394
      8422.5000         2.3695        27.5265        -0.0116        58.0916       57.46217         0.8082         0.8014        41.4774         0.6883        -48.598       -14.6357      0.5204716         0.6171
      8423.0000         2.2338        30.2229        -0.0116        59.8304       59.43543          0.811         0.7933        46.3553         0.6906       -49.0123         -15.05       0.562456      0.6045455
      8423.5000         2.3509        32.3603        -0.0068        62.7568       62.75633         0.8259         0.7898        49.4397         0.6926       -49.4731       -15.5108      0.6331134      0.5905818
      8424.0000         3.2835        34.0418        -0.0019         66.145       66.60125         0.8361         0.8055        49.3987         0.7167       -47.7845       -13.8222      0.7149202      0.6417515
      8424.5000         4.3789        34.4207         0.0046        70.4575       71.49503         0.8509         0.8473        47.2308         0.7468       -45.8891       -11.9268      0.8190431      0.6991879
      8425.0000          4.636        32.4022         0.0103        75.4854       77.20059         0.8522         0.8373        44.8276         0.7773       -44.4334       -10.4711      0.9404382         0.7433
      8425.5000         4.6806        30.3395         0.0101        81.3181       83.81944         0.8326         0.8134        42.3798         0.8049       -43.4379        -9.4756              1      0.7734666
      8426.0000         4.5228        29.0825          0.004        84.6155       87.56132         0.8057         0.7938        41.9048          0.798       -42.6312        -8.6689              1      0.7979121
      8426.5000         4.3012        29.7596        -0.0045        84.9174       87.90406         0.7787         0.7601        42.4497         0.7807       -41.8847        -7.9224              1      0.8205333
      8427.0000         4.1421         31.187        -0.0098        85.4418       88.49929         0.7638         0.7227        43.4697         0.7456       -41.1804        -7.2181              1      0.8418757
      8427.5000         4.1755        31.8155         -0.011        85.9259       89.04878         0.7654         0.6997        45.2817         0.7136       -40.5134        -6.5511              1      0.8620879
      8428.0000         4.6062         32.021        -0.0123        85.8101       88.91753         0.7683         0.6898        45.5751         0.6925        -39.916        -5.9537              1      0.8801909
      8428.5000         4.8491        31.4172        -0.0099        84.8741       87.85556          0.774         0.6851        44.8008          0.682       -39.4049        -5.4426              1      0.8956788
      8429.0000         4.8168         29.933        -0.0074        83.5985       86.40823         0.7648         0.6824        42.4736         0.6771       -38.9149        -4.9526              1      0.9105273
      8429.5000         4.7823        28.3344        -0.0049         82.108       84.71705         0.7365         0.6837        41.6993         0.6771       -38.6289        -4.6666              1      0.9191939
      8430.0000         4.7196         27.877         0.0021        81.3604       83.86886         0.7355         0.6866        42.3477         0.6841       -38.4369        -4.4746              1      0.9250121
      8430.5000         4.6571        27.4724         0.0095        81.1542       83.63504         0.7482         0.6957        47.1727         0.6922       -38.2094        -4.2471              1       0.931906
      8431.0000         4.5872        27.0841         0.0149        83.7202       86.54697         0.7622         0.7039        48.0736         0.6953       -37.2983         -3.336              1      0.9595152
      8431.5000         4.5267        26.8565         0.0229         83.226       85.98633           0.77         0.7044        47.3901          0.696       -37.0331        -3.0708              1      0.9675515
      8432.0000         4.6225        27.1573         0.0361        81.6013       84.14286         0.7765         0.7049        44.8246         0.6938       -37.0966        -3.1343              1      0.9656273
      8432.5000         4.7182        29.8403         0.0393         78.285       80.37985         0.7824         0.7065        42.5919         0.6957       -37.4673         -3.505              1      0.9543939
      8433.0000         4.9576        30.5731         0.0349        76.8219       78.71974         0.7863         0.7108        42.5906         0.7189       -37.5978        -3.6355      0.9727604      0.9504394
      8433.5000         5.1775        30.1661         0.0239        75.8617       77.63033         0.7835         0.7147        43.2538         0.7359       -37.4747        -3.5124      0.9495814      0.9541697
      8434.0000         5.3259        28.5229         0.0143        76.2455       78.06599         0.7785         0.7064        44.0124          0.738       -37.1971        -3.2348      0.9588509      0.9625818
      8434.5000         5.2811        28.6597         0.0117           77.5        79.4897         0.7699         0.6985         44.573         0.7443       -37.1011        -3.1388      0.9891425      0.9654909
      8435.0000         5.1982        28.7923         0.0083        77.7584       79.78308         0.7589         0.7252        44.9527         0.7507       -37.0841        -3.1218      0.9953847       0.966006
      8435.5000         5.1997        28.5564         0.0004        78.1086       80.18063         0.7528         0.7247        44.7562         0.7497       -37.2487        -3.2864              1      0.9610182
