#------------------------------------------------------------------------------
# Created by    : vladimir.rabinovich
# Created on    : 09/19/2023 17:19:48
#------------------------------------------------------------------------------
~Version Information Section
VERS.           2.0     :   CWLS log ASCII Standard - VERSION 2.0
WRAP.           NO      :   One line per depth step
~Well Information Section
#MNEM       .UNIT                                         VALUE :DESCRIPTION
#------------------------------------------------------------------------------
STRT        .FT                                             960 :START DEPTH
STOP        .FT                                            9172 :STOP DEPTH
STEP        .FT                                             0.5 :STEP      
NULL        .                                           -999.25 :NULL      
COMP        .                                ODECO OIL & GAS CO :COMPANY   
WELL        .                               OCS G06101 ST00BP00 :WELL      
FLD         .                                           WILDCAT :FIELD     
LOC         .                                                   :LOCATION  
CNTY        .                             GALVESTON LARGE BLOCK :LOCATION  
STAT        .                                             TEXAS :STATE     
CTRY        .                                     UNITED STATES :COUNTRY   
SRVC        .                                                   :SERVICE COMPANY
DATE        .                             9/13/2023 11:19:27 AM :LOG DATE  
API         .                                    42706401070000 :API NUMBER
UWI         .                                    42706401070000 :UNIQUE WELL ID
XCOORD      .                                  1041316.87817256 :SURFACE X 
YCOORD      .                                  10447909.9182991 :SURFACE Y 
LAT         .                                         28.776905 :LATITUDE  
LON         .                                        -94.870587 :LONGITUDE 
ELEV        .FT                                              92 :ELEVATION VALUE
ELEV_TYPE   .                                                KB :ELEVATION REFERENCE TYPE
~Curve Information Section
#MNEM       .UNIT                                      API CODE :CURVE DESCRIPTION
#------------------------------------------------------------------------------
DEPT        .FT                                                 :DEPTH     
ASFL        .OHMM                                               :          
GR          .GAPI                                               :          
GR_NORM     .GAPI                                               :GammaRay Normalized
ILD         .OHMM                                               :          
SP          .MV                                                 :          
SP_NORM     .MV                                                 :SP Normalized
VSH_GR      .V/V                                                :Volume of Shale from GR
VSH_SP      .V/V                                                :Volume of Shale from SP
~A        DEPTH           ASFL             GR        GR_NORM            ILD             SP        SP_NORM         VSH_GR         VSH_SP
# ...
      5857.0000         0.6083        50.7316       47.31646         0.3506       -91.1891      -31.78193      0.3046055      0.4703012
      5857.5000         0.6014        46.3869        41.5695         0.3204       -93.2435      -34.66573      0.1823297      0.4222378
      5858.0000         0.5946        42.9564        37.0318         0.3127       -96.3094      -38.96564     0.08578297      0.3505726
      5858.5000         0.5878        38.6821       31.37796         0.3051      -104.1504      -49.95069              0      0.1674885
      5859.0000         0.5813        38.8572       31.60958         0.2974       -99.2283       -43.0674              0        0.28221
      5859.5000         0.5748        44.1671       38.63326         0.2922       -97.7841      -41.05317      0.1198565      0.3157805
      5860.0000         0.5683        50.1104       46.49476         0.2885       -96.3411      -39.04062      0.2871226      0.3493231
      5860.5000         0.5557        51.5899       48.45177         0.2969        -94.802      -36.89352      0.3287611      0.3851079
      5861.0000         0.5415        53.0706       50.41037         0.3141       -93.3724      -34.89973      0.3704334      0.4183379
      5861.5000         0.5294        54.5208       52.32863         0.3313       -92.4482       -33.6135      0.4112474       0.439775
      5862.0000         0.5207        55.8471       54.08299         0.3485       -92.1045      -33.13997      0.4485742      0.4476671
      5862.5000          0.522        56.8427       55.39992         0.3671       -91.5939      -32.43279      0.4765941      0.4594536
      5863.0000         0.5297        57.4907       56.25706         0.3873       -91.0603      -31.69339      0.4948311      0.4717768
      5863.5000         0.5358         58.138       57.11328         0.4074       -90.5029      -30.92068      0.5130485      0.4846554
      5864.0000         0.5418        58.7233       57.88749         0.4276       -89.7485      -29.87216       0.529521      0.5021307
      5864.5000         0.5479        59.2844       58.62968         0.4478       -88.7968      -28.54743      0.5453125      0.5242095
      5865.0000          0.555        59.7034       59.18391         0.4686       -87.6455      -26.94326      0.5571045      0.5509456
      5865.5000         0.5693        60.0104          59.59         0.4922       -86.6644      -25.57737      0.5657446      0.5737106
      5866.0000          0.587        60.1844       59.82015         0.5158        -85.777      -24.34266      0.5706415      0.5942891
      5866.5000         0.6081        60.2853       59.95362         0.5388       -89.6282      -29.74198      0.5734814      0.5043004
      5867.0000         0.6295         60.386       60.08683         0.5606       -92.7841       -34.1679      0.5763155       0.430535
      5867.5000         0.6422        60.4869       60.22029         0.5823       -95.9083      -38.54943      0.5791551      0.3575095
      5868.0000         0.6549         60.803       60.63842         0.6041       -96.9111        -39.961      0.5880514      0.3339834
      5868.5000         0.6623        56.2507       54.61685         0.6258       -97.7755       -41.1788       0.459933      0.3136866
      5869.0000         0.6455        51.3687       48.15918         0.5933       -98.5979      -42.33781      0.3225357      0.2943698
      5869.5000         0.6079        50.5767       47.11156         0.5481       -99.2526      -43.26204      0.3002459       0.278966
      5870.0000         0.5711        50.1256       46.51486         0.5029       -99.9071      -44.18598      0.2875503       0.263567
      5870.5000         0.5348        49.4528       45.62492         0.4338      -100.5812      -45.13737      0.2686153      0.2477104
      5871.0000         0.5034        48.4924       44.35455         0.3585      -101.5635      -46.52024      0.2415862      0.2246626
      5871.5000         0.4786        47.5126       43.05852          0.318      -102.5863      -47.95982       0.214011      0.2006697
      5872.0000         0.4538        46.5255       41.75283         0.2907      -102.7742      -48.23052      0.1862304       0.196158
      5872.5000         0.4321        45.3961       40.25891         0.2641      -102.7838       -48.2516      0.1544449      0.1958066
      5873.0000         0.4399        44.1246       38.57703          0.266      -102.6526      -48.07559      0.1186603      0.1987402
      5873.5000         0.4679        44.9257       39.63669         0.2594      -102.0103      -47.18401      0.1412062      0.2135998
      5874.0000         0.4906        49.2826       45.39979         0.2782      -101.0833      -45.89386      0.2638253      0.2351024
      5874.5000         0.5073        63.1775       63.77928         0.3069       -99.4021      -43.54783      0.6548783      0.2742029
      5875.0000         0.5241        65.7461        67.1769          0.346       -97.5105      -40.90723      0.7271681      0.3182128
      5875.5000         0.5408        67.2997       69.23193         0.3898       -95.4293       -38.0012       0.770892      0.3666466
      5876.0000          0.548        68.7889       71.20177         0.4413       -92.4619      -33.85449      0.8128037      0.4357585
      5876.5000         0.5524        69.6614       72.35587         0.4689       -91.1758      -32.06159       0.837359      0.4656401
      5877.0000         0.5541         69.542       72.19794           0.48       -90.3673      -30.93735      0.8339987      0.4843775
      5877.5000         0.5555        64.9937       66.18166         0.4763       -89.9075      -30.30128      0.7059928      0.4949788
      5878.0000         0.5527        47.2695       42.73696         0.4716       -89.6573      -29.95864      0.2071693      0.5006893
      5878.5000           0.55        45.2344       40.04502         0.4579       -93.0856      -34.76592      0.1498941       0.420568
      5879.0000         0.5387        44.0699       38.50468         0.4442       -96.6353      -39.74315      0.1171209      0.3376142
      5879.5000         0.5204        43.0511       37.15706         0.4305       -99.2002      -43.34166     0.08844814       0.277639
      5880.0000         0.5051        42.3242       36.19556         0.4057      -100.3624      -44.97638     0.06799056      0.2503937
      5880.5000         0.5267        41.4258       35.00719         0.3808      -100.5439      -45.23813     0.04270627      0.2460312
      5881.0000         0.5867        40.0229       33.15151         0.3559      -100.6893      -45.44934    0.003223581       0.242511
      5881.5000         0.6234        38.3539       30.94384         0.3442       -100.764      -45.56157              0      0.2406406
      5882.0000         0.6579        37.1237       29.31658         0.3424      -100.7831      -45.59595              0      0.2400675
      5882.5000         0.7164        41.1718       34.67122         0.3407       -100.722      -45.51806     0.03555777      0.2413656
      5883.0000         0.7468        46.2532       41.39264         0.3389      -100.6292      -45.39579      0.1785669      0.2434034
      5883.5000          0.719        52.5746       49.75428         0.3424       -100.595      -45.35556      0.3564741       0.244074
      5884.0000         0.6362        55.9784       54.25667         0.3509      -100.5609      -45.31546      0.4522695      0.2447423
      5884.5000         0.5836        57.7472       56.59635         0.3595       -98.6143      -42.59789        0.50205      0.2900352
      5885.0000         0.5521        58.4881       57.57637         0.3681        -94.751      -37.19691      0.5229015      0.3800515
      5885.5000         0.5221        59.1664        58.4736         0.3766       -92.7865      -34.45426      0.5419915      0.4257624
      5886.0000          0.494        59.1208       58.41328         0.3852       -91.3641      -32.47054      0.5407081      0.4588243
