#------------------------------------------------------------------------------
# Created by    : vladimir.rabinovich
# Created on    : 09/19/2023 17:21:04
#------------------------------------------------------------------------------
~Version Information Section
VERS.           2.0     :   CWLS log ASCII Standard - VERSION 2.0
WRAP.           NO      :   One line per depth step
~Well Information Section
#MNEM       .UNIT                                         VALUE :DESCRIPTION
#------------------------------------------------------------------------------
STRT        .FT                                            4500 :START DEPTH
STOP        .FT                                           11014 :STOP DEPTH
STEP        .FT                                             0.5 :STEP      
NULL        .                                           -999.25 :NULL      
COMP        .                              FIELDWOOD ENERGY LLC :COMPANY   
WELL        .                               OCS G06156 ST00BP00 :WELL      
FLD         .                            HIGH ISLAND BLOCK 0116 :FIELD     
LOC         .                                                   :LOCATION  
CNTY        .                           HIGH ISLAND LARGE BLOCK :LOCATION  
STAT        .                                             TEXAS :STATE     
CTRY        .                                     UNITED STATES :COUNTRY   
SRVC        .                                                   :SERVICE COMPANY
DATE        .                             9/13/2023 11:19:57 AM :LOG DATE  
API         .                                    42708404240000 :API NUMBER
UWI         .                                    42708404240000 :UNIQUE WELL ID
XCOORD      .                                  1333979.30181128 :SURFACE X 
YCOORD      .                                  10635798.2403082 :SURFACE Y 
LAT         .                                         29.303317 :LATITUDE  
LON         .                                        -93.961735 :LONGITUDE 
ELEV        .FT                                             101 :ELEVATION VALUE
ELEV_TYPE   .                                                KB :ELEVATION REFERENCE TYPE
~Curve Information Section
#MNEM       .UNIT                                      API CODE :CURVE DESCRIPTION
#------------------------------------------------------------------------------
DEPT        .FT                                                 :DEPTH     
AT10        .OHMM                                               :          
AT20        .OHMM                                               :          
AT30        .OHMM                                               :          
AT60        .OHMM                                               :          
AT90        .OHMM                                               :          
CALI        .IN                                                 :          
DCAL        .IN                                                 :          
DPHI        .DEC                                                :          
DRHO        .G/C3                                               :          
DT2R        .US/F                                               :          
DT4P        .US/F                                               :          
GR          .GAPI                                               :          
GR_NORM     .GAPI                                               :GammaRay Normalized
NPOR        .DEC                                                :          
SP          .MV                                                 :          
SP_NORM     .MV                                                 :SP Normalized
TENS        .LBF                                                :          
VSH_GR      .V/V                                                :Volume of Shale from GR
VSH_SP      .V/V                                                :Volume of Shale from SP
~A        DEPTH           AT10           AT20           AT30           AT60           AT90           CALI           DCAL           DPHI           DRHO           DT2R           DT4P             GR        GR_NORM           NPOR             SP        SP_NORM           TENS         VSH_GR         VSH_SP
# ...
      6187.5000         0.5762          0.664         0.7054          0.709         0.7069        13.3367        -999.25         0.2476        -0.0112       251.7463       119.4406         71.002       78.17655        -999.25        -32.001      -1.246378       3072.227      0.9612032      0.9821946
      6188.0000         0.5867          0.678         0.7095         0.7128         0.7182        13.6874        -999.25         0.2399        -0.0103       251.7483        118.142        71.3026       78.52637        -999.25       -32.1442      -1.489024       3073.227      0.9686461      0.9787282
      6188.5000         0.6011         0.6961         0.7254         0.7316         0.7417        13.8577        -999.25         0.2321        -0.0114        251.748       116.9442        71.5029       78.75955        -999.25        -32.001      -1.244392       3094.191      0.9736075       0.982223
      6189.0000         0.6206         0.7168         0.7451          0.752           0.77        13.8176        -999.25         0.2268        -0.0125        251.748       115.2455        72.4049       79.80866        -999.25       -32.0441      -1.316733       3095.195       0.995929      0.9811895
      6189.5000         0.6423           0.74         0.7696         0.7764         0.8022        13.6072        -999.25         0.2227        -0.0146       251.7478       113.9454        73.4065        80.9736        -999.25       -32.2444      -1.656525       3086.199              1      0.9763353
      6190.0000         0.6643         0.7649         0.7975         0.8134         0.8333        13.5872        -999.25         0.2197        -0.0157       255.7476       112.6471        73.2064        80.7412        -999.25       -32.0441      -1.314746       3077.242              1      0.9812179
      6190.5000          0.687         0.7963         0.8286         0.8516         0.8603        13.5872        -999.25          0.218        -0.0178       262.5352       111.3484         72.505        79.9259        -999.25       -31.8439     -0.9731336       3078.246      0.9984233      0.9860981
      6191.0000         0.7095         0.8306         0.8638         0.8854          0.893        13.5271        -999.25         0.2181        -0.0189       262.9355       110.2499        72.1041       79.46001        -999.25       -32.5452      -2.165324       3099.238       0.988511      0.9690668
      6191.5000         0.7325         0.8693         0.9017         0.9205         0.9322        13.5872        -999.25         0.2163         -0.019       261.3379       109.4506        72.9055       80.39216        -999.25       -33.3467      -3.527992       3110.188              1      0.9496001
      6192.0000         0.7588         0.9167         0.9421          0.957         0.9668        13.6154        -999.25         0.2156        -0.0198       263.7358       106.7533        73.1888       80.72185        -999.25       -33.3467      -3.526999       3087.824              1      0.9496143
      6192.5000         0.7877         0.9797         0.9825         0.9948          0.999        13.4445        -999.25         0.2138        -0.0188       264.9351       102.9575         72.381       79.78282        -999.25       -33.3467      -3.526006       3077.844      0.9953792      0.9496285
      6193.0000         0.8092         1.0258          1.023          1.036         1.0392        13.3438        -999.25         0.2138        -0.0198       265.7334        98.6603        69.7719       76.74927        -999.25       -33.3463      -3.524331       3077.859      0.9308355      0.9496524
      6193.5000         0.8277         1.0725         1.0526         1.0839          1.085        13.3533        -999.25          0.215        -0.0178       258.9395        97.2627        67.3623       73.94768        -999.25       -33.7473      -4.205596       3087.824      0.8712272      0.9399201
      6194.0000         0.8721         1.1202         1.0953         1.1403         1.1293        14.0244        -999.25         0.2132        -0.0138       243.7537        97.8615        65.0516       71.26111        -999.25        -34.048      -4.716213       3087.824      0.8140661      0.9326255
      6194.5000         0.9057         1.1615           1.16         1.1901         1.1564        14.4646        -999.25         0.2066        -0.0118        258.144        99.5607        63.5436        69.5079        -999.25       -33.7474      -4.203779       3087.824      0.7767637       0.939946
      6195.0000         0.9126         1.1495         1.2075         1.2106         1.1497        14.6245        -999.25         0.1958        -0.0118       295.3037       103.9554        62.6373       68.45434        -999.25       -33.4464       -3.69067       3097.805      0.7543476      0.9472761
      6195.5000           0.88         1.0627         1.0603         1.0448         1.0545        14.3033        -999.25         0.1934        -0.0148       333.6704       110.0485        63.2339       69.14834        -999.25       -33.5471      -3.861008       3097.805      0.7691136      0.9448428
      6196.0000          0.759         0.9417         0.8567         0.8362         0.9147        13.7716        -999.25         0.2072        -0.0168       364.8438       124.0334        67.6368       74.26826        -999.25       -33.1462      -3.177925       3107.781      0.8780482       0.954601
      6196.5000         0.6414         0.8088         0.7001         0.6915         0.7783        13.4703        -999.25         0.2276        -0.0208       386.0117       128.3315        71.6405       78.92402        -999.25       -32.6448      -2.323856       3097.805      0.9771068      0.9668021
      6197.0000         0.5474         0.6696         0.6539         0.6442         0.6933        13.5603        -999.25         0.2503        -0.0257       396.8022       128.5312          74.04        81.7144        -999.25       -32.0443      -1.301182       3087.824              1      0.9814117
      6197.5000         0.4974         0.5913         0.6367         0.6278         0.6409        13.5397        -999.25         0.2635        -0.0267       398.8008       128.8306        75.9396       83.92352        -999.25       -31.8437     -0.9588907       3107.781              1      0.9863015
      6198.0000         0.4908          0.568         0.6368         0.6242         0.6347        13.2687        -999.25         0.2683        -0.0248       403.1924       129.6296        76.0345       84.03415        -999.25       -31.8437     -0.9578977       3107.781              1      0.9863157
      6198.5000         0.4909         0.5593         0.6373         0.6227         0.6351        13.0177        -999.25         0.2671        -0.0198       421.9834       131.1292        75.5275       83.44489        -999.25       -31.8439     -0.9572454       3127.742              1      0.9863251
      6199.0000         0.4913         0.5567         0.6381         0.6222         0.6289        13.0673        -999.25         0.2623        -0.0168       451.1348       132.9275        74.9218       82.74087        -999.25       -31.4429     -0.2739938       3127.742              1      0.9960858
      6199.5000         0.4927         0.5548         0.6235         0.6198         0.6244        13.1567        -999.25         0.2563        -0.0138       479.5156       132.8271        74.8165        82.6187        -999.25       -30.7415      0.9203514       3117.762              1              1
      6200.0000         0.4948         0.5549         0.6126         0.6136         0.6205        13.5773        -999.25         0.2527        -0.0118       480.3101       131.9277        75.1118       82.96236        -999.25       -30.6413       1.091821       3107.781              1              1
      6200.5000         0.4999          0.557         0.6114         0.6073         0.6189        14.3083        -999.25         0.2497        -0.0118       457.5435       130.8289        75.8088        83.7731        -999.25        -30.541       1.263463       3107.781              1              1
