#------------------------------------------------------------------------------
# Created by    : vladimir.rabinovich
# Created on    : 09/19/2023 17:21:45
#------------------------------------------------------------------------------
~Version Information Section
VERS.           2.0     :   CWLS log ASCII Standard - VERSION 2.0
WRAP.           NO      :   One line per depth step
~Well Information Section
#MNEM       .UNIT                                         VALUE :DESCRIPTION
#------------------------------------------------------------------------------
STRT        .FT                                            4296 :START DEPTH
STOP        .FT                                         10848.5 :STOP DEPTH
STEP        .FT                                             0.5 :STEP      
NULL        .                                           -999.25 :NULL      
COMP        .                                 CHEVRON U S A INC :COMPANY   
WELL        .                               OCS G07271 ST00BP00 :WELL      
FLD         .                                           WILDCAT :FIELD     
LOC         .                                                   :LOCATION  
CNTY        .                           HIGH ISLAND LARGE BLOCK :LOCATION  
STAT        .                                             TEXAS :STATE     
CTRY        .                                     UNITED STATES :COUNTRY   
SRVC        .                                                   :SERVICE COMPANY
DATE        .                             9/13/2023 11:19:59 AM :LOG DATE  
API         .                                    42708403180000 :API NUMBER
UWI         .                                    42708403180000 :UNIQUE WELL ID
XCOORD      .                                  1325118.04890174 :SURFACE X 
YCOORD      .                                  10672078.9744079 :SURFACE Y 
LAT         .                                          29.40291 :LATITUDE  
LON         .                                        -93.990507 :LONGITUDE 
ELEV        .FT                                              89 :ELEVATION VALUE
ELEV_TYPE   .                                                KB :ELEVATION REFERENCE TYPE
~Curve Information Section
#MNEM       .UNIT                                      API CODE :CURVE DESCRIPTION
#------------------------------------------------------------------------------
DEPT        .FT                                                 :DEPTH     
CALI        .IN                                                 :          
DRHO        .G/C3                                               :          
DTLN        .US/F                                               :          
GR          .GAPI                                               :          
GR_1        .GAPI                                               :          
GR_NORM     .GAPI                                               :GammaRay Normalized
ILD         .OHMM                                               :          
ILM         .OHMM                                               :          
NPHI        .%                                                  :          
RHOB        .G/C3                                               :          
SFL         .OHMM                                               :          
SP          .MV                                                 :          
SP_NORM     .MV                                                 :SP Normalized
VSH_GR      .V/V                                                :Volume of Shale from GR
VSH_SP      .V/V                                                :Volume of Shale from SP
~A        DEPTH           CALI           DRHO           DTLN             GR           GR_1        GR_NORM            ILD            ILM           NPHI           RHOB            SFL             SP        SP_NORM         VSH_GR         VSH_SP
# ...
      5384.0000        16.2512        -0.0139        77.4232        28.8864        41.6885       56.07108         1.2811         1.3465        25.6392         2.5017         1.3091       -37.4907      -5.957115       0.490874      0.9148983
      5384.5000        16.0358        -0.0163        75.8701        28.7907        38.2266       51.79713          1.451         1.4556        23.2537         2.5353         1.8867       -37.0445      -5.518423      0.3999389      0.9211654
      5385.0000         15.921        -0.0174        76.5493        28.7344        35.2314       48.09935         1.5158         1.4737         20.535         2.5515         2.2764       -36.7864      -5.267834      0.3212628      0.9247453
      5385.5000        15.8573        -0.0171        79.5529        28.6327        32.9292       45.25713          1.458          1.404        19.0732         2.5527         2.1861       -36.4846      -4.973543        0.26079      0.9289494
      5386.0000        15.8755        -0.0168        84.1343        28.6586        32.0477       44.16886         1.3596         1.2848         20.267         2.5008         1.8173       -36.0337      -4.530151      0.2376353      0.9352835
      5386.5000        15.8926        -0.0138        97.4622        29.5979        33.0435       45.39824         1.2152         1.1456        21.8929           2.45         1.3517        -35.424      -3.927961      0.2637923      0.9438863
      5387.0000        15.9027        -0.0121       102.0138         31.814        35.4501       48.36935         1.0433         1.0049        24.1718         2.4124         1.1089       -34.6827      -3.194172      0.3270074      0.9543689
      5387.5000        15.9103        -0.0138       108.8661        35.1698        40.5141        54.6212         0.8999         0.8801        31.2024         2.3851         0.8956       -33.9973      -2.516279      0.4600256      0.9640532
      5388.0000        15.9118        -0.0172       114.4343        38.6744        44.9048       60.04182         0.7764         0.7865         35.686         2.3543          0.767       -33.6496       -2.17609       0.575358       0.968913
      5388.5000        15.9089        -0.0228       119.0157        39.8148        48.5511       64.54343          0.695         0.7187        37.7739         2.3364          0.693        -33.775         -2.309      0.6711367      0.9670143
      5389.0000        15.8971        -0.0271       120.5479        39.7227        50.9565       67.51306          0.635         0.6714        37.3104         2.3257           0.68       -34.3107      -2.852209      0.7343205      0.9592541
      5389.5000        15.8853        -0.0297       122.0452        39.3051        52.7097       69.67751         0.5786         0.6328        36.9257           2.32         0.6987       -35.0241       -3.57312      0.7803724      0.9489554
      5390.0000        15.8518        -0.0285       123.0344        38.5988          53.54       70.70256         0.5418         0.6054        37.2416          2.326          0.731       -35.9356      -4.492128      0.8021821      0.9358267
      5390.5000        15.8005        -0.0264       122.4542        37.9685        53.5351       70.69652         0.5198         0.5884        38.5957         2.3255         0.7304       -37.0666      -5.630638      0.8020536      0.9195623
      5391.0000        15.7579        -0.0251       119.0355        37.6383        52.8847       69.89354         0.5057         0.5764        40.1328         2.3249         0.6902       -38.3027      -6.874247      0.7849689      0.9017965
      5391.5000        15.7294        -0.0247       112.4261        37.3181         51.604       68.31244         0.4977         0.5796        40.5404         2.3168         0.6431       -39.6551      -8.234158      0.7513285      0.8823692
      5392.0000        15.7078        -0.0258       104.8846        36.8713        49.9246       66.23911          0.509         0.6056        39.7359         2.3177         0.6221       -41.0977      -9.684263       0.707215      0.8616534
      5392.5000        15.7296        -0.0236        98.8455        36.0081        46.1137       61.53429          0.537         0.6433        37.9072         2.3494         0.7105       -42.6854      -11.27947      0.6071126      0.8388647
      5393.0000        15.7767        -0.0192        95.1132        34.6365         43.067       57.77293         0.5704         0.6869        33.9269         2.4097         0.8505       -44.2051      -12.80668      0.5270837      0.8170474
      5393.5000        15.8667        -0.0129        94.3359        32.6349          40.46       54.55441         0.6079         0.7307        25.3445         2.4565         1.0051       -45.9053      -14.51439      0.4586045      0.7926515
      5394.0000        16.0703         -0.011        95.5581        31.8797        38.4121       52.02615         0.6507         0.7664         21.613         2.4802         1.1352       -47.2335       -15.8501      0.4048116      0.7735699
      5394.5000         16.515        -0.0114        97.5092         33.673        36.9852       50.26453         0.6983         0.7995        20.4617         2.4786         1.2353       -48.1539      -16.77801      0.3673305      0.7603141
      5395.0000         16.817        -0.0147       100.1718        36.5662         36.264       49.37417         0.7384         0.8257        19.8217         2.4533         1.2406       -48.6007      -17.23232      0.3483866      0.7538239
      5395.5000        16.8991        -0.0161       102.4391        37.6823        39.8286       53.77491         0.7669         0.8426        21.7389         2.4238         1.1531       -48.5236      -17.16273      0.4420194      0.7548181
      5396.0000        16.8996        -0.0165         101.95        35.5964        44.6272       59.69911          0.771         0.8352        24.8203         2.4025          1.021       -47.9832      -16.62984      0.5680661      0.7624308
      5396.5000        17.1089        -0.0143       101.0321        33.7089         47.529       63.28157         0.7644           0.81        27.0178         2.3976          0.883       -47.3568      -16.01095      0.6442887      0.7712721
      5397.0000        17.2698        -0.0112       102.2047        32.9631        48.9934       65.08948         0.7399         0.7835        27.7885         2.4121         0.8309        -46.715      -15.37666      0.6827548      0.7803335
      5397.5000        17.3003        -0.0109       105.1003        34.0884        48.1408       64.03688         0.7057         0.7595        27.6726         2.4244         0.8078       -46.1402      -14.80937      0.6603591      0.7884375
      5398.0000        17.2723        -0.0119       107.2603        36.4273         46.857       62.45195          0.677         0.7402        28.1224         2.4181         0.7857       -45.5747      -14.25138      0.6266372      0.7964089
      5398.5000        17.1745        -0.0168       106.3579        38.2416        47.1678       62.83565         0.6568         0.7241        29.1841         2.3846         0.7731       -45.2422      -13.92639       0.634801      0.8010516
      5399.0000        17.0459        -0.0234       106.8834        37.7853        48.9688       65.05911         0.6423         0.7093         30.231         2.3681         0.7744       -45.2332       -13.9249      0.6821088      0.8010729
      5399.5000        17.0225        -0.0247       107.8447        37.0263        50.0401        66.3817         0.6291          0.693        30.9402         2.3682         0.7745       -45.1678      -13.86701      0.7102489      0.8018999
      5400.0000         17.023        -0.0175       108.4087        38.0085        50.4412       66.87688         0.6152         0.6789         31.467         2.3818         0.7673       -45.1028      -13.80951      0.7207846      0.8027213
      5400.5000        17.1837         -0.011       109.4524        39.5884        50.1755       66.54886         0.6007         0.6696        31.9457         2.3926         0.7519       -45.0397      -13.75392      0.7138055      0.8035154
