#------------------------------------------------------------------------------
# Created by    : vladimir.rabinovich
# Created on    : 09/19/2023 17:19:49
#------------------------------------------------------------------------------
~Version Information Section
VERS.           2.0     :   CWLS log ASCII Standard - VERSION 2.0
WRAP.           NO      :   One line per depth step
~Well Information Section
#MNEM       .UNIT                                         VALUE :DESCRIPTION
#------------------------------------------------------------------------------
STRT        .FT                                             790 :START DEPTH
STOP        .FT                                           12500 :STOP DEPTH
STEP        .FT                                             0.5 :STEP      
NULL        .                                           -999.25 :NULL      
COMP        .                                 CHEVRON U S A INC :COMPANY   
WELL        .                               OCS G04596 ST00BP00 :WELL      
FLD         .                                           WILDCAT :FIELD     
LOC         .                                                   :LOCATION  
CNTY        .                        MUSTANG ISLAND LARGE BLOCK :LOCATION  
STAT        .                                             TEXAS :STATE     
CTRY        .                                     UNITED STATES :COUNTRY   
SRVC        .                                                   :SERVICE COMPANY
DATE        .                             9/13/2023 11:19:13 AM :LOG DATE  
API         .                                    42702401310000 :API NUMBER
UWI         .                                    42702401310000 :UNIQUE WELL ID
XCOORD      .                                  486632.184756912 :SURFACE X 
YCOORD      .                                  10088502.2555927 :SURFACE Y 
LAT         .                                          27.75488 :LATITUDE  
LON         .                                        -96.567316 :LONGITUDE 
ELEV        .FT                                              90 :ELEVATION VALUE
ELEV_TYPE   .                                                KB :ELEVATION REFERENCE TYPE
~Curve Information Section
#MNEM       .UNIT                                      API CODE :CURVE DESCRIPTION
#------------------------------------------------------------------------------
DEPT        .FT                                                 :DEPTH     
ASFL        .OHMM                                               :          
CILD        .MMHO                                               :          
GR          .GAPI                                               :          
GR_NORM     .GAPI                                               :GammaRay Normalized
ILD         .OHMM                                               :          
SP          .MV                                                 :          
SP_NORM     .MV                                                 :SP Normalized
VSH_GR      .V/V                                                :Volume of Shale from GR
VSH_SP      .V/V                                                :Volume of Shale from SP
~A        DEPTH           ASFL           CILD             GR        GR_NORM            ILD             SP        SP_NORM         VSH_GR         VSH_SP
# ...
      6355.0000         2.8557       826.8223        55.0982       50.31625         1.3234       -89.3588      -33.48157      0.3684309      0.4924755
      6355.5000         2.1028       811.7822        54.1481       48.43765         1.2867       -87.9565      -32.08042      0.3284606      0.5143685
      6356.0000         2.0167       795.0391        52.4383       45.05853         1.2543       -86.5789      -30.70398      0.2565643      0.5358753
      6356.5000         1.9796       776.3096        49.8834       40.01022         1.2431       -85.4854      -29.61163      0.1491535      0.5529433
      6357.0000         1.8663       757.5811        48.1441       36.57284          1.254       -84.7202      -28.84758     0.07601783      0.5648815
      6357.5000         1.9019       738.8516        48.1607       36.60357         1.3006       -83.9576      -28.08614      0.0766716       0.576779
      6358.0000         1.9796        710.918        48.7865       37.83754         1.3471       -83.2737      -27.40339      0.1029263       0.587447
      6358.5000         2.2622         673.46        49.4117       39.07033         1.3937       -82.6476      -26.77845       0.129156      0.5972117
      6359.0000         2.5458       635.9023        50.0375       40.30428         1.4402       -82.0209       -26.1529      0.1554103      0.6069859
      6359.5000         2.7648       597.3096        50.7297        41.6694         1.4868       -81.3462      -25.47936      0.1844553        0.61751
      6360.0000         2.8595       565.2861         51.428       43.04658         1.5333       -80.6715      -24.80582      0.2137571      0.6280341
      6360.5000         2.9544       568.5957        52.1257       44.42256         1.5799       -79.6069      -23.74237      0.2430332      0.6446504
      6361.0000         3.0476       571.9082         52.824       45.79971         1.6285       -78.4728      -22.60943      0.2723342      0.6623527
      6361.5000         3.0843       579.9863        53.4418       47.01788         1.6827       -77.1799      -21.31768      0.2982528      0.6825362
      6362.0000         2.8912       597.1611        53.8877       47.89655         1.6704       -75.8491      -19.98804      0.3169478      0.7033119
      6362.5000          2.616       614.3115        54.2108       48.53264         1.6371       -74.4824      -18.62249      0.3304817      0.7246485
      6363.0000         2.3754       631.4854        53.6488       47.42054         1.6039       -72.7247      -16.86595        0.30682      0.7520946
      6363.5000         2.1849       648.6602        53.0432       46.22235         1.5707       -70.9017      -15.04411      0.2813265      0.7805609
      6364.0000         2.0225        665.835        52.4383       45.02556         1.5374       -69.6238      -13.76736       0.255863        0.80051
      6364.5000         1.9109        679.666        51.8327       43.82736         1.5042       -70.3311      -14.47581      0.2303694      0.7894404
      6365.0000         1.8271       689.8574        51.2272       42.62936         1.4873       -71.0377      -15.18357      0.2048801      0.7783818
      6365.5000         1.7842       700.0479        50.6891       41.56448         1.4825       -71.7444      -15.89142       0.182223      0.7673215
      6366.0000         1.7972       691.2021        50.1671       40.53141         1.4777       -72.4572      -16.60538      0.1602429       0.756166
      6366.5000         1.9003       679.0986        49.6457       39.49952         1.4729        -73.194      -17.34333      0.1382876      0.7446354
      6367.0000          1.974       666.9824        49.0414       38.30391         1.4681       -73.9314      -18.08189      0.1128491      0.7330955
      6367.5000         2.2221       654.8789        48.3474       36.93112         1.4784       -74.7297      -18.88134     0.08364081       0.720604
      6368.0000         2.7563       640.7881        47.5594       35.37265         1.5138        -75.619       -19.7718       0.050482      0.7066905
      6368.5000         2.8697       621.1709         46.567       33.41048         1.5493       -74.7002      -18.85416    0.008733546      0.7210288
      6369.0000         2.9521       601.5293        48.2719       36.77581         1.5847       -73.2745      -17.42961     0.08033631      0.7432874
      6369.5000         2.9069       577.5186        50.8022       41.77139         1.6202       -71.7604      -15.91666      0.1866253      0.7669271
      6370.0000         2.7162       616.7539        51.7161        43.5744         1.6381       -70.2462      -14.40362      0.2249872      0.7905684
      6370.5000         2.2716       658.1113        52.5734        45.2656         1.5171       -68.5967      -12.75528      0.2609702      0.8163238
      6371.0000         1.9807       699.4189        53.4296       46.95463         1.3963       -69.2609      -13.42064      0.2969071      0.8059276
      6371.5000         1.8281       740.7764        54.2869       48.64586          1.338       -72.8748      -17.03569      0.3328907      0.7494424
      6372.0000         1.6755       783.5156        55.1431       50.33488         1.2919       -74.7642      -18.92624      0.3688273      0.7199025
      6372.5000         1.5229       827.3896        55.4731       50.98461         1.2458       -77.9991       -22.1623      0.3826512      0.6693391
      6373.0000         1.3627       871.2637        55.5828       51.19923         1.1997       -82.4126      -26.57695      0.3872176      0.6003602
      6373.5000         1.4063       914.2002        55.1209       50.28485         1.1536       -86.8064       -30.9719      0.3677628       0.531689
      6374.0000         1.5755       948.9932        54.6591       49.37068         1.1075       -93.8645      -38.03117      0.3483123       0.421388
      6374.5000         1.6358       974.9404        54.1973       48.45652         1.0797       -95.0637      -39.23151       0.328862      0.4026326
      6375.0000         1.7146       990.8564        53.7286       47.52872         1.0531       -96.0204      -40.18937      0.3091217       0.387666
      6375.5000         1.7897       1006.773        53.2201       46.52232         1.0265       -96.3267      -40.49683      0.2877089      0.3828621
      6376.0000         1.8681       1022.688        52.7116        45.5159         0.9999       -96.6333      -40.80458      0.2662958      0.3780534
      6376.5000         1.7884       1038.838        52.1908       44.48519         0.9733       -96.9399      -41.11234      0.2443658      0.3732446
      6377.0000         1.7186        1067.24        51.6669       43.44837         0.9235       -97.5841      -41.75769      0.2223057      0.3631611
      6377.5000         1.6134       1095.643        50.9913       42.11192         0.8703       -98.3215      -42.49625      0.1938706      0.3516211
      6378.0000         1.5515       1163.133        50.2519       40.64945         0.8171       -99.0583       -43.2342      0.1627542      0.3400906
      6378.5000         1.5231       1452.633        49.5118        39.1856         0.7624      -100.8905      -45.06756      0.1316085      0.3114443
      6379.0000         1.5025       1630.004        49.1022       38.37453          0.694      -102.8168      -46.99502      0.1143516      0.2813278
      6379.5000          1.482        1697.52        49.4142       38.98871         0.6257      -104.9817      -49.16107      0.1274194      0.2474833
      6380.0000         1.4417       1800.863        50.2888        40.7141         0.5574      -115.2994      -59.47992      0.1641297      0.0862512
      6380.5000         1.3701       2097.766        51.1633       42.43927         0.4929      -121.5394      -65.72108      0.2008355              0
      6381.0000         1.2041       2394.668        52.0366       44.16208         0.4296      -121.0739      -65.25673       0.237491              0
