#------------------------------------------------------------------------------
# Created by    : vladimir.rabinovich
# Created on    : 09/19/2023 17:22:32
#------------------------------------------------------------------------------
~Version Information Section
VERS.           2.0     :   CWLS log ASCII Standard - VERSION 2.0
WRAP.           NO      :   One line per depth step
~Well Information Section
#MNEM       .UNIT                                         VALUE :DESCRIPTION
#------------------------------------------------------------------------------
STRT        .FT                                          2841.5 :START DEPTH
STOP        .FT                                          6769.5 :STOP DEPTH
STEP        .FT                                             0.5 :STEP      
NULL        .                                           -999.25 :NULL      
COMP        .                      SPINNAKER EXPLORATION CO LLC :COMPANY   
WELL        .                               OCS G18941 ST00BP00 :WELL      
FLD         .                            HIGH ISLAND BLOCK 0235 :FIELD     
LOC         .                                                   :LOCATION  
CNTY        .                           HIGH ISLAND LARGE BLOCK :LOCATION  
STAT        .                                             TEXAS :STATE     
CTRY        .                                     UNITED STATES :COUNTRY   
SRVC        .                                                   :SERVICE COMPANY
DATE        .                             9/13/2023 11:20:02 AM :LOG DATE  
API         .                                    42708405540000 :API NUMBER
UWI         .                                    42708405540000 :UNIQUE WELL ID
XCOORD      .                                  1178439.61066162 :SURFACE X 
YCOORD      .                                  10526520.2311607 :SURFACE Y 
LAT         .                                         28.998365 :LATITUDE  
LON         .                                        -94.445565 :LONGITUDE 
ELEV        .FT                                              98 :ELEVATION VALUE
ELEV_TYPE   .                                                KB :ELEVATION REFERENCE TYPE
~Curve Information Section
#MNEM       .UNIT                                      API CODE :CURVE DESCRIPTION
#------------------------------------------------------------------------------
DEPT        .FT                                                 :DEPTH     
CNCF        .%                                                  :          
DCAL        .IN                                                 :          
DT24        .US/F                                               :          
GR          .GAPI                                               :          
GR_NORM     .GAPI                                               :GammaRay Normalized
M2R1        .OHMM                                               :          
M2R2        .OHMM                                               :          
M2R3        .OHMM                                               :          
M2R6        .OHMM                                               :          
M2R9        .OHMM                                               :          
M2RX        .OHMM                                               :          
PORZ        .%                                                  :          
RWAZ        .OHMM                                               :          
SPCH        .MV                                                 :          
TEN         .LB/F                                               :          
VSH_GR      .V/V                                                :Volume of Shale from GR
ZCOR        .G/CC                                               :          
~A        DEPTH           CNCF           DCAL           DT24             GR        GR_NORM           M2R1           M2R2           M2R3           M2R6           M2R9           M2RX           PORZ           RWAZ           SPCH            TEN         VSH_GR           ZCOR
# ...
      6711.5000        -999.25          2.389        116.557        -999.25        -999.25          0.609          0.583          0.568          0.557          0.555           0.55         26.794          0.052        -999.25        -73.072        -999.25          0.174
      6712.0000        -999.25          2.777        119.786        -999.25        -999.25          0.586          0.575          0.564          0.553           0.55          0.546         28.004          0.057        -999.25        -61.461        -999.25           0.17
      6712.5000        -999.25          3.117        121.768        -999.25        -999.25           0.57          0.571          0.565          0.554          0.549          0.545         30.909           0.07        -999.25        -64.606        -999.25          0.151
      6713.0000        -999.25          3.412        122.924        -999.25        -999.25          0.561          0.571          0.567          0.554           0.55          0.546         34.962          0.092        -999.25        -76.951        -999.25          0.159
      6713.5000        -999.25          3.526        125.719        -999.25        -999.25          0.553          0.567          0.564           0.55          0.545          0.543         38.074           0.11        -999.25        -89.832        -999.25          0.183
      6714.0000        -999.25          3.453        125.499        -999.25        -999.25          0.549          0.562          0.557          0.543          0.538          0.536         39.965           0.12        -999.25        -85.455        -999.25          0.203
      6714.5000        -999.25          3.274        123.916        -999.25        -999.25          0.556          0.563          0.555           0.54          0.536          0.535         41.634          0.131        -999.25        -70.758        -999.25          0.217
      6715.0000        -999.25          3.064        124.385        -999.25        -999.25          0.577          0.573           0.56          0.544          0.541          0.541         42.876          0.141        -999.25         -73.47        -999.25          0.224
      6715.5000        -999.25          2.898        122.641        -999.25        -999.25          0.593          0.572          0.555          0.538          0.536          0.537         43.634          0.146        -999.25        -86.339        -999.25          0.225
      6716.0000        -999.25          2.691        117.901        -999.25        -999.25          0.583           0.54           0.52          0.505          0.504          0.506         44.852          0.146        -999.25        -85.306        -999.25          0.219
      6716.5000        -999.25          2.148        111.459        -999.25        -999.25          0.551          0.491           0.47          0.459          0.458           0.46         47.101          0.147        -999.25        -76.045        -999.25          0.205
      6717.0000        -999.25          1.012        104.775        -999.25        -999.25          0.525          0.454          0.432          0.423          0.423          0.426         50.046          0.155        -999.25         -75.59        -999.25          0.184
      6717.5000        -999.25         -0.638        102.019        -999.25        -999.25          0.513          0.437          0.416          0.409          0.409          0.411         52.471          0.166        -999.25        -88.883        -999.25          0.166
      6718.0000        -999.25        -999.25        108.014        -999.25        -999.25          0.519          0.444          0.422          0.416          0.415          0.419          49.23          0.147        -999.25        -99.376        -999.25          0.156
      6718.5000        -999.25        -999.25        115.312        -999.25        -999.25          0.544          0.477          0.453          0.448          0.447          0.452         22.572           0.03        -999.25        -98.868        -999.25        -999.25
      6719.0000        -999.25        -999.25        117.644        -999.25        -999.25          0.585          0.532          0.509          0.504          0.503          0.509           9.02          0.005        -999.25       -103.507        -999.25        -999.25
      6719.5000        -999.25        -999.25        120.394        -999.25        -999.25          0.617           0.59           0.57          0.567          0.563          0.571          8.975          0.005        -999.25       -113.329        -999.25        -999.25
      6720.0000        -999.25        -999.25        122.312        -999.25        -999.25          0.626          0.629          0.616          0.614          0.608          0.617          8.874          0.005        -999.25       -103.014        -999.25        -999.25
      6720.5000        -999.25        -999.25        122.405        -999.25        -999.25          0.622          0.649          0.643          0.642          0.635          0.644           8.98          0.006        -999.25        -81.805        -999.25        -999.25
      6721.0000        -999.25        -999.25        120.618        -999.25        -999.25          0.617          0.659          0.659          0.657          0.648          0.658          9.091          0.006        -999.25        -82.292        -999.25        -999.25
      6721.5000        -999.25        -999.25         113.41        -999.25        -999.25          0.618          0.668          0.671          0.668          0.658          0.668          9.091          0.006        -999.25         -97.57        -999.25        -999.25
      6722.0000        -999.25        -999.25        106.907        -999.25        -999.25          0.629          0.683          0.686          0.681           0.67           0.68          9.091          0.006        -999.25       -102.997        -999.25        -999.25
      6722.5000        -999.25        -999.25        105.451        -999.25        -999.25          0.648          0.703          0.705          0.698          0.687          0.696          9.091          0.006        -999.25        -105.39        -999.25        -999.25
      6723.0000        -999.25        -999.25        107.162        -999.25        -999.25          0.666          0.722          0.723          0.713          0.703          0.712        -999.25        -999.25        -999.25       -112.548        -999.25        -999.25
      6723.5000        -999.25        -999.25        110.455        -999.25        -999.25          0.676          0.732          0.733          0.721          0.711           0.72        -999.25        -999.25        -999.25       -108.812        -999.25        -999.25
      6724.0000        -999.25        -999.25        111.561        -999.25        -999.25          0.674          0.729          0.728          0.715          0.707          0.715        -999.25        -999.25        -999.25        -93.838        -999.25        -999.25
      6724.5000        -999.25        -999.25        112.809        -999.25        -999.25          0.659          0.708          0.705          0.691          0.685          0.691        -999.25        -999.25        -999.25        -89.615        -999.25        -999.25
      6725.0000        -999.25        -999.25        116.387        -999.25        -999.25          0.634          0.669          0.663          0.649          0.644           0.65        -999.25        -999.25        -999.25        -99.942        -999.25        -999.25
      6725.5000        -999.25        -999.25         114.79        -999.25        -999.25          0.609          0.622          0.612          0.598          0.595          0.599        -999.25        -999.25        -999.25        -103.35        -999.25        -999.25
      6726.0000        -999.25        -999.25        109.533        -999.25        -999.25            0.6          0.588          0.573           0.56          0.558          0.561        -999.25        -999.25        -999.25        -95.099        -999.25        -999.25
