#------------------------------------------------------------------------------
# Created by    : vladimir.rabinovich
# Created on    : 09/19/2023 17:22:53
#------------------------------------------------------------------------------
~Version Information Section
VERS.           2.0     :   CWLS log ASCII Standard - VERSION 2.0
WRAP.           NO      :   One line per depth step
~Well Information Section
#MNEM       .UNIT                                         VALUE :DESCRIPTION
#------------------------------------------------------------------------------
STRT        .FT                                             411 :START DEPTH
STOP        .FT                                           10036 :STOP DEPTH
STEP        .FT                                             0.5 :STEP      
NULL        .                                           -999.25 :NULL      
COMP        .                          HUMBLE OIL & REFINING CO :COMPANY   
WELL        .                                     ST TR 00278-L :WELL      
FLD         .                                           WILDCAT :FIELD     
LOC         .                                                   :LOCATION  
CNTY        .                             GALVESTON LARGE BLOCK :LOCATION  
STAT        .                                             TEXAS :STATE     
CTRY        .                                     UNITED STATES :COUNTRY   
SRVC        .                                                   :SERVICE COMPANY
DATE        .                             9/13/2023 11:19:42 AM :LOG DATE  
API         .                                    42706000220000 :API NUMBER
UWI         .                                    42706000220000 :UNIQUE WELL ID
XCOORD      .                                  941560.719964966 :SURFACE X 
YCOORD      .                                  10497824.1170516 :SURFACE Y 
LAT         .                                        28.9094621 :LATITUDE  
LON         .                                       -95.1847519 :LONGITUDE 
ELEV        .FT                                              10 :ELEVATION VALUE
ELEV_TYPE   .                                                KB :ELEVATION REFERENCE TYPE
~Curve Information Section
#MNEM       .UNIT                                      API CODE :CURVE DESCRIPTION
#------------------------------------------------------------------------------
DEPT        .FT                                                 :DEPTH     
LAT         .OHMM                                               :          
LN          .OHMM                                               :          
SN          .OHMM                                               :          
SP          .MV                                                 :          
SP_NORM     .MV                                                 :SP Normalized
VSH_SP      .V/V                                                :Volume of Shale from SP
~A        DEPTH            LAT             LN             SN             SP        SP_NORM         VSH_SP
# ...
      6795.0000         0.7762         0.4851          0.896        80.3875      -10.65785      0.8363076
      6795.5000         0.7741         0.4727          0.856        80.1705      -10.43843      0.8400266
      6796.0000         0.7721         0.4602          0.816        82.2914       -12.5569      0.8041204
      6796.5000           0.77         0.4478          0.776        84.9839      -15.24699      0.7585257
      6797.0000         0.7718         0.4353         0.7361        87.6764      -17.93706      0.7129312
      6797.5000         0.7768         0.4229         0.6972        90.5116      -20.76984       0.664918
      6798.0000         0.7817         0.4104         0.6626          93.46      -23.71581      0.6149862
      6798.5000         0.7866         0.3998         0.6279        96.4039      -26.65729      0.5651307
      6799.0000         0.7916         0.3935         0.5932        98.4374      -28.68837      0.5307056
      6799.5000         0.7821         0.3871         0.5586        96.4854      -26.73394      0.5638315
      6800.0000         0.7494         0.3807         0.5239        92.3029      -22.54903      0.6347623
      6800.5000         0.7167         0.3743         0.4893        90.6565       -20.9002      0.6627085
      6801.0000         0.6841         0.3679         0.4546        91.8159      -22.05717      0.6430987
      6801.5000         0.6514         0.3615         0.4199        93.4329      -23.67175       0.615733
      6802.0000         0.6453         0.3634          0.439        95.0497      -25.28613      0.5883707
      6802.5000          0.649         0.3767         0.4686        96.7073      -26.94131      0.5603168
      6803.0000         0.6528           0.39         0.4982        98.4872      -28.71878      0.5301902
      6803.5000         0.6565         0.4034         0.5277        92.0831      -22.31226      0.6387753
      6804.0000         0.6603         0.4167         0.5573        93.1429      -23.36964      0.6208536
      6804.5000          0.664           0.43         0.5868        95.6566      -25.88091      0.5782896
      6805.0000         0.6677         0.4434         0.6117        98.1702      -28.39209      0.5357273
      6805.5000         0.6822         0.4567         0.6301       100.6815      -30.90097      0.4932039
      6806.0000         0.7097           0.47         0.6485       102.3912      -32.60824      0.4642671
      6806.5000         0.7371         0.4834         0.6669        85.1084      -15.32302       0.757237
      6807.0000         0.7646         0.4967         0.6853        81.5349      -11.74709      0.8178459
      6807.5000          0.792         0.5069         0.7037        82.9458      -13.15558      0.7939733
      6808.0000         0.8211         0.5153         0.7035        84.3566      -14.56395      0.7701026
      6808.5000         0.8527         0.5237         0.6703        85.7673      -15.97223      0.7462334
      6809.0000         0.8842         0.5322         0.6371        83.5356      -13.73811      0.7840999
      6809.5000         0.9158         0.5406         0.6038        82.2902      -12.49028      0.8052495
      6810.0000         0.8924          0.549         0.5706        81.0436      -11.24126      0.8264192
      6810.5000         0.8452         0.5574         0.5583        79.7981       -9.99334      0.8475705
      6811.0000         0.7979         0.5639         0.5838        78.7173       -8.91011      0.8659303
      6811.5000         0.7507         0.5615         0.6092        78.0283      -8.218689      0.8776494
      6812.0000         0.7155          0.559         0.6348        77.3394      -7.527367      0.8893667
      6812.5000         0.7134         0.5565         0.6602        77.2352      -7.420746      0.8911738
      6813.0000         0.7113         0.5541         0.6857        77.9066      -8.089722      0.8798352
      6813.5000         0.7092         0.5516         0.7069        78.4677      -8.648392      0.8703662
      6814.0000         0.7071         0.5492         0.7188        78.8628      -9.041077      0.8637106
      6814.5000          0.705         0.5439         0.7307        77.8347      -8.010551      0.8811771
      6815.0000         0.7029         0.5372         0.7426        75.8215      -5.994934      0.9153401
      6815.5000         0.7008         0.5305         0.7545        76.2791      -6.450104      0.9076254
      6816.0000         0.7147         0.5238         0.7663        77.4113       -7.57988      0.8884766
      6816.5000         0.7292         0.5171         0.7782        78.5436      -8.709763      0.8693261
      6817.0000         0.7438         0.5104         0.7815        79.6758      -9.839531      0.8501775
      6817.5000         0.7583         0.5037         0.7602        77.0444      -7.205719      0.8948183
      6818.0000         0.7728          0.497          0.739        74.8365      -4.995392      0.9322815
      6818.5000         0.7873         0.4881         0.7177        72.6309      -2.787361      0.9697058
      6819.0000         0.8018         0.4686         0.6964        70.7784     -0.9324417              1
      6819.5000         0.8163         0.4759         0.6752        70.3074     -0.4590225              1
      6820.0000         0.8282         0.4909         0.6539        74.1934       -4.34259      0.9433459
      6820.5000         0.8255          0.506         0.6326        78.4144      -8.561172      0.8718445
      6821.0000         0.8229          0.521         0.6114        82.9572      -13.10155       0.794889
      6821.5000         0.8203         0.5361         0.5991        87.4907      -17.63263       0.718091
      6822.0000         0.8173         0.5455         0.5877        91.3585        -21.498      0.6525763
      6822.5000         0.7801         0.5414         0.5763        95.2218      -25.35888      0.5871376
      6823.0000         0.7428         0.5372          0.565        99.5154      -29.65006      0.5144057
      6823.5000         0.7056         0.5331         0.5536       103.3152      -33.44743      0.4500435
      6824.0000         0.6684         0.5289         0.5422       106.2184      -36.34821      0.4008777
      6824.5000         0.6312         0.5248         0.5309       108.4409      -38.56829      0.3632493
      6825.0000         0.6238         0.5217         0.5195       109.1271      -39.25206        0.35166
      6825.5000         0.6364         0.5194         0.5081       109.5619      -39.68444      0.3443315
      6826.0000          0.649         0.5172         0.4968        99.9818      -30.10191      0.5067472
      6826.5000         0.6615         0.5149         0.5151        90.8104       -20.9281      0.6622356
      6827.0000         0.6741         0.5126         0.5336        89.0148      -19.13007      0.6927106
      6827.5000         0.6867         0.5104         0.5521         87.219      -17.33185       0.723189
      6828.0000         0.6992         0.5081         0.5705        85.3213      -15.43172      0.7553945
      6828.5000         0.7124         0.5034          0.589        82.4589       -12.5669      0.8039508
      6829.0000         0.7267         0.4974         0.6075        79.3633       -9.46888      0.8564597
      6829.5000          0.741         0.4914          0.626        80.2645      -10.36766      0.8412261
      6830.0000         0.7553         0.4855         0.6483        84.5468      -14.64753      0.7686859
      6830.5000         0.7696         0.4795         0.6719        90.7606      -20.85891      0.6634083
      6831.0000         0.7839         0.4735         0.6955        97.7535      -27.84939      0.5449256
      6831.5000         0.7982         0.4675          0.719       103.1793      -33.27277       0.453004
      6832.0000         0.8125         0.4623         0.7426        98.7137      -28.80474      0.5287332
      6832.5000         0.8268         0.4585         0.7662        92.4092      -22.49782      0.6356302
