#------------------------------------------------------------------------------
# Created by    : vladimir.rabinovich
# Created on    : 09/19/2023 17:22:43
#------------------------------------------------------------------------------
~Version Information Section
VERS.           2.0     :   CWLS log ASCII Standard - VERSION 2.0
WRAP.           NO      :   One line per depth step
~Well Information Section
#MNEM       .UNIT                                         VALUE :DESCRIPTION
#------------------------------------------------------------------------------
STRT        .FT                                            3600 :START DEPTH
STOP        .FT                                            7940 :STOP DEPTH
STEP        .FT                                             0.5 :STEP      
NULL        .                                           -999.25 :NULL      
COMP        .                          SEAGULL ENERGY E & P INC :COMPANY   
WELL        .                               OCS G09015 ST00BP00 :WELL      
FLD         .                                 BRAZOS BLOCK 0431 :FIELD     
LOC         .                                                   :LOCATION  
CNTY        .                                BRAZOS LARGE BLOCK :LOCATION  
STAT        .                                             TEXAS :STATE     
CTRY        .                                     UNITED STATES :COUNTRY   
SRVC        .                                                   :SERVICE COMPANY
DATE        .                             9/13/2023 11:09:51 AM :LOG DATE  
API         .                                    42704402370000 :API NUMBER
UWI         .                                    42704402370000 :UNIQUE WELL ID
XCOORD      .                                  876086.487249857 :SURFACE X 
YCOORD      .                                  10366258.6106956 :SURFACE Y 
LAT         .                                        28.5443209 :LATITUDE  
LON         .                                       -95.3810825 :LONGITUDE 
ELEV        .FT                                              90 :ELEVATION VALUE
ELEV_TYPE   .                                                KB :ELEVATION REFERENCE TYPE
~Curve Information Section
#MNEM       .UNIT                                      API CODE :CURVE DESCRIPTION
#------------------------------------------------------------------------------
DEPT        .FT                                                 :DEPTH     
DCAL        .IN                                                 :          
DPHI        .%                                                  :          
GR          .GAPI                                               :          
GR_NORM     .GAPI                                               :GammaRay Normalized
ILD         .OHMM                                               :          
ILM         .OHMM                                               :          
NPHI        .%                                                  :          
SGRD        .OHMM                                               :          
SP          .MV                                                 :          
SP_NORM     .MV                                                 :SP Normalized
VSH_GR      .V/V                                                :Volume of Shale from GR
VSH_SP      .V/V                                                :Volume of Shale from SP
~A        DEPTH           DCAL           DPHI             GR        GR_NORM            ILD            ILM           NPHI           SGRD             SP        SP_NORM         VSH_GR         VSH_SP
# ...
      7638.5000         1.4773        17.9442        81.6949       81.50758         0.8559         0.8864        41.9597         1.0266        -47.403      -2.022099              1       0.998895
      7639.0000         1.4904        17.1006        79.3904       78.89383         0.8553         0.8851        42.4414         1.0309       -47.3649      -1.967682      0.9764645              1
      7639.5000         1.5438        17.0602        77.2919        76.5132         0.8546         0.8838        43.6104         1.0259        -47.312      -1.898472      0.9258127              1
      7640.0000         1.5828        17.3393        74.7526       73.63371         0.8539         0.8837          44.17         1.0174       -47.2957      -1.865856      0.8645469              1
      7640.5000         1.5902        17.6919        73.4371       72.13925         0.8533         0.8851        43.9622          1.003       -47.2727      -1.826546        0.83275              1
      7641.0000         1.6044        17.9885        76.3293       75.40677         0.8526         0.8866        42.9147         1.0022       -47.1776       -1.71513      0.9022717              1
      7641.5000         1.6379        18.2956        78.8557        78.2603          0.852          0.888        42.0824         1.0002       -47.0231      -1.544319      0.9629851              1
      7642.0000         1.6595        18.3165        79.8169       79.34245         0.8551         0.8895        41.6542         1.0018       -46.8317      -1.336601      0.9860097              1
      7642.5000         1.6594        18.4995        80.5811       80.20165         0.8607         0.8909        41.4036         1.0036       -46.7418      -1.230389              1              1
      7643.0000         1.6355        18.8812        80.2682       79.84186         0.8625         0.8924        41.1317         1.0053       -46.8149      -1.287174      0.9966353              1
      7643.5000         1.6404        19.0985        78.0302       77.30336          0.864         0.8938        40.8594         1.0071       -46.8687      -1.324661      0.9426247              1
      7644.0000         1.6904        18.7885        77.3956       76.57948         0.8629         0.8953        40.8367         1.0088       -46.7208       -1.16045       0.927223              1
      7644.5000         1.7346        18.6341        77.0419       76.17352         0.8607         0.8963        41.1317         1.0106       -46.3837     -0.8070374      0.9185854              1
      7645.0000         1.7476        18.5603        77.2156       76.36443         0.8577         0.8952        41.4116         1.0101       -46.1949     -0.6019249      0.9226474              1
      7645.5000         1.7232        18.2823        77.8997       77.13297         0.8565          0.894        41.1189         1.0075       -46.3178     -0.7085075      0.9389994              1
      7646.0000         1.6987        17.9961        79.1403       78.53132         0.8568         0.8928        40.7863         1.0068       -46.4958     -0.8701973      0.9687515              1
      7646.5000         1.6747        18.4471        78.9248       78.28175         0.8593         0.8917        40.8754         1.0062       -46.5282     -0.8862801      0.9634416              1
      7647.0000         1.6597         18.962        78.7092       78.03208         0.8614         0.8905        41.1808         1.0055       -46.4982     -0.8399696      0.9581294              1
      7647.5000         1.7058        19.4769        79.0182       78.37612         0.8634         0.8893        41.4999         1.0049       -46.4681     -0.7935562      0.9654494              1
      7648.0000          1.847        20.1797        78.8165       78.14216         0.8652         0.8882        41.7686         1.0022       -46.3328     -0.6419449      0.9604715              1
      7648.5000         2.0139        19.7624        78.4325        77.7019         0.8642         0.8879        42.0464         0.9995       -46.1157     -0.4085274      0.9511043              1
      7649.0000         2.0357        19.2282        78.3894       77.64745         0.8619         0.8883        42.4294         0.9994       -45.8786      -0.155117      0.9499458              1
      7649.5000         2.0335        19.1235        78.4148       77.67052         0.8579         0.8886        42.9271         1.0022       -45.6638     0.07600021      0.9504367              1
      7650.0000         2.0267        18.8117        78.6023       77.87705         0.8542          0.889        43.1814         1.0047       -45.4763      0.2798119      0.9548309              1
      7650.5000         1.9773        18.2552        79.7699       79.19279         0.8517         0.8894        43.2687         1.0069       -45.2908      0.4816284      0.9828253              1
      7651.0000         1.8349        17.8138        80.2772       79.76124         0.8491         0.8898        43.2707         1.0082       -45.0801      0.7086372        0.99492              1
      7651.5000         1.7999        17.4393         79.828        79.2472         0.8484         0.8902        43.1282         1.0088       -44.8691      0.9359512       0.983983              1
      7652.0000         1.9199        17.3939        79.1205       78.44082         0.8519         0.8905        42.6924         1.0087       -44.6585       1.162865      0.9668259              1
      7652.5000         2.0503        17.4328        76.4716       75.43729         0.8595         0.8909        42.5341         1.0085         -44.71       1.127678       0.902921              1
      7653.0000           1.96        17.4716        76.3777       75.32535         0.8653         0.8913        42.4857          1.008       -44.8584       0.995594      0.9005393              1
      7653.5000         1.9144          17.47        78.1631       77.34027         0.8702         0.8917        42.4426         1.0071       -45.1248      0.7455025        0.94341              1
      7654.0000         1.8377         17.415        79.9839       79.39526         0.8744         0.8921        42.2035         1.0063       -45.3905      0.4961205      0.9871331              1
      7654.5000         1.7534        17.2261        80.8931       80.41855         0.8786         0.8924        41.9641         1.0043       -45.5757      0.3272324              1              1
      7655.0000         1.7285        16.9707        79.8325       79.21255         0.8804         0.8889        41.7066         1.0104       -45.8802     0.03904724      0.9832458              1
      7655.5000         1.6996        16.6375         79.316       78.62235         0.8818         0.8888        41.6099         1.0235       -46.2643      -0.328743      0.9706883              1
      7656.0000         1.6345        16.8063        80.8864       80.39394         0.8843         0.8909        41.5765         1.0329        -46.563     -0.6111259              1              1
      7656.5000         1.5075        18.2328        82.2975       81.98527         0.8845         0.8929        41.5387         1.0365       -46.9113     -0.9431152              1              1
      7657.0000         1.5983        18.8781        83.6592       83.52067         0.8826          0.895        41.6962         1.0253       -47.5516      -1.567101              1              1
      7657.5000         1.7187        19.1643         85.043       85.08109         0.8806          0.897        41.9625         1.0047       -47.7659      -1.765087              1              1
      7658.0000         1.8039        19.0531        83.7296       83.58899         0.8786          0.904        42.1014         0.9854       -47.7704      -1.753277              1              1
      7658.5000          1.734        18.3599        79.1465       78.39647         0.8768         0.9058        42.1624          0.986       -47.6245      -1.591061      0.9658823              1
