#------------------------------------------------------------------------------
# Created by    : vladimir.rabinovich
# Created on    : 09/19/2023 17:21:35
#------------------------------------------------------------------------------
~Version Information Section
VERS.           2.0     :   CWLS log ASCII Standard - VERSION 2.0
WRAP.           NO      :   One line per depth step
~Well Information Section
#MNEM       .UNIT                                         VALUE :DESCRIPTION
#------------------------------------------------------------------------------
STRT        .FT                                            3376 :START DEPTH
STOP        .FT                                            7813 :STOP DEPTH
STEP        .FT                                             0.5 :STEP      
NULL        .                                           -999.25 :NULL      
COMP        .                                MARINER ENERGY INC :COMPANY   
WELL        .                               OCS G27491 ST00BP00 :WELL      
FLD         .                                           WILDCAT :FIELD     
LOC         .                                                   :LOCATION  
CNTY        .                             GALVESTON LARGE BLOCK :LOCATION  
STAT        .                                             TEXAS :STATE     
CTRY        .                                     UNITED STATES :COUNTRY   
SRVC        .                                                   :SERVICE COMPANY
DATE        .                             9/13/2023 11:19:33 AM :LOG DATE  
API         .                                    42706404580000 :API NUMBER
UWI         .                                    42706404580000 :UNIQUE WELL ID
XCOORD      .                                  1038987.60828679 :SURFACE X 
YCOORD      .                                  10490484.8642062 :SURFACE Y 
LAT         .                                         28.893877 :LATITUDE  
LON         .                                         -94.87996 :LONGITUDE 
ELEV        .FT                                             110 :ELEVATION VALUE
ELEV_TYPE   .                                                KB :ELEVATION REFERENCE TYPE
~Curve Information Section
#MNEM       .UNIT                                      API CODE :CURVE DESCRIPTION
#------------------------------------------------------------------------------
DEPT        .FT                                                 :DEPTH     
CALI        .IN                                                 :          
DPSS        .%                                                  :          
DRHO        .G/CM3                                              :          
GR          .GAPI                                               :          
GR_NORM     .GAPI                                               :GammaRay Normalized
M2R1        .OHMM                                               :          
M2R2        .OHMM                                               :          
M2R3        .OHMM                                               :          
M2R6        .OHMM                                               :          
M2R9        .OHMM                                               :          
M2RX        .OHMM                                               :          
NPSS        .%                                                  :Neutron Porosity Sandstone
SP          .MV                                                 :          
SP_NORM     .MV                                                 :SP Normalized
TENS        .LB                                                 :          
VSH_GR      .V/V                                                :Volume of Shale from GR
VSH_SP      .V/V                                                :Volume of Shale from SP
~A        DEPTH           CALI           DPSS           DRHO             GR        GR_NORM           M2R1           M2R2           M2R3           M2R6           M2R9           M2RX           NPSS             SP        SP_NORM           TENS         VSH_GR         VSH_SP
# ...
      5506.0000         10.435        17.8162         0.0463           81.8       81.14824          0.976         0.9147         0.9073            0.9         0.8739         0.8825        32.9138       -46.1166      -1.805222        27.8431              1      0.9699129
      5506.5000         10.435        17.8106         0.0465           83.4       83.21262         0.9525            0.9         0.8825         0.8739         0.8485         0.8569        33.6459       -46.1028       -1.79142        26.8627              1       0.970143
      5507.0000         10.515        18.0372         0.0387           82.2       81.66434         0.9222         0.8739         0.8569         0.8485          0.832          0.832        35.2311       -46.4865      -2.175121        25.8824              1       0.963748
      5507.5000         10.515        18.0313         0.0429           80.8       79.85802            0.9         0.8569          0.832         0.8239         0.8159         0.8079        36.7847       -47.2687      -2.957321         24.902      0.9969791      0.9507113
      5508.0000         10.515        17.6779         0.0511             82       81.40629            0.9         0.8402         0.8239         0.8159            0.8            0.8        36.3235       -47.2561      -2.944721        23.9216              1      0.9509213
      5508.5000         10.515        17.3251         0.0593           82.8       82.43849            0.9          0.832         0.8159         0.8079            0.8            0.8         34.881       -46.8447      -2.533321        22.9412              1       0.957778
      5509.0000         10.515        17.7826         0.0555           81.6        80.8902         0.8912         0.8239         0.8079            0.8         0.7929         0.7789        33.4202       -47.2306       -2.91922        21.9608              1      0.9513463
      5509.5000         10.515        18.3679         0.0517           80.8       79.85802         0.8569         0.8079         0.7859         0.7789          0.772         0.7652        32.9346       -48.4162       -4.10482        20.9804      0.9969791      0.9315863
      5510.0000         10.555         19.082         0.0479           79.8       78.56778         0.8239         0.7929         0.7789          0.772         0.7652         0.7584        34.7736        -50.004      -5.692623             20      0.9695272      0.9051229
      5510.5000         10.595          19.56          0.056             79       77.53561         0.8079         0.7929         0.7859         0.7789          0.772         0.7584        36.8077          -50.4      -6.088623        19.6078      0.9475663       0.898523
      5511.0000         10.595          19.68           0.06             79       77.53561         0.8079         0.7929         0.7859         0.7859         0.7789          0.772        38.4231          -49.2      -4.888622        19.6078      0.9475663       0.918523
      5511.5000         10.635          20.04          0.072           79.8       78.56778            0.8            0.8         0.7929            0.8         0.7929            0.8        39.6923          -47.6       -3.28862        19.6078      0.9695272      0.9451897
      5512.0000         10.675          20.64          0.076           80.8       79.85802            0.8         0.8079         0.8079         0.8159         0.8159          0.832        39.4615            -46      -1.688622        19.6078      0.9969791      0.9718563
      5512.5000         10.675          20.88          0.076             82       81.40629         0.7859         0.8159         0.8239         0.8239          0.832         0.8402        37.9615          -45.6       -1.28862        19.6078              1       0.978523
      5513.0000         10.715          21.24          0.076           82.8       82.43849         0.7789         0.8239          0.832         0.8402         0.8402         0.8402        37.6154          -45.2     -0.8886223        19.6078              1      0.9851896
      5513.5000         10.715          21.36          0.076           81.6        80.8902          0.772         0.8402         0.8485         0.8485         0.8569         0.8569        37.0385          -45.2     -0.8886223        19.6078              1      0.9851896
      5514.0000         10.715          21.24          0.076           80.8       79.85802         0.7859         0.8569         0.8653         0.8653         0.8739         0.8825        36.1154          -45.6       -1.28862        19.6078      0.9969791       0.978523
      5514.5000         10.675             21          0.068           80.4       79.34193         0.8079         0.8569         0.8739         0.8825         0.8825         0.9073        35.5102          -45.6       -1.28862        19.6078      0.9859985       0.978523
      5515.0000         10.635          21.36          0.064           80.8       79.85802         0.8079         0.8485         0.8739         0.8739         0.8912         0.8912        36.3462          -45.2     -0.8886223        19.6078      0.9969791      0.9851896
      5515.5000         10.635          21.84           0.06           81.8       81.14824         0.7789          0.832         0.8485         0.8653         0.8653         0.8653           37.5          -44.8     -0.4886208        19.6078              1      0.9918563
      5516.0000         10.595          22.08          0.068           82.2       81.66434         0.7517            0.8         0.8159         0.8239         0.8239          0.832        38.5385          -44.4    -0.08862305        19.6078              1      0.9985229
      5516.5000         10.595          22.32           0.06           81.2       80.37411         0.7254         0.7789         0.7859         0.7859         0.7929         0.8079        39.6923            -44      0.3113785        19.6078              1              1
      5517.0000         10.595          22.32          0.056           80.6       79.59996         0.7254         0.7584          0.772          0.772          0.772         0.7789        41.0769            -44      0.3113785        19.6078      0.9914885              1
      5517.5000         10.595          22.08          0.052           80.2       79.08388         0.7254          0.745         0.7584         0.7652          0.772         0.7789        41.6538          -44.4    -0.08862305        19.6078       0.980508      0.9985229
      5518.0000         10.595          22.08           0.06           79.4       78.05169         0.7254          0.745          0.745          0.745         0.7584         0.7652           40.5          -45.6       -1.28862        19.6078      0.9585466       0.978523
      5518.5000         10.595          22.56           0.06           78.6        77.0195         0.7254         0.7384         0.7384         0.7319         0.7319          0.745        38.6538          -46.4      -2.088623        19.6078      0.9365851      0.9651896
      5519.0000         10.595          23.04           0.06           78.2       76.50341         0.7189         0.7254         0.7254         0.7254         0.7126         0.7319        37.7308          -47.2      -2.888622        19.6078      0.9256045      0.9518563
      5519.5000         10.635          23.52          0.052           79.6       78.30974         0.7126         0.7254         0.7254         0.7319         0.7126         0.7319        37.6154          -48.4      -4.088623        19.6078       0.964037      0.9318563
      5520.0000         10.635          23.76          0.056           81.8       81.14824         0.7189         0.7254         0.7319         0.7384         0.7254         0.7319        36.8077          -47.6       -3.28862        19.6078              1      0.9451897
      5520.5000         10.635        24.1224          0.072           82.4       81.92239         0.7319         0.7319         0.7384          0.745         0.7384         0.7384        35.3878          -46.8      -2.488621         19.042              1       0.958523
