#------------------------------------------------------------------------------
# Created by    : vladimir.rabinovich
# Created on    : 09/19/2023 17:22:52
#------------------------------------------------------------------------------
~Version Information Section
VERS.           2.0     :   CWLS log ASCII Standard - VERSION 2.0
WRAP.           NO      :   One line per depth step
~Well Information Section
#MNEM       .UNIT                                         VALUE :DESCRIPTION
#------------------------------------------------------------------------------
STRT        .FT                                             873 :START DEPTH
STOP        .FT                                           11612 :STOP DEPTH
STEP        .FT                                             0.5 :STEP      
NULL        .                                           -999.25 :NULL      
COMP        .                                   MARATHON OIL CO :COMPANY   
WELL        .                               OCS G04137 ST00BP04 :WELL      
FLD         .                       MATAGORDA ISLAND BLOCK 0527 :FIELD     
LOC         .                                                   :LOCATION  
CNTY        .                      MATAGORDA ISLAND LARGE BLOCK :LOCATION  
STAT        .                                             TEXAS :STATE     
CTRY        .                                     UNITED STATES :COUNTRY   
SRVC        .                                                   :SERVICE COMPANY
DATE        .                             9/13/2023 11:19:05 AM :LOG DATE  
API         .                                    42703400590000 :API NUMBER
UWI         .                                    42703400590000 :UNIQUE WELL ID
XCOORD      .                                  609906.580547661 :SURFACE X 
YCOORD      .                                  10277311.7025511 :SURFACE Y 
LAT         .                                         28.282909 :LATITUDE  
LON         .                                        -96.202007 :LONGITUDE 
ELEV        .FT                                              95 :ELEVATION VALUE
ELEV_TYPE   .                                                KB :ELEVATION REFERENCE TYPE
~Curve Information Section
#MNEM       .UNIT                                      API CODE :CURVE DESCRIPTION
#------------------------------------------------------------------------------
DEPT        .FT                                                 :DEPTH     
GR          .GAPI                                               :          
GR_NORM     .GAPI                                               :GammaRay Normalized
ILD         .OHMM                                               :          
SP          .MV                                                 :          
SP_NORM     .MV                                                 :SP Normalized
VSH_GR      .V/V                                                :Volume of Shale from GR
VSH_SP      .V/V                                                :Volume of Shale from SP
~A        DEPTH             GR        GR_NORM            ILD             SP        SP_NORM         VSH_GR         VSH_SP
# ...
      8779.0000        47.7934       56.70068         1.5709       -50.9983        -1.8965      0.5042698      0.9833981
      8779.5000        47.2999       55.78102         1.5487       -51.1868      -2.084999      0.4847026      0.9799075
      8780.0000         48.211        57.4668         1.5014       -51.1711      -2.069302      0.5205702      0.9801981
      8780.5000        49.7421       60.30264         1.4557       -51.0981        -1.9963      0.5809071        0.98155
      8781.0000         51.415       63.40154         1.4059       -51.1035      -2.001701      0.6468412        0.98145
      8781.5000        52.9448       66.23496         1.3553       -51.1757      -2.073902      0.7071269      0.9801129
      8782.0000        54.3488       68.83501         1.3065       -51.4724      -2.370602      0.7624471      0.9746185
      8782.5000        56.5078        72.8356         1.2617        -51.769      -2.667202       0.847566      0.9691259
      8783.0000        58.1758       75.92538         1.2217       -52.2477      -3.145901      0.9133061      0.9602611
      8783.5000        59.4734       78.32809         1.1717       -52.7419      -3.640102      0.9644275      0.9511092
      8784.0000        58.0401       75.66518         1.1184       -53.2878      -4.186001      0.9077697          0.941
      8784.5000        55.2667       70.51646         1.0674       -53.8707      -4.768902      0.7982225      0.9302055
      8785.0000        52.4045       65.20301         0.9933       -54.6387        -5.5369      0.6851704      0.9159833
      8785.5000        50.9745        62.5462         0.9066       -55.4344        -6.3326      0.6286424      0.9012482
      8786.0000        49.4904       59.78904          0.852       -56.2203        -7.1185      0.5699797      0.8866944
      8786.5000        46.1914       53.66539         0.8205        -57.005      -7.903202      0.4396891      0.8721629
      8787.0000        42.4236       46.67215         0.8091       -57.7773      -8.675503      0.2908968       0.857861
      8787.5000        40.4398       42.98808          0.809       -58.6483      -9.546501      0.2125122      0.8417315
      8788.0000        38.9445       40.21015         0.8088       -59.7747       -10.6729      0.1534075      0.8208722
      8788.5000        38.2551       38.92712         0.8088       -61.0892       -11.9874      0.1261089      0.7965297
      8789.0000        39.1542       40.59065         0.8102       -61.4507       -12.3489      0.1615032      0.7898352
      8789.5000        40.9086       43.84068         0.8116       -61.4063       -12.3045      0.2306528      0.7906574
      8790.0000        43.1959       48.07923         0.8131       -61.4828        -12.381      0.3208346      0.7892407
      8790.5000        44.5419       50.57173         0.8159       -64.2926       -15.1908      0.3738666      0.7372074
      8791.0000        44.6875       50.83755         0.8186       -65.3585       -16.2567      0.3795224      0.7174686
      8791.5000        44.4477        50.3885         0.8214       -63.6856       -14.5838      0.3699681      0.7484481
      8792.0000        44.3972       50.29059         0.8253       -62.6296       -13.5278      0.3678849      0.7680037
      8792.5000        44.3466       50.19246         0.8292       -63.0447       -13.9429      0.3657971      0.7603166
      8793.0000        44.9343       51.27837         0.8305        -63.363       -14.2612      0.3889016      0.7544222
      8793.5000        45.8373       52.94915         0.8274       -63.6266       -14.5248      0.4244499      0.7495407
      8794.0000        47.1636       55.40507         0.8244       -63.5914       -14.4896      0.4767036      0.7501926
      8794.5000        48.2721       57.45704         0.8214       -63.5646       -14.4628      0.5203626      0.7506889
      8795.0000        48.6182       58.09477         0.8157       -63.5699       -14.4681      0.5339313      0.7505907
      8795.5000        48.7755       58.38232         0.8094       -63.5753       -14.4735      0.5400493      0.7504907
      8796.0000        48.3406       57.57136         0.8031       -63.5263       -14.4245      0.5227948      0.7513981
      8796.5000        47.8063       56.57602         0.7905       -63.4399       -14.3381      0.5016175      0.7529981
      8797.0000        47.1685       55.38869         0.7751       -63.3546       -14.2528      0.4763552      0.7545778
      8797.5000        46.4456       54.04351         0.7595       -63.3784       -14.2766      0.4477344       0.754137
      8798.0000        45.6967       52.65013         0.7431       -63.4021       -14.3003      0.4180878      0.7536981
      8798.5000        44.7689       50.92486         0.7271       -63.6094       -14.5076        0.38138      0.7498592
      8799.0000        44.2137       49.89076         0.7114       -63.8442       -14.7424      0.3593778      0.7455111
      8799.5000        44.5888       50.58229          0.696       -64.4653       -15.3635      0.3740914      0.7340092
      8800.0000        45.2846       51.86872          0.681       -65.8248        -16.723      0.4014621      0.7088333
      8800.5000         45.999       53.18964         0.6711        -67.177       -18.0752      0.4295667      0.6837925
      8801.0000        46.5973        54.2952         0.6675       -68.4823       -19.3805      0.4530894      0.6596203
      8801.5000        47.0285       55.09081          0.664       -69.7827       -20.6809      0.4700171      0.6355389
      8802.0000        46.5516       54.20195         0.6604       -71.0535       -21.9517      0.4511054      0.6120056
      8802.5000        45.0441       51.40138         0.6604       -72.2255       -23.1237      0.3915187      0.5903018
      8803.0000        44.1089        49.6624         0.6607       -73.2791       -24.1773      0.3545191      0.5707908
      8803.5000        43.5482        48.6181         0.6576       -74.7397       -25.6379         0.3323      0.5437426
      8804.0000        43.7603       49.00729         0.6447       -75.1831       -26.0813      0.3405807      0.5355315
      8804.5000        44.4062       50.20112         0.6319       -75.2052       -26.1034      0.3659813      0.5351222
      8805.0000        44.9583         51.221         0.6207        -75.207       -26.1052      0.3876808      0.5350888
      8805.5000        45.1591       51.58924         0.6107       -76.3881       -27.2863      0.3955158      0.5132167
      8806.0000        45.3525       51.94372         0.6008       -77.7032       -28.6014      0.4030578      0.4888629
      8806.5000        45.5391        52.2856          0.591       -78.7506       -29.6488       0.410332      0.4694666
      8807.0000        45.6022       52.39841         0.5864       -79.4872       -30.3854      0.4127322       0.455826
      8807.5000        45.6398       52.46392         0.5847       -80.1016       -30.9998       0.414126      0.4444481
      8808.0000        45.4382       52.08573         0.5831       -80.7222       -31.6204      0.4060793      0.4329556
      8808.5000        44.1903        49.7667          0.583       -81.0905       -31.9887      0.3567382      0.4261352
      8809.0000        42.6148       46.84001         0.5917       -80.8135       -31.7117      0.2944683      0.4312648
      8809.5000        41.4712       44.71444         0.6004       -80.0844       -30.9826      0.2492435      0.4447667
      8810.0000        40.2596       42.46277         0.6094       -79.1639       -30.0621      0.2013356      0.4618129
      8810.5000        39.7704        41.5511         0.6267       -78.4639       -29.3621      0.1819383      0.4747759
      8811.0000        39.5382       41.11613         0.6449       -78.8025       -29.7007      0.1726837      0.4685056
      8811.5000        39.5367       41.10911         0.6643       -79.8437       -30.7419      0.1725343      0.4492241
      8812.0000        38.7705       39.68362         0.6861       -81.1971       -32.0953      0.1422046      0.4241611
