#------------------------------------------------------------------------------
# Created by    : vladimir.rabinovich
# Created on    : 09/19/2023 17:22:25
#------------------------------------------------------------------------------
~Version Information Section
VERS.           2.0     :   CWLS log ASCII Standard - VERSION 2.0
WRAP.           NO      :   One line per depth step
~Well Information Section
#MNEM       .UNIT                                         VALUE :DESCRIPTION
#------------------------------------------------------------------------------
STRT        .FT                                            3984 :START DEPTH
STOP        .FT                                           14348 :STOP DEPTH
STEP        .FT                                             0.5 :STEP      
NULL        .                                           -999.25 :NULL      
COMP        .                                  CNG PRODUCING CO :COMPANY   
WELL        .                               OCS G07292 ST00BP00 :WELL      
FLD         .                                           WILDCAT :FIELD     
LOC         .                                                   :LOCATION  
CNTY        .                           HIGH ISLAND LARGE BLOCK :LOCATION  
STAT        .                                             TEXAS :STATE     
CTRY        .                                     UNITED STATES :COUNTRY   
SRVC        .                                                   :SERVICE COMPANY
DATE        .                             9/13/2023 11:19:59 AM :LOG DATE  
API         .                                    42708402890000 :API NUMBER
UWI         .                                    42708402890000 :UNIQUE WELL ID
XCOORD      .                                  1158246.84135722 :SURFACE X 
YCOORD      .                                  10525039.0147689 :SURFACE Y 
LAT         .                                         28.993597 :LATITUDE  
LON         .                                        -94.508673 :LONGITUDE 
ELEV        .FT                                             101 :ELEVATION VALUE
ELEV_TYPE   .                                                KB :ELEVATION REFERENCE TYPE
~Curve Information Section
#MNEM       .UNIT                                      API CODE :CURVE DESCRIPTION
#------------------------------------------------------------------------------
DEPT        .FT                                                 :DEPTH     
CALX        .IN                                                 :          
DTL         .US/F                                               :          
GR          .GAPI                                               :          
GR_NORM     .GAPI                                               :GammaRay Normalized
ILD         .OHMM                                               :          
ILM         .OHMM                                               :          
LL3         .OHMM                                               :          
SP          .MV                                                 :          
SP_NORM     .MV                                                 :SP Normalized
VSH_GR      .V/V                                                :Volume of Shale from GR
VSH_SP      .V/V                                                :Volume of Shale from SP
~A        DEPTH           CALX            DTL             GR        GR_NORM            ILD            ILM            LL3             SP        SP_NORM         VSH_GR         VSH_SP
# ...
     10914.0000        -999.25       141.7075        48.1575       82.98627         0.3278          0.358         0.4973       -62.2301      -2.206406              1      0.9684799
     10914.5000        -999.25       141.7173        49.1423       84.82917         0.3297         0.3587          0.487       -62.8096      -2.809551              1      0.9598635
     10915.0000        -999.25       141.3513        49.8329       86.11171         0.3339         0.3601         0.4631        -62.936      -2.959591              1      0.9577201
     10915.5000        -999.25       140.6309        50.8543       88.02432         0.3337         0.3607         0.4662       -63.0178      -3.065033              1      0.9562138
     10916.0000        -999.25       139.7458        51.5084       89.23732         0.3355         0.3621         0.4749       -63.0547      -3.125576              1      0.9553489
     10916.5000        -999.25       139.4319         51.069       88.36746          0.336         0.3658          0.484       -62.8765       -2.97102              1      0.9575568
     10917.0000        -999.25       139.6016        50.4415       87.13933         0.3376         0.3693         0.5048       -63.1158      -3.233963              1      0.9538005
     10917.5000        -999.25       140.2461        50.2239       86.69196         0.3408         0.3709         0.4989       -63.1031      -3.244907              1      0.9536442
     10918.0000        -999.25       140.8689        50.1321       86.48418         0.3419         0.3713         0.5019       -62.8796      -3.045052              1      0.9564993
     10918.5000        -999.25       141.1641        49.7622        85.7467         0.3409         0.3711          0.505       -62.8559      -3.044994              1      0.9565001
     10919.0000        -999.25       140.7412        49.3424       84.91418         0.3409         0.3712         0.4935       -62.8773      -3.090038              1      0.9558566
     10919.5000        -999.25       139.7903        49.0299       84.28604         0.3429         0.3699         0.4999       -62.9505      -3.186882              1      0.9544731
     10920.0000        -999.25       138.9336         48.776       83.76951         0.3433         0.3691         0.4868       -63.0834      -3.343426              1      0.9522368
     10920.5000        -999.25       138.6047        48.9504        84.0688         0.3426         0.3689         0.4877       -63.1795      -3.463169              1      0.9505262
     10921.0000        -999.25       138.6484        50.0892       86.20503          0.342         0.3687         0.5047       -62.9302      -3.237507              1      0.9537499
     10921.5000        -999.25       138.6243        52.0967       89.99595         0.3422         0.3699         0.5197       -62.6063      -2.937252              1      0.9580393
     10922.0000        -999.25         138.53        52.6762       91.06685         0.3452         0.3716         0.4792       -62.8519      -3.206493              1      0.9541929
     10922.5000        -999.25       137.9341         51.675       89.12691         0.3517         0.3723         0.4763       -63.2635      -3.641739              1      0.9479752
     10923.0000        -999.25       135.9082        49.7446       85.41705         0.3587         0.3711         0.4912       -63.0785      -3.480381              1      0.9502802
     10923.5000        -999.25       134.8145        49.8455       85.57633         0.3663         0.3805         0.4969       -63.2004      -3.625927              1      0.9482011
     10924.0000        -999.25        134.218        51.4326       88.56648         0.3716         0.3892         0.5036       -62.9604      -3.409569              1      0.9512919
     10924.5000        -999.25        134.061        53.3214       92.13129         0.3788         0.3975         0.5178       -62.8954      -3.368214              1      0.9518827
     10925.0000        -999.25       135.0247        54.1471       93.67115         0.3874         0.4027         0.5141       -63.0803      -3.576756              1      0.9489035
     10925.5000        -999.25       136.5515        54.6092       94.51843         0.3939         0.4084         0.5116       -62.8914      -3.411499              1      0.9512643
     10926.0000        -999.25       137.8682        54.5713       94.41334         0.3936         0.4121         0.5117       -62.8494      -3.393143              1      0.9515265
     10926.5000        -999.25       138.8293        52.5487       90.52785         0.3895         0.4138         0.5096       -62.9141      -3.481487              1      0.9502645
     10927.0000        -999.25       139.2769        49.3519        84.4058         0.3819         0.4132         0.5068       -62.7193      -3.310326              1      0.9527096
     10927.5000        -999.25       139.4636        47.8785       81.56642         0.3765         0.4086         0.4954       -62.3197      -2.934368              1      0.9580805
     10928.0000        -999.25       139.9839        48.7004       83.09904         0.3716         0.4009         0.4799       -62.4435      -3.081814              1      0.9559741
     10928.5000        -999.25       140.2092        50.6296       86.74081         0.3659         0.3932         0.4801       -62.3993      -3.061378              1       0.956266
     10929.0000        -999.25       140.1045        51.1763       87.74924         0.3583         0.3884         0.4812       -62.3128      -2.999615              1      0.9571484
     10929.5000        -999.25       139.3599        51.5244       88.37938         0.3499         0.3844         0.4645       -62.0035       -2.71505              1      0.9612136
     10930.0000        -999.25       139.3604        51.7217       88.72229         0.3434         0.3789         0.4535       -61.5229      -2.259182              1       0.967726
     10930.5000        -999.25       140.0613        51.8835       88.99757         0.3374         0.3716         0.4562       -61.5455      -2.306519              1      0.9670497
     10931.0000        -999.25       140.7476        51.6447       88.50981         0.3319         0.3664         0.4764        -61.761      -2.546753              1      0.9636178
     10931.5000        -999.25       141.7427        50.2509       85.82206         0.3275         0.3634         0.4675       -61.6894      -2.499886              1      0.9642873
     10932.0000        -999.25       142.0098        47.8596       81.23428         0.3255         0.3608         0.4593        -61.477      -2.312222              1      0.9669682
     10932.5000        -999.25         141.54        47.6481       80.79854         0.3232         0.3578         0.4585       -61.0275      -1.887455              1      0.9730363
     10933.0000        -999.25       141.3872         48.458       82.30829         0.3234         0.3557         0.4549       -60.7867      -1.671391              1       0.976123
     10933.5000        -999.25       141.3726        50.5084       86.18092         0.3228         0.3539         0.4513       -60.9101      -1.819523              1      0.9740068
     10934.0000        -999.25       141.5186        51.3808       87.80972         0.3211         0.3527         0.4475       -61.0952      -2.029358              1      0.9710092
     10934.5000        -999.25       141.7158        52.4982       89.90519         0.3196         0.3514         0.4404       -61.2907      -2.249592              1       0.967863
     10935.0000        -999.25       141.9236        53.7936       92.33972         0.3183         0.3502         0.4522       -61.1651      -2.148727              1      0.9693039
     10935.5000        -999.25       142.1804        55.0789       94.75501         0.3182         0.3482         0.4569       -61.0511       -2.05946              1      0.9705791
     10936.0000        -999.25       142.1858        55.0283       94.62574         0.3183         0.3459         0.4523       -61.3122      -2.345291              1      0.9664958
