#------------------------------------------------------------------------------
# Created by    : vladimir.rabinovich
# Created on    : 09/19/2023 17:21:31
#------------------------------------------------------------------------------
~Version Information Section
VERS.           2.0     :   CWLS log ASCII Standard - VERSION 2.0
WRAP.           NO      :   One line per depth step
~Well Information Section
#MNEM       .UNIT                                         VALUE :DESCRIPTION
#------------------------------------------------------------------------------
STRT        .FT                                              40 :START DEPTH
STOP        .FT                                           13401 :STOP DEPTH
STEP        .FT                                             0.5 :STEP      
NULL        .                                           -999.25 :NULL      
COMP        .                                        TEXACO USA :COMPANY   
WELL        .                               OCS G01759 ST00BP00 :WELL      
FLD         .                                           WILDCAT :FIELD     
LOC         .                                                   :LOCATION  
CNTY        .                             GALVESTON LARGE BLOCK :LOCATION  
STAT        .                                             TEXAS :STATE     
CTRY        .                                     UNITED STATES :COUNTRY   
SRVC        .                                                   :SERVICE COMPANY
DATE        .                             9/13/2023 11:19:24 AM :LOG DATE  
API         .                                    42706001440000 :API NUMBER
UWI         .                                    42706001440000 :UNIQUE WELL ID
XCOORD      .                                   1131482.4965331 :SURFACE X 
YCOORD      .                                  10562344.6824913 :SURFACE Y 
LAT         .                                         29.095227 :LATITUDE  
LON         .                                        -94.593967 :LONGITUDE 
ELEV        .FT                                              83 :ELEVATION VALUE
ELEV_TYPE   .                                                KB :ELEVATION REFERENCE TYPE
~Curve Information Section
#MNEM       .UNIT                                      API CODE :CURVE DESCRIPTION
#------------------------------------------------------------------------------
DEPT        .FT                                                 :DEPTH     
CALI        .IN                                                 :          
DT          .US/F                                               :          
GR          .GAPI                                               :          
GR_NORM     .GAPI                                               :GammaRay Normalized
RHOB        .G/C3                                               :          
SP          .MV                                                 :          
SP_NORM     .MV                                                 :SP Normalized
VSH_GR      .V/V                                                :Volume of Shale from GR
VSH_SP      .V/V                                                :Volume of Shale from SP
~A        DEPTH           CALI             DT             GR        GR_NORM           RHOB             SP        SP_NORM         VSH_GR         VSH_SP
# ...
      9103.0000          9.635       131.4626        58.0273       73.20296         2.3346       -20.0963     -0.5885201      0.8553822              1
      9103.5000         9.4848       131.6289         55.305       69.38615           2.36       -19.7783      -0.278347      0.7741733              1
      9104.0000         9.3001       131.0747        55.5039       69.66173         2.3761       -19.5958     -0.1036758      0.7800367              1
      9104.5000         9.1783       129.0513         57.481       72.42847         2.3568       -19.8035     -0.3192005      0.8389037              1
      9105.0000         9.0625       127.5785        59.1105       74.70821         2.3153       -20.2448     -0.7683296      0.8874086              1
      9105.5000         9.0345       126.2074        61.1403       77.54875         2.2921       -20.7366      -1.267958      0.9478458              1
      9106.0000         9.0294        117.489        61.5552       78.12695         2.2792       -21.2987      -1.837883      0.9601479              1
      9106.5000         8.9426       111.7938        61.8616       78.55315         2.2843       -22.2913       -2.83831      0.9692159      0.9635517
      9107.0000         8.9229       110.2617         62.976       80.11128         2.2821       -25.5185      -6.073336              1      0.8228984
      9107.5000         8.5683       110.0583        64.2134       81.84172         2.2961        -27.553      -8.115664              1      0.7341016
      9108.0000         8.1422       117.7311        63.7285       81.15935         2.3107       -28.9826      -9.553091              1      0.6716048
      9108.5000         8.0712       123.6417        61.7993       78.45363          2.328       -26.6488      -7.227118      0.9670985       0.772734
      9109.0000         8.1302       124.1597        57.8788       72.95824         2.3318       -24.4388      -5.024946      0.8501753      0.8684806
      9109.5000         8.1378       121.1777         54.471        68.1811         2.3505       -24.5698      -5.163773       0.748534      0.8624447
      9110.0000         7.9745       117.7747        51.4467       63.94122         2.3722       -26.2929      -6.894699      0.6583237       0.787187
      9110.5000          7.963       116.0247        49.2731       60.89309         2.3675       -30.1165      -10.72613        0.59347      0.6206031
      9111.0000         8.1465       116.8356        49.4313       61.11168         2.3251       -32.8844      -13.50185      0.5981209      0.4999194
      9111.5000         8.4207       121.2552        51.4515       63.93877          2.284       -31.6363      -12.26158      0.6582716      0.5538444
      9112.0000          8.904       125.8927        53.3913       66.65324          2.296       -28.6351      -9.268208      0.7160263       0.683991
      9112.5000         9.1214       128.4219        53.3495       66.59161         2.2992       -25.0327      -5.673634       0.714715      0.8402768
      9113.0000         9.1473       128.2986        52.5934        65.5293         2.2776        -22.325      -2.973763      0.6921129      0.9576625
      9113.5000         8.9598       122.9108        53.0236       66.12894         2.2722       -24.0083       -4.66489       0.704871      0.8841352
      9114.0000         8.3462       114.4829        55.7579       69.95644         2.2887       -26.9326      -7.597015      0.7863072      0.7566515
      9114.5000         8.4755       112.4957        56.9082       71.56487         2.2978       -28.7097      -9.381943       0.820529       0.679046
      9115.0000         8.8049       112.5804        56.9921       71.67935         2.2869       -26.7305       -7.41057      0.8229649      0.7647578
      9115.5000         8.9322       115.8529         57.838       72.86135         2.2658       -25.0664      -5.754297      0.8481138      0.8367697
      9116.0000          8.977       121.7006        59.0889       74.61071         2.2518       -23.6933      -4.389025      0.8853343      0.8961294
      9116.5000          8.945       123.9153         56.345       70.76364         2.2685       -24.9919      -5.695452      0.8034818      0.8393282
      9117.0000          8.854       121.8845        54.7778       68.56505         2.2818       -26.7426      -7.453978      0.7567031      0.7628706
      9117.5000         8.4774       117.1115        53.9138        67.3516         2.2888        -29.751      -10.47021      0.7308851      0.6317302
      9118.0000         8.1138       110.8572        53.7377       67.10183         2.3013       -39.1778      -19.90483      0.7255709      0.2215291
      9118.5000         8.0275       107.5654        55.0797       68.97883         2.3148       -43.4006      -24.13546       0.765507      0.0375887
      9119.0000         8.0505       105.1958        57.3084         72.098         2.2978       -43.3621      -24.10479      0.8318723     0.03892235
      9119.5000         8.0546       104.6757        59.3718       74.98563         2.2846       -39.6683      -20.41881      0.8933112       0.199182
      9120.0000         8.0581       104.8884        60.6251       76.73836         2.2654       -42.5253      -23.28364      0.9306033     0.07462435
      9120.5000         8.0724       103.9445        56.3067       70.68554         2.2517       -41.6451      -22.41127        0.80182      0.1125536
      9121.0000         8.0654       101.3062           47.9       58.90529           2.24       -37.3694      -18.14339      0.5511764      0.2981133
      9121.5000         8.0905       101.0231        44.0609       53.52393         2.2295       -34.7962      -15.57802      0.4366794      0.4096512
      9122.0000         8.1633       103.0852        42.1581       50.85519         2.2187       -33.8544      -14.64405      0.3798976      0.4502587
      9122.5000         8.3211       106.4084        40.8904       49.07618          2.223       -33.2259      -14.02337      0.3420463      0.4772446
      9123.0000         8.5657       110.7023        40.5058       48.53432         2.2369       -31.3958       -12.2011      0.3305176      0.5564738
      9123.5000         8.7379       114.9331        40.1948       48.09558         2.2504        -28.741      -9.554129      0.3211825      0.6715596
      9124.0000         8.8915       118.6411        39.9976       47.81626         2.2592       -26.0524      -6.873358      0.3152395      0.7881149
      9124.5000         9.1022       123.1819        40.4207       48.40593         2.2868       -24.6071      -5.435884      0.3277858      0.8506137
      9125.0000         9.1223       126.4882        42.1006        50.7563          2.313       -23.3253      -4.161911      0.3777937      0.9060039
      9125.5000         9.1688       129.4495        45.5467       55.58098         2.3209       -22.1013      -2.945738      0.4804463       0.958881
      9126.0000         9.2115       129.3005        50.3827       62.35281         2.2911       -20.7666      -1.618866      0.6245279              1
      9126.5000         9.1901       127.5701        54.4614       68.06371         2.3158       -19.6893     -0.5493927      0.7460365              1
      9127.0000         9.1986        126.649        56.5655       71.00834         2.3306       -18.8753      0.2567806       0.808688              1
      9127.5000          9.218       125.7462        57.7433       72.65531         2.3158        -18.259      0.8652515        0.84373              1
      9128.0000         9.1975       125.3578        56.8315       71.37489         2.2885       -17.6873       1.429127       0.816487              1
      9128.5000         9.1651       125.7386        57.7685       72.68449         2.2877       -17.3883       1.720299      0.8443509              1
      9129.0000         9.1319        125.722        59.0482       74.47421         2.3169       -17.3103       1.790472      0.8824299              1
