#------------------------------------------------------------------------------
# Created by    : vladimir.rabinovich
# Created on    : 09/19/2023 17:22:41
#------------------------------------------------------------------------------
~Version Information Section
VERS.           2.0     :   CWLS log ASCII Standard - VERSION 2.0
WRAP.           NO      :   One line per depth step
~Well Information Section
#MNEM       .UNIT                                         VALUE :DESCRIPTION
#------------------------------------------------------------------------------
STRT        .FT                                            4470 :START DEPTH
STOP        .FT                                            9513 :STOP DEPTH
STEP        .FT                                             0.5 :STEP      
NULL        .                                           -999.25 :NULL      
COMP        .                 FAIRWAYS SPEC SALES & SERVICE INC :COMPANY   
WELL        .                               OCS G11315 ST00BP00 :WELL      
FLD         .                              GALVESTON BLOCK 0319 :FIELD     
LOC         .                                                   :LOCATION  
CNTY        .                             GALVESTON LARGE BLOCK :LOCATION  
STAT        .                                             TEXAS :STATE     
CTRY        .                                     UNITED STATES :COUNTRY   
SRVC        .                                                   :SERVICE COMPANY
DATE        .                             9/13/2023 11:19:34 AM :LOG DATE  
API         .                                    42706402650000 :API NUMBER
UWI         .                                    42706402650000 :UNIQUE WELL ID
XCOORD      .                                  1065572.18570413 :SURFACE X 
YCOORD      .                                  10465680.9820926 :SURFACE Y 
LAT         .                                         28.826802 :LATITUDE  
LON         .                                        -94.795723 :LONGITUDE 
ELEV        .FT                                              86 :ELEVATION VALUE
ELEV_TYPE   .                                                KB :ELEVATION REFERENCE TYPE
~Curve Information Section
#MNEM       .UNIT                                      API CODE :CURVE DESCRIPTION
#------------------------------------------------------------------------------
DEPT        .FT                                                 :DEPTH     
DCAL        .IN                                                 :          
DPHI        .%                                                  :          
DRHO        .G/C3                                               :          
GR          .GAPI                                               :          
GR_NORM     .GAPI                                               :GammaRay Normalized
ILD         .OHMM                                               :          
ILM         .OHMM                                               :          
NPHI        .%                                                  :          
SFL         .OHMM                                               :          
SP          .MV                                                 :          
SP_NORM     .MV                                                 :SP Normalized
VSH_GR      .V/V                                                :Volume of Shale from GR
VSH_SP      .V/V                                                :Volume of Shale from SP
~A        DEPTH           DCAL           DPHI           DRHO             GR        GR_NORM            ILD            ILM           NPHI            SFL             SP        SP_NORM         VSH_GR         VSH_SP
# ...
      7510.0000         1.9134        11.7578         0.0055        77.7965       68.06767         0.6551         0.7489        24.9315         1.1889       -59.2686      -26.22802      0.7461207      0.5964921
      7510.5000         1.6838        11.0302         0.0027         75.363       65.47195         0.6666         0.7586        24.6834         1.3133        -58.292      -25.25026      0.6908925      0.6115345
      7511.0000         1.3398        12.4034         0.0002        72.7332       62.66682          0.686         0.7724        26.2307         1.1872       -57.5483      -24.50541       0.631209      0.6229937
      7511.5000         1.1347        14.2767        -0.0006        70.4674       60.24997         0.7101         0.7894        27.8544         1.0723       -57.3828      -24.33875      0.5797865      0.6255577
      7512.0000         1.0537        16.2487        -0.0002        70.0247       59.77775         0.7422         0.8101        29.0582         1.0216       -57.6701       -24.6249      0.5697394      0.6211554
      7512.5000         1.1604        19.2256         0.0027        73.1418       63.10266         0.7724         0.8341        29.9142         1.0715       -57.6104      -24.56404      0.6404821      0.6220917
      7513.0000         1.3026        20.4708         0.0095        76.0388        66.1928         0.8007         0.8591        30.2641         1.0677       -56.3508      -23.30329      0.7062299      0.6414879
      7513.5000         1.4825        18.9998         0.0199        79.4965         69.881         0.8385         0.8796        30.9681         1.0349       -52.9832      -19.93453      0.7847022      0.6933149
      7514.0000         1.7937         16.589          0.036        83.1271       73.75364         0.8728         0.8993        31.6019          0.991       -50.6631      -17.61328      0.8670987      0.7290265
      7514.5000         1.9566        14.4358         0.0395        85.8983       76.70959         0.9033         0.9166        32.0491         0.9998       -48.9567      -15.90572      0.9299914      0.7552966
      7515.0000         1.9128        13.0872          0.029        87.8997       78.84441         0.9192          0.931        32.0788         1.0415       -47.5738      -14.52167      0.9754131      0.7765898
      7515.5000         1.8539        12.9807         0.0195        89.0128       80.03173         0.9187         0.9346        32.0219         1.0527       -45.8219      -12.76861              1      0.8035598
      7516.0000         1.7826        13.9301         0.0096        91.6454       82.83984         0.9136         0.9247         32.296         1.0277       -43.3007      -10.24626              1      0.8423653
      7516.5000         1.7516        14.8079         0.0024        95.0715       86.49434         0.9021         0.9219         34.384         0.9568       -40.1008      -7.045204              1      0.8916122
      7517.0000         1.7488        15.6476        -0.0006         97.649       89.24368         0.8958         0.9202        36.2875         0.8881       -37.7531       -4.69635              1      0.9277484
      7517.5000         1.6978        16.2757        -0.0026       100.1768          91.94         0.8979         0.9185         37.431          0.852       -36.5418      -3.483894              1      0.9464016
      7518.0000         1.6309        16.3011        -0.0029       101.9868       93.87067         0.9007         0.9166        37.2449         0.8638       -35.8661      -2.807037              1      0.9568148
      7518.5000         1.5768         15.452         -0.002         102.03       93.91674         0.9034         0.9146        36.2701         0.8973       -35.1984      -2.138184              1      0.9671049
      7519.0000         1.5264        14.5598         0.0002       100.4885       92.27248         0.9052          0.916        35.4352          0.927       -34.5947      -1.533329              1      0.9764103
      7519.5000         1.5059        14.1511          0.002        98.5319       90.18543         0.9068         0.9177        35.0292         0.9539       -34.1646      -1.102074              1       0.983045
      7520.0000         1.5399        13.7691         0.0039        98.7312       90.39803         0.9085         0.9194        35.3748         0.9713       -34.0053     -0.9416161              1      0.9855136
      7520.5000         1.5912        13.9563         0.0058       100.0092       91.76122          0.915         0.9221        36.0466         0.9791       -34.1276      -1.062767              1      0.9836497
      7521.0000          1.692        14.2644         0.0068       101.6882       93.55215         0.9218         0.9249        36.6414         0.9671       -34.3683      -1.302311              1      0.9799644
      7521.5000         1.8535        14.4731         0.0071        103.218       95.18394         0.9284         0.9317        36.6374         0.9226       -34.6746      -1.607452              1        0.97527
      7522.0000         1.9155        14.6819         0.0063         103.09        95.0474         0.9341         0.9397        35.7135         0.9058       -34.9404      -1.872097              1      0.9711985
      7522.5000         1.7039        14.4708         0.0052       100.1794       91.94277         0.9395         0.9499        34.6226         0.9156       -35.0675      -1.998047              1      0.9692608
      7523.0000         1.5238        14.2491         0.0041        91.4725       82.65541         0.9426         0.9595        33.3392         0.9533       -35.2595      -2.188889              1      0.9663248
      7523.5000         1.4665        13.3496         0.0036        82.5769       73.16677         0.9446         0.9687        32.1131         1.0512       -35.6432      -2.571434      0.8546122      0.9604395
      7524.0000          1.494        12.4988         0.0031         78.564       68.88634         0.9357         0.9709        31.5816         1.1171       -36.4521      -3.379177      0.7635393      0.9480127
      7524.5000         1.5558        11.6918         0.0022        80.5023       70.95386         0.9269         0.9723        31.9394         1.0956       -37.6624      -4.588326      0.8075289      0.9294104
      7525.0000         1.7681        11.8164          0.001        83.4833       74.13359         0.9106         0.9704        32.2737         1.0394       -38.5827      -5.507469      0.8751828      0.9152697
      7525.5000         1.8708        12.9759        -0.0004        82.6555       73.25061          0.894         0.9622        32.1596         1.0561         -39.36      -6.283615       0.856396       0.903329
      7526.0000         1.8381        14.9256        -0.0019        78.6531       68.98138         0.8795         0.9427        31.1622         1.1031       -40.9333      -7.855759      0.7655612      0.8791422
      7526.5000          1.654           17.4        -0.0027        75.0382       65.12549         0.8677         0.9156        30.5312         1.1106       -45.3721      -12.29341       0.683521      0.8108706
      7527.0000         1.5089         19.003        -0.0021        73.3788       63.35546          0.856         0.8913         30.274         1.1121       -51.7877      -18.70785      0.6458609      0.7121869
      7527.5000           1.41        19.7882        -0.0007        72.7345        62.6682         0.8438          0.876        30.6867         1.0603       -54.3503      -21.26929      0.6312383      0.6727801
      7528.0000         1.3723        19.5262         0.0012        72.6545       62.58287          0.831         0.8641        31.2663         1.0017       -54.8002      -21.71804      0.6294228      0.6658763
      7528.5000         1.4278        18.0345         0.0027        73.3428       63.31705         0.8183         0.8635        31.5097         0.9439        -54.484      -21.40069      0.6450437      0.6707587
