#------------------------------------------------------------------------------
# Created by    : vladimir.rabinovich
# Created on    : 09/19/2023 17:22:45
#------------------------------------------------------------------------------
~Version Information Section
VERS.           2.0     :   CWLS log ASCII Standard - VERSION 2.0
WRAP.           NO      :   One line per depth step
~Well Information Section
#MNEM       .UNIT                                         VALUE :DESCRIPTION
#------------------------------------------------------------------------------
STRT        .FT                                             270 :START DEPTH
STOP        .FT                                            9392 :STOP DEPTH
STEP        .FT                                             0.5 :STEP      
NULL        .                                           -999.25 :NULL      
COMP        .                                     TALOS ERT LLC :COMPANY   
WELL        .                               OCS G12363 ST00BP00 :WELL      
FLD         .                                 BRAZOS BLOCK 0453 :FIELD     
LOC         .                                                   :LOCATION  
CNTY        .                                BRAZOS LARGE BLOCK :LOCATION  
STAT        .                                             TEXAS :STATE     
CTRY        .                                     UNITED STATES :COUNTRY   
SRVC        .                                                   :SERVICE COMPANY
DATE        .                             9/13/2023 11:19:08 AM :LOG DATE  
API         .                                    42704401340000 :API NUMBER
UWI         .                                    42704401340000 :UNIQUE WELL ID
XCOORD      .                                  788791.944469438 :SURFACE X 
YCOORD      .                                  10354739.7167093 :SURFACE Y 
LAT         .                                         28.507622 :LATITUDE  
LON         .                                        -95.652007 :LONGITUDE 
ELEV        .FT                                             100 :ELEVATION VALUE
ELEV_TYPE   .                                                KB :ELEVATION REFERENCE TYPE
~Curve Information Section
#MNEM       .UNIT                                      API CODE :CURVE DESCRIPTION
#------------------------------------------------------------------------------
DEPT        .FT                                                 :DEPTH     
DPHI        .%                                                  :          
DT          .US/F                                               :          
GR          .GAPI                                               :          
GR_NORM     .GAPI                                               :GammaRay Normalized
ILD         .OHMM                                               :          
ILM         .OHMM                                               :          
LL          .OHMM                                               :          
NPHI        .%                                                  :          
SP          .MV                                                 :          
SP_NORM     .MV                                                 :SP Normalized
VSH_GR      .V/V                                                :Volume of Shale from GR
VSH_SP      .V/V                                                :Volume of Shale from SP
~A        DEPTH           DPHI             DT             GR        GR_NORM            ILD            ILM             LL           NPHI             SP        SP_NORM         VSH_GR         VSH_SP
# ...
       946.5000        41.1094        -999.25        67.2869       86.54163         1.4226         1.3748         1.7905        65.3604       -53.0267        -5.6523              1        -999.25
       947.0000        39.3463        -999.25        65.1454       83.84605         1.4903         1.4293         1.8488        64.5562       -52.7164         -5.461              1        -999.25
       947.5000        37.8253        -999.25        61.6901       79.49841         1.5742         1.5047         1.8844        57.7868       -52.5565          -5.42      0.9893278        -999.25
       948.0000        36.6762        -999.25        58.3369       75.27914         1.6712         1.6225         1.8874        54.6465       -52.8267        -5.8092      0.8995563        -999.25
       948.5000        35.3436        -999.25        55.9019        72.2145         1.7991         1.7854         1.8889        51.6432       -53.6816        -6.7831      0.8343511        -999.25
       949.0000        33.8431        -999.25        53.2681       68.89988         1.9689         1.9284         1.9249        49.1793       -54.9604        -8.1809      0.7638272        -999.25
       949.5000        31.9982        -999.25        50.4079       65.30056          2.102         2.0314         2.0067        47.9706        -56.152        -9.4915       0.687246        -999.25
       950.0000        29.3826        -999.25        47.6196       61.79165         2.2989         2.1241         2.1187        50.1364       -56.0762        -9.5347      0.6125882        -999.25
       950.5000        28.5021        -999.25         45.348       58.93248         2.4923         2.2209         2.2109        50.5387       -55.7852        -9.3627      0.5517549        -999.25
       951.0000        28.5869        -999.25        46.6565       60.57523         2.6248         2.2902         2.2951        50.0917       -55.5746        -9.2711      0.5867069        -999.25
       951.5000        31.4082        -999.25        46.5624       60.45423          2.709         2.3033         2.3395        49.7953       -55.9777        -9.7931      0.5841325        -999.25
       952.0000        33.1349        -999.25        44.6083       57.99431         2.7587         2.3201         2.3583        49.4843       -56.6261       -10.5605      0.5317938        -999.25
       952.5000          33.33        -999.25        43.4568       56.54364          2.758         2.3397         2.3881        46.9126       -57.3748       -11.4282      0.5009286        -999.25
       953.0000        32.4306        -999.25        43.0054       55.97335         2.7271         2.3491          2.438        46.3351       -58.2052       -12.3776      0.4887948        -999.25
       953.5000         31.578        -999.25        42.9863       55.94667         2.6881         2.3314         2.4806        47.0865       -58.7191       -13.0105       0.488227        -999.25
       954.0000         31.236        -999.25        43.6494       56.77783         2.6452         2.2873         2.4218        50.9221       -58.3654       -12.7758      0.5059112        -999.25
       954.5000         32.411        -999.25        44.7771       58.19322         2.5919         2.2486         2.4082        54.7451       -57.8131       -12.3425      0.5360259        -999.25
       955.0000        33.2385        -999.25        44.2154       57.48422         2.5412          2.212          2.421          57.96       -57.5032       -12.1516      0.5209408        -999.25
       955.5000        33.4158        -999.25        43.5327       56.62307         2.5005         2.1787         2.4363        59.1943       -57.7087        -12.476      0.5026184        -999.25
       956.0000        32.6566        -999.25        43.7105       56.84398         2.4608         2.1522         2.4457        59.7638       -58.0907        -12.977      0.5073186        -999.25
       956.5000        32.3295        -999.25        44.7531       58.15236          2.427         2.1286         2.4247        60.3333        -58.417       -13.4223      0.5351565        -999.25
       957.0000        33.2154        -999.25        46.5076       60.35593         2.3936         2.1069         2.4144        60.9027       -58.4244       -13.5487      0.5820411        -999.25
       957.5000        34.8413        -999.25        49.1655       63.69552         2.3579         2.0822         2.4016        61.4722       -57.8265       -13.0698      0.6530962        -999.25
       958.0000        37.8158        -999.25        52.6117       68.02639         2.3214         2.0554         2.3919         63.755       -56.7249       -12.0872      0.7452424        -999.25
       958.5000         39.916        -999.25        52.8594        68.3352          2.271         2.0156         2.3849        65.2839       -56.1667        -11.648      0.7518127        -999.25
       959.0000        40.4349        -999.25        52.5616       67.95805         2.2143         1.9761         2.3669        63.1631       -56.2167        -11.817      0.7437882        -999.25
       959.5000        40.6035        -999.25        52.2153       67.51991         2.1688         1.9349         2.3409        61.6603       -56.0385       -11.7577      0.7344663        -999.25
       960.0000        40.1542        -999.25        52.2122       67.51335         2.1244         1.8944          2.301        61.7728       -55.1089       -10.9471      0.7343266        -999.25
       960.5000        38.6265        -999.25        59.4803       76.65018         2.0793          1.851         2.2609         62.488       -53.8638         -9.821      0.9287273        -999.25
       961.0000        36.9976        -999.25        62.0021       79.81863         2.0272         1.8102         2.2645        64.9911       -53.4677        -9.5439       0.996141        -999.25
       961.5000        35.6288        -999.25        63.6642       81.90602         1.9722         1.7742         2.2666        70.1489       -53.2048           -9.4              1        -999.25
       962.0000         34.795        -999.25        65.2198       83.85948         1.9179         1.7361         2.2512        67.7124       -53.2123        -9.5265              1        -999.25
       962.5000        34.2599        -999.25        66.7664       85.80164         1.8686         1.6963         2.2203        60.1094       -53.5864       -10.0196              1        -999.25
       963.0000        34.3665        -999.25        67.7726       87.06424         1.8222         1.6649          2.182        54.1868       -54.1864       -10.6831              1        -999.25
       963.5000        35.6783        -999.25        68.2872       87.70867          1.795         1.6361         2.1447        47.2789       -54.5186       -10.9173              1        -999.25
       964.0000        36.8798        -999.25        68.4546        87.9165         1.7738         1.6085         2.1199        46.2858       -54.5228       -10.8234              1        -999.25
       964.5000        37.9199        -999.25        71.0529       91.18115         1.7564          1.583          2.106        47.8065       -54.1519       -10.3545              1        -999.25
       965.0000        38.8349        -999.25         72.892       93.49111         1.7331         1.5668         2.0978        51.1133       -53.8141        -9.9187              1        -999.25
       965.5000        40.3724        -999.25        73.7908       94.61867         1.7048         1.5536         2.0947        53.7397       -53.8667        -9.8732              1        -999.25
       966.0000        41.8468        -999.25        73.9064       94.76137         1.6732         1.5432         2.1057         56.178       -53.9777        -9.8862              1        -999.25
       966.5000        41.9235        -999.25        72.2853       92.72018         1.6513         1.5374         2.1209        58.1461       -54.2297       -10.0402              1        -999.25
