#------------------------------------------------------------------------------
# Created by    : vladimir.rabinovich
# Created on    : 09/19/2023 17:20:23
#------------------------------------------------------------------------------
~Version Information Section
VERS.           2.0     :   CWLS log ASCII Standard - VERSION 2.0
WRAP.           NO      :   One line per depth step
~Well Information Section
#MNEM       .UNIT                                         VALUE :DESCRIPTION
#------------------------------------------------------------------------------
STRT        .FT                                            3094 :START DEPTH
STOP        .FT                                           15705 :STOP DEPTH
STEP        .FT                                             0.5 :STEP      
NULL        .                                           -999.25 :NULL      
COMP        .                                       MONSANTO CO :COMPANY   
WELL        .                                     ST TR 00011-L :WELL      
FLD         .                                           WILDCAT :FIELD     
LOC         .                                                   :LOCATION  
CNTY        .                           HIGH ISLAND LARGE BLOCK :LOCATION  
STAT        .                                             TEXAS :STATE     
CTRY        .                                     UNITED STATES :COUNTRY   
SRVC        .                                                   :SERVICE COMPANY
DATE        .                             9/13/2023 11:19:15 AM :LOG DATE  
API         .                                    42708300660000 :API NUMBER
UWI         .                                    42708300660000 :UNIQUE WELL ID
XCOORD      .                                  1343190.12128624 :SURFACE X 
YCOORD      .                                   10724936.940093 :SURFACE Y 
LAT         .                                        29.5487141 :LATITUDE  
LON         .                                       -93.9350737 :LONGITUDE 
ELEV        .FT                                              49 :ELEVATION VALUE
ELEV_TYPE   .                                                KB :ELEVATION REFERENCE TYPE
~Curve Information Section
#MNEM       .UNIT                                      API CODE :CURVE DESCRIPTION
#------------------------------------------------------------------------------
DEPT        .FT                                                 :DEPTH     
ASN         .OHMM                                               :          
CILD        .MMHO                                               :          
ILD         .OHMM                                               :          
SP_NORM     .MV                                                 :SP Normalized
VSH_SP      .V/V                                                :Volume of Shale from SP
~A        DEPTH            ASN           CILD            ILD        SP_NORM         VSH_SP
# ...
      7274.0000         0.4525       4646.758         0.2885      -78.00306     0.08329691
      7274.5000         0.4998        4707.07         0.2787      -79.04664     0.07087335
      7275.0000         0.5088       4796.781         0.2689      -82.50551     0.02969633
      7275.5000         0.5177       4975.391         0.2592      -83.37367     0.01936104
      7276.0000         0.5256       4867.156         0.2684      -84.19785    0.009549459
      7276.5000         0.5226       4758.914         0.2776      -84.72382    0.003287906
      7277.0000         0.5141       4650.672         0.2868      -85.97119              0
      7277.5000         0.5049       4542.438         0.2961      -86.42046              0
      7278.0000         0.4956       4434.195         0.3019      -86.86983              0
      7278.5000         0.4864       4325.961         0.3072       -86.1449              0
      7279.0000         0.4715       4217.719         0.3124      -84.40738     0.00705501
      7279.5000         0.4561       3928.434         0.3177      -79.65044     0.06368519
      7280.0000         0.4281       3733.563          0.323      -75.84721      0.1089617
      7280.5000         0.4151       3753.586         0.3188      -73.97639      0.1312335
      7281.0000         0.4312       3784.809         0.3142      -74.29475      0.1274434
      7281.5000         0.4498        3869.16         0.3096      -75.95473      0.1076818
      7282.0000         0.4683       3956.781          0.305       -77.6148     0.08791906
      7282.5000         0.4796       3996.063         0.3003      -78.45327     0.07793726
      7283.0000         0.4902       4192.047         0.2957      -79.08794     0.07038171
      7283.5000         0.5015       4502.883         0.2911      -77.60561     0.08802841
      7284.0000         0.5255       4804.211         0.2857      -77.16938     0.09322166
      7284.5000         0.5724       4647.602         0.2795      -77.14955     0.09345772
      7285.0000         0.5962       4486.039         0.2734      -77.12962     0.09369496
      7285.5000         0.5701       4324.273         0.2672       -77.0746        0.09435
      7286.0000          0.544       4162.703         0.2611      -76.31937      0.1033409
      7286.5000         0.5054       4110.914         0.2567      -74.89323      0.1203186
      7287.0000         0.4717           4026         0.2805      -73.09161      0.1417665
      7287.5000         0.4636         3789.5         0.3043      -70.87717      0.1681289
      7288.0000         0.4556           3553         0.3282      -69.22865      0.1877541
      7288.5000         0.4498        3316.25         0.3483      -62.38122      0.2692712
      7289.0000          0.452        3079.75         0.3597      -55.29669      0.3536108
      7289.5000         0.4563       3332.324         0.3711      -56.53426      0.3388778
      7290.0000         0.4633       3782.727         0.3614      -63.93924      0.2507234
      7290.5000         0.4702       3922.219           0.35      -71.34421       0.162569
      7291.0000         0.4771        3953.25         0.3386      -77.46677     0.08968126
      7291.5000         0.4841       4151.406         0.3272      -79.02065     0.07118279
      7292.0000         0.4914       4379.188         0.3158      -80.57201     0.05271412
      7292.5000         0.4996       4606.766         0.3044      -81.90769     0.03681319
      7293.0000         0.5079       4864.477         0.2936      -82.39036     0.03106717
      7293.5000         0.5162       4949.469         0.2874      -82.81343     0.02603059
      7294.0000         0.5244       4962.336         0.2813       -83.0969     0.02265594
      7294.5000         0.5327       4976.258         0.2751      -83.38007     0.01928493
      7295.0000         0.5509       4991.203          0.269      -83.61874     0.01644352
      7295.5000          0.573       4961.914         0.2727      -83.82771      0.0139558
      7296.0000         0.5879       4897.188         0.2764      -83.97059      0.0122549
      7296.5000          0.589       4958.641         0.2801      -84.03645     0.01147079
      7297.0000          0.581       4842.867         0.2838      -83.85123     0.01367587
      7297.5000         0.5698       4727.297         0.2874         -83.23     0.02107148
      7298.0000         0.5587       4611.523         0.2919      -82.52347     0.02948252
      7298.5000         0.5462           4294         0.3024      -81.32534     0.04374595
      7299.0000         0.5274       3619.574         0.3129      -78.91081     0.07249033
      7299.5000         0.5066       3499.047         0.3234      -75.57958      0.1121478
      7300.0000         0.4811       3472.027         0.3339      -70.53355      0.1722196
      7300.5000         0.4962       3413.641         0.3402      -66.47343      0.2205544
      7301.0000         0.5251       3103.566          0.345      -64.60739      0.2427692
      7301.5000          0.554       3082.051         0.3497      -66.20327      0.2237706
      7302.0000         0.5849       3136.859         0.3545      -67.79664      0.2048019
      7302.5000         0.6162        3208.91         0.3487      -69.39001      0.1858332
      7303.0000         0.5924       3292.395         0.3389      -70.98338      0.1668646
      7303.5000         0.5684        3366.93          0.329      -72.97446      0.1431612
      7304.0000         0.5465       3428.746         0.3192      -75.14362      0.1173378
      7304.5000         0.5308       3487.383         0.3094      -76.20749      0.1046728
      7305.0000         0.5152       3561.324         0.2995      -76.70686     0.09872781
      7305.5000         0.4995       3805.605         0.2895      -77.32053     0.09142222
      7306.0000         0.5007       3990.938         0.2793       -77.9725     0.08366067
      7306.5000          0.524        4034.25         0.2692      -79.74497     0.06255986
      7307.0000         0.5472       4901.914          0.259      -81.23325     0.04484222
      7307.5000         0.5595       4969.891         0.2489      -81.86301     0.03734507
      7308.0000         0.5654       5008.055         0.2387      -82.17088     0.03367996
      7308.5000         0.5677       5038.914         0.2301      -82.47226     0.03009215
      7309.0000          0.564       5063.539         0.2271      -82.77693      0.0264651
      7309.5000         0.5603       5088.211         0.2241       -83.0864     0.02278092
      7310.0000         0.5566       5001.398         0.2211      -82.49477     0.02982412
      7310.5000         0.5528       4725.117         0.2188      -81.00445      0.0475661
      7311.0000         0.5452       4400.328         0.2433      -78.56522     0.07660457
      7311.5000         0.5354       4321.422         0.2677      -74.82129      0.1211751
      7312.0000         0.5256           4187         0.2922      -70.29166      0.1750993
      7312.5000         0.5159       3755.121         0.3327      -66.08833      0.2251389
      7313.0000         0.5062       3418.809         0.3737       -61.8798      0.2752405
      7313.5000         0.5226       3351.027         0.4148      -57.67137      0.3253409
      7314.0000         0.5962       2984.703         0.4558      -50.67004      0.4086899
      7314.5000         0.6493       2818.137         0.4946      -50.60281      0.4094904
      7315.0000         0.7084       2651.574         0.5328      -50.40079      0.4118954
      7315.5000         0.6714       2485.008         0.5711      -48.86345       0.430197
      7316.0000         0.6353       2318.441         0.6094      -41.04753      0.5232437
      7316.5000         0.6079       2242.414         0.6471      -33.23149      0.6162917
      7317.0000         0.6012       2173.543         0.6804      -25.40567      0.7094563
      7317.5000         0.6802       2084.992         0.7136      -15.18794       0.831096
