#------------------------------------------------------------------------------
# Created by    : vladimir.rabinovich
# Created on    : 09/19/2023 17:21:52
#------------------------------------------------------------------------------
~Version Information Section
VERS.           2.0     :   CWLS log ASCII Standard - VERSION 2.0
WRAP.           NO      :   One line per depth step
~Well Information Section
#MNEM       .UNIT                                         VALUE :DESCRIPTION
#------------------------------------------------------------------------------
STRT        .FT                                            1924 :START DEPTH
STOP        .FT                                            6497 :STOP DEPTH
STEP        .FT                                             0.5 :STEP      
NULL        .                                           -999.25 :NULL      
COMP        .                                ATP OIL & GAS CORP :COMPANY   
WELL        .                               OCS G12451 ST00BP00 :WELL      
FLD         .                                           WILDCAT :FIELD     
LOC         .                                                   :LOCATION  
CNTY        .                                BRAZOS LARGE BLOCK :LOCATION  
STAT        .                                             TEXAS :STATE     
CTRY        .                                     UNITED STATES :COUNTRY   
SRVC        .                                                   :SERVICE COMPANY
DATE        .                             9/13/2023 11:09:51 AM :LOG DATE  
API         .                                    42704402900000 :API NUMBER
UWI         .                                    42704402900000 :UNIQUE WELL ID
XCOORD      .                                  861130.254262163 :SURFACE X 
YCOORD      .                                  10349158.9913488 :SURFACE Y 
LAT         .                                        28.4964901 :LATITUDE  
LON         .                                       -95.4265639 :LONGITUDE 
ELEV        .FT                                              91 :ELEVATION VALUE
ELEV_TYPE   .                                                KB :ELEVATION REFERENCE TYPE
~Curve Information Section
#MNEM       .UNIT                                      API CODE :CURVE DESCRIPTION
#------------------------------------------------------------------------------
DEPT        .FT                                                 :DEPTH     
CALI        .IN                                                 :          
DPHI        .G/C3                                               :          
DRHO        .G/C3                                               :          
GR          .GAPI                                               :          
GR_NORM     .GAPI                                               :GammaRay Normalized
ILD         .OHMM                                               :          
ILM         .OHMM                                               :          
NPHI        .%                                                  :          
SFL         .OHMM                                               :          
SP          .MV                                                 :          
SP_NORM     .MV                                                 :SP Normalized
VSH_GR      .V/V                                                :Volume of Shale from GR
VSH_SP      .V/V                                                :Volume of Shale from SP
~A        DEPTH           CALI           DPHI           DRHO             GR        GR_NORM            ILD            ILM           NPHI            SFL             SP        SP_NORM         VSH_GR         VSH_SP
# ...
      4375.0000        10.0603        27.9236         0.0023          74.39       54.90964         0.3111         0.3358        37.3191         0.3879       -87.7544      -22.44059      0.4661625      0.5954606
      4375.5000        10.1257        30.3586         -0.008           68.2        47.9029         0.2987         0.3248        38.2598         0.6395       -94.0718       -28.7644      0.3170829      0.4761434
      4376.0000        10.3498        35.7859         0.0066        64.8368       44.09536         0.2894         0.3201        38.2075         0.7179       -96.9922       -31.6912      0.2360715      0.4209208
      4376.5000        11.1876        40.1912         0.0524        66.3904       45.85232          0.285          0.318        37.6951         0.6569       -96.0627       -30.7681      0.2734536      0.4383377
      4377.0000        11.9844        43.1782         0.0954        71.1266       51.21113          0.282         0.3177        38.4951         0.4735       -92.9091      -27.62091      0.3874709      0.4977187
      4377.5000        11.9913        41.1356         0.1022         73.417       53.80195         0.2866         0.3204         40.641         0.3822       -90.9592      -25.67741      0.4425946      0.5343884
      4378.0000        11.4716        37.4222         0.0636        68.9147       48.70524         0.2877         0.3252        40.9645          0.468       -94.3212      -29.04581      0.3341541      0.4708337
      4378.5000        10.9027        33.5168         0.0273        62.3055       41.22409         0.2736         0.3209         39.212         0.5889      -100.2494      -34.98042      0.1749807        0.35886
      4379.0000        11.0629         33.389         0.0113        58.7463       37.19472         0.2643         0.3055        39.0916         0.7596      -104.1141      -38.85152     0.08924931      0.2858203
      4379.5000        12.2318         35.777         0.0107        56.8802       35.08149         0.2581         0.2979         39.846         0.7346      -105.6233      -40.36713     0.04428693      0.2572239
      4380.0000        12.4999        39.6652          0.022        58.7089       37.14978         0.2581         0.2944        42.3281         0.6078      -104.3811      -39.13134     0.08829328      0.2805408
      4380.5000        12.5217        43.2097         0.0598        65.4454        44.7724         0.2596         0.2921        43.0168         0.4447       -100.731      -35.48765      0.2504767      0.3492897
      4381.0000        12.0883        44.5053         0.0826        68.3419       48.04918         0.2639         0.2924        43.1213          0.449       -99.1747      -33.93774      0.3201952      0.3785331
      4381.5000        11.0279        44.1019         0.0839        67.9668       47.62336         0.2722         0.2999        43.1802         0.4985       -97.7482      -32.51765      0.3111352      0.4053273
      4382.0000        10.4162        41.7797         0.0949        68.4375       48.15477         0.2896         0.3218        43.4847         0.5241       -94.0168      -28.79266      0.3224418      0.4756103
      4382.5000        10.2574        40.7157         0.1095        72.8331       53.12811         0.3272         0.3547        43.5317         0.4573       -86.5867      -21.36897      0.4282576      0.6156799
      4383.0000        10.2948        37.5522         0.1002        83.6378       65.35485         0.3859         0.3976        43.3022         0.4126       -76.8412      -11.62988      0.6884011      0.7994363
      4383.5000        10.2889        33.4339         0.0762        92.7611        75.6787         0.4552         0.4501        42.8104         0.4483       -66.8212      -1.616272      0.9080573      0.9883722
      4384.0000        10.2732        28.3532         0.0512        94.1758       77.27846          0.521         0.5109         41.968          0.583       -62.5173       2.681217      0.9420949              1
      4384.5000        10.2342        24.5531         0.0391         94.921       78.12052         0.5989         0.5597        40.5775         0.7772       -61.0752       4.116917      0.9600111              1
      4385.0000        10.2206        22.9168         0.0387        95.6509       78.94527         0.6577          0.584        39.7093         0.7471       -59.9843       5.201408       0.977559              1
      4385.5000        10.2315        22.4008         0.0416        96.3998       79.79153         0.6919         0.5967        39.0267         0.7533       -58.6974       6.481907      0.9955646              1
      4386.0000        10.2104        22.6344          0.043        98.5068       82.17478         0.6903          0.607        38.8727         0.7186       -57.8997       7.273197              1              1
      4386.5000        10.2022        23.3285         0.0396        101.207        85.2294         0.6733         0.6029        39.4067         0.5763        -58.166       7.000496              1              1
      4387.0000        10.2124        24.2191          0.032       101.7836       85.88065          0.659         0.5793        39.6252         0.5756       -60.5089       4.651188              1              1
      4387.5000        10.2166         25.053         0.0253       100.3164       84.21887         0.6407         0.5601        39.0854          0.689        -64.179      0.9746857              1              1
      4388.0000        10.2081        25.5172         0.0249        98.6542        82.3364         0.6294         0.5589         37.884          0.873       -66.8511      -1.703819              1      0.9867204
      4388.5000        10.2115        25.6911         0.0265        98.1279       81.73946         0.6307           0.57        36.5383         0.9015       -67.2479      -2.107025              1      0.9791127
      4389.0000        10.2365        25.6579         0.0272        97.9363       81.52132         0.6434         0.5812        36.0079         0.8337       -66.2186      -1.084129              1      0.9984127
      4389.5000        10.2628        25.5443         0.0278        98.1346       81.74445         0.6596         0.5933         35.847         0.7725       -65.4097     -0.2816315              1              1
      4390.0000        10.3064        25.2299         0.0281        98.7511       82.44086         0.6741          0.611        35.7189         0.7618       -65.4268     -0.3051453              1              1
      4390.5000        10.3515         24.815         0.0304       100.0637       83.92506         0.6854         0.6332        35.4828         0.7726        -65.718     -0.6039734              1              1
      4391.0000        10.3771         24.391         0.0344       101.6066       85.66991         0.6978         0.6521         35.232         0.7778       -65.9158     -0.8158188              1              1
      4391.5000        10.3912        24.0916         0.0363        102.996       87.24105         0.7123         0.6658         35.183         0.7545       -65.9198     -0.8338623              1              1
      4392.0000        10.3616        23.9218         0.0356       103.7668       88.11208         0.7278          0.681        36.2746         0.7527       -65.9934     -0.9215088              1              1
      4392.5000        10.2436         23.853         0.0325       103.3263       87.61225         0.7393         0.6866        37.5037         0.7547       -66.1191      -1.061249              1      0.9988444
      4393.0000        10.0657        23.7019         0.0289       100.4492       84.35484         0.7482         0.6963        37.9775         0.7586        -66.291      -1.247192              1       0.995336
      4393.5000        10.0149        23.5302         0.0362        97.5469        81.0689         0.7489         0.7069        38.0711         0.7667       -66.3036      -1.273834              1      0.9948333
