#------------------------------------------------------------------------------
# Created by    : vladimir.rabinovich
# Created on    : 09/19/2023 17:21:39
#------------------------------------------------------------------------------
~Version Information Section
VERS.           2.0     :   CWLS log ASCII Standard - VERSION 2.0
WRAP.           NO      :   One line per depth step
~Well Information Section
#MNEM       .UNIT                                         VALUE :DESCRIPTION
#------------------------------------------------------------------------------
STRT        .FT                                             930 :START DEPTH
STOP        .FT                                           10010 :STOP DEPTH
STEP        .FT                                             0.5 :STEP      
NULL        .                                           -999.25 :NULL      
COMP        .                 FAIRWAYS SPEC SALES & SERVICE INC :COMPANY   
WELL        .                               OCS G02357 ST00BP00 :WELL      
FLD         .                            HIGH ISLAND BLOCK 0154 :FIELD     
LOC         .                                                   :LOCATION  
CNTY        .                           HIGH ISLAND LARGE BLOCK :LOCATION  
STAT        .                                             TEXAS :STATE     
CTRY        .                                     UNITED STATES :COUNTRY   
SRVC        .                                                   :SERVICE COMPANY
DATE        .                             9/13/2023 11:20:04 AM :LOG DATE  
API         .                                    42708400540000 :API NUMBER
UWI         .                                    42708400540000 :UNIQUE WELL ID
XCOORD      .                                  1183911.52517142 :SURFACE X 
YCOORD      .                                  10615048.6542629 :SURFACE Y 
LAT         .                                         29.242029 :LATITUDE  
LON         .                                        -94.431816 :LONGITUDE 
ELEV        .FT                                              73 :ELEVATION VALUE
ELEV_TYPE   .                                                KB :ELEVATION REFERENCE TYPE
~Curve Information Section
#MNEM       .UNIT                                      API CODE :CURVE DESCRIPTION
#------------------------------------------------------------------------------
DEPT        .FT                                                 :DEPTH     
CALI        .IN                                                 :          
DRHO        .G/C3                                               :          
DT          .US/F                                               :          
GR          .GAPI                                               :          
GR_1        .GAPI                                               :          
GR_NORM     .GAPI                                               :GammaRay Normalized
ILD         .OHMM                                               :          
NPHI        .%                                                  :          
RHOB        .G/C3                                               :          
SFL         .OHMM                                               :          
SP          .MV                                                 :          
SP_NORM     .MV                                                 :SP Normalized
VSH_GR      .V/V                                                :Volume of Shale from GR
VSH_SP      .V/V                                                :Volume of Shale from SP
~A        DEPTH           CALI           DRHO             DT             GR           GR_1        GR_NORM            ILD           NPHI           RHOB            SFL             SP        SP_NORM         VSH_GR         VSH_SP
# ...
      1722.0000        -999.25        -999.25        -999.25        -999.25         30.081        33.9157         0.5518        -999.25        -999.25         0.5083        20.4665      -20.04764     0.01948288              0
      1722.5000        -999.25        -999.25        -999.25        -999.25        29.9001       33.66629         0.5518        -999.25        -999.25         0.5194        20.9706      -19.54563     0.01417647     0.02672756
      1723.0000        -999.25        -999.25        -999.25        -999.25        30.2944       34.20591         0.5566        -999.25        -999.25         0.5433        21.2024      -19.31593     0.02565765     0.04023967
      1723.5000        -999.25        -999.25        -999.25        -999.25        30.6888       34.74567         0.5642        -999.25        -999.25         0.5768         21.725      -18.79542     0.03714184     0.07085767
      1724.0000        -999.25        -999.25        -999.25        -999.25        31.9188       36.43165         0.5798        -999.25        -999.25         0.5983        22.8107      -17.71181     0.07301379      0.1345991
      1724.5000        -999.25        -999.25        -999.25        -999.25        33.3443       38.38581         0.5953        -999.25        -999.25         0.6061        22.5312      -17.99341      0.1145916      0.1180348
      1725.0000        -999.25        -999.25        -999.25        -999.25        33.5087       38.61007         0.6104        -999.25        -999.25         0.5759        21.3937        -19.133      0.1193631     0.05099981
      1725.5000        -999.25        -999.25        -999.25        -999.25        31.2851        35.5586         0.6233        -999.25        -999.25         0.5561        19.7151       -20.8137     0.05443824              0
      1726.0000        -999.25        -999.25        -999.25        -999.25        29.9953       33.78807         0.6038        -999.25        -999.25         0.5597        19.3227      -21.20819     0.01676738              0
      1726.5000        -999.25        -999.25        -999.25        -999.25        30.6497       34.68447          0.582        -999.25        -999.25         0.5937        19.6941      -20.83888     0.03583989              0
      1727.0000        -999.25        -999.25        -999.25        -999.25        31.5539       35.92354         0.5588        -999.25        -999.25         0.6095        22.2476      -18.28748     0.06220302      0.1007367
      1727.5000        -999.25        -999.25        -999.25        -999.25        32.6412       37.41378          0.538        -999.25        -999.25         0.5843        24.6409      -15.89627      0.0939103      0.2413958
      1728.0000        -999.25        -999.25        -999.25        -999.25        32.5641       37.30676         0.5251        -999.25        -999.25         0.5637        25.9999      -14.53936     0.09163309      0.3212139
      1728.5000        -999.25        -999.25        -999.25        -999.25        32.5495       37.28547         0.5125        -999.25        -999.25         0.5514        26.1465      -14.39486     0.09118019      0.3297141
      1729.0000        -999.25        -999.25        -999.25        -999.25        32.9512       37.83524         0.5007        -999.25        -999.25         0.5523        25.0385      -15.50495      0.1028775      0.2644145
      1729.5000        -999.25        -999.25        -999.25        -999.25         33.353       38.38515         0.4904        -999.25        -999.25         0.5528        23.9012      -16.64435      0.1145776      0.1973913
      1730.0000        -999.25        -999.25        -999.25        -999.25        32.5021       37.21668         0.4803        -999.25        -999.25         0.5522        22.7643      -17.78334     0.08971657      0.1303916
      1730.5000        -999.25        -999.25        -999.25        -999.25        31.5955       35.97179         0.4704        -999.25        -999.25         0.5484        21.4648      -19.08494     0.06322967     0.05382729
      1731.0000        -999.25        -999.25        -999.25        -999.25        30.6871       34.72444         0.4609        -999.25        -999.25         0.5417        20.4886      -20.06323     0.03669025              0
      1731.5000        -999.25        -999.25        -999.25        -999.25        31.0991       35.28835         0.4516        -999.25        -999.25         0.5403        20.4451      -20.10882     0.04868828              0
      1732.0000        -999.25        -999.25        -999.25        -999.25        32.1295       36.70053         0.4464        -999.25        -999.25         0.5314        20.7786      -19.77742     0.07873462     0.01309305
      1732.5000        -999.25        -999.25        -999.25        -999.25        33.1022       38.03356          0.443        -999.25        -999.25         0.5172         21.266      -19.29211       0.107097     0.04164045
      1733.0000        -999.25        -999.25        -999.25        -999.25        33.3366       38.35384         0.4397        -999.25        -999.25         0.5177        22.2707      -18.28951      0.1139115      0.1006172
      1733.5000        -999.25        -999.25        -999.25        -999.25        32.9702       37.84997         0.4359        -999.25        -999.25         0.5228        23.2872       -17.2751      0.1031908      0.1602882
      1734.0000        -999.25        -999.25        -999.25        -999.25        32.6713        37.4387          0.432        -999.25        -999.25         0.5269        24.2668       -16.2976     0.09444038      0.2177885
      1734.5000        -999.25        -999.25        -999.25        -999.25        32.8579       37.69341         0.4282        -999.25        -999.25         0.5302        23.5899      -16.97659     0.09985968      0.1778476
      1735.0000        -999.25        -999.25        -999.25        -999.25        33.4778       38.54249         0.4244        -999.25        -999.25         0.5279        23.3574      -17.21118      0.1179253       0.164048
      1735.5000        -999.25        -999.25        -999.25        -999.25        34.0066       39.26661         0.4238        -999.25        -999.25         0.5212        24.3373      -16.23338      0.1333322      0.2215659
      1736.0000        -999.25        -999.25        -999.25        -999.25        34.0137       39.27509         0.4251        -999.25        -999.25         0.5151        22.5833      -17.98947      0.1335125      0.1182663
      1736.5000        -999.25        -999.25        -999.25        -999.25        33.8192       39.00702         0.4265        -999.25        -999.25         0.5173        21.4649      -19.10997       0.127809     0.05235481
      1737.0000        -999.25        -999.25        -999.25        -999.25        33.4594       38.51221         0.4283        -999.25        -999.25         0.5316        22.7729      -17.80406      0.1172812      0.1291728
      1737.5000        -999.25        -999.25        -999.25        -999.25        33.0995       38.01727         0.4302        -999.25        -999.25         0.5474        24.7321      -15.84696      0.1067503      0.2442967
      1738.0000        -999.25        -999.25        -999.25        -999.25        32.5033       37.19817         0.4304        -999.25        -999.25          0.545        23.5816      -16.99955     0.08932276      0.1764971
      1738.5000        -999.25        -999.25        -999.25        -999.25        31.5995       35.95714         0.4304        -999.25        -999.25         0.5334        22.5441      -18.03914     0.06291791      0.1153444
      1739.0000        -999.25        -999.25        -999.25        -999.25          30.81       34.87289          0.427        -999.25        -999.25         0.5149        21.9455      -18.63984     0.03984865     0.08000946
      1739.5000        -999.25        -999.25        -999.25        -999.25        30.7159       34.74254          0.423        -999.25        -999.25          0.503        21.7021      -18.88533     0.03707537     0.06556892
