#------------------------------------------------------------------------------
# Created by    : vladimir.rabinovich
# Created on    : 09/19/2023 17:22:10
#------------------------------------------------------------------------------
~Version Information Section
VERS.           2.0     :   CWLS log ASCII Standard - VERSION 2.0
WRAP.           NO      :   One line per depth step
~Well Information Section
#MNEM       .UNIT                                         VALUE :DESCRIPTION
#------------------------------------------------------------------------------
STRT        .FT                                            1000 :START DEPTH
STOP        .FT                                            7796 :STOP DEPTH
STEP        .FT                                             0.5 :STEP      
NULL        .                                           -999.25 :NULL      
COMP        .                                SHELL OFFSHORE INC :COMPANY   
WELL        .                               OCS G06060 ST00BP00 :WELL      
FLD         .                                           WILDCAT :FIELD     
LOC         .                                                   :LOCATION  
CNTY        .                                BRAZOS LARGE BLOCK :LOCATION  
STAT        .                                             TEXAS :STATE     
CTRY        .                                     UNITED STATES :COUNTRY   
SRVC        .                                                   :SERVICE COMPANY
DATE        .                             9/13/2023 11:19:08 AM :LOG DATE  
API         .                                    42704401260000 :API NUMBER
UWI         .                                    42704401260000 :UNIQUE WELL ID
XCOORD      .                                   881020.58603234 :SURFACE X 
YCOORD      .                                   10392321.681828 :SURFACE Y 
LAT         .                                         28.616238 :LATITUDE  
LON         .                                        -95.367327 :LONGITUDE 
ELEV        .FT                                              90 :ELEVATION VALUE
ELEV_TYPE   .                                                KB :ELEVATION REFERENCE TYPE
~Curve Information Section
#MNEM       .UNIT                                      API CODE :CURVE DESCRIPTION
#------------------------------------------------------------------------------
DEPT        .FT                                                 :DEPTH     
CALI        .IN                                                 :          
CILD        .MMHO                                               :          
DPHI        .%                                                  :          
DT          .US/F                                               :          
GR          .GAPI                                               :          
GR_NORM     .GAPI                                               :GammaRay Normalized
ILD         .OHMM                                               :          
ILM         .OHMM                                               :          
SFL         .OHMM                                               :          
SP          .MV                                                 :          
SP_NORM     .MV                                                 :SP Normalized
VSH_GR      .V/V                                                :Volume of Shale from GR
VSH_SP      .V/V                                                :Volume of Shale from SP
~A        DEPTH           CALI           CILD           DPHI             DT             GR        GR_NORM            ILD            ILM            SFL             SP        SP_NORM         VSH_GR         VSH_SP
# ...
      1893.0000        -999.25        1076.17        -999.25       147.3584         55.194       68.60285          0.933         1.0047         1.0705      -114.2932       -10.8158      0.7575075      0.5325808
      1893.5000        -999.25       1053.906        -999.25       145.2891         53.363       65.59107         0.9469          1.029         1.0883      -114.3809      -10.88992      0.6934271      0.5290517
      1894.0000        -999.25       1034.768        -999.25       145.3899        51.6638       62.79547         0.9612         1.0486         1.1157      -113.3228       -9.81823      0.6339462      0.5800843
      1894.5000        -999.25       1019.696        -999.25       148.6094        52.1786       63.63198         0.9733         1.0641         1.1548      -111.9486      -8.430443      0.6517442      0.6461694
      1895.0000        -999.25       1007.417        -999.25       150.0513        54.0826       66.74747         0.9788         1.0727         1.1896       -110.913      -7.381256      0.7180312      0.6961306
      1895.5000        -999.25       995.1377        -999.25       149.0544        55.5018       69.06764         0.9923         1.0739         1.1635       -110.142      -6.596664      0.7673966      0.7334922
      1896.0000        -999.25       984.1455        -999.25       147.7466        53.5128       65.79664         1.0116         1.0759         1.1201      -109.5214      -5.962479      0.6978008      0.7636915
      1896.5000        -999.25       976.4014        -999.25       148.0178        51.8913       63.12854         1.0247         1.0824         1.1025      -109.0515      -5.478989      0.6410327      0.7867149
      1897.0000        -999.25       969.1992        -999.25       149.1401        51.3268       62.19447         1.0347         1.0919         1.1126      -108.7496      -5.163506      0.6211588      0.8017378
      1897.5000        -999.25       961.2012        -999.25       149.8125         51.864        63.0677         1.0504         1.1012         1.1437      -108.5522      -4.952515      0.6397384       0.811785
      1898.0000        -999.25       951.9355        -999.25       149.6277         53.506       65.75336         1.0732           1.11         1.1717      -108.7095       -5.09623      0.6968801      0.8049415
      1898.5000        -999.25       940.3311        -999.25       148.5134        55.1613       68.46085         1.0917         1.1196         1.1958      -109.4561      -5.829239      0.7544861      0.7700362
      1899.0000        -999.25       928.7227        -999.25       147.8958        56.2977       70.31711         1.1048         1.1296         1.1985      -109.7905      -6.150047       0.793981      0.7547597
      1899.5000        -999.25       917.7959        -999.25       147.5366        56.8904       71.28139         1.1167         1.1366         1.1769      -109.8087      -6.154663      0.8144976      0.7545398
      1900.0000        -999.25        907.502        -999.25       147.6145        57.0365       71.51304         1.1277          1.144         1.1508      -109.6815      -6.013885      0.8194264      0.7612435
      1900.5000        -999.25       895.8076        -999.25        147.637        57.1627       71.71204         1.1369         1.1529         1.1458      -109.4785      -5.797295      0.8236605      0.7715574
      1901.0000        -999.25       883.9033        -999.25       147.4888        57.0454       71.51157         1.1475         1.1634         1.1669      -108.7496       -5.05481       0.819395      0.8069139
      1901.5000        -999.25       873.2695        -999.25       147.2271        55.7802       69.42797         1.1577         1.1742         1.2023      -108.1351       -4.42672      0.7750632      0.8368229
      1902.0000        -999.25       862.6113        -999.25       146.9312        54.5743       67.44167         1.1654         1.1854         1.2368      -108.8303       -5.10833      0.7328014      0.8043653
      1902.5000        -999.25       850.4746        -999.25       146.6184        55.2147       68.48421         1.1802         1.1971          1.263      -112.3557       -8.62014      0.7549831      0.6371362
      1903.0000        -999.25       839.7295        -999.25       145.9346        57.9113       72.89996         1.2121         1.2066         1.2723      -115.5165      -11.76736      0.8489352      0.4872687
      1903.5000        -999.25       830.7021        -999.25       144.8835        58.1649       73.30796         1.2347         1.2155         1.2715      -116.2203      -12.45757      0.8576162      0.4544016
      1904.0000        -999.25       823.2803        -999.25       144.3022        56.2044       70.08372         1.2142         1.2243         1.2768      -114.3486      -10.57228      0.7890152      0.5441771
      1904.5000        -999.25       817.2041        -999.25       144.2607        54.1224       66.66016         1.2022         1.2322          1.285      -111.5747       -7.78479      0.7161735      0.6769148
      1905.0000        -999.25       813.7363        -999.25       144.1555        53.9456       66.36208         1.2009         1.2332         1.2859      -109.3173      -5.513802      0.7098314      0.7850571
      1905.5000        -999.25       813.0391        -999.25       143.7998        54.8414        67.8236         1.2039         1.2342         1.2854      -108.2606      -4.443512      0.7409277      0.8360232
      1906.0000        -999.25       814.9561        -999.25       143.6328        55.4153       68.75706         1.2063         1.2289         1.2811      -108.2979      -4.467224      0.7607886      0.8348941
      1906.5000        -999.25       819.9482        -999.25       144.1582        55.0747       68.19028         1.2025         1.2214         1.2729      -108.0303      -4.186035      0.7487293      0.8482841
      1907.0000        -999.25       826.5938        -999.25       145.9075        54.6049       67.41153         1.2004         1.2125         1.2636      -107.1661       -3.30825      0.7321602      0.8900833
      1907.5000        -999.25       834.8262        -999.25       148.1477        54.4672       67.17761         1.1859         1.2009         1.2365      -105.6444      -1.772964      0.7271832      0.9631922
      1908.0000        -999.25       846.9385        -999.25       150.2876        54.4075       67.07165         1.1719         1.1893         1.1983      -104.6737     -0.7886734      0.7249287              1
      1908.5000        -999.25       862.1162        -999.25       151.8855        54.4263       67.09445         1.1627         1.1769         1.1662      -105.1486      -1.249992      0.7254139      0.9880956
      1909.0000        -999.25       876.3477        -999.25       151.9531        54.4759       67.16778         1.1495         1.1647         1.1451      -105.3389      -1.426704       0.726974      0.9796807
      1909.5000        -999.25       890.4932        -999.25       151.3328        54.4021       67.03868         1.1349         1.1521         1.1463      -105.1963      -1.270515      0.7242272      0.9871183
      1910.0000        -999.25       904.5693        -999.25       150.9282        53.4041       65.39342           1.12          1.139         1.1665      -104.7411     -0.8017273      0.6892216              1
      1910.5000        -999.25       918.2627        -999.25       151.4661        52.5016       63.90483         1.1077         1.1204         1.1849      -104.0739     -0.1209412      0.6575497              1
      1911.0000        -999.25        931.748        -999.25       152.5828        51.7759       62.70631         1.1024         1.1021         1.2019       -103.614      0.3525467      0.6320493              1
      1911.5000        -999.25       944.3154        -999.25       154.0098        52.5931       64.03889         1.0934         1.0742         1.1789       -103.884     0.09613037      0.6604019              1
