#------------------------------------------------------------------------------
# Created by    : vladimir.rabinovich
# Created on    : 09/19/2023 17:20:28
#------------------------------------------------------------------------------
~Version Information Section
VERS.           2.0     :   CWLS log ASCII Standard - VERSION 2.0
WRAP.           NO      :   One line per depth step
~Well Information Section
#MNEM       .UNIT                                         VALUE :DESCRIPTION
#------------------------------------------------------------------------------
STRT        .FT                                            2653 :START DEPTH
STOP        .FT                                           10423 :STOP DEPTH
STEP        .FT                                             0.5 :STEP      
NULL        .                                           -999.25 :NULL      
COMP        .                                       MONSANTO CO :COMPANY   
WELL        .                                     ST TR 00150-L :WELL      
FLD         .                                           WILDCAT :FIELD     
LOC         .                                                   :LOCATION  
CNTY        .                             GALVESTON LARGE BLOCK :LOCATION  
STAT        .                                             TEXAS :STATE     
CTRY        .                                     UNITED STATES :COUNTRY   
SRVC        .                                                   :SERVICE COMPANY
DATE        .                             9/13/2023 11:19:24 AM :LOG DATE  
API         .                                    42706300340000 :API NUMBER
UWI         .                                    42706300340000 :UNIQUE WELL ID
XCOORD      .                                  1113316.22146511 :SURFACE X 
YCOORD      .                                  10612518.3672968 :SURFACE Y 
LAT         .                                         29.232517 :LATITUDE  
LON         .                                       -94.6530532 :LONGITUDE 
ELEV        .FT                                              81 :ELEVATION VALUE
ELEV_TYPE   .                                                KB :ELEVATION REFERENCE TYPE
~Curve Information Section
#MNEM       .UNIT                                      API CODE :CURVE DESCRIPTION
#------------------------------------------------------------------------------
DEPT        .FT                                                 :DEPTH     
ASN         .OHMM                                               :          
CILD        .MMHO                                               :          
ILD         .OHMM                                               :          
SP          .MV                                                 :          
SP_NORM     .MV                                                 :SP Normalized
VSH_SP      .V/V                                                :Volume of Shale from SP
~A        DEPTH            ASN           CILD            ILD             SP        SP_NORM         VSH_SP
# ...
      8315.0000         1.2652       1497.301         0.6624       -67.9951       -27.9951      0.5000907
      8315.5000         1.2781       1448.613         0.6761        -66.588        -26.588      0.5261482
      8316.0000         1.2803       1399.926         0.7003        -65.181        -25.181      0.5522037
      8316.5000         1.2766       1323.297          0.728       -63.7764       -23.7764      0.5782148
      8317.0000         1.2712       1256.967         0.7556       -61.8823       -21.8823      0.6132907
      8317.5000         1.2658        1202.66         0.7834       -59.6683       -19.6683      0.6542907
      8318.0000         1.2604       1154.873         0.8116        -57.452        -17.452      0.6953334
      8318.5000         1.2465       1166.256         0.8398       -55.7054       -15.7054      0.7276778
      8319.0000         1.2414       1177.639          0.839       -54.2885       -14.2885      0.7539166
      8319.5000         1.2771       1189.023         0.7928       -52.8741       -12.8741      0.7801093
      8320.0000         1.3219       1235.875         0.7466       -51.3809       -11.3809      0.8077611
      8320.5000         1.3618       1283.135         0.7004       -53.1053       -13.1053      0.7758278
      8321.0000         1.3798       1434.076         0.6663       -58.7532       -18.7532      0.6712371
      8321.5000         1.3911       1585.129         0.6399       -71.3062       -31.3062      0.4387741
      8322.0000         1.3742        1595.27         0.6225       -72.3787       -32.3787      0.4189129
      8322.5000         1.3572       1574.078         0.6148       -73.2273       -33.2273      0.4031981
      8323.0000         1.3403       1548.428         0.6072       -71.1659       -31.1659      0.4413722
      8323.5000         1.2761       1529.086         0.6107       -67.5044       -27.5044      0.5091777
      8324.0000         1.2195       1509.721         0.6186        -66.406        -26.406      0.5295185
      8324.5000         1.1958       1496.402         0.6265       -65.3076       -25.3076      0.5498592
      8325.0000         1.2206       1491.154         0.6332       -64.1687       -24.1687        0.57095
      8325.5000         1.2455       1501.873         0.6399       -64.5685       -24.5685      0.5635464
      8326.0000         1.2704       1527.855         0.6379       -71.5398       -31.5398      0.4344481
      8326.5000         1.2895       1572.896         0.6324       -74.0465       -34.0465      0.3880278
      8327.0000         1.2893       1609.412         0.6262       -75.6356       -35.6356      0.3586001
      8327.5000         1.2619       1636.023         0.6184       -77.1711       -37.1711      0.3301649
      8328.0000         1.2354       1662.633         0.6107       -77.6385       -37.6385      0.3215093
      8328.5000         1.2148       1683.676         0.6029       -78.1053       -38.1053      0.3128648
      8329.0000         1.1941       1704.016         0.5952       -78.3967       -38.3967      0.3074686
      8329.5000         1.1952       1701.762          0.592       -78.4402       -38.4402      0.3066629
      8330.0000         1.2216       1674.953         0.5889       -78.4836       -38.4836      0.3058593
      8330.5000          1.248       1648.096          0.586       -78.5271       -38.5271      0.3050537
      8331.0000         1.2702       1621.287         0.5938       -78.5706       -38.5706      0.3042481
      8331.5000         1.2757       1597.043         0.6017       -78.5432       -38.5432      0.3047556
      8332.0000         1.2811       1589.527         0.6086       -78.4362       -38.4362       0.306737
      8332.5000         1.2866       1603.055         0.6118       -78.3292       -38.3292      0.3087185
      8333.0000         1.2924       1617.395          0.615       -78.2222       -38.2222         0.3107
      8333.5000         1.3013       1631.957          0.618       -78.1152       -38.1152      0.3126816
      8334.0000         1.3103        1646.52         0.6162       -78.0082       -38.0082      0.3146629
      8334.5000         1.3193       1661.057         0.6144       -77.9572       -37.9572      0.3156074
      8335.0000         1.3292       1675.619         0.6125       -77.9828       -37.9828      0.3151333
      8335.5000         1.3454       1684.291         0.6107        -78.176        -38.176      0.3115555
      8336.0000         1.3617       1667.809         0.6089       -78.4651       -38.4651      0.3062018
      8336.5000         1.3405       1651.324         0.6073       -78.7544       -38.7544      0.3008444
      8337.0000         1.3047        1634.84         0.6099       -79.0435       -39.0435      0.2954907
      8337.5000         1.2356       1618.355         0.6124       -79.3325       -39.3325       0.290139
      8338.0000         1.1588       1601.996         0.6181        -79.552        -39.552       0.286074
      8338.5000         1.1056       1588.221         0.6274       -79.5709       -39.5709      0.2857241
      8339.0000         1.0829       1574.473         0.6367       -79.5898       -39.5898      0.2853741
      8339.5000         1.0603       1560.699         0.6459       -79.0881       -39.0881      0.2946649
      8340.0000         1.0507       1546.951         0.6541        -78.339        -38.339      0.3085371
      8340.5000         1.0429       1560.994         0.6442         -77.59         -37.59      0.3224075
      8341.0000         1.0377       1578.883         0.6343       -76.8409       -36.8409      0.3362797
      8341.5000         1.0417       1624.393         0.6244        -76.134        -36.134      0.3493703
      8342.0000         1.0457       1671.996         0.6094       -75.9788       -35.9788      0.3522445
      8342.5000         1.0516       1715.904         0.5923       -76.4124       -36.4124      0.3442148
      8343.0000         1.0674       1747.098         0.5752       -76.8458       -36.8458      0.3361889
      8343.5000         1.0832       1778.291         0.5642       -77.2813       -37.2813       0.328124
      8344.0000         1.0991       1809.486         0.5627       -77.7529       -37.7529      0.3193907
      8344.5000         1.1149       1821.707         0.5612       -78.2246       -38.2246      0.3106555
      8345.0000         1.1308       1808.895         0.5597       -78.6963       -38.6963      0.3019204
      8345.5000         1.1473       1796.082         0.5591       -79.1687       -39.1687      0.2931722
      8346.0000         1.1645        1783.27         0.5596       -79.6404       -39.6404       0.284437
      8346.5000         1.1818       1770.457         0.5601       -80.1121       -40.1121      0.2757019
      8347.0000          1.199       1757.645         0.5606       -80.2714       -40.2714      0.2727518
      8347.5000         1.2161       1744.707         0.5611       -80.2571       -40.2571      0.2730166
      8348.0000         1.2318       1731.254         0.5617       -80.1851       -40.1851        0.27435
      8348.5000         1.2475       1717.801         0.5622       -80.0428       -40.0428      0.2769852
      8349.0000         1.2573       1717.949         0.5627       -79.9006       -39.9006      0.2796186
      8349.5000         1.2504       1730.564         0.5632       -79.7584       -39.7584      0.2822519
      8350.0000         1.2382       1742.207         0.5637       -79.6163       -39.6163      0.2848833
      8350.5000         1.2216       1751.791         0.5642       -79.4741       -39.4741      0.2875167
      8351.0000          1.205       1761.365         0.5648       -78.5333       -38.5333      0.3049389
      8351.5000         1.1884       1755.229         0.5653       -77.0869       -37.0869      0.3317241
      8352.0000         1.1717        1718.27         0.5658       -75.6429       -35.6429      0.3584648
      8352.5000         1.1556       1672.588         0.5663       -74.0588       -34.0588         0.3878
