#------------------------------------------------------------------------------
# Created by    : vladimir.rabinovich
# Created on    : 09/19/2023 17:19:40
#------------------------------------------------------------------------------
~Version Information Section
VERS.           2.0     :   CWLS log ASCII Standard - VERSION 2.0
WRAP.           NO      :   One line per depth step
~Well Information Section
#MNEM       .UNIT                                         VALUE :DESCRIPTION
#------------------------------------------------------------------------------
STRT        .FT                                             305 :START DEPTH
STOP        .FT                                          9892.5 :STOP DEPTH
STEP        .FT                                             0.5 :STEP      
NULL        .                                           -999.25 :NULL      
COMP        .                         ATLANTIC RICHFIELD CO THE :COMPANY   
WELL        .                               OCS G07247 ST00BP00 :WELL      
FLD         .                                           WILDCAT :FIELD     
LOC         .                                                   :LOCATION  
CNTY        .                             GALVESTON LARGE BLOCK :LOCATION  
STAT        .                                             TEXAS :STATE     
CTRY        .                                     UNITED STATES :COUNTRY   
SRVC        .                                                   :SERVICE COMPANY
DATE        .                             9/13/2023 11:19:27 AM :LOG DATE  
API         .                                    42706401220000 :API NUMBER
UWI         .                                    42706401220000 :UNIQUE WELL ID
XCOORD      .                                  995038.545578968 :SURFACE X 
YCOORD      .                                  10445559.0196594 :SURFACE Y 
LAT         .                                         28.768363 :LATITUDE  
LON         .                                        -95.014888 :LONGITUDE 
ELEV        .FT                                              98 :ELEVATION VALUE
ELEV_TYPE   .                                                KB :ELEVATION REFERENCE TYPE
~Curve Information Section
#MNEM       .UNIT                                      API CODE :CURVE DESCRIPTION
#------------------------------------------------------------------------------
DEPT        .FT                                                 :DEPTH     
ALL         .OHMM                                               :          
CILD        .MMHO                                               :          
GR          .GAPI                                               :          
GR_NORM     .GAPI                                               :GammaRay Normalized
ILD         .OHMM                                               :          
SP          .MV                                                 :          
VSH_GR      .V/V                                                :Volume of Shale from GR
~A        DEPTH            ALL           CILD             GR        GR_NORM            ILD             SP         VSH_GR
# ...
      2281.5000         1.1644       1148.721        58.0956       75.91331          0.955        24.7712      0.9130491
      2282.0000         1.1808       1090.605        57.4429       74.90181          0.966        24.7964      0.8915279
      2282.5000         1.1971       968.2539        56.5076        73.4548         0.9749        24.8215      0.8607404
      2283.0000         1.2056       898.3408        55.1218       71.31352         0.9837        24.8467      0.8151813
      2283.5000          1.211       844.5645        53.7361        69.1724         0.9925        24.9794      0.7696255
      2284.0000         1.2165       819.3281        52.6047       67.42319         0.9977        25.2049      0.7324084
      2284.5000         1.2179       802.6387        51.9978       66.48227          1.002        25.5043      0.7123887
      2285.0000          1.217       796.8213        51.3908       65.54121         1.0064        25.8058      0.6923661
      2285.5000         1.2075       791.0049        50.8535       64.70754         1.0092        26.1071      0.6746286
      2286.0000         1.1972       785.1875        50.3326       63.89916          1.009        26.3423       0.657429
      2286.5000         1.1869       779.3711        49.8118       63.09092         1.0089        26.5021      0.6402323
      2287.0000         1.1774       804.7969        49.2956       62.28978         1.0088         26.662      0.6231868
      2287.5000         1.1679       830.8828        48.8152       61.54381         1.0087        26.8219      0.6073151
      2288.0000         1.1583       858.0146        48.3347       60.79768         1.0086        26.9817      0.5914399
      2288.5000         1.1489       887.1387        47.8543       60.05172         0.9998         27.133      0.5755684
      2289.0000         1.1412       916.2627        47.4634       59.44366         0.9848        27.2782      0.5626311
      2289.5000         1.1338       947.3916         49.237       62.17128         0.9699        27.4234      0.6206656
      2290.0000         1.1286       982.3359        51.1788       65.15813         0.9497        27.5687      0.6842155
      2290.5000         1.1236       1024.508        53.3489        68.4968         0.9274        27.7171       0.755251
      2291.0000         1.1195       1093.297        54.6821       70.54574         0.9052        27.8734      0.7988455
      2291.5000         1.1154       1113.965        55.7966       72.25764         0.8829        28.0298      0.8352689
      2292.0000         1.1118       1124.715        56.0388       72.62523         0.8678        28.1861        0.84309
      2292.5000         1.1082       1134.209        56.2758       72.98486         0.8558        28.3426      0.8507417
      2293.0000         1.1071       1144.705        56.3779       73.13656         0.8438        28.4893      0.8539693
      2293.5000          1.106       1156.678        56.4527       73.24622         0.8354        28.6335      0.8563024
      2294.0000          1.105       1170.025        56.5275       73.35583         0.8314        28.7776      0.8586347
      2294.5000         1.1035       1184.678        56.5997       73.46146         0.8274        28.9039      0.8608822
      2295.0000         1.1013       1195.996        56.6508       73.53458         0.8234        28.9832      0.8624378
      2295.5000         1.0992       1200.596        56.0173       72.55267         0.8194        29.0625      0.8415461
      2296.0000          1.097       1203.814        54.7892       70.65442         0.8202        29.1419      0.8011578
      2296.5000         1.0953       1205.805         53.652       68.89627         0.8268        29.2233      0.7637504
      2297.0000         1.0944       1205.293        52.5713       67.22519         0.8334        29.3084      0.7281955
      2297.5000         1.0934       1204.781        51.4902       65.55348           0.84        29.3935      0.6926273
      2298.0000         1.0924        1199.66        50.6329       64.22668         0.8512        29.4786      0.6643974
      2298.5000         1.0937         1191.1        50.7719       64.43525         0.8692        29.5325      0.6688351
      2299.0000         1.0994       1152.377        51.8686       66.11972         0.8871        29.4961      0.7046749
      2299.5000          1.105       1124.936         53.358       68.40938          0.905        29.4598       0.753391
      2300.0000         1.1107        1114.43        54.8549       70.71057         0.9166        29.4234      0.8023526
      2300.5000         1.1166        1103.92        56.3524       73.01273         0.9229        29.1734      0.8513348
      2301.0000         1.1231       1093.412        56.9409       73.91402         0.9293        28.9486       0.870511
      2301.5000         1.1296        1091.18        57.4932       74.75952         0.9339        28.8967      0.8885005
      2302.0000         1.1361        1088.99        58.0454       75.60486          0.925        28.8448      0.9064863
      2302.5000         1.1393       1086.799        58.5374       76.35744         0.9161        28.7929      0.9224988
      2303.0000         1.1394        1088.83        58.9193       76.94036         0.9072        28.7673      0.9349013
      2303.5000         1.1394       1093.648        59.3013       77.52341         0.8982        28.7477      0.9473067
      2304.0000         1.1395       1101.352        59.6834       78.10662         0.8896         28.728      0.9597153
      2304.5000         1.1396       1110.797        60.0654       78.68968         0.8834        28.7084      0.9721209
      2305.0000           1.14       1121.418        59.7946       78.26673         0.8771        28.6522       0.963122
      2305.5000         1.1405        1133.41        58.8391       76.78857         0.8708        28.4731      0.9316716
      2306.0000         1.1411        1145.41         58.102         75.647         0.8646        28.2941       0.907383
      2306.5000         1.1416       1153.195        57.7333       75.07317         0.8583        28.1024      0.8951739
      2307.0000         1.1442       1159.293        57.3745       74.51459         0.8521        27.6664      0.8832891
      2307.5000         1.1472       1165.393        57.1041       74.09225           0.85        27.2303      0.8743033
      2308.0000         1.1501       1171.492        56.8364       73.67408         0.8518        26.6819       0.865406
      2308.5000         1.1531       1168.369        56.5179        73.1776         0.8537        26.0086      0.8548425
      2309.0000          1.156       1152.135         56.161       72.62195          0.858         25.361      0.8430202
      2309.5000         1.1588       1125.051        55.8043        72.0666         0.8861        24.9312      0.8312042
      2310.0000         1.1616       1100.813        55.4476       71.51127         0.9136        24.5013      0.8193887
      2310.5000         1.1644       1083.273        54.7625       70.44983         0.9323        24.1043      0.7968048
      2311.0000         1.1672       1065.729        53.9773       69.23415          0.951        23.9211      0.7709393
      2311.5000         1.1693       1054.656         52.945       67.63763         0.9557         23.738      0.7369708
      2312.0000         1.1681       1047.018         52.223       66.51934         0.9521        23.5548      0.7131774
      2312.5000          1.167       1039.381        54.1185       69.43481         0.9485        23.3716      0.7752088
      2313.0000         1.1658       1036.422        56.0854       72.46035         0.9449        23.2332      0.8395819
      2313.5000         1.1647       1036.113        57.2152       74.19583         0.9412        23.1736       0.876507
      2314.0000         1.1635       1035.803         57.805       75.09912         0.9376         23.114       0.895726
      2314.5000         1.1616       1035.492        58.3948       76.00241         0.9329        23.0544      0.9149449
