#------------------------------------------------------------------------------
# Created by    : vladimir.rabinovich
# Created on    : 09/19/2023 17:20:40
#------------------------------------------------------------------------------
~Version Information Section
VERS.           2.0     :   CWLS log ASCII Standard - VERSION 2.0
WRAP.           NO      :   One line per depth step
~Well Information Section
#MNEM       .UNIT                                         VALUE :DESCRIPTION
#------------------------------------------------------------------------------
STRT        .FT                                             400 :START DEPTH
STOP        .FT                                           11002 :STOP DEPTH
STEP        .FT                                             0.5 :STEP      
NULL        .                                           -999.25 :NULL      
COMP        .                            STANOLIND OIL & GAS CO :COMPANY   
WELL        .                                     ST TR 00245-L :WELL      
FLD         .                              GALVESTON BLOCK 0245 :FIELD     
LOC         .                                                   :LOCATION  
CNTY        .                             GALVESTON LARGE BLOCK :LOCATION  
STAT        .                                             TEXAS :STATE     
CTRY        .                                     UNITED STATES :COUNTRY   
SRVC        .                                                   :SERVICE COMPANY
DATE        .                             9/13/2023 11:19:42 AM :LOG DATE  
API         .                                    42706000160000 :API NUMBER
UWI         .                                    42706000160000 :UNIQUE WELL ID
XCOORD      .                                  1024804.26554262 :SURFACE X 
YCOORD      .                                  10549089.4715911 :SURFACE Y 
LAT         .                                        29.0543948 :LATITUDE  
LON         .                                       -94.9272588 :LONGITUDE 
ELEV        .FT                                              11 :ELEVATION VALUE
ELEV_TYPE   .                                                KB :ELEVATION REFERENCE TYPE
~Curve Information Section
#MNEM       .UNIT                                      API CODE :CURVE DESCRIPTION
#------------------------------------------------------------------------------
DEPT        .FT                                                 :DEPTH     
ASN         .OHMM                                               :          
LAT         .OHMM                                               :          
LN          .OHMM                                               :          
SP          .MV                                                 :          
SP_NORM     .MV                                                 :SP Normalized
VSH_SP      .V/V                                                :Volume of Shale from SP
~A        DEPTH            ASN            LAT             LN             SP        SP_NORM         VSH_SP
# ...
      5340.0000          0.639         0.5069         0.5208       -50.2073       2.192799              1
      5340.5000          0.623         0.5081         0.5167       -53.0214     -0.6341438              1
      5341.0000          0.607         0.5223         0.5126       -57.7399      -5.365486       0.959452
      5341.5000          0.591         0.5364         0.5085       -62.3212      -9.959629      0.9041008
      5342.0000          0.575         0.5506         0.5043       -65.9242      -13.57547      0.8605365
      5342.5000          0.563         0.5346         0.5002       -68.8622      -16.52631      0.8249842
      5343.0000         0.5559          0.497         0.4961       -70.4346      -18.11156      0.8058848
      5343.5000         0.5603         0.4594          0.492       -67.7987      -15.48849       0.837488
      5344.0000         0.5646         0.4218         0.4879       -64.6073      -12.30994      0.8757839
      5344.5000          0.569         0.3842         0.4969       -61.4182      -9.133682       0.914052
      5345.0000         0.5734          0.354         0.5086        -58.229      -5.957321      0.9523214
      5345.5000         0.5819         0.3278         0.5202       -55.0376      -2.778767      0.9906173
      5346.0000          0.598         0.3017         0.5319       -51.8484      0.3975945              1
      5346.5000         0.6363         0.3217         0.5435       -51.4736       0.759552              1
      5347.0000         0.6506         0.3547         0.5552       -51.3174      0.9029083              1
      5347.5000         0.6396         0.3878         0.5669       -51.1614       1.046066              1
      5348.0000         0.6285         0.4208         0.5785       -51.0053       1.189327              1
      5348.5000         0.6169         0.4538         0.5902       -50.8493       1.332481              1
      5349.0000         0.6159         0.4735         0.6018       -54.2475       -2.07856      0.9990535
      5349.5000          0.625         0.4781         0.6135       -58.5632      -6.407104      0.9469023
      5350.0000          0.625         0.4827         0.6252       -61.4403      -9.297043      0.9120838
      5350.5000         0.6221         0.4873         0.6283       -58.2489      -6.118488      0.9503797
      5351.0000         0.6192         0.4947         0.6293       -54.9004      -2.782825      0.9905683
      5351.5000         0.6163         0.5053         0.6303       -52.0847     0.02002716              1
      5352.0000         0.6133          0.516         0.6313       -51.3012      0.7906876              1
      5352.5000         0.6107         0.5266         0.6323       -50.5178       1.561245              1
      5353.0000          0.609         0.5373         0.6333       -49.7343       2.331905              1
      5353.5000         0.6072         0.5479         0.6343       -48.9508       3.102558              1
      5354.0000         0.6055         0.5586         0.6353       -48.1674       3.873119              1
      5354.5000         0.6072         0.5687         0.6363       -47.3839       4.643776              1
      5355.0000         0.6111         0.5733         0.6373       -46.6004       5.414436              1
      5355.5000          0.615         0.5779         0.6383        -45.817       6.184994              1
      5356.0000         0.6189         0.5825         0.6393       -45.0335        6.95565              1
      5356.5000         0.6228         0.5855         0.6403       -45.0314       6.944912              1
      5357.0000         0.6267         0.5692         0.6413       -45.0933       6.870167              1
      5357.5000         0.6306         0.5528         0.6423       -45.1552       6.795425              1
      5358.0000         0.6345         0.5364         0.6433        -45.217       6.720783              1
      5358.5000         0.6384         0.5201         0.6441       -45.2789       6.646042              1
      5359.0000         0.6423         0.5037         0.6447       -45.3408       6.571297              1
      5359.5000         0.6462         0.4873         0.6452       -45.4877       6.411556              1
      5360.0000         0.6501          0.471         0.6458       -47.3291       4.557312              1
      5360.5000          0.654         0.4573         0.6464       -49.1705       2.703072              1
      5361.0000         0.6579         0.4483         0.6469       -51.0118      0.8489304              1
      5361.5000         0.6618         0.4394         0.6475       -52.2158     -0.3679123              1
      5362.0000         0.6657         0.4305         0.6481        -53.308      -1.472954              1
      5362.5000         0.6696         0.4241         0.6486       -53.8734      -2.051197      0.9993832
      5363.0000         0.6735         0.4372         0.6492       -54.0274       -2.21804       0.997373
      5363.5000         0.6774         0.4503         0.6498       -54.0677      -2.271179      0.9967328
      5364.0000         0.6813         0.4635         0.6503       -53.3307      -1.547024              1
      5364.5000         0.6852         0.4766         0.6509       -52.5937     -0.8228645              1
      5365.0000         0.6891         0.4897         0.6515       -51.8572    -0.09920883              1
      5365.5000         0.6952         0.5028          0.652       -51.1203      0.6248512              1
      5366.0000         0.7013         0.5159         0.6526       -50.3833       1.349007              1
      5366.5000         0.7074         0.5291         0.6532       -50.1138       1.605667              1
      5367.0000         0.7134         0.5422         0.6524       -50.5681       1.138527              1
      5367.5000         0.7133         0.5553         0.6514       -51.0223      0.6714821              1
      5368.0000           0.71         0.5627         0.6505       -51.4772       0.203743              1
      5368.5000         0.7067         0.5654         0.6496       -51.9314     -0.2633018              1
      5369.0000         0.7034         0.5682         0.6486       -52.3857      -0.730442              1
      5369.5000         0.7001          0.571         0.6477       -52.8399      -1.197487              1
      5370.0000         0.6956         0.5738         0.6468       -53.1626      -1.533028              1
      5370.5000         0.6907         0.5766         0.6458       -53.0499       -1.43317              1
      5371.0000         0.6858         0.5793         0.6449       -52.9373      -1.333412              1
      5371.5000          0.681         0.5821         0.6439       -52.8246      -1.233555              1
      5372.0000         0.6784          0.584          0.643       -52.7119      -1.133694              1
      5372.5000         0.6819         0.5843         0.6421       -52.5991      -1.033737              1
      5373.0000         0.6854         0.5845         0.6411       -52.4864     -0.9338799              1
      5373.5000         0.6859         0.5847         0.6402       -52.3738     -0.8341217              1
      5374.0000         0.6781         0.5849         0.6396        -52.261     -0.7341652              1
      5374.5000         0.6703         0.5852          0.641       -52.1483     -0.6343079              1
      5375.0000         0.6625         0.5854         0.6425       -52.0356     -0.5344467              1
      5375.5000         0.6569         0.5856         0.6439        -51.923     -0.4346924              1
      5376.0000         0.6553         0.5858         0.6453       -51.8102     -0.3347321              1
      5376.5000         0.6538         0.5918         0.6467       -51.6975     -0.2348747              1
      5377.0000         0.6519         0.5985         0.6481       -51.5848     -0.1350174              1
      5377.5000         0.6476         0.6051         0.6495        -51.472    -0.03506088              1
