#------------------------------------------------------------------------------
# Created by    : vladimir.rabinovich
# Created on    : 09/19/2023 17:20:32
#------------------------------------------------------------------------------
~Version Information Section
VERS.           2.0     :   CWLS log ASCII Standard - VERSION 2.0
WRAP.           NO      :   One line per depth step
~Well Information Section
#MNEM       .UNIT                                         VALUE :DESCRIPTION
#------------------------------------------------------------------------------
STRT        .FT                                             222 :START DEPTH
STOP        .FT                                            9192 :STOP DEPTH
STEP        .FT                                             0.5 :STEP      
NULL        .                                           -999.25 :NULL      
COMP        .                                      PAN AMERICAN :COMPANY   
WELL        .                                     ST TR 00060-L :WELL      
FLD         .                                           WILDCAT :FIELD     
LOC         .                                                   :LOCATION  
CNTY        .                             GALVESTON LARGE BLOCK :LOCATION  
STAT        .                                             TEXAS :STATE     
CTRY        .                                     UNITED STATES :COUNTRY   
SRVC        .                                                   :SERVICE COMPANY
DATE        .                             9/13/2023 11:19:24 AM :LOG DATE  
API         .                                    42706000830000 :API NUMBER
UWI         .                                    42706000830000 :UNIQUE WELL ID
XCOORD      .                                  1150669.84230747 :SURFACE X 
YCOORD      .                                  10684730.4394491 :SURFACE Y 
LAT         .                                        29.4325033 :LATITUDE  
LON         .                                       -94.5389235 :LONGITUDE 
ELEV        .FT                                              11 :ELEVATION VALUE
ELEV_TYPE   .                                                KB :ELEVATION REFERENCE TYPE
~Curve Information Section
#MNEM       .UNIT                                      API CODE :CURVE DESCRIPTION
#------------------------------------------------------------------------------
DEPT        .FT                                                 :DEPTH     
ASN         .OHMM                                               :          
CILD        .MMHO                                               :          
ILD         .OHMM                                               :          
SP          .MV                                                 :          
SP_NORM     .MV                                                 :SP Normalized
VSH_SP      .V/V                                                :Volume of Shale from SP
~A        DEPTH            ASN           CILD            ILD             SP        SP_NORM         VSH_SP
# ...
      3794.0000         0.5955       1368.926         0.6661       -55.5302      0.6789513              1
      3794.5000         0.5881       1439.324         0.6512       -55.6917      0.5174522              1
      3795.0000         0.5807       1495.598         0.6342        -55.853      0.3561516              1
      3795.5000          0.572       1544.969           0.61       -56.0143      0.1948509              1
      3796.0000          0.562        1594.34         0.5858       -56.1776     0.03155136              1
      3796.5000          0.552       1643.713         0.5616       -56.3431     -0.1339493              1
      3797.0000          0.542       1693.059         0.5374       -56.5088     -0.2996483              1
      3797.5000         0.5319       1742.432         0.5132       -56.6743     -0.4651489              1
      3798.0000         0.5219       1831.496         0.4889       -56.8399     -0.6307487              1
      3798.5000         0.5119       1913.168         0.4615       -57.0177      -0.808548              1
      3799.0000         0.5045       1992.139         0.4326       -57.2435      -1.034348      0.9991193
      3799.5000         0.4974       1998.566         0.4037        -57.804      -1.594849      0.9847475
      3800.0000         0.4902        1998.48         0.3748       -58.7626      -2.553448       0.960168
      3800.5000         0.5118       1998.395         0.3459       -59.7024      -3.493248      0.9360706
      3801.0000         0.5518       2365.082         0.3178       -62.5087      -6.299549      0.8641141
      3801.5000         0.6307       2748.855         0.2986       -66.5859      -10.37675      0.7595706
      3802.0000         0.7153       2967.469         0.2793       -70.6631      -14.45395       0.655027
      3802.5000         0.7593       3044.336         0.2601       -74.9608      -18.75165      0.5448295
      3803.0000         0.7951       3067.734         0.2476       -79.4519      -23.24274      0.4296732
      3803.5000         0.7356       3083.086         0.2462       -81.5664      -25.35725      0.3754552
      3804.0000         0.7073       3088.758         0.2449       -83.8842      -27.67505      0.3160244
      3804.5000          0.679       3075.125         0.2435       -86.2975      -30.08835      0.2541449
      3805.0000         0.6508       3046.977         0.2542       -85.8346      -29.62545      0.2660141
      3805.5000         0.6271       3018.852         0.2732       -84.7958      -28.58665      0.2926501
      3806.0000         0.6123       2903.898         0.2921       -83.9392      -27.73005      0.3146141
      3806.5000         0.5975       2812.426          0.311       -83.0822      -26.87305      0.3365885
      3807.0000         0.5845       2648.641         0.3299       -82.2257      -26.01655        0.35855
      3807.5000         0.5722       2484.754         0.3542       -81.3693      -25.16015       0.380509
      3808.0000         0.5598       2320.969         0.3898       -80.5624      -24.35325      0.4011987
      3808.5000         0.5475       2157.082         0.4254       -79.7892      -23.58005      0.4210244
      3809.0000         0.5409        2084.23          0.461       -79.0166      -22.80745      0.4408346
      3809.5000         0.5358       2014.344         0.5007       -76.4006      -20.19144      0.5079117
      3810.0000         0.5403       1984.475         0.5573       -70.9215      -14.71235      0.6484013
      3810.5000         0.5561       1872.074         0.6139       -68.6674      -12.45824      0.7061989
      3811.0000          0.572       1742.578         0.6597       -67.3108      -11.10165      0.7409834
      3811.5000         0.5878       1613.082          0.692       -65.9541      -9.744949      0.7757705
      3812.0000         0.6053       1483.488         0.7244       -65.2296      -9.020447      0.7943475
      3812.5000         0.6326       1353.992         0.7568       -64.5901      -8.380951      0.8107448
      3813.0000           0.66       1224.496         0.7884        -63.951      -7.741848      0.8271321
      3813.5000         0.6873       1093.746         0.8197       -63.2213      -7.012146      0.8458424
      3814.0000         0.6985       1043.441         0.8511       -62.1591      -5.949947      0.8730783
      3814.5000         0.7082       1012.001         0.8894       -61.1435      -4.934349      0.8991193
      3815.0000          0.718       996.8672         0.8962       -60.2203      -4.011147      0.9227911
      3815.5000         0.7239       1001.227         0.8959       -59.3491      -3.139946      0.9451296
      3816.0000          0.727       1005.587         0.8955        -58.566       -2.35685       0.965209
      3816.5000         0.7302       1009.947         0.8952       -58.7466      -2.537449      0.9605783
      3817.0000         0.7333       1014.304         0.8922       -59.0522      -2.843048      0.9527423
      3817.5000         0.7364        1029.23         0.8877       -59.6807      -3.471546       0.936627
      3818.0000         0.7481       1044.436         0.8832       -60.3094      -4.100246      0.9205065
      3818.5000         0.7605       1074.021         0.8788       -60.9378      -4.728649      0.9043936
      3819.0000         0.7729       1128.012         0.8294       -61.5665      -5.357349      0.8882731
      3819.5000         0.7852       1183.352         0.7739       -63.4221      -7.212948      0.8406937
      3820.0000         0.7962       1353.893         0.7185       -65.6014       -9.39225      0.7848141
      3820.5000          0.808       1852.621         0.6631       -67.6119      -11.40275      0.7332629
      3821.0000         0.7967       1992.543         0.6019       -70.3398      -14.13065      0.6633168
      3821.5000         0.7453       1997.352         0.5402       -73.6299      -17.42075      0.5789552
      3822.0000         0.6939        2002.16         0.4785       -76.2721      -20.06295      0.5112064
      3822.5000         0.6656       2036.873         0.4168       -78.9131      -22.70395      0.4434885
      3823.0000         0.6381        2299.82         0.3095        -82.219      -26.00985      0.3587218
      3823.5000         0.6107        2347.84          0.228       -85.5714      -29.36225      0.2727628
      3824.0000           0.59       2381.309         0.1958       -89.1442      -32.93505      0.1811525
      3824.5000         0.5711       2400.516         0.1902       -91.6346      -35.42545      0.1172963
      3825.0000         0.5521       2415.473         0.1846       -93.0623      -36.85315     0.08068848
      3825.5000         0.5424       2428.695         0.1811       -93.9824      -37.77325     0.05709624
      3826.0000         0.5365        2439.52          0.179       -94.3914      -38.18225     0.04660895
      3826.5000         0.5402        2450.34         0.1768       -94.7117      -38.50255      0.0383962
      3827.0000         0.5442       2455.383         0.1746       -95.0043      -38.79515     0.03089357
      3827.5000         0.5482       2450.637         0.1724       -95.2971      -39.08794     0.02338605
      3828.0000         0.5471       2435.973         0.1703       -95.5691      -39.35995     0.01641161
      3828.5000         0.5345        2421.32         0.1682       -95.8306      -39.62144    0.009706547
      3829.0000         0.5219       2395.688         0.1664       -96.0923      -39.88315      0.0029962
      3829.5000         0.5097       2371.492         0.1646       -95.8124      -39.60325     0.01017311
      3830.0000         0.4975       2358.465         0.1628       -95.4633      -39.25415     0.01912435
      3830.5000         0.4853       2337.781          0.161       -95.0801      -38.87095     0.02895003
      3831.0000         0.4731       2289.086         0.1593       -94.6965      -38.48735     0.03878589
      3831.5000          0.463       2221.293         0.1695        -94.313      -38.10385      0.0486192
