#------------------------------------------------------------------------------
# Created by    : vladimir.rabinovich
# Created on    : 09/19/2023 17:22:56
#------------------------------------------------------------------------------
~Version Information Section
VERS.           2.0     :   CWLS log ASCII Standard - VERSION 2.0
WRAP.           NO      :   One line per depth step
~Well Information Section
#MNEM       .UNIT                                         VALUE :DESCRIPTION
#------------------------------------------------------------------------------
STRT        .FT                                             890 :START DEPTH
STOP        .FT                                            9495 :STOP DEPTH
STEP        .FT                                             0.5 :STEP      
NULL        .                                           -999.25 :NULL      
COMP        .                                   MARATHON OIL CO :COMPANY   
WELL        .                               OCS G04138 ST00BP00 :WELL      
FLD         .                                           WILDCAT :FIELD     
LOC         .                                                   :LOCATION  
CNTY        .                      MATAGORDA ISLAND LARGE BLOCK :LOCATION  
STAT        .                                             TEXAS :STATE     
CTRY        .                                     UNITED STATES :COUNTRY   
SRVC        .                                                   :SERVICE COMPANY
DATE        .                             9/13/2023 11:12:11 AM :LOG DATE  
API         .                                    42703402070000 :API NUMBER
UWI         .                                    42703402070000 :UNIQUE WELL ID
XCOORD      .                                  590883.400226114 :SURFACE X 
YCOORD      .                                  10259990.6406746 :SURFACE Y 
LAT         .                                         28.233929 :LATITUDE  
LON         .                                        -96.259589 :LONGITUDE 
ELEV        .FT                                              90 :ELEVATION VALUE
ELEV_TYPE   .                                                KB :ELEVATION REFERENCE TYPE
~Curve Information Section
#MNEM       .UNIT                                      API CODE :CURVE DESCRIPTION
#------------------------------------------------------------------------------
DEPT        .FT                                                 :DEPTH     
SP          .MV                                                 :          
SP_NORM     .MV                                                 :SP Normalized
VSH_SP      .V/V                                                :Volume of Shale from SP
~A        DEPTH             SP        SP_NORM         VSH_SP
# ...
      1484.0000        21.8866      -6.909149      0.8246732
      1484.5000        21.2611       -6.28217      0.8470653
      1485.0000        22.6918       -7.71139      0.7960218
      1485.5000        24.6816      -9.699713      0.7250103
      1486.0000         25.547      -10.56363      0.6941559
      1486.5000        26.4129      -11.42806      0.6632837
      1487.0000        27.3223      -12.33598       0.630858
      1487.5000        28.1734       -13.1856      0.6005144
      1488.0000        28.8599      -13.87062      0.5760494
      1488.5000        29.4803      -14.48954       0.553945
      1489.0000        29.9288      -14.93656        0.53798
      1489.5000        30.3772      -15.38348      0.5220186
      1490.0000        30.9257       -15.9305      0.5024821
      1490.5000        31.5228      -16.52612      0.4812098
      1491.0000        32.3334      -17.33525      0.4523126
      1491.5000        32.3214      -17.32177      0.4527941
      1492.0000        31.7589      -16.75779      0.4729362
      1492.5000        31.1965      -16.19391      0.4930747
      1493.0000        30.6339      -15.62983      0.5132204
      1493.5000        30.5054      -15.49985      0.5178624
      1494.0000        30.3347      -15.32767      0.5240117
      1494.5000        30.3828      -15.37429      0.5223467
      1495.0000        30.9879      -15.97791      0.5007887
      1495.5000        31.6314      -16.61994      0.4778594
      1496.0000        32.5159      -17.50296       0.446323
      1496.5000        33.3264      -18.31198      0.4174292
      1497.0000        34.0777       -19.0618      0.3906499
      1497.5000        35.3607      -20.34332      0.3448815
      1498.0000        36.7315      -21.71264      0.2959771
      1498.5000        37.9361      -22.91576      0.2530084
      1499.0000         39.184      -24.16218      0.2084934
      1499.5000        40.1783      -25.15501      0.1730355
      1500.0000         40.822      -25.79723      0.1500991
      1500.5000        41.4656      -26.43935      0.1271661
      1501.0000        42.4163      -27.38857     0.09326526
      1501.5000        43.1085      -28.07929     0.06859671
      1502.0000        43.6508      -28.62011     0.04928173
      1502.5000        44.2943      -29.26213     0.02635234
      1503.0000        44.7288      -29.69516     0.01088728
      1503.5000        44.7159      -29.68078     0.01140084
      1504.0000        44.4342       -29.3976     0.02151435
      1504.5000        44.1898      -29.15172     0.03029578
      1505.0000        43.9752      -28.93564     0.03801284
      1505.5000        43.7606      -28.71956     0.04572991
      1506.0000         43.545      -28.50248     0.05348287
      1506.5000        43.3286      -28.28461     0.06126411
      1507.0000        43.1122      -28.06673     0.06904548
      1507.5000        42.7028      -27.65585      0.0837198
      1508.0000        42.2028      -27.15437      0.1016297
      1508.5000        41.8141      -26.76419      0.1155648
      1509.0000        41.4133      -26.36191      0.1299319
      1509.5000        40.7877      -25.73483      0.1523274
      1510.0000        40.1932      -25.13885      0.1736125
      1510.5000        39.6183      -24.56248      0.1941973
      1511.0000        39.4115      -24.35419      0.2016359
      1511.5000        39.2047      -24.14592      0.2090744
      1512.0000        39.2087      -24.14844      0.2089844
      1512.5000        39.2708      -24.20906      0.2068193
      1513.0000        39.3533      -24.29008      0.2039258
      1513.5000        39.5027        -24.438      0.1986428
      1514.0000         39.652      -24.58582      0.1933635
      1514.5000        39.8014      -24.73374      0.1880807
      1515.0000        39.9507      -24.88156      0.1828013
      1515.5000          40.16      -25.08939      0.1753791
      1516.0000        40.3862      -25.31411      0.1673534
      1516.5000        40.6125      -25.53893       0.159324
      1517.0000        40.8495      -25.77445      0.1509126
      1517.5000        41.1085      -26.03197      0.1417153
      1518.0000        41.3674      -26.28939      0.1325217
      1518.5000        41.6493      -26.56981      0.1225067
      1519.0000        41.9578      -26.87683      0.1115416
      1519.5000        42.1853      -27.10286      0.1034694
      1520.0000        42.0658      -26.98188      0.1077901
      1520.5000        41.4727      -26.38729      0.1290252
      1521.0000         40.287      -25.20012      0.1714243
      1521.5000        38.3633      -23.27494      0.2401807
      1522.0000        36.6696      -21.57976      0.3007227
      1522.5000        33.2332      -18.14188      0.4235041
      1523.0000        31.3896       -16.2968      0.4893999
      1523.5000        29.8755      -14.78123      0.5435277
      1524.0000        28.2814      -13.18565      0.6005126
      1524.5000        26.8914      -11.79417      0.6502083
      1525.0000        26.3216      -11.22289      0.6706111
      1525.5000        26.0684      -10.96821      0.6797068
      1526.0000        25.9536      -10.85193      0.6838596
      1526.5000        25.8389      -10.73575      0.6880088
      1527.0000        25.6315      -10.52687      0.6954688
      1527.5000         25.365      -10.25889      0.7050394
      1528.0000          25.04      -9.932417      0.7166994
      1528.5000        24.3694      -9.260338      0.7407022
      1529.0000        23.7187      -8.608159      0.7639943
      1529.5000        23.1593       -8.04728      0.7840257
      1530.0000        22.5941      -7.480602      0.8042642
      1530.5000        21.8529      -6.737922      0.8307885
      1531.0000        21.1121      -5.995645      0.8572984
      1531.5000        20.3835      -5.265564      0.8833727
      1532.0000        21.3884      -6.268985      0.8475363
      1532.5000        24.3594      -9.238507      0.7414819
      1533.0000        25.9715      -10.84913      0.6839597
      1533.5000        27.0538      -11.92995      0.6453589
      1534.0000         28.136      -13.01067      0.6067618
      1534.5000        29.1953      -14.06849      0.5689825
      1535.0000        29.8978      -14.76951      0.5439459
      1535.5000        30.6003      -15.47053      0.5189095
      1536.0000        29.3976      -14.26636      0.5619158
      1536.5000         27.984      -12.85128      0.6124544
      1537.0000        25.7442         -10.61      0.6925001
      1537.5000        23.8497      -8.714021      0.7602136
      1538.0000         22.639      -7.501841      0.8035057
      1538.5000        21.6487      -6.510063      0.8389263
      1539.0000        20.9029      -5.762784      0.8656148
      1539.5000         20.457      -5.315405      0.8815927
      1540.0000        20.2646      -5.121527      0.8885169
      1540.5000        20.0916      -4.947047      0.8947483
      1541.0000        20.0995      -4.953469       0.894519
      1541.5000        20.2949       -5.14739      0.8875932
      1542.0000        20.7118       -5.56281      0.8727568
      1542.5000        21.1543      -6.003833      0.8665389
      1543.0000        21.6267      -6.474752      0.8508416
      1543.5000        22.0265      -6.873075      0.8375642
      1544.0000        22.1909      -7.035996      0.8321335
      1544.5000        22.3553      -7.198917      0.8267028
      1545.0000        22.5164      -7.358538      0.8213821
      1545.5000        22.6577      -7.498359      0.8167214
      1546.0000        22.7991      -7.638281      0.8120573
      1546.5000        22.9404      -7.778101      0.8073967
      1547.0000        23.0744      -7.910623      0.8029792
      1547.5000        23.1878      -8.022544      0.7992485
      1548.0000        23.3011      -8.134365      0.7955211
      1548.5000        23.3677      -8.199487      0.7933505
      1549.0000        23.1623      -7.992608      0.8002464
      1549.5000        22.9569      -7.785728      0.8071424
