#------------------------------------------------------------------------------
# Created by    : vladimir.rabinovich
# Created on    : 09/19/2023 17:22:28
#------------------------------------------------------------------------------
~Version Information Section
VERS.           2.0     :   CWLS log ASCII Standard - VERSION 2.0
WRAP.           NO      :   One line per depth step
~Well Information Section
#MNEM       .UNIT                                         VALUE :DESCRIPTION
#------------------------------------------------------------------------------
STRT        .FT                                            2000 :START DEPTH
STOP        .FT                                            7372 :STOP DEPTH
STEP        .FT                                             0.5 :STEP      
NULL        .                                           -999.25 :NULL      
COMP        .                       CORPUS CHRISTI OIL & GAS CO :COMPANY   
WELL        .                                ST TR 00596-L SE/4 :WELL      
FLD         .                                           WILDCAT :FIELD     
LOC         .                                                   :LOCATION  
CNTY        .                      MATAGORDA ISLAND LARGE BLOCK :LOCATION  
STAT        .                                             TEXAS :STATE     
CTRY        .                                     UNITED STATES :COUNTRY   
SRVC        .                                                   :SERVICE COMPANY
DATE        .                             9/13/2023 11:19:13 AM :LOG DATE  
API         .                                    42703300520000 :API NUMBER
UWI         .                                    42703300520000 :UNIQUE WELL ID
XCOORD      .                                  480173.649028781 :SURFACE X 
YCOORD      .                                  10231220.1013933 :SURFACE Y 
LAT         .                                        28.1462983 :LATITUDE  
LON         .                                       -96.6002451 :LONGITUDE 
ELEV        .FT                                              82 :ELEVATION VALUE
ELEV_TYPE   .                                                GL :ELEVATION REFERENCE TYPE
~Curve Information Section
#MNEM       .UNIT                                      API CODE :CURVE DESCRIPTION
#------------------------------------------------------------------------------
DEPT        .FT                                                 :DEPTH     
CILD        .MMHO                                               :          
ILD         .OHMM                                               :          
SN          .OHMM                                               :          
SP          .MV                                                 :          
SP_NORM     .MV                                                 :SP Normalized
VSH_SP      .V/V                                                :Volume of Shale from SP
~A        DEPTH           CILD            ILD             SN             SP        SP_NORM         VSH_SP
      2000.0000        -999.25         0.1998         0.5435          -66.4     -0.2757128              1
      2000.5000        -999.25         0.2198         0.5954       -66.5008      0.7531537              1
      2001.0000        -999.25         0.2598         0.6274       -58.1376      -1.187459              1
      2001.5000        -999.25         0.2598         0.7712       -49.7744       1.785328              1
      2002.0000        -999.25         0.2798         0.8751       -41.4112       1.480454              1
      2002.5000        -999.25         0.3198          0.889          -32.2       2.613613              1
      2003.0000        -999.25         0.3598         0.9151          -27.4     -0.3706969              1
      2003.5000        -999.25         0.3599         0.9591            -26      -1.162624              1
      2004.0000       1602.343         0.4198         0.9511          -25.6       1.258974              1
      2004.5000       1558.388         0.4399         0.9431          -25.4       1.986559              1
      2005.0000       1531.027         0.4599         0.9271          -25.2      0.2664539              1
      2005.5000       1503.666         0.4999         0.9231          -25.2      0.6618935              1
      2006.0000       1476.305         0.5199         0.9112          -25.2       2.010411              1
      2006.5000       1442.472         0.5798         0.9032       -25.9556      0.5504246              1
      2007.0000       1450.458         0.6198         0.9032          -26.4      0.1060257              1
      2007.5000       1486.415         0.6199         0.8992       -27.3209     -0.8148746              1
      2008.0000       1498.396         0.5999         0.8952       -28.2418      -1.735775              1
      2008.5000       1502.385         0.5942         0.8912       -29.1626      -2.656574      0.9857267
      2009.0000        1550.33         0.5885         0.8872       -30.0835      -3.577475      0.9657071
      2009.5000       1554.319         0.5828         0.8846       -31.0044      -4.498375      0.9456875
      2010.0000       1570.297         0.5801         0.8819       -31.9253      -5.419275      0.9256679
      2010.5000       1578.282         0.5801         0.8793       -32.8462      -6.340174      0.9056484
      2011.0000       1574.279         0.5801         0.8793        -33.767      -7.260973       0.885631
      2011.5000       1555.322         0.5802         0.8793       -34.6879      -8.181875      0.8656114
      2012.0000       1549.153         0.5802         0.8793       -35.6088      -9.102774      0.8455919
      2012.5000       1542.984         0.5814         0.8833       -36.5297      -10.02368      0.8255723
      2013.0000       1536.815         0.5826         0.8833       -37.4506      -10.94457      0.8055527
      2013.5000       1530.646         0.5838         0.8833       -38.3714      -11.86537      0.7855353
      2014.0000       1524.477          0.585         0.8833       -39.2923      -12.78628      0.7655157
      2014.5000       1518.308         0.5862         0.8873            -40      -13.49397       0.750131
      2015.0000       1512.139         0.5874         0.8873          -38.6      -12.09397      0.7805658
      2015.5000        1505.97         0.5886         0.8873            -38      -11.49397      0.7936093
      2016.0000       1501.486         0.5898         0.8833          -36.8      -10.29397      0.8196962
      2016.5000       1509.472          0.591         0.8833          -36.4      -9.893976      0.8283918
      2017.0000       1513.461         0.5922         0.8833            -36      -9.493975      0.8370875
      2017.5000        1517.45         0.5934         0.8794          -34.4      -7.893976      0.8718701
      2018.0000       1517.444         0.5946         0.8794            -31      -4.493975      0.9457831
      2018.5000       1525.429         0.5958         0.8834          -31.4      -4.893974      0.9370875
      2019.0000       1529.418          0.597         0.8874          -32.4      -5.893976      0.9153484
      2019.5000       1537.404         0.5982         0.8954          -33.2      -6.693975       0.897957
      2020.0000       1529.405         0.5994         0.8954          -34.2      -7.693975      0.8762179
      2020.5000       1520.986         0.6008         0.8994          -34.4      -7.893976      0.8718701
      2021.0000       1512.567         0.6008         0.8994          -34.8      -8.293974      0.8631745
      2021.5000       1504.147         0.6008         0.9034          -35.2      -8.693975      0.8544788
      2022.0000       1495.728         0.6008         0.9034          -35.6      -9.093973      0.8457832
      2022.5000       1487.309         0.6009         0.9034          -36.4      -9.893976      0.8283918
      2023.0000        1478.89         0.6009         0.9074       -36.5671      -10.06108      0.8247592
      2023.5000        1470.47         0.6009         0.9074       -36.7343      -10.22827      0.8211245
      2024.0000       1462.051         0.6209         0.9114          -37.4      -10.89398      0.8066527
      2024.5000       1453.632          0.621         0.9154          -37.8      -11.29397      0.7979571
      2025.0000       1441.421          0.621         0.9194          -38.4      -11.89398      0.7849135
      2025.5000       1449.413          0.621         0.9194          -38.6      -12.09397      0.7805658
      2026.0000       1457.399         0.6211         0.9274            -39      -12.49397      0.7718701
      2026.5000       1461.388         0.6211         0.9274          -39.2      -12.69398      0.7675223
      2027.0000        1453.39         0.6412         0.9314            -40      -13.49397       0.750131
      2027.5000       1449.387         0.6412         0.9314          -40.2      -13.69398      0.7457832
      2028.0000       1445.384         0.6612         0.9354          -40.6      -14.09397      0.7370875
      2028.5000       1433.694         0.6612         0.9394          -41.2      -14.69398       0.724044
      2029.0000       1429.387         0.6613         0.9434            -42      -15.49397      0.7066527
      2029.5000       1421.389         0.6613         0.9474          -42.2      -15.69398      0.7023049
      2030.0000        1413.39         0.6813         0.9514          -42.4      -15.89398       0.697957
      2030.5000       1409.388         0.6813         0.9594          -42.4      -15.89398       0.697957
      2031.0000       1329.455         0.6814         0.9674          -42.2      -15.69398      0.7023049
      2031.5000       1337.447         0.7014         0.9794          -41.6      -15.09397      0.7153484
      2032.0000       1341.437         0.7014         0.9935          -41.2      -14.69398       0.724044
      2032.5000       1349.422         0.7015         1.0075          -40.8      -14.29397      0.7327397
      2033.0000       1357.407         0.7015         1.0394          -39.8      -13.29397      0.7544788
      2033.5000       1361.397         0.6983         1.0394          -36.4      -9.893976      0.8283918
      2034.0000       1365.386          0.695         1.0394          -32.8      -6.293974      0.9066527
      2034.5000       1369.375         0.6918         1.0198          -26.4      0.1060257              1
      2035.0000       1373.365         0.6885         1.0115          -25.6      0.9060249              1
      2035.5000       1377.354         0.6853         1.0115            -25       1.506025              1
      2036.0000       1389.335         0.6821         1.0155          -24.2       2.306025              1
      2036.5000       1397.321         0.6788         1.0195          -23.6       2.906025              1
      2037.0000        1401.31         0.6756         1.0228          -22.2       4.306025              1
      2037.5000       1401.303         0.6723         1.0262          -22.6       3.906025              1
