#------------------------------------------------------------------------------
# Created by    : vladimir.rabinovich
# Created on    : 09/19/2023 17:19:46
#------------------------------------------------------------------------------
~Version Information Section
VERS.           2.0     :   CWLS log ASCII Standard - VERSION 2.0
WRAP.           NO      :   One line per depth step
~Well Information Section
#MNEM       .UNIT                                         VALUE :DESCRIPTION
#------------------------------------------------------------------------------
STRT        .FT                                             290 :START DEPTH
STOP        .FT                                         11377.5 :STOP DEPTH
STEP        .FT                                             0.5 :STEP      
NULL        .                                           -999.25 :NULL      
COMP        .                         SONAT EXPLORATION GOM INC :COMPANY   
WELL        .                               OCS G04571 ST00BP00 :WELL      
FLD         .                                           WILDCAT :FIELD     
LOC         .                                                   :LOCATION  
CNTY        .                           HIGH ISLAND LARGE BLOCK :LOCATION  
STAT        .                                             TEXAS :STATE     
CTRY        .                                     UNITED STATES :COUNTRY   
SRVC        .                                                   :SERVICE COMPANY
DATE        .                             9/13/2023 11:19:19 AM :LOG DATE  
API         .                                    42708401190000 :API NUMBER
UWI         .                                    42708401190000 :UNIQUE WELL ID
XCOORD      .                                  1324427.25220013 :SURFACE X 
YCOORD      .                                  10679041.7751219 :SURFACE Y 
LAT         .                                         29.422046 :LATITUDE  
LON         .                                        -93.992863 :LONGITUDE 
ELEV        .FT                                             116 :ELEVATION VALUE
ELEV_TYPE   .                                                KB :ELEVATION REFERENCE TYPE
~Curve Information Section
#MNEM       .UNIT                                      API CODE :CURVE DESCRIPTION
#------------------------------------------------------------------------------
DEPT        .FT                                                 :DEPTH     
ASFL        .OHMM                                               :          
CALI        .IN                                                 :          
CILD        .MMHO                                               :          
GR          .GAPI                                               :          
GR_NORM     .GAPI                                               :GammaRay Normalized
ILD         .OHMM                                               :          
RHOB        .G/C3                                               :          
SP          .MV                                                 :          
SP_NORM     .GAPI                                               :SP Normalized
VSH_GR      .V/V                                                :Volume of Shale from GR
VSH_SP      .V/V                                                :Volume of Shale from SP
~A        DEPTH           ASFL           CALI           CILD             GR        GR_NORM            ILD           RHOB             SP        SP_NORM         VSH_GR         VSH_SP
# ...
      4002.5000         0.5997        -999.25       4224.984        30.4874       31.61327         0.2265        -999.25       -91.2931       -73.8062              0              0
      4003.0000         0.5982        -999.25       4238.805        30.1327       31.15881         0.2243        -999.25       -91.4155      -73.98941              0              0
      4003.5000         0.5966        -999.25        4240.68        29.7777       30.70397          0.223        -999.25       -91.5378      -74.17251              0              0
      4004.0000         0.5951        -999.25         4228.5        29.4231       30.24963         0.2218        -999.25       -91.6603      -74.35588              0              0
      4004.5000         0.5936        -999.25       4228.266        29.0681       29.79479         0.2206        -999.25       -91.7826      -74.53895              0              0
      4005.0000         0.5907        -999.25           4252         29.558       30.42247         0.2194        -999.25       -91.9049      -74.72202              0              0
      4005.5000         0.5864        -999.25       4275.734        30.3187       31.39712         0.2182        -999.25       -92.1655       -75.1206              0              0
      4006.0000         0.5821        -999.25       4326.875        31.0787       32.37087         0.2171        -999.25       -92.4423      -75.54441              0              0
      4006.5000         0.5731        -999.25       4398.273        31.8393       33.34539         0.2159        -999.25       -92.7189      -75.96793     0.00734873              0
      4007.0000         0.5622        -999.25       4469.727        32.1231       33.70901         0.2147        -999.25       -92.9957      -76.39175     0.01508526              0
      4007.5000         0.5513        -999.25       4516.148        32.1603       33.75667         0.2135        -999.25       -93.2723      -76.81526      0.0160994              0
      4008.0000         0.5404        -999.25       4557.164         31.742       33.22073         0.2123        -999.25       -93.1193      -76.56934    0.004696298              0
      4008.5000         0.5419        -999.25       4598.211        31.3234       32.68439         0.2112        -999.25       -92.8324      -76.11476              0              0
      4009.0000         0.5437        -999.25       4634.563        30.9051       32.14844           0.21        -999.25       -92.5454      -75.66003              0              0
      4009.5000         0.5455        -999.25       4658.883        30.4868        31.6125         0.2088        -999.25       -92.2584      -75.20529              0              0
      4010.0000         0.5473        -999.25       4683.203        30.0681       31.07604         0.2088        -999.25       -91.9714      -74.75056              0              0
      4010.5000         0.5528        -999.25       4702.789        29.6498       30.54009         0.2093        -999.25       -91.6844      -74.29584              0              0
      4011.0000         0.5583        -999.25       4695.773        29.5066       30.35662         0.2098        -999.25       -91.3976      -73.84142              0              0
      4011.5000         0.5638        -999.25       4656.102        29.6853       30.58558         0.2102        -999.25       -91.5131      -74.01389              0              0
      4012.0000         0.5694        -999.25        4616.43        29.8639        30.8144         0.2107        -999.25         -91.63      -74.18854              0              0
      4012.5000         0.5749        -999.25        4576.75        30.0426       31.04337         0.2112        -999.25       -91.7469       -74.3632              0              0
      4013.0000         0.5779        -999.25       4530.039        30.2994       31.37239         0.2117        -999.25       -91.6479      -74.20142              0              0
      4013.5000          0.571        -999.25       4471.875        30.5923       31.74767         0.2122        -999.25       -91.4237      -73.84454              0              0
      4014.0000         0.5641        -999.25       4413.766         30.885       32.12269         0.2127        -999.25       -91.1993      -73.48737              0              0
      4014.5000         0.5572        -999.25       4354.156        31.1779       32.49797         0.2171        -999.25       -90.9751      -73.13049              0              0
      4015.0000         0.5503        -999.25         4289.5        31.4707       32.87312         0.2228        -999.25       -90.7507      -72.77331              0              0
      4015.5000         0.5335        -999.25       4224.797        31.7635       33.24827         0.2285        -999.25       -90.3396      -72.12519    0.005282382              0
      4016.0000         0.5053        -999.25       4155.891        32.0563       33.62342         0.2342        -999.25       -89.8984      -71.43018     0.01326435              0
      4016.5000         0.4773        -999.25       4012.891        32.4062       34.07173         0.2399        -999.25       -89.4573      -70.73531      0.0228028              0
      4017.0000         0.4559        -999.25       3896.219        32.7615       34.52696         0.2456        -999.25        -89.021      -70.04794     0.03248848              0
      4017.5000         0.4397        -999.25       3809.578        33.1165        34.9818         0.2513        -999.25       -88.5966       -69.3791     0.04216604    0.008870043
      4018.0000         0.4236        -999.25        3732.18        33.4714       35.43652          0.257        -999.25       -88.1724      -68.71057     0.05184084     0.01842041
      4018.5000         0.4074        -999.25       3677.766        33.8264       35.89136         0.2627        -999.25       -87.7478      -68.04142     0.06151832     0.02797971
      4019.0000         0.3912        -999.25       3625.977        34.0436       36.16965         0.2684        -999.25       -87.3237      -67.37305      0.0674393     0.03752779
      4019.5000         0.3801        -999.25       3594.926        33.9943       36.10648         0.2741        -999.25       -87.2186      -67.20176     0.06609539     0.03997487
      4020.0000         0.3814        -999.25       3563.871         33.945       36.04332         0.2798        -999.25       -87.1558       -67.0964      0.0647514     0.04148004
      4020.5000         0.3827        -999.25       3532.816        33.7768       35.82781         0.2855        -999.25       -87.0929      -66.99088     0.06016614     0.04298739
      4021.0000          0.384        -999.25       3495.742        33.6041       35.60654         0.2912        -999.25       -87.4921      -67.60544     0.05545823     0.03420803
      4021.5000         0.3853        -999.25       3480.477        33.4314       35.38527         0.2927        -999.25         -88.08      -68.51403     0.05075033     0.02122814
      4022.0000         0.3866        -999.25       3510.406        33.6019       35.60372         0.2918        -999.25       -88.6678      -69.42248     0.05539825    0.008250318
      4022.5000         0.3885        -999.25       3540.336        33.6694        35.6902         0.2909        -999.25       -89.2555      -70.33077     0.05723831              0
      4023.0000         0.3907        -999.25       3570.117        33.7314       35.76965           0.29        -999.25       -89.8434      -71.23936     0.05892863              0
      4023.5000         0.3929        -999.25       3599.844        33.8752       35.95388         0.2891        -999.25       -90.3455      -72.01427      0.0628486              0
      4024.0000         0.3951        -999.25       3629.574        35.4941        38.0281         0.2881        -999.25        -90.719      -72.58878      0.1069809              0
      4024.5000         0.3973        -999.25       3659.332        37.1129       40.10219         0.2872        -999.25       -91.0928      -73.16374      0.1511104              0
