#------------------------------------------------------------------------------
# Created by    : vladimir.rabinovich
# Created on    : 09/19/2023 17:22:15
#------------------------------------------------------------------------------
~Version Information Section
VERS.           2.0     :   CWLS log ASCII Standard - VERSION 2.0
WRAP.           NO      :   One line per depth step
~Well Information Section
#MNEM       .UNIT                                         VALUE :DESCRIPTION
#------------------------------------------------------------------------------
STRT        .FT                                              41 :START DEPTH
STOP        .FT                                            7991 :STOP DEPTH
STEP        .FT                                             0.5 :STEP      
NULL        .                                           -999.25 :NULL      
COMP        .                           ENERGY DEVELOPMENT CORP :COMPANY   
WELL        .                               OCS G11200 ST00BP00 :WELL      
FLD         .                                           WILDCAT :FIELD     
LOC         .                                                   :LOCATION  
CNTY        .                    NORTH PADRE ISLAND LARGE BLOCK :LOCATION  
STAT        .                                             TEXAS :STATE     
CTRY        .                                     UNITED STATES :COUNTRY   
SRVC        .                                                   :SERVICE COMPANY
DATE        .                             9/13/2023 11:18:55 AM :LOG DATE  
API         .                                    42701400410000 :API NUMBER
UWI         .                                    42701400410000 :UNIQUE WELL ID
XCOORD      .                                   309944.09600436 :SURFACE X 
YCOORD      .                                  9740515.29665267 :SURFACE Y 
LAT         .                                          26.78454 :LATITUDE  
LON         .                                        -97.077486 :LONGITUDE 
ELEV        .FT                                              91 :ELEVATION VALUE
ELEV_TYPE   .                                                KB :ELEVATION REFERENCE TYPE
~Curve Information Section
#MNEM       .UNIT                                      API CODE :CURVE DESCRIPTION
#------------------------------------------------------------------------------
DEPT        .FT                                                 :DEPTH     
CALI        .IN                                                 :          
DRHO        .G/C3                                               :          
DT          .US/F                                               :          
GR          .GAPI                                               :          
GR_NORM     .GAPI                                               :GammaRay Normalized
ILD         .OHMM                                               :          
ILM         .OHMM                                               :          
NPHI        .%                                                  :          
RFOC        .OHMM                                               :          
RHOB        .G/C3                                               :          
SP          .MV                                                 :          
SP_NORM     .MV                                                 :SP Normalized
VSH_GR      .V/V                                                :Volume of Shale from GR
VSH_SP      .V/V                                                :Volume of Shale from SP
~A        DEPTH           CALI           DRHO             DT             GR        GR_NORM            ILD            ILM           NPHI           RFOC           RHOB             SP        SP_NORM         VSH_GR         VSH_SP
# ...
      5315.0000        12.0118         0.0732        94.9596         73.929       75.73681         1.2004          1.135         29.769         1.2829         2.3745       -50.7278      -4.944664      0.9092938      0.9194967
      5315.5000        12.2036         0.0856       100.3445        76.5096       79.53716         1.1607         1.0807        33.9807         1.0704          2.344       -50.7275      -4.944366      0.9901522      0.9195027
      5316.0000        12.2158         0.0806       107.1066        77.5166       81.02503         1.1126          0.971        38.0289         0.9481         2.3184       -50.2491      -4.465965              1       0.929266
      5316.5000        12.2051         0.0742       111.7928        79.5554       84.02918         1.0564         0.9324        38.9342         0.9039         2.3134       -49.4029      -3.619766              1      0.9465354
      5317.0000         12.162         0.0671       112.7288        83.0416        89.1604         1.0169         0.9336        38.6322         0.9105         2.3144       -48.6668      -2.883667              1      0.9615578
      5317.5000        12.1188         0.0608       112.1384        82.9315       89.00658         1.0006         0.9699        37.7134         0.9609          2.328       -48.2559      -2.472767              1      0.9699435
      5318.0000         12.075         0.0553       110.2887        78.5211       82.53322         1.0034         1.0082        37.0367         1.0044         2.3446       -48.0296      -2.246464              1       0.974562
      5318.5000        12.0279         0.0566       109.0625        74.1516       76.11995          1.008          1.019        37.1394         1.0183         2.3504       -47.9998      -2.216667      0.9174457      0.9751701
      5319.0000        11.9951         0.0609       108.1221        73.3433       74.94009         1.0132         1.0168        37.9218         1.0128         2.3365       -48.1693      -2.386166      0.8923424      0.9717109
      5319.5000        11.9826         0.0662       107.0083        74.2834       76.32964         1.0145         1.0028        38.9717         1.0038         2.3197       -48.5172      -2.734066      0.9219071      0.9646109
      5320.0000         11.978         0.0709       105.9952        74.9247       77.28008         1.0127         0.9898        40.0486         0.9931         2.3237       -49.0479      -3.264767      0.9421293      0.9537803
      5320.5000        11.9815         0.0785       105.3284        74.7657       77.05442         1.0026         0.9796        41.0768         0.9818         2.3284       -49.5483      -3.765167      0.9373281       0.943568
      5321.0000         11.988         0.0832       105.3464        74.8785       77.22818         0.9879         0.9689        42.1724         0.9667         2.3238       -49.9714      -4.188267      0.9410251      0.9349333
      5321.5000        12.0018         0.0814       107.1787        76.9402       80.26598         0.9712         0.9577        43.1309         0.9413          2.316       -50.1254      -4.342266              1      0.9317905
      5322.0000         12.031         0.0615       111.2434        80.2358        85.1171         0.9502         0.9427        43.2564         0.9149         2.3117        -50.061      -4.277866              1      0.9331048
      5322.5000        12.0859         0.0485       115.3951         82.663       88.69201         0.9347          0.929        42.8008         0.9104         2.3177        -49.761      -3.977867              1      0.9392272
      5323.0000        12.1772         0.0607        116.016        80.9485       86.18047          0.926         0.9174        41.7834         0.9426         2.3355       -49.3881      -3.604965              1      0.9468374
      5323.5000        12.2957         0.0704       113.9308        79.7522       84.43042         0.9211         0.9054        40.4225         0.9662         2.3528       -48.8685      -3.085365              1      0.9574415
      5324.0000        12.1877         0.0713       110.8954        79.8663        84.6061          0.921         0.8945        39.8616         0.9732          2.359       -48.6395      -2.856365              1       0.962115
      5324.5000        11.9227         0.0524       109.5806        79.9766       84.77618         0.9182          0.891        41.1719         0.9487         2.3543       -48.5851      -2.801964              1      0.9632252
      5325.0000        11.8115         0.0409       110.7909        80.0156       84.84151         0.9133         0.8904        42.5224         0.9214         2.3415       -48.5142      -2.731064              1      0.9646721
      5325.5000        11.9353         0.0439        112.551        80.5079       85.57298         0.8997         0.8823        43.4681         0.9013          2.331       -48.4207      -2.637566              1      0.9665803
      5326.0000        12.1823         0.0464        113.827        81.9653       87.72272         0.8841         0.8675        43.6469         0.8935         2.3282       -48.2698      -2.486664              1      0.9696599
      5326.5000        12.3558         0.0467       114.3469        83.5254       90.02338         0.8716         0.8526        42.8791         0.9008         2.3291       -47.9678      -2.184666              1      0.9758232
      5327.0000        12.4727         0.0463       114.2419        84.0836       90.85172         0.8594         0.8391        42.0371         0.9102         2.3362       -47.6607      -1.877567              1      0.9820905
      5327.5000        12.3639         0.0465       113.7816        84.1345       90.93449         0.8478         0.8271        41.6531         0.9188         2.3447       -47.4073      -1.624165              1       0.987262
      5328.0000        12.1582         0.0491       113.3308        82.9364       89.18182         0.8363          0.818        42.0422         0.9229         2.3539       -47.2078      -1.424667              1      0.9913333
      5328.5000        12.0996         0.0536       113.0686        81.3926        86.9211         0.8295         0.8121        42.0986         0.9189         2.3597       -47.0958      -1.312664              1      0.9936191
      5329.0000         12.177         0.0617       113.1744        79.9785       84.85099         0.8234         0.8103        41.6643          0.909          2.361       -47.0944      -1.311264              1      0.9936477
      5329.5000        12.2275         0.0729        113.566        79.1138       83.58826         0.8207          0.812        41.0416         0.8973         2.3588       -47.4644      -1.681267              1      0.9860966
      5330.0000        12.0464         0.0926       114.1819        81.3988       86.95423         0.8164         0.8248        40.4173         0.8855         2.3448       -48.5239      -2.740765              1      0.9644742
      5330.5000        11.7611         0.1117       114.7749        81.0721       86.48211         0.8092         0.8482        39.6656         0.8722         2.3156        -50.152      -4.368866              1      0.9312477
      5331.0000         11.483         0.1267       115.1276        78.8998       83.29778         0.8031          0.867        38.6457         0.8666         2.2867       -52.4865      -6.703365              1      0.8836048
      5331.5000         11.227         0.1058       114.2552         76.934       80.41692         0.7983         0.8766        37.5164         0.9069          2.261       -53.5423      -7.759167              1      0.8620578
      5332.0000         11.078         0.0725       112.2577         75.626       78.50272         0.7937         0.8796        35.9875         1.0147         2.2624       -53.9481      -8.164967      0.9681429      0.8537762
      5332.5000        11.0204         0.0544       110.1023        77.0725       80.63646         0.7893         0.8806        35.1029         1.0807         2.2824       -54.2224      -8.439266              1      0.8481783
