#------------------------------------------------------------------------------
# Created by    : vladimir.rabinovich
# Created on    : 09/19/2023 17:22:53
#------------------------------------------------------------------------------
~Version Information Section
VERS.           2.0     :   CWLS log ASCII Standard - VERSION 2.0
WRAP.           NO      :   One line per depth step
~Well Information Section
#MNEM       .UNIT                                         VALUE :DESCRIPTION
#------------------------------------------------------------------------------
STRT        .FT                                             252 :START DEPTH
STOP        .FT                                           11321 :STOP DEPTH
STEP        .FT                                             0.5 :STEP      
NULL        .                                           -999.25 :NULL      
COMP        .                          HUMBLE OIL & REFINING CO :COMPANY   
WELL        .                                OCS 00615 ST00BP00 :WELL      
FLD         .                                           WILDCAT :FIELD     
LOC         .                                                   :LOCATION  
CNTY        .                             GALVESTON LARGE BLOCK :LOCATION  
STAT        .                                             TEXAS :STATE     
CTRY        .                                     UNITED STATES :COUNTRY   
SRVC        .                                                   :SERVICE COMPANY
DATE        .                             9/13/2023 11:19:42 AM :LOG DATE  
API         .                                    42706000270000 :API NUMBER
UWI         .                                    42706000270000 :UNIQUE WELL ID
XCOORD      .                                  1043929.24471964 :SURFACE X 
YCOORD      .                                  10527500.2798036 :SURFACE Y 
LAT         .                                         28.995876 :LATITUDE  
LON         .                                        -94.866344 :LONGITUDE 
ELEV        .FT                                              67 :ELEVATION VALUE
ELEV_TYPE   .                                                KB :ELEVATION REFERENCE TYPE
~Curve Information Section
#MNEM       .UNIT                                      API CODE :CURVE DESCRIPTION
#------------------------------------------------------------------------------
DEPT        .FT                                                 :DEPTH     
LAT         .OHMM                                               :          
LN          .OHMM                                               :          
SN          .OHMM                                               :          
SP          .MV                                                 :          
SP_NORM     .MV                                                 :SP Normalized
VSH_SP      .V/V                                                :Volume of Shale from SP
~A        DEPTH            LAT             LN             SN             SP        SP_NORM         VSH_SP
# ...
     11272.0000         0.3457          0.497          0.457       -55.5962      -6.815712      0.9061982
     11272.5000         0.3374         0.4971         0.4551       -55.3105      -6.530014      0.9108062
     11273.0000         0.3291         0.4972         0.4532       -55.0244      -6.243912      0.9154208
     11273.5000         0.3208         0.4973         0.4513       -54.7388      -5.958313      0.9200272
     11274.0000         0.3125         0.4974         0.4493       -54.4531      -5.672611      0.9246353
     11274.5000         0.3053         0.4975         0.4474        -54.167      -5.386513      0.9292498
     11275.0000         0.3031         0.4976         0.4455       -53.8813      -5.100815      0.9338578
     11275.5000         0.3008         0.4977         0.4436       -53.5957      -4.815212      0.9384643
     11276.0000         0.2986         0.4978         0.4417       -53.3096      -4.529114      0.9430788
     11276.5000         0.2964         0.4979         0.4398       -53.0239      -4.243412      0.9476869
     11277.0000         0.2942          0.498         0.4379       -52.7378      -3.957314      0.9523014
     11277.5000         0.2919         0.4981          0.436       -52.4521      -3.671612      0.9569095
     11278.0000         0.2897         0.4983          0.434       -52.1665      -3.386013      0.9615159
     11278.5000         0.2889         0.4984         0.4321       -51.8804      -3.099915      0.9661304
     11279.0000         0.2889         0.4985         0.4302       -51.5947      -2.814213      0.9707385
     11279.5000          0.289         0.4986         0.4283       -51.3558      -2.575314      0.9745917
     11280.0000          0.289         0.4988         0.4264       -51.3555      -2.575012      0.9745966
     11280.5000          0.289         0.4992         0.4245       -51.3552      -2.574715      0.9746014
     11281.0000          0.289         0.4995         0.4234       -51.3549      -2.574413      0.9746062
     11281.5000          0.289         0.4999         0.4236       -51.3546      -2.574112      0.9746111
     11282.0000          0.289         0.5002         0.4238       -51.3542      -2.573711      0.9746175
     11282.5000          0.289         0.5006          0.424        -51.354      -2.573513      0.9746208
     11283.0000          0.289         0.5009         0.4242       -51.3537      -2.573212      0.9746256
     11283.5000          0.289         0.5013         0.4243       -51.4575      -2.677013      0.9729514
     11284.0000          0.289         0.5016         0.4245       -51.6685      -2.888012      0.9695482
     11284.5000          0.289          0.502         0.4247       -51.8789      -3.098412      0.9661546
     11285.0000          0.289         0.5023         0.4249       -52.0898      -3.309315       0.962753
     11285.5000          0.289         0.5027         0.4251       -52.3008      -3.520313      0.9593498
     11286.0000          0.289          0.503         0.4253       -52.3889      -3.608414      0.9579288
     11286.5000          0.289         0.5034         0.4255       -52.4403      -3.659813      0.9570998
     11287.0000          0.289         0.5037         0.4257       -52.4924      -3.711914      0.9562594
     11287.5000          0.289         0.5041         0.4259       -52.6128      -3.832314      0.9543175
     11288.0000          0.289         0.5044         0.4261       -52.7332      -3.952713      0.9523756
     11288.5000          0.289         0.5048         0.4263       -52.8535      -4.073013      0.9504353
     11289.0000         0.2875         0.5051         0.4265       -52.9739      -4.193413      0.9484934
     11289.5000         0.2859         0.5055         0.4267       -53.0942      -4.313713       0.946553
     11290.0000         0.2842         0.5058         0.4269       -53.1831      -4.402615      0.9451191
     11290.5000         0.2826         0.5062         0.4271       -53.0139      -4.233414      0.9478481
     11291.0000         0.2809         0.5065         0.4273       -52.8445      -4.064014      0.9505804
     11291.5000         0.2793         0.5069         0.4275       -52.6753      -3.894814      0.9533095
     11292.0000         0.2776         0.5072         0.4277       -52.5061      -3.725613      0.9560385
     11292.5000          0.276         0.5076         0.4279       -52.3369      -3.556412      0.9587675
     11293.0000         0.2743         0.5079         0.4281       -52.1533      -3.372814      0.9617288
     11293.5000         0.2726         0.5083         0.4283        -51.916      -3.135513      0.9655563
     11294.0000          0.271         0.5086         0.4285       -51.6792      -2.898712      0.9693756
     11294.5000         0.2693         0.5082         0.4287       -51.4419      -2.661411      0.9732031
     11295.0000         0.2677         0.5069         0.4289       -51.2046      -2.424114      0.9770304
     11295.5000          0.266         0.5056          0.429       -51.0273      -2.246815      0.9798901
     11296.0000         0.2644         0.5043         0.4292        -51.418      -2.637512      0.9735885
     11296.5000         0.2627         0.5029         0.4294       -51.8086      -3.028114      0.9672885
     11297.0000         0.2611         0.5016         0.4296       -52.1982      -3.417713      0.9610046
     11297.5000           0.26         0.5003         0.4298       -52.5889      -3.808414       0.954703
     11298.0000         0.2625          0.499           0.43       -53.3242      -4.543713      0.9428433
     11298.5000         0.2651         0.4977         0.4302       -54.0029      -5.222412      0.9318966
     11299.0000         0.2676         0.4964         0.4304       -53.4268      -4.646313      0.9411885
     11299.5000         0.2702         0.4951         0.4306       -52.8506      -4.070114       0.950482
     11300.0000         0.2728         0.4937         0.4308       -52.2754      -3.494911      0.9597595
     11300.5000         0.2753         0.4924         0.4309       -51.6992      -2.918713       0.969053
     11301.0000         0.2779         0.4912         0.4308        -51.123      -2.342514      0.9783465
     11301.5000         0.2804         0.4901         0.4306       -50.5469      -1.766415      0.9876385
     11302.0000          0.283         0.4889         0.4305       -50.7397      -1.959213      0.9845288
     11302.5000         0.2856         0.4878         0.4303         -51.02      -2.239513      0.9800078
     11303.0000         0.2881         0.4867         0.4301       -51.3003      -2.519814      0.9754869
     11303.5000         0.2907         0.4855           0.43       -51.5811      -2.800613      0.9709579
     11304.0000         0.2932         0.4844         0.4298       -51.8613      -3.080814      0.9664385
     11304.5000         0.2958         0.4832         0.4297       -52.1416      -3.361115      0.9619175
     11305.0000         0.2984         0.4821         0.4295       -52.4224      -3.641914      0.9573885
     11305.5000         0.3009         0.4809         0.4294       -52.7026      -3.922112      0.9528692
     11306.0000         0.3035         0.4798         0.4292       -52.9829      -4.202412      0.9483482
     11306.5000          0.306         0.4786          0.429       -53.2637      -4.483212      0.9438192
     11307.0000         0.3086         0.4775         0.4289       -53.5439      -4.763412      0.9392998
     11307.5000         0.3112         0.4763         0.4286       -53.5659      -4.785412       0.938945
     11308.0000         0.3137         0.4752         0.4281       -53.3081      -4.527615       0.943103
     11308.5000         0.3143          0.474         0.4277       -53.0498      -4.269314      0.9472691
     11309.0000         0.3145         0.4729         0.4272        -52.792      -4.011513      0.9514272
     11309.5000         0.3147         0.4717         0.4267       -52.5337      -3.753212      0.9555933
