#------------------------------------------------------------------------------
# Created by    : vladimir.rabinovich
# Created on    : 09/19/2023 17:19:38
#------------------------------------------------------------------------------
~Version Information Section
VERS.           2.0     :   CWLS log ASCII Standard - VERSION 2.0
WRAP.           NO      :   One line per depth step
~Well Information Section
#MNEM       .UNIT                                         VALUE :DESCRIPTION
#------------------------------------------------------------------------------
STRT        .FT                                            9400 :START DEPTH
STOP        .FT                                           17100 :STOP DEPTH
STEP        .FT                                             0.5 :STEP      
NULL        .                                           -999.25 :NULL      
COMP        .                                   FOREST OIL CORP :COMPANY   
WELL        .                               OCS G18937 ST00BP00 :WELL      
FLD         .                            HIGH ISLAND BLOCK 0116 :FIELD     
LOC         .                                                   :LOCATION  
CNTY        .                           HIGH ISLAND LARGE BLOCK :LOCATION  
STAT        .                                             TEXAS :STATE     
CTRY        .                                     UNITED STATES :COUNTRY   
SRVC        .                                                   :SERVICE COMPANY
DATE        .                             9/13/2023 11:19:48 AM :LOG DATE  
API         .                                    42708405250000 :API NUMBER
UWI         .                                    42708405250000 :UNIQUE WELL ID
XCOORD      .                                  1337259.97993026 :SURFACE X 
YCOORD      .                                  10628189.4209318 :SURFACE Y 
LAT         .                                         29.282461 :LATITUDE  
LON         .                                        -93.951246 :LONGITUDE 
ELEV        .FT                                              93 :ELEVATION VALUE
ELEV_TYPE   .                                                KB :ELEVATION REFERENCE TYPE
~Curve Information Section
#MNEM       .UNIT                                      API CODE :CURVE DESCRIPTION
#------------------------------------------------------------------------------
DEPT        .FT                                                 :DEPTH     
AHT10       .OHMM                                               :          
AHT20       .OHMM                                               :          
AHT30       .OHMM                                               :          
AHT60       .OHMM                                               :          
AHT90       .OHMM                                               :          
CALI        .IN                                                 :          
COND        .MMHO                                               :          
DTCO        .US/F                                               :          
GR          .GAPI                                               :          
GR_NORM     .GAPI                                               :GammaRay Normalized
HDRA        .G/CC                                               :          
NPOR        .FRAC                                               :          
RHOZ        .G/CC                                               :          
VSH_GR      .V/V                                                :Volume of Shale from GR
~A        DEPTH          AHT10          AHT20          AHT30          AHT60          AHT90           CALI           COND           DTCO             GR        GR_NORM           HDRA           NPOR           RHOZ         VSH_GR
# ...
     17086.0000          0.728           0.67          0.656           0.65          0.643          1.368        1555.21        -999.25        101.362       92.82161         -0.011          0.237          2.505              1
     17086.5000          0.732          0.672          0.648          0.634          0.628          1.369       1592.357        -999.25        101.362       92.82161         -0.011          0.237          2.506              1
     17087.0000          0.723          0.659          0.639          0.621          0.616          1.371       1623.377        -999.25        101.362       92.82161         -0.009          0.237          2.516              1
     17087.5000          0.701          0.634           0.63          0.613          0.608          1.369       1644.737        -999.25        101.362       92.82161         -0.007          0.237          2.526              1
     17088.0000          0.687          0.621          0.624          0.603          0.599          1.367       1669.449        -999.25        101.362       92.82161         -0.003          0.237          2.535              1
     17088.5000          0.675          0.614          0.617          0.593          0.588          1.367        1700.68        -999.25        101.362       92.82161         -0.001          0.237          2.537              1
     17089.0000          0.658            0.6          0.606          0.579          0.575          1.367        1739.13        -999.25        101.362       92.82161          0.001          0.237          2.538              1
     17089.5000          0.636           0.58           0.59          0.564          0.558          1.367       1792.115        -999.25        101.362       92.82161          0.001          0.237          2.538              1
     17090.0000          0.613          0.557          0.572          0.548          0.542          1.367       1845.018        -999.25        101.362       92.82161          0.001          0.237          2.538              1
     17090.5000          0.599          0.546           0.56           0.54          0.533          1.367       1876.173        -999.25        101.362       92.82161          0.001          0.237          2.538              1
     17091.0000          0.598           0.55           0.56          0.547          0.538          1.367       1858.736        -999.25        101.362       92.82161          0.001          0.237          2.538              1
     17091.5000          0.603           0.56          0.567           0.56          0.549          1.367       1821.494        -999.25        101.362       92.82161          0.001          0.237          2.538              1
     17092.0000          0.606          0.568          0.573          0.573          0.559          1.367       1788.909        -999.25        101.362       92.82161          0.001          0.237          2.538              1
     17092.5000          0.606          0.573          0.577          0.582          0.566          1.367       1766.785        -999.25        101.362       92.82161          0.001          0.237          2.538              1
     17093.0000          0.605          0.576           0.58           0.59          0.571          1.367       1751.314        -999.25        101.362       92.82161          0.001          0.237          2.538              1
     17093.5000          0.604          0.578          0.583          0.596          0.575          1.367        1739.13        -999.25        101.362       92.82161          0.001          0.237          2.538              1
     17094.0000          0.602           0.58          0.586            0.6          0.576          1.367       1736.111        -999.25        101.362       92.82161          0.001          0.237          2.538              1
     17094.5000          0.601           0.58          0.587          0.601          0.575          1.367        1739.13        -999.25        101.362       92.82161          0.001          0.237          2.538              1
     17095.0000          0.599          0.579          0.587          0.599          0.572          1.367       1748.252        -999.25        101.362       92.82161          0.001          0.237          2.538              1
     17095.5000          0.598          0.578          0.587          0.596          0.568          1.367       1760.563        -999.25        101.362       92.82161          0.001          0.237          2.538              1
     17096.0000          0.597          0.577          0.586          0.593          0.563          1.367       1776.199        -999.25        101.362       92.82161          0.001          0.237          2.538              1
     17096.5000          0.596          0.577          0.585          0.589           0.56          1.367       1785.714        -999.25        101.362       92.82161          0.001          0.237          2.538              1
     17097.0000          0.596          0.577          0.585          0.587          0.557          1.367       1795.332        -999.25        101.362       92.82161          0.001          0.237          2.538              1
     17097.5000          0.597          0.577          0.585          0.586          0.555          1.367       1801.802        -999.25        101.362       92.82161          0.001          0.237          2.538              1
     17098.0000          0.597          0.577          0.585          0.586          0.555          1.367       1801.802        -999.25        101.362       92.82161          0.001          0.237          2.538              1
     17098.5000          0.597          0.577          0.585          0.585          0.554          1.367       1805.054        -999.25        101.362       92.82161          0.001          0.237          2.538              1
     17099.0000          0.597          0.577          0.585          0.586          0.554          1.367       1805.054        -999.25        101.362       92.82161          0.001          0.237          2.538              1
     17099.5000          0.597          0.577          0.586          0.586          0.554          1.367       1805.054        -999.25        101.362       92.82161          0.001          0.237          2.538              1
     17100.0000          0.597          0.577          0.586          0.586          0.554          1.367       1805.054        -999.25        101.362       92.82161          0.001          0.237          2.538              1
