#------------------------------------------------------------------------------
# Created by    : vladimir.rabinovich
# Created on    : 09/19/2023 17:19:50
#------------------------------------------------------------------------------
~Version Information Section
VERS.           2.0     :   CWLS log ASCII Standard - VERSION 2.0
WRAP.           NO      :   One line per depth step
~Well Information Section
#MNEM       .UNIT                                         VALUE :DESCRIPTION
#------------------------------------------------------------------------------
STRT        .FT                                             816 :START DEPTH
STOP        .FT                                            7470 :STOP DEPTH
STEP        .FT                                             0.5 :STEP      
NULL        .                                           -999.25 :NULL      
COMP        .                                   KERR-MCGEE CORP :COMPANY   
WELL        .                               OCS G05003 ST00BP00 :WELL      
FLD         .                                 BRAZOS BLOCK 0412 :FIELD     
LOC         .                                                   :LOCATION  
CNTY        .                                BRAZOS LARGE BLOCK :LOCATION  
STAT        .                                             TEXAS :STATE     
CTRY        .                                     UNITED STATES :COUNTRY   
SRVC        .                                                   :SERVICE COMPANY
DATE        .                             9/13/2023 11:19:08 AM :LOG DATE  
API         .                                    42704401140000 :API NUMBER
UWI         .                                    42704401140000 :UNIQUE WELL ID
XCOORD      .                                  819493.037302503 :SURFACE X 
YCOORD      .                                  10380289.6446028 :SURFACE Y 
LAT         .                                         28.579682 :LATITUDE  
LON         .                                        -95.558179 :LONGITUDE 
ELEV        .FT                                              90 :ELEVATION VALUE
ELEV_TYPE   .                                                KB :ELEVATION REFERENCE TYPE
~Curve Information Section
#MNEM       .UNIT                                      API CODE :CURVE DESCRIPTION
#------------------------------------------------------------------------------
DEPT        .FT                                                 :DEPTH     
ASFL        .OHMM                                               :          
CALI        .IN                                                 :          
CILD        .MMHO                                               :          
GR          .GAPI                                               :          
GR_NORM     .GAPI                                               :GammaRay Normalized
ILD         .OHMM                                               :          
ILM         .OHMM                                               :          
RHOB        .G/C3                                               :          
SP          .MV                                                 :          
SP_NORM     .MV                                                 :SP Normalized
VSH_GR      .V/V                                                :Volume of Shale from GR
VSH_SP      .V/V                                                :Volume of Shale from SP
~A        DEPTH           ASFL           CALI           CILD             GR        GR_NORM            ILD            ILM           RHOB             SP        SP_NORM         VSH_GR         VSH_SP
# ...
      7458.0000         0.9092        13.3609       1266.135        -999.25        -999.25         0.7306         0.8671         2.1355       -41.0093     -0.5331078        -999.25              1
      7458.5000         0.9213        13.3637       1227.609        -999.25        -999.25         0.7437         0.8819         2.1353       -40.9385      -0.462307        -999.25              1
      7459.0000         0.9273        13.3642       1190.471        -999.25        -999.25         0.7558         0.8925         2.1348       -41.1004     -0.6242065        -999.25              1
      7459.5000         0.9333        13.3648       1155.609        -999.25        -999.25          0.768         0.8964         2.1343       -41.2624     -0.7862091        -999.25              1
      7460.0000         0.9393        13.3653       1119.461        -999.25        -999.25         0.7801         0.8948         2.1342       -41.4244     -0.9482079        -999.25              1
      7460.5000         0.9499        13.3659       1080.143        -999.25        -999.25         0.7922          0.888         2.1345       -41.7968      -1.320606        -999.25       0.993457
      7461.0000         0.8674         13.366        1061.82        -999.25        -999.25         0.8044         0.8765         2.1348       -42.1725      -1.696308        -999.25      0.9857897
      7461.5000          0.817        13.3657        1086.58        -999.25        -999.25          0.808         0.8605         2.1356       -42.5483      -2.072109        -999.25      0.9781202
      7462.0000         0.8314        13.3655       1115.598        -999.25        -999.25          0.811         0.8424         2.1365       -42.9614      -2.485207        -999.25      0.9696897
      7462.5000         0.8599        13.3652       1144.566        -999.25        -999.25         0.8138         0.8234         2.1371       -43.4138      -2.937607        -999.25       0.960457
      7463.0000         0.8846         13.365       1167.568        -999.25        -999.25         0.8122         0.8039         2.1371       -43.8789      -3.402706        -999.25      0.9509652
      7463.5000          0.907        13.3662       1188.936        -999.25        -999.25         0.8106         0.7822         2.1371       -44.3649      -3.888706        -999.25      0.9410468
      7464.0000         0.9347        13.3677       1208.557        -999.25        -999.25         0.8089         0.7536         2.1374       -44.7516      -4.275406        -999.25       0.933155
      7464.5000         0.9386        13.3692       1221.432        -999.25        -999.25         0.8073         0.7155         2.1379        -44.879      -4.402809        -999.25      0.9305549
      7465.0000         0.8879        13.3707       1234.307        -999.25        -999.25         0.8065         0.6925         2.1384       -44.8887      -4.412506        -999.25       0.930357
      7465.5000         0.8255        13.3722       1241.449        -999.25        -999.25         0.8059         0.6851         2.1388       -44.8985      -4.422306        -999.25       0.930157
      7466.0000         0.7873        13.3751        1245.08        -999.25        -999.25         0.8053         0.6823         2.1392       -44.8859      -4.409706        -999.25      0.9304141
      7466.5000         0.7799        13.3782       1244.563        -999.25        -999.25         0.8047         0.6821         2.1394       -44.8715      -4.395306        -999.25      0.9307081
      7467.0000         0.8188        13.3813       1244.045        -999.25        -999.25         0.8041         0.6832         2.1393       -44.8571      -4.380909        -999.25      0.9310018
      7467.5000         0.8958        13.3843       1243.527        -999.25        -999.25         0.8062         0.6866         2.1391       -44.8427      -4.366508        -999.25      0.9312958
      7468.0000         0.9812        13.3874       1242.676        -999.25        -999.25         0.8087         0.6903          2.139       -44.8293      -4.353107        -999.25      0.9315692
      7468.5000         1.0629        13.3926       1241.234        -999.25        -999.25         0.8112         0.6945         2.1389        -44.816      -4.339809        -999.25      0.9318406
      7469.0000         1.1505         13.398       1239.791        -999.25        -999.25         0.8137         0.6991         2.1388       -44.8028      -4.326607        -999.25      0.9321101
      7469.5000         1.2401        13.4035        1238.35        -999.25        -999.25         0.8162         0.7021         2.1391       -44.7896      -4.313408        -999.25      0.9323794
      7470.0000         1.2387        13.4089       1236.906        -999.25        -999.25         0.8179         0.7036         2.1403       -44.7785      -4.302307        -999.25       0.932606
