#------------------------------------------------------------------------------
# Created by    : vladimir.rabinovich
# Created on    : 09/19/2023 17:22:26
#------------------------------------------------------------------------------
~Version Information Section
VERS.           2.0     :   CWLS log ASCII Standard - VERSION 2.0
WRAP.           NO      :   One line per depth step
~Well Information Section
#MNEM       .UNIT                                         VALUE :DESCRIPTION
#------------------------------------------------------------------------------
STRT        .FT                                            3450 :START DEPTH
STOP        .FT                                            9344 :STOP DEPTH
STEP        .FT                                             0.5 :STEP      
NULL        .                                           -999.25 :NULL      
COMP        .                                  W&T OFFSHORE INC :COMPANY   
WELL        .                               OCS G04565 ST00BP00 :WELL      
FLD         .                              GALVESTON BLOCK 0303 :FIELD     
LOC         .                                                   :LOCATION  
CNTY        .                             GALVESTON LARGE BLOCK :LOCATION  
STAT        .                                             TEXAS :STATE     
CTRY        .                                     UNITED STATES :COUNTRY   
SRVC        .                                                   :SERVICE COMPANY
DATE        .                             9/13/2023 11:19:39 AM :LOG DATE  
API         .                                    42706403900000 :API NUMBER
UWI         .                                    42706403900000 :UNIQUE WELL ID
XCOORD      .                                  983096.827540607 :SURFACE X 
YCOORD      .                                  10485968.3003259 :SURFACE Y 
LAT         .                                        28.8789082 :LATITUDE  
LON         .                                       -95.0543314 :LONGITUDE 
ELEV        .FT                                              90 :ELEVATION VALUE
ELEV_TYPE   .                                                KB :ELEVATION REFERENCE TYPE
~Curve Information Section
#MNEM       .UNIT                                      API CODE :CURVE DESCRIPTION
#------------------------------------------------------------------------------
DEPT        .FT                                                 :DEPTH     
CDER        .MMHO                                               :          
DCAL        .IN                                                 :          
DPHI        .DEC                                                :          
DRHO        .G/CC                                               :          
DTLN        .US/F                                               :          
GR          .GAPI                                               :          
GR_NORM     .GAPI                                               :GammaRay Normalized
IDER        .OHMM                                               :          
IMER        .OHMM                                               :          
NPOR        .DEC                                                :          
RWA         .OHMM                                               :          
SFLA        .OHMM                                               :          
SP          .MV                                                 :          
SP_NORM     .MV                                                 :SP Normalized
TENS        .LB                                                 :          
VSH_GR      .V/V                                                :Volume of Shale from GR
VSH_SP      .V/V                                                :Volume of Shale from SP
~A        DEPTH           CDER           DCAL           DPHI           DRHO           DTLN             GR        GR_NORM           IDER           IMER           NPOR            RWA           SFLA             SP        SP_NORM           TENS         VSH_GR         VSH_SP
# ...
      7005.0000       1571.092          0.848          0.236         -0.001         126.78         93.465       95.74079          0.637          0.644          0.515          0.143          0.728         -3.128     -0.2111597        -999.25              1      0.9969834
      7005.5000       1573.317          0.736          0.234         -0.002        126.714         93.031       95.20697          0.636          0.643           0.55           0.15          0.726           -3.1     -0.1879773        -999.25              1      0.9973146
      7006.0000       1575.547          0.643          0.231         -0.002        126.863         92.388       94.41608          0.635           0.64          0.562          0.142          0.725         -2.744      0.1632049        -999.25              1              1
      7006.5000       1586.294          0.612           0.23         -0.003        127.469          93.16       95.36565           0.63           0.63          0.515          0.117          0.722         -2.346      0.5563872        -999.25              1              1
      7007.0000       1602.564          0.632           0.23         -0.004        128.357         95.037       97.67435          0.624          0.619          0.476          0.102          0.718           -2.3      0.5975695        -999.25              1              1
      7007.5000       1623.904          0.637          0.233         -0.004        129.288         97.012       100.1036          0.616          0.608          0.452            0.1          0.707           -2.3      0.5927517        -999.25              1              1
      7008.0000        1652.62           0.62          0.238         -0.003        130.105         97.068       100.1725          0.605          0.596          0.449          0.105          0.695         -2.216      0.6719339        -999.25              1              1
      7008.5000       1682.935          0.608          0.242         -0.002        130.643         96.426       99.38283          0.594          0.583          0.452          0.112          0.683         -2.218      0.6651163        -999.25              1              1
      7009.0000       1716.149          0.633          0.248         -0.001        130.864         93.635       95.94989          0.583          0.572          0.465          0.122          0.672         -2.333      0.5452986        -999.25              1              1
      7009.5000        1746.42          0.737          0.251              0        130.685         88.532       89.67319          0.573          0.563           0.49          0.126          0.665         -2.357      0.5164809        -999.25              1              1
      7010.0000       1766.472          0.879          0.252          0.001        130.038         82.553       82.31903          0.566          0.557          0.514          0.131          0.658         -2.585      0.2836633        -999.25              1              1
      7010.5000       1777.462           0.95          0.254          0.001        128.892         78.781       77.67947          0.563          0.559          0.508           0.13          0.655         -2.982     -0.1181545        -999.25      0.9506271      0.9983121
      7011.0000       1767.097          0.971          0.256          0.001        127.641         81.885       81.49739          0.566          0.564          0.504           0.13          0.653         -3.373      -0.513972        -999.25              1      0.9926575
      7011.5000       1735.508          0.963          0.258              0        126.619         88.929       90.16151          0.576          0.577          0.507          0.131          0.667         -3.564     -0.7097898        -999.25              1      0.9898601
      7012.0000       1679.825          0.944          0.255         -0.002         125.86         94.743       97.31273          0.595          0.593          0.509          0.131          0.683         -3.564     -0.7146075        -999.25              1      0.9897913
      7012.5000       1614.987           0.93           0.25         -0.004         125.58          97.17       100.2979          0.619          0.615          0.503          0.131          0.705         -3.564     -0.7194252        -999.25              1      0.9897225
      7013.0000       1549.427           0.92          0.242         -0.006        125.381         98.627       102.0901          0.645          0.638          0.491          0.136          0.726         -3.472     -0.6322429        -999.25              1      0.9909679
      7013.5000       1536.098          0.913          0.241         -0.007         123.61         99.007       102.5575          0.651          0.649          0.505          0.142          0.745         -3.557     -0.7220607        -999.25              1      0.9896848
      7014.0000       1537.988          0.911          0.243         -0.009          121.3         98.346       101.7444           0.65          0.649          0.542          0.152          0.764         -3.465     -0.6348784        -999.25              1      0.9909303
      7014.5000       1527.884          0.907          0.246         -0.009        119.383         93.298       95.53539          0.655          0.658          0.548          0.147          0.777         -3.564     -0.7386961        -999.25              1      0.9894472
      7015.0000       1463.272          0.899          0.241         -0.008        118.149         86.936       87.71013          0.683          0.687          0.499          0.127          0.789         -3.564     -0.7435136        -999.25              1      0.9893784
      7015.5000       1405.086          0.906          0.233         -0.006        118.546         83.426       83.39283          0.712          0.729          0.434          0.109          0.793         -3.571     -0.7553315        -999.25              1      0.9892095
      7016.0000       1374.004          0.917          0.225         -0.005        119.158         82.111       81.77538          0.728          0.751          0.412          0.108          0.797         -3.671     -0.8601491        -999.25              1      0.9877121
      7016.5000       1370.426           0.93          0.228         -0.008         119.82         81.662        81.2231           0.73          0.736          0.419          0.112          0.793         -3.656     -0.8499668        -999.25              1      0.9878576
      7017.0000       1388.118          0.944          0.238         -0.011        120.225         81.007       80.41746           0.72          0.721           0.43          0.118           0.79         -3.267     -0.4657845        -999.25              1      0.9933459
      7017.5000       1399.972          0.947          0.242         -0.012         119.61         79.542        78.6155          0.714          0.714          0.434          0.125          0.793         -3.168     -0.3716023        -999.25      0.9705426      0.9946914
      7018.0000        1388.31          0.943          0.246         -0.012        118.259         78.396       77.20592           0.72          0.721          0.435           0.13          0.799         -3.274       -0.48242        -999.25      0.9405516      0.9931083
      7018.5000       1372.307          0.926          0.249         -0.012        116.819         78.916       77.84553          0.729          0.732          0.438          0.132          0.813         -3.267     -0.4802377        -999.25      0.9541602      0.9931394
      7019.0000       1338.867          0.911          0.249         -0.012        115.476          80.59       79.90453          0.747           0.75          0.436          0.125          0.828         -3.162     -0.3800554        -999.25      0.9979688      0.9945706
      7019.5000       1307.019          0.914          0.245          -0.01        114.419         81.872        81.4814          0.765          0.768          0.432          0.121          0.848          -2.97     -0.1928732        -999.25              1      0.9972447
