#------------------------------------------------------------------------------
# Created by    : vladimir.rabinovich
# Created on    : 09/19/2023 17:19:47
#------------------------------------------------------------------------------
~Version Information Section
VERS.           2.0     :   CWLS log ASCII Standard - VERSION 2.0
WRAP.           NO      :   One line per depth step
~Well Information Section
#MNEM       .UNIT                                         VALUE :DESCRIPTION
#------------------------------------------------------------------------------
STRT        .FT                                             380 :START DEPTH
STOP        .FT                                            8002 :STOP DEPTH
STEP        .FT                                             0.5 :STEP      
NULL        .                                           -999.25 :NULL      
COMP        .                               AMOCO PRODUCTION CO :COMPANY   
WELL        .                               OCS G07253 ST00BP00 :WELL      
FLD         .                                           WILDCAT :FIELD     
LOC         .                                                   :LOCATION  
CNTY        .                             GALVESTON LARGE BLOCK :LOCATION  
STAT        .                                             TEXAS :STATE     
CTRY        .                                     UNITED STATES :COUNTRY   
SRVC        .                                                   :SERVICE COMPANY
DATE        .                             9/13/2023 11:19:27 AM :LOG DATE  
API         .                                    42706401230000 :API NUMBER
UWI         .                                    42706401230000 :UNIQUE WELL ID
XCOORD      .                                  925879.569593371 :SURFACE X 
YCOORD      .                                  10358786.1357032 :SURFACE Y 
LAT         .                                         28.526408 :LATITUDE  
LON         .                                        -95.225632 :LONGITUDE 
ELEV        .FT                                             100 :ELEVATION VALUE
ELEV_TYPE   .                                                KB :ELEVATION REFERENCE TYPE
~Curve Information Section
#MNEM       .UNIT                                      API CODE :CURVE DESCRIPTION
#------------------------------------------------------------------------------
DEPT        .FT                                                 :DEPTH     
ASFL        .OHMM                                               :          
CILD        .MMHO                                               :          
GR          .GAPI                                               :          
GR_NORM     .GAPI                                               :GammaRay Normalized
ILD         .OHMM                                               :          
SP          .MV                                                 :          
SP_NORM     .MV                                                 :SP Normalized
VSH_GR      .V/V                                                :Volume of Shale from GR
VSH_SP      .V/V                                                :Volume of Shale from SP
~A        DEPTH           ASFL           CILD             GR        GR_NORM            ILD             SP        SP_NORM         VSH_GR         VSH_SP
# ...
      7985.5000          1.018        1067.82        -999.25        -999.25         0.9204       -39.6019      0.8742943        -999.25              1
      7986.0000         1.0326       1080.996        -999.25        -999.25         0.9233        -39.874      0.6021919        -999.25              1
      7986.5000         1.0416       1080.592        -999.25        -999.25         0.9263       -40.1457      0.3304939        -999.25              1
      7987.0000          1.049       1080.188        -999.25        -999.25         0.9292       -40.2745      0.2016907        -999.25              1
      7987.5000         1.0382       1079.783        -999.25        -999.25         0.9322       -40.2185      0.2576942        -999.25              1
      7988.0000         1.0215       1083.158        -999.25        -999.25         0.9351       -40.1626       0.313591        -999.25              1
      7988.5000         1.0045        1090.42        -999.25        -999.25         0.9334       -40.1067      0.3694916        -999.25              1
      7989.0000         0.9876       1097.682        -999.25        -999.25         0.9279       -40.0386      0.4375916        -999.25              1
      7989.5000         0.9683       1104.945        -999.25        -999.25         0.9224       -39.9283      0.5478935        -999.25              1
      7990.0000         0.9762       1112.207        -999.25        -999.25         0.9168       -39.8179      0.6582909        -999.25              1
      7990.5000          0.984       1119.469        -999.25        -999.25         0.9113       -39.7076      0.7685928        -999.25              1
      7991.0000         0.9919       1124.656        -999.25        -999.25         0.9058       -39.5973       0.878891        -999.25              1
      7991.5000          0.996       1128.014        -999.25        -999.25         0.9003       -39.4869      0.9892921        -999.25              1
      7992.0000         0.9947        1130.17        -999.25        -999.25         0.8927       -39.3766       1.099594        -999.25              1
      7992.5000         0.9869       1124.695        -999.25        -999.25         0.8851       -39.2663       1.209892        -999.25              1
      7993.0000         0.9775       1119.219        -999.25        -999.25         0.8775       -39.1559       1.320293        -999.25              1
      7993.5000         0.9676       1124.119        -999.25        -999.25         0.8698       -39.0394       1.436794        -999.25              1
      7994.0000         0.9578       1138.895        -999.25        -999.25         0.8622       -38.9229       1.553291        -999.25              1
      7994.5000         0.9508       1153.818        -999.25        -999.25         0.8546       -38.8061       1.670094        -999.25              1
      7995.0000         0.9509       1168.943        -999.25        -999.25         0.8469       -38.6896       1.786591        -999.25              1
      7995.5000         0.9534       1179.469        -999.25        -999.25         0.8434        -38.573       1.903191        -999.25              1
      7996.0000         0.9511       1185.764        -999.25        -999.25         0.8433        -38.709       1.767193        -999.25              1
      7996.5000         0.9439       1189.076        -999.25        -999.25         0.8433       -39.0526       1.423592        -999.25              1
      7997.0000         0.9366       1192.395        -999.25        -999.25         0.8432       -39.4809      0.9952927        -999.25              1
      7997.5000         0.9293       1195.787        -999.25        -999.25         0.8432        -39.972      0.5041924        -999.25              1
      7998.0000          0.922       1199.551        -999.25        -999.25         0.8435       -40.3445       0.131691        -999.25              1
      7998.5000         0.9153       1203.307        -999.25        -999.25         0.8438       -40.2899      0.1862907        -999.25              1
      7999.0000         0.9103       1207.957        -999.25        -999.25         0.8441       -40.2352      0.2409935        -999.25              1
      7999.5000         0.9138       1216.369        -999.25        -999.25         0.8444       -40.1807      0.2954941        -999.25              1
      8000.0000         0.9162        1224.77        -999.25        -999.25         0.8447        -40.126       0.350193        -999.25              1
      8000.5000         0.9164       1233.168        -999.25        -999.25          0.845       -40.0714      0.4047928        -999.25              1
      8001.0000         0.9166       1241.582        -999.25        -999.25         0.8453       -39.9689      0.5072937        -999.25              1
      8001.5000         0.9168       1244.566        -999.25        -999.25         0.8464       -39.8162      0.6599922        -999.25              1
      8002.0000         0.9174       1242.238        -999.25        -999.25         0.8488       -39.6635      0.8126907        -999.25              1
