#------------------------------------------------------------------------------
# Created by    : vladimir.rabinovich
# Created on    : 09/19/2023 17:21:52
#------------------------------------------------------------------------------
~Version Information Section
VERS.           2.0     :   CWLS log ASCII Standard - VERSION 2.0
WRAP.           NO      :   One line per depth step
~Well Information Section
#MNEM       .UNIT                                         VALUE :DESCRIPTION
#------------------------------------------------------------------------------
STRT        .FT                                            1924 :START DEPTH
STOP        .FT                                            6497 :STOP DEPTH
STEP        .FT                                             0.5 :STEP      
NULL        .                                           -999.25 :NULL      
COMP        .                                ATP OIL & GAS CORP :COMPANY   
WELL        .                               OCS G12451 ST00BP00 :WELL      
FLD         .                                           WILDCAT :FIELD     
LOC         .                                                   :LOCATION  
CNTY        .                                BRAZOS LARGE BLOCK :LOCATION  
STAT        .                                             TEXAS :STATE     
CTRY        .                                     UNITED STATES :COUNTRY   
SRVC        .                                                   :SERVICE COMPANY
DATE        .                             9/13/2023 11:09:51 AM :LOG DATE  
API         .                                    42704402900000 :API NUMBER
UWI         .                                    42704402900000 :UNIQUE WELL ID
XCOORD      .                                  861130.254262163 :SURFACE X 
YCOORD      .                                  10349158.9913488 :SURFACE Y 
LAT         .                                        28.4964901 :LATITUDE  
LON         .                                       -95.4265639 :LONGITUDE 
ELEV        .FT                                              91 :ELEVATION VALUE
ELEV_TYPE   .                                                KB :ELEVATION REFERENCE TYPE
~Curve Information Section
#MNEM       .UNIT                                      API CODE :CURVE DESCRIPTION
#------------------------------------------------------------------------------
DEPT        .FT                                                 :DEPTH     
CALI        .IN                                                 :          
DPHI        .G/C3                                               :          
DRHO        .G/C3                                               :          
GR          .GAPI                                               :          
GR_NORM     .GAPI                                               :GammaRay Normalized
ILD         .OHMM                                               :          
ILM         .OHMM                                               :          
NPHI        .%                                                  :          
SFL         .OHMM                                               :          
SP          .MV                                                 :          
SP_NORM     .MV                                                 :SP Normalized
VSH_GR      .V/V                                                :Volume of Shale from GR
VSH_SP      .V/V                                                :Volume of Shale from SP
~A        DEPTH           CALI           DPHI           DRHO             GR        GR_NORM            ILD            ILM           NPHI            SFL             SP        SP_NORM         VSH_GR         VSH_SP
# ...
      5268.0000        10.3499        21.6511         0.0432        64.6682       37.92937         0.5457         0.4895        29.8621         0.8548       -85.0062      -38.26647      0.1048801       0.368365
      5268.5000         10.478        26.4588          0.061        63.9752       37.04078         0.5182         0.4789        29.5702         0.7941       -85.6708      -38.93555     0.08597394      0.3570246
      5269.0000        10.4954        29.2824         0.0584        63.9069       36.95229         0.4845         0.4634        33.2534         0.7924       -85.9008      -39.17004     0.08409135      0.3530502
      5269.5000        10.4496        30.3663         0.0556        64.4502       37.64719         0.4559         0.4474        37.1497         0.8212       -85.8674      -39.14112      0.0988763      0.3535403
      5270.0000        10.3988         30.841         0.0595        65.0878       38.46283         0.4322         0.4323        40.1287         0.8154       -86.0897      -39.36791      0.1162305      0.3496965
      5270.5000        10.3312        30.8436         0.0607        64.7904       38.08092         0.4016         0.4161         45.262         0.7871       -86.6897      -39.97239      0.1081047       0.339451
      5271.0000        10.2397        32.0104         0.0716         64.209       37.33527         0.3716         0.4014        45.4203         0.7064       -86.8934      -40.18058     0.09223971      0.3359223
      5271.5000        10.1318        33.5283          0.107        64.6486       37.89731         0.3443         0.3874        42.9732         0.5581       -87.0181      -40.30976      0.1041981      0.3337328
      5272.0000        10.0346        34.3074         0.1281        65.9899       39.61429         0.3117         0.3734        40.7173         0.5439       -87.6855      -40.98166      0.1407296      0.3223448
      5272.5000         9.9346        33.1055         0.1143        65.9365        39.5449         0.2971         0.3558        37.9221         0.6298       -89.4751      -42.77574      0.1392532      0.2919366
      5273.0000         9.8294        31.5921         0.0945        62.6195       35.29543         0.2921         0.3392        36.2742         0.7131       -91.6815      -44.98663     0.04883892      0.2544639
      5273.5000          9.691        31.2481         0.0856        60.1993       32.19459         0.2946         0.3287        34.5173         0.6241       -93.4224      -46.73201              0      0.2248811
      5274.0000         9.6006        31.2751         0.0697         61.369       33.69178         0.3067         0.3481          33.03          0.525       -90.2389        -43.553     0.01471873      0.2787628
      5274.5000         9.6245        30.9534         0.0253        64.4989       37.69963         0.3309         0.4139        32.8859         0.4416       -84.6431      -37.96169     0.09999214      0.3735307
      5275.0000         9.7398             29         0.0114        68.8043       43.21308          0.364         0.4603        33.5721         0.4683       -79.6464      -32.96947      0.2172995      0.4581445
      5275.5000         9.7857        26.5215         0.0126        72.9469       48.51802         0.4065         0.5028        33.0158         0.6368       -75.7852      -29.11276      0.3301707      0.5235125
      5276.0000         9.7334        24.6361         0.0136        74.9198       51.04396         0.4635         0.5425         31.111         0.9595       -71.7218      -25.05385      0.3839141      0.5923076
      5276.5000          9.524        23.5313         0.0131        76.8657       53.53533         0.5498          0.591        28.5533         1.0283       -67.7908      -21.12733      0.4369219      0.6588587
      5277.0000         9.3992        22.6685         0.0138        79.4705       56.87061         0.6372         0.6445        27.5019         0.9839       -64.7808      -18.12182      0.5078853      0.7097997
      5277.5000         9.4158        22.0564         0.0194         81.246       59.14373         0.7275         0.6815        27.5091         0.9232       -61.8431      -15.18861      0.5562495      0.7595152
      5278.0000         9.4567        21.9498         0.0264        81.4698       59.42937          0.795          0.707        27.8773         0.8869       -58.9429      -12.29289      0.5623271      0.8085951
      5278.5000         9.4887        22.0352         0.0393        81.4058        59.3464          0.836         0.7246        28.1171         0.8678       -56.8226      -10.17708      0.5605617      0.8444563
      5279.0000         9.5225        21.9051         0.0493        81.6466       59.65384         0.8756         0.7304        28.2668         0.8644       -55.6133      -8.972263       0.567103      0.8648769
      5279.5000         9.5576        21.3142         0.0549        81.8787       59.95012         0.8984         0.7255        28.5978         0.8752       -54.6294      -7.992847      0.5734068      0.8814772
      5280.0000         9.5702        20.7484           0.05        82.5151       60.76424         0.9086         0.7306        29.3265         0.8928        -54.118      -7.485935      0.5907286      0.8900689
      5280.5000         9.5693        20.3805         0.0456        83.8789       62.51004         0.9177         0.7562         30.311         0.8986       -53.8669      -7.239323      0.6278731      0.8942488
      5281.0000         9.5644        20.1439          0.043        86.6736       66.08856         0.9277         0.7872         30.767         0.8964        -53.609      -6.985909       0.704012      0.8985439
      5281.5000         9.5447        19.9602         0.0464        89.1445       69.25235         0.9237         0.8001        31.1192         0.9078       -53.4466      -6.827995      0.7713266      0.9012204
      5282.0000           9.52        19.9393         0.0528        89.2686       69.41029         0.9041          0.799         31.418         0.9759        -52.793      -6.178879      0.7746871      0.9122224
      5282.5000         9.5167        20.2042         0.0513        89.8251       70.12209         0.8741         0.7619        31.9357           1.02       -51.7248       -5.11517      0.7898318      0.9302514
      5283.0000          9.525          20.81         0.0512        92.0011       72.90815         0.8401         0.7305        32.6961         1.0057       -50.3358      -3.730656      0.8491096      0.9537177
      5283.5000         9.5241        21.4509         0.0601        97.8228       80.30211         0.8057          0.713        33.5485          0.941       -48.7159      -2.115242              1      0.9810976
      5284.0000         9.5291         22.112          0.068       102.5551       85.33564         0.7797          0.699        35.3883         0.8067       -47.2197     -0.6235275              1              1
      5284.5000         9.5438        22.4214         0.0726       104.3829       87.27929         0.7524         0.6853        37.2408         0.7436       -46.2076      0.3840866              1              1
      5285.0000         9.5534        22.3737         0.0746       105.5763       88.54804          0.726         0.6769        38.8902         0.7495       -45.9493      0.6379013              1              1
      5285.5000         9.5525        22.0689         0.0759       106.8838       89.93817         0.7007         0.6653        39.7978         0.7772       -45.9773      0.6054153              1              1
      5286.0000         9.5508        21.8896         0.0729       108.0771       91.20682         0.6775         0.6471        40.9324         0.8005        -45.998      0.5802269              1              1
      5286.5000         9.5398        21.8668          0.069       110.2112        93.4763         0.6614         0.6254        46.0777         0.8026       -45.7021      0.8716431              1              1
