#------------------------------------------------------------------------------
# Created by    : vladimir.rabinovich
# Created on    : 09/19/2023 17:20:48
#------------------------------------------------------------------------------
~Version Information Section
VERS.           2.0     :   CWLS log ASCII Standard - VERSION 2.0
WRAP.           NO      :   One line per depth step
~Well Information Section
#MNEM       .UNIT                                         VALUE :DESCRIPTION
#------------------------------------------------------------------------------
STRT        .FT                                             495 :START DEPTH
STOP        .FT                                            6623 :STOP DEPTH
STEP        .FT                                             0.5 :STEP      
NULL        .                                           -999.25 :NULL      
COMP        .                                      SHELL OIL CO :COMPANY   
WELL        .                                     ST TR 00691-L :WELL      
FLD         .                                           WILDCAT :FIELD     
LOC         .                                                   :LOCATION  
CNTY        .                      MATAGORDA ISLAND LARGE BLOCK :LOCATION  
STAT        .                                             TEXAS :STATE     
CTRY        .                                     UNITED STATES :COUNTRY   
SRVC        .                                                   :SERVICE COMPANY
DATE        .                             9/13/2023 11:12:05 AM :LOG DATE  
API         .                                    42703000200000 :API NUMBER
UWI         .                                    42703000200000 :UNIQUE WELL ID
XCOORD      .                                  411465.852171861 :SURFACE X 
YCOORD      .                                  10158718.0598508 :SURFACE Y 
LAT         .                                        27.9414781 :LATITUDE  
LON         .                                       -96.8060481 :LONGITUDE 
ELEV        .FT                                              11 :ELEVATION VALUE
ELEV_TYPE   .                                                KB :ELEVATION REFERENCE TYPE
~Curve Information Section
#MNEM       .UNIT                                      API CODE :CURVE DESCRIPTION
#------------------------------------------------------------------------------
DEPT        .FT                                                 :DEPTH     
ASN         .OHMM                                               :          
CILD        .OHMM                                               :          
ILD         .OHMM                                               :          
SP          .MV                                                 :          
SP_NORM     .MV                                                 :SP Normalized
VSH_SP      .V/V                                                :Volume of Shale from SP
~A        DEPTH            ASN           CILD            ILD             SP        SP_NORM         VSH_SP
# ...
      1293.0000         0.7932        1266.68         0.6793       -51.9119        -6.6289      0.6439308
      1293.5000            0.8       1252.979         0.6969       -51.9337        -6.6507      0.6422538
      1294.0000         0.8062       1236.209         0.7145        -51.858         -6.575       0.648077
      1294.5000         0.8121       1216.002         0.7321       -51.7371        -6.4541      0.6573769
      1295.0000         0.8163       1196.111         0.7497       -51.5685        -6.2855      0.6703461
      1295.5000         0.8176       1200.826         0.7594       -51.3432        -6.0602      0.6876769
      1296.0000         0.8165       1211.844         0.7657       -51.1179        -5.8349      0.7050077
      1296.5000         0.8136       1225.852         0.7719       -50.9265        -5.6435      0.7197308
      1297.0000         0.8106       1240.512         0.7708       -50.8801        -5.5971         0.7233
      1297.5000         0.8089       1255.168         0.7663       -50.9193        -5.6363      0.7202846
      1298.0000         0.8082       1267.242         0.7618         -51.02         -5.737      0.7125385
      1298.5000         0.8086       1278.471         0.7579       -51.1208        -5.8378      0.7047846
      1299.0000         0.8136       1286.607         0.7541       -51.2216        -5.9386      0.6970308
      1299.5000         0.8186        1290.65         0.7502       -51.3223        -6.0393      0.6892846
      1300.0000         0.8262       1281.131         0.7464       -51.4231        -6.1401      0.6815308
      1300.5000         0.8361       1255.994         0.7509       -51.5308        -6.2478      0.6732461
      1301.0000         0.8464        1232.43         0.7636       -51.6609        -6.3779      0.6632385
      1301.5000         0.8573       1210.252         0.7763        -51.791         -6.508      0.6532308
      1302.0000         0.8653       1196.551          0.785       -51.9211        -6.6381       0.643223
      1302.5000         0.8633       1197.742         0.7893       -51.9167        -6.6337      0.6435615
      1303.0000         0.8558       1233.639         0.7935       -51.8929        -6.6099      0.6453923
      1303.5000         0.8482       1265.391         0.7928       -51.8691        -6.5861      0.6472231
      1304.0000         0.8423       1295.691         0.7914       -51.7015        -6.4185      0.6601154
      1304.5000         0.8365       1315.063           0.79       -51.5115        -6.2285      0.6747308
      1305.0000         0.8308       1330.059         0.7844       -51.3215        -6.0385      0.6893462
      1305.5000          0.825       1344.883         0.7743       -51.5771        -6.2941      0.6696846
      1306.0000         0.8193       1354.176         0.7641       -51.9362        -6.6532      0.6420615
      1306.5000         0.8159       1363.471          0.754       -52.2493        -6.9663      0.6179769
      1307.0000         0.8133       1370.531         0.7437       -52.3445        -7.0615      0.6106538
      1307.5000         0.8108        1372.57         0.7327        -52.202         -6.919      0.6216154
      1308.0000         0.8082       1374.607         0.7216       -52.0413        -6.7583      0.6339769
      1308.5000          0.807        1378.02         0.7106       -51.8723        -6.5893      0.6469769
      1309.0000          0.808       1382.637         0.6995       -51.7034        -6.4204      0.6599692
      1309.5000         0.8089       1387.256         0.6929       -51.5344        -6.2514      0.6729692
      1310.0000         0.8099       1395.742         0.6879       -51.3654        -6.0824      0.6859692
      1310.5000         0.8097       1405.359         0.6829        -51.213          -5.93      0.6976923
      1311.0000         0.8086       1417.264         0.6779        -51.127         -5.844      0.7043077
      1311.5000         0.8075       1430.477         0.6729        -51.041         -5.758      0.7109231
      1312.0000         0.8058       1438.469         0.6603        -50.955         -5.672      0.7175385
      1312.5000         0.8038        1404.91         0.6506        -50.869         -5.586      0.7241539
      1313.0000          0.804         1381.4         0.6683       -50.9081        -5.6251      0.7211462
      1313.5000         0.8132       1357.885         0.6861        -50.986         -5.703      0.7151538
      1314.0000          0.824       1338.785         0.7059       -51.0692        -5.7862      0.7087538
      1314.5000         0.8354       1320.125         0.7298       -51.1766        -5.8936      0.7004923
      1315.0000         0.8457       1298.031         0.7537        -51.284         -6.001      0.6922308
      1315.5000         0.8551       1261.393          0.777       -51.3645        -6.0815      0.6860384
      1316.0000         0.8644       1227.982         0.7926       -51.3423        -6.0593      0.6877462
      1316.5000         0.8723       1203.264         0.8083         -51.32         -6.037      0.6894615
      1317.0000         0.8778       1212.611         0.8041       -51.2978        -6.0148      0.6911692
      1317.5000         0.8693       1315.197         0.7967        -51.177         -5.894      0.7004615
      1318.0000         0.8455       1364.746         0.7821       -51.0561        -5.7731      0.7097616
      1318.5000         0.8213       1404.025         0.7639       -50.9352        -5.6522      0.7190615
      1319.0000         0.8099       1417.145         0.7458       -50.8143        -5.5313      0.7283615
      1319.5000         0.8015       1425.541         0.7276       -50.6736        -5.3906      0.7391846
      1320.0000         0.7974        1426.59         0.7148       -50.5165        -5.2335      0.7512692
      1320.5000         0.7945       1409.465         0.7042       -50.3595        -5.0765      0.7633461
      1321.0000         0.7955       1393.592         0.6936       -50.2025        -4.9195      0.7754231
      1321.5000          0.795       1376.365         0.6829       -50.0454        -4.7624      0.7875077
      1322.0000         0.7938       1363.035         0.6836       -49.9481        -4.6651      0.7949923
      1322.5000          0.789       1352.559         0.6939       -49.8591        -4.5761      0.8018385
      1323.0000         0.7821       1349.305         0.7041         -49.77         -4.487      0.8086923
      1323.5000         0.7752       1347.516          0.709         -49.73         -4.447      0.8117692
      1324.0000          0.768       1347.818         0.7134         -49.75         -4.467      0.8102308
      1324.5000         0.7603       1348.123         0.7178       -49.8195        -4.5365      0.8048846
      1325.0000         0.7526         1350.6         0.7222       -50.0341        -4.7511      0.7883769
      1325.5000         0.7449       1364.992         0.7167       -50.2487        -4.9657      0.7718692
      1326.0000         0.7374       1387.549         0.7074       -50.4629        -5.1799      0.7553923
      1326.5000         0.7311       1415.143          0.698        -50.676         -5.393          0.739
      1327.0000         0.7248        1438.65         0.6886        -50.889         -5.606      0.7226154
      1327.5000         0.7187       1460.895         0.6792       -51.1021        -5.8191      0.7062231
      1328.0000         0.7149       1482.697         0.6684       -50.8959        -5.6129      0.7220846
      1328.5000         0.7111       1503.578         0.6564       -50.6769        -5.3939      0.7389308
      1329.0000         0.7076       1527.412         0.6443       -50.3909        -5.1079      0.7609308
      1329.5000         0.7056        1551.48         0.6323       -49.9608        -4.6778      0.7940153
      1330.0000         0.7037       1576.059         0.6203       -49.6281        -4.3451      0.8196077
      1330.5000         0.7018        1600.24         0.6083       -49.6107        -4.3277      0.8209462
