#------------------------------------------------------------------------------
# Created by    : vladimir.rabinovich
# Created on    : 09/19/2023 17:20:39
#------------------------------------------------------------------------------
~Version Information Section
VERS.           2.0     :   CWLS log ASCII Standard - VERSION 2.0
WRAP.           NO      :   One line per depth step
~Well Information Section
#MNEM       .UNIT                                         VALUE :DESCRIPTION
#------------------------------------------------------------------------------
STRT        .FT                                             523 :START DEPTH
STOP        .FT                                           11863 :STOP DEPTH
STEP        .FT                                             0.5 :STEP      
NULL        .                                           -999.25 :NULL      
COMP        .                                      SHELL OIL CO :COMPANY   
WELL        .                                OCS 00727 ST00BP00 :WELL      
FLD         .                                           WILDCAT :FIELD     
LOC         .                                                   :LOCATION  
CNTY        .                             GALVESTON LARGE BLOCK :LOCATION  
STAT        .                                             TEXAS :STATE     
CTRY        .                                     UNITED STATES :COUNTRY   
SRVC        .                                                   :SERVICE COMPANY
DATE        .                             9/13/2023 11:19:42 AM :LOG DATE  
API         .                                    42706000240000 :API NUMBER
UWI         .                                    42706000240000 :UNIQUE WELL ID
XCOORD      .                                  977080.798970248 :SURFACE X 
YCOORD      .                                   10388448.113324 :SURFACE Y 
LAT         .                                         28.610486 :LATITUDE  
LON         .                                        -95.067834 :LONGITUDE 
ELEV        .FT                                              76 :ELEVATION VALUE
ELEV_TYPE   .                                                KB :ELEVATION REFERENCE TYPE
~Curve Information Section
#MNEM       .UNIT                                      API CODE :CURVE DESCRIPTION
#------------------------------------------------------------------------------
DEPT        .FT                                                 :DEPTH     
ASN         .OHMM                                               :          
ILD         .OHMM                                               :          
LN          .OHMM                                               :          
SP          .MV                                                 :          
SP_NORM     .MV                                                 :SP Normalized
VSH_SP      .V/V                                                :Volume of Shale from SP
~A        DEPTH            ASN            ILD             LN             SP        SP_NORM         VSH_SP
# ...
      9567.0000         1.5097          1.004        -999.25       -40.1937      -1.214046      0.9920723
      9567.5000          1.516         1.0104        -999.25       -40.1893      -1.213413      0.9920958
      9568.0000         1.5223         1.0154        -999.25       -40.2017      -1.229576      0.9914972
      9568.5000         1.5267         1.0181        -999.25       -40.2303      -1.261944      0.9902984
      9569.0000         1.5297         1.0209        -999.25       -40.2589      -1.294308      0.9890997
      9569.5000         1.5327         1.0236        -999.25       -40.2875      -1.326672       0.987901
      9570.0000         1.5356         1.0263        -999.25       -40.3162      -1.359138      0.9866986
      9570.5000         1.5386          1.029        -999.25       -40.3448      -1.391502      0.9854999
      9571.0000         1.5416         1.0317        -999.25       -40.3734       -1.42387      0.9843011
      9571.5000         1.5608         1.0344        -999.25        -40.402       -1.45623      0.9831026
      9572.0000         1.5923         1.0371        -999.25       -40.6432      -1.701195      0.9740298
      9572.5000         1.6267         1.0393        -999.25       -40.8945      -1.956261      0.9645829
      9573.0000         1.6444         1.0407        -999.25       -41.1451      -2.210625       0.955162
      9573.5000         1.6622          1.042        -999.25       -41.3958      -2.465092      0.9457374
      9574.0000         1.6814         1.0434        -999.25       -41.6464      -2.719456      0.9363164
      9574.5000         1.7007         1.0447        -999.25        -41.897       -2.97382      0.9268956
      9575.0000         1.6908          1.046        -999.25       -42.1411      -3.221687      0.9177153
      9575.5000         1.6804         1.0474        -999.25       -42.2476      -3.331951      0.9136314
      9576.0000         1.6699         1.0487        -999.25        -42.354      -3.442116      0.9095513
      9576.5000         1.6595         1.0501        -999.25       -42.4603      -3.552181      0.9054748
      9577.0000          1.649         1.0514        -999.25       -42.5668      -3.662441      0.9013911
      9577.5000         1.6385         1.0526        -999.25       -42.6733      -3.772709      0.8973071
      9578.0000          1.628         1.0533        -999.25       -42.7797      -3.882874      0.8932269
      9578.5000         1.6194         1.0539        -999.25       -42.8862      -3.993137       0.889143
      9579.0000         1.6111         1.0546        -999.25       -42.9396      -4.050304      0.8870258
      9579.5000         1.6029         1.0552        -999.25       -42.9408      -4.055267       0.886842
      9580.0000         1.5947         1.0559        -999.25        -42.942      -4.060234       0.886658
      9580.5000         1.5864         1.0565        -999.25       -42.9432      -4.065197      0.8864742
      9581.0000         1.5782         1.0572        -999.25       -42.9445      -4.070263      0.8862866
      9581.5000         1.5837         1.0578        -999.25       -42.9456      -4.075127      0.8861064
      9582.0000         1.5896         1.0585        -999.25       -42.9468      -4.080093      0.8859225
      9582.5000         1.6126         1.0591        -999.25       -42.9481      -4.085155       0.885735
      9583.0000         1.6427         1.0635        -999.25       -42.9493      -4.090118      0.8855512
      9583.5000         1.6727         1.0681        -999.25       -42.9504      -4.094986      0.8853709
      9584.0000         1.6747         1.0726        -999.25       -42.9511      -4.099449      0.8852056
      9584.5000         1.6634         1.0772        -999.25        -42.946      -4.098114       0.885255
      9585.0000         1.6521         1.0817        -999.25        -42.941      -4.096882      0.8853007
      9585.5000         1.6408         1.0862        -999.25        -42.936      -4.095646      0.8853465
      9586.0000         1.6295         1.0908        -999.25       -42.9309      -4.094311      0.8853959
      9586.5000         1.6279         1.0942        -999.25       -42.9258      -4.092976      0.8854454
      9587.0000          1.636         1.0976        -999.25        -42.766      -3.936939      0.8912244
      9587.5000         1.6442          1.101        -999.25       -42.4916      -3.666306      0.9012479
      9588.0000          1.645         1.1044        -999.25       -42.2178      -3.396267      0.9112494
      9588.5000         1.6396         1.1079        -999.25        -41.944      -3.126232      0.9212506
      9589.0000         1.6137         1.1113        -999.25       -41.6701      -2.856098      0.9312556
      9589.5000         1.5879         1.1147        -999.25       -41.3958      -2.585564      0.9412754
      9590.0000         1.5739         1.0691        -999.25       -41.1219      -2.315426      0.9512805
      9590.5000         1.5623         1.0177        -999.25       -40.9804      -2.177692      0.9563817
      9591.0000         1.5508         0.9892        -999.25       -40.8708      -2.071857      0.9603016
      9591.5000         1.5392         0.9763        -999.25       -40.7612      -1.966022      0.9642214
      9592.0000         1.5313         0.9824        -999.25       -40.6516      -1.860188      0.9681412
      9592.5000         1.5285         0.9885        -999.25       -40.5419      -1.754253      0.9720647
      9593.0000         1.5257         0.9957        -999.25       -40.4324      -1.648518      0.9759808
      9593.5000         1.5259         1.0036        -999.25       -40.3227       -1.54258      0.9799045
      9594.0000         1.5312         1.0115        -999.25       -40.3152      -1.538845      0.9800428
      9594.5000         1.5365         1.0194        -999.25        -40.363      -1.590408       0.978133
      9595.0000         1.5418         1.0273        -999.25       -40.4109      -1.642075      0.9762195
      9595.5000         1.5471         1.0352        -999.25       -40.4588      -1.693741      0.9743059
      9596.0000         1.5525         1.0431        -999.25       -40.5066      -1.745304      0.9723961
      9596.5000         1.5578         1.0512        -999.25       -40.5544      -1.796871      0.9704862
      9597.0000         1.5688         1.0695        -999.25       -40.8212      -2.067436      0.9604653
      9597.5000         1.5837         1.0878        -999.25       -41.1688        -2.4188      0.9474518
      9598.0000         1.5987         1.1061        -999.25        -41.517      -2.770763      0.9344162
      9598.5000         1.6137         1.1184        -999.25       -41.8647      -3.122231      0.9213989
      9599.0000         1.6285         1.1287        -999.25       -42.2124       -3.47369      0.9083819
      9599.5000         1.6425          1.139        -999.25       -42.9427      -4.207756      0.8811942
      9600.0000         1.6566         1.1493        -999.25       -43.8753      -5.144123       0.846514
      9600.5000         1.6706         1.1426        -999.25       -44.1879      -5.460487      0.8347968
      9601.0000         1.6763         1.1258        -999.25       -44.3469      -5.623253      0.8287684
      9601.5000         1.6814         1.1091        -999.25       -44.4089      -5.689018      0.8263326
      9602.0000         1.6675         1.0923        -999.25       -44.1033       -5.38718      0.8375118
      9602.5000         1.6454         1.0896        -999.25       -43.7982      -5.085846      0.8486724
      9603.0000         1.6242         1.0896        -999.25       -43.4931      -4.784512      0.8598329
      9603.5000         1.6049         1.0896        -999.25       -43.1875      -4.482677       0.871012
      9604.0000         1.5857         1.0896        -999.25       -42.8544      -4.153343      0.8832095
      9604.5000         1.5766         1.0951        -999.25       -42.5175      -3.820206      0.8955479
