#------------------------------------------------------------------------------
# Created by    : vladimir.rabinovich
# Created on    : 09/19/2023 17:20:45
#------------------------------------------------------------------------------
~Version Information Section
VERS.           2.0     :   CWLS log ASCII Standard - VERSION 2.0
WRAP.           NO      :   One line per depth step
~Well Information Section
#MNEM       .UNIT                                         VALUE :DESCRIPTION
#------------------------------------------------------------------------------
STRT        .FT                                            2110 :START DEPTH
STOP        .FT                                            6746 :STOP DEPTH
STEP        .FT                                             0.5 :STEP      
NULL        .                                           -999.25 :NULL      
COMP        .                       HOUSTON OIL & MINERALS CORP :COMPANY   
WELL        .                                ST TR 00694-L NE/4 :WELL      
FLD         .                                           WILDCAT :FIELD     
LOC         .                                                   :LOCATION  
CNTY        .                      MATAGORDA ISLAND LARGE BLOCK :LOCATION  
STAT        .                                             TEXAS :STATE     
CTRY        .                                     UNITED STATES :COUNTRY   
SRVC        .                                                   :SERVICE COMPANY
DATE        .                             9/13/2023 11:12:01 AM :LOG DATE  
API         .                                    42703302070000 :API NUMBER
UWI         .                                    42703302070000 :UNIQUE WELL ID
XCOORD      .                                  400461.464340365 :SURFACE X 
YCOORD      .                                  10145980.2526086 :SURFACE Y 
LAT         .                                        27.9055609 :LATITUDE  
LON         .                                       -96.8388291 :LONGITUDE 
ELEV        .FT                                              25 :ELEVATION VALUE
ELEV_TYPE   .                                                KB :ELEVATION REFERENCE TYPE
~Curve Information Section
#MNEM       .UNIT                                      API CODE :CURVE DESCRIPTION
#------------------------------------------------------------------------------
DEPT        .FT                                                 :DEPTH     
ASN         .OHMM                                               :          
CILD        .MMHO                                               :          
ILD         .OHMM                                               :          
SP          .MV                                                 :          
SP_NORM     .MV                                                 :SP Normalized
VSH_SP      .V/V                                                :Volume of Shale from SP
~A        DEPTH            ASN           CILD            ILD             SP        SP_NORM         VSH_SP
# ...
      4238.0000         1.2097       1520.986         0.5881        -84.178        -47.098      0.1157255
      4238.5000         1.2186       1598.957         0.5541       -85.9347       -48.8512     0.08134902
      4239.0000         1.2274       1646.211         0.5216       -87.1475       -50.0606     0.05763529
      4239.5000         1.2363       1689.393         0.4989       -86.5193       -49.4289     0.07002153
      4240.0000         1.2308       1716.334         0.4762       -85.8806       -48.7867      0.0826137
      4240.5000         1.2128       1743.301         0.4535        -84.752       -47.6546      0.1048118
      4241.0000          1.195       1779.779         0.4535       -83.6233       -46.5224      0.1270118
      4241.5000         1.1914        1823.01         0.4545       -82.3329       -45.2286      0.1523804
      4242.0000         1.1916       1944.063         0.4555       -80.2506       -43.1428      0.1932784
      4242.5000         1.2049       1996.109         0.4586       -79.1481       -42.0368      0.2149647
      4243.0000         1.2181       1917.891         0.4719       -76.1227       -39.0079      0.2743549
      4243.5000         1.2462       1503.355         0.4851       -73.0947       -35.9765      0.3337941
      4244.0000         1.2744       1193.262         0.5246       -70.0693       -32.9476      0.3931843
      4244.5000         1.3093        985.374          0.572       -67.0414       -29.9162      0.4526235
      4245.0000         1.3508       894.8887         0.6194       -64.0184       -26.8897      0.5119666
      4245.5000         1.4058       854.7119         0.6667       -63.1121       -25.9799      0.5298059
      4246.0000         1.4572        872.541         0.7085       -62.0065       -24.8708       0.551553
      4246.5000         1.3385       932.8809         0.7481       -59.6957       -22.5566      0.5969294
      4247.0000         1.2857       993.1709         0.7686       -57.2493       -20.1067      0.6449667
      4247.5000         1.2476       1035.682         0.7711       -55.2634       -18.1173      0.6839745
      4248.0000         1.2145       1077.598         0.7736       -52.2679       -15.1183      0.7427784
      4248.5000          1.195       1119.514          0.776       -48.1892       -11.0362      0.8228196
      4249.0000         1.2015        1158.92         0.7785       -43.9237        -6.7672      0.9065255
      4249.5000         1.2322       1149.359         0.8079       -43.7317        -6.5717      0.9103588
      4250.0000         1.2708       1062.352         0.8475       -44.1254        -6.9619      0.9027078
      4250.5000         1.3095        991.582         0.8871       -44.5189        -7.3519      0.8950608
      4251.0000         1.3482        925.084         0.9376       -44.5014         -7.331      0.8954706
      4251.5000         1.3864       868.5928         0.9892       -44.1304        -6.9565      0.9028137
      4252.0000          1.421       825.4111         1.0408        -43.759        -6.5816      0.9101647
      4252.5000         1.4401       812.8457         1.0925       -43.3878        -6.2069      0.9175118
      4253.0000         1.4572        805.707         1.1265       -43.0167        -5.8323      0.9248568
      4253.5000         1.4612       798.5742          1.149       -42.7756        -5.5878       0.929651
      4254.0000         1.4534       792.7266         1.1301       -42.5894        -5.3981      0.9333706
      4254.5000         1.4417            803         1.1111       -42.4032        -5.2084      0.9370902
      4255.0000           1.43       813.2803         1.0921        -42.914        -5.7157      0.9271432
      4255.5000         1.4182       827.3232         1.0637       -43.7227        -6.5209      0.9113549
      4256.0000         1.4065       850.7881         1.0308       -44.5319        -7.3267      0.8955549
      4256.5000         1.3949       874.2539          0.998       -45.3748        -8.1661      0.8790961
      4257.0000         1.3832       897.7197         0.9651       -46.2258        -9.0136      0.8624784
      4257.5000         1.3833       936.8037         0.9323       -47.0774        -9.8617       0.845849
      4258.0000         1.3853       982.8418         0.8994       -48.9985       -11.7794      0.8082471
      4258.5000         1.3873       1028.902         0.8539       -52.0563       -14.8337      0.7483588
      4259.0000         1.3893       1073.326         0.7864       -57.7933       -20.5672      0.6359373
      4259.5000         1.3846       1117.004         0.7187       -63.2117       -25.9821      0.5297627
      4260.0000         1.3586       1160.684         0.6636       -68.6301        -31.397      0.4235882
      4260.5000          1.326         1205.9         0.6496       -73.6749       -36.4384      0.3247373
      4261.0000            1.3       1252.783         0.6357       -68.5902       -31.3502      0.4245059
      4261.5000         1.2737       1279.736         0.6336       -63.5056       -26.2621      0.5242726
      4262.0000         1.2335       1255.701         0.6379       -58.4208       -21.1738      0.6240432
      4262.5000         1.2034       1231.664         0.6423       -56.1536       -18.9031      0.6685667
      4263.0000         1.1794       1207.639         0.6466       -55.2473       -17.9934      0.6864039
      4263.5000         1.1639       1184.992         0.6517       -54.3882       -17.1308      0.7033176
      4264.0000         1.1604       1165.377         0.6698       -53.5391       -16.2782      0.7200353
      4264.5000         1.1659       1145.771         0.6879       -52.6208       -15.3564      0.7381098
      4265.0000         1.1714       1126.154          0.706       -50.3213       -13.0534      0.7832667
      4265.5000         1.1992         1103.1         0.7241       -49.6844       -12.4131      0.7958215
      4266.0000         1.2327       1073.674         0.7591       -49.3984       -12.1236      0.8014981
      4266.5000         1.2699       1031.609          0.803       -49.2906       -12.0123      0.8036804
      4267.0000         1.3066       980.0107         0.8469       -49.1992       -11.9174      0.8055412
      4267.5000         1.3298       928.3613         0.8915       -49.3329       -12.0476      0.8029882
      4268.0000         1.3531       876.6133         0.9664       -49.4667        -12.178      0.8004314
      4268.5000         1.3763       824.8643         1.0412       -50.2248       -12.9326      0.7856353
      4269.0000         1.4053       761.5937          1.127       -51.2613       -13.9656      0.7653804
      4269.5000         1.4795       683.5244         1.2159        -52.413       -15.1138      0.7428667
      4270.0000         1.5538       584.0625         1.3373       -53.5478       -16.2451      0.7206843
      4270.5000         1.6281       560.0254         1.4639       -54.6135       -17.3074      0.6998549
      4271.0000         1.7024       562.4463         1.5988       -54.6724       -17.3628      0.6987686
      4271.5000          1.775       591.7725         1.5734       -54.6137       -17.3006      0.6999882
      4272.0000         1.7238       621.0986         1.5184       -54.5551       -17.2385      0.7012058
      4272.5000         1.6726       650.4238         1.4633       -54.4963       -17.1763      0.7024255
      4273.0000         1.6214       702.1973         1.3732       -54.5164       -17.1929         0.7021
      4273.5000         1.5702       763.5811         1.2489       -55.1645       -17.8375      0.6894608
      4274.0000         1.5189       821.2393           1.15       -55.8125        -18.482      0.6768235
      4274.5000         1.4677       869.8838         1.0696       -56.8627       -19.5287         0.6563
      4275.0000         1.4165       918.5527         0.9891       -56.9532       -19.6158      0.6545922
      4275.5000         1.3653       969.6807         0.9368       -56.8077       -19.4668      0.6575137
