#------------------------------------------------------------------------------
# Created by    : vladimir.rabinovich
# Created on    : 09/19/2023 17:20:32
#------------------------------------------------------------------------------
~Version Information Section
VERS.           2.0     :   CWLS log ASCII Standard - VERSION 2.0
WRAP.           NO      :   One line per depth step
~Well Information Section
#MNEM       .UNIT                                         VALUE :DESCRIPTION
#------------------------------------------------------------------------------
STRT        .FT                                             502 :START DEPTH
STOP        .FT                                            9122 :STOP DEPTH
STEP        .FT                                             0.5 :STEP      
NULL        .                                           -999.25 :NULL      
COMP        .                       BLUE DOLPHIN EXPLORATION CO :COMPANY   
WELL        .                                OCS 00714 ST00BP00 :WELL      
FLD         .                              GALVESTON BLOCK 0288 :FIELD     
LOC         .                                                   :LOCATION  
CNTY        .                             GALVESTON LARGE BLOCK :LOCATION  
STAT        .                                             TEXAS :STATE     
CTRY        .                                     UNITED STATES :COUNTRY   
SRVC        .                                                   :SERVICE COMPANY
DATE        .                             9/13/2023 11:19:24 AM :LOG DATE  
API         .                                    42706000680000 :API NUMBER
UWI         .                                    42706000680000 :UNIQUE WELL ID
XCOORD      .                                  1088404.51782723 :SURFACE X 
YCOORD      .                                  10474534.8869196 :SURFACE Y 
LAT         .                                        28.8520809 :LATITUDE  
LON         .                                       -94.7248272 :LONGITUDE 
ELEV        .FT                                              85 :ELEVATION VALUE
ELEV_TYPE   .                                                KB :ELEVATION REFERENCE TYPE
~Curve Information Section
#MNEM       .UNIT                                      API CODE :CURVE DESCRIPTION
#------------------------------------------------------------------------------
DEPT        .FT                                                 :DEPTH     
ASN         .OHMM                                               :          
ASN_1       .OHMM                                               :          
DT          .US/F                                               :          
ILD         .OHMM                                               :          
LAT         .OHMM                                               :          
LN          .OHMM                                               :          
SP          .MV                                                 :          
SP_NORM     .MV                                                 :SP Normalized
VSH_SP      .V/V                                                :Volume of Shale from SP
~A        DEPTH            ASN          ASN_1             DT            ILD            LAT             LN             SP        SP_NORM         VSH_SP
# ...
      2171.5000        -999.25         0.9803        -999.25        -999.25         0.9772         0.7311       -33.7583      -4.835354      0.8524864
      2172.0000        -999.25         0.9693        -999.25        -999.25          0.958         0.7167       -34.1935      -5.263693      0.8360118
      2172.5000        -999.25         0.9664        -999.25        -999.25         0.9385          0.703       -34.0234      -5.086731       0.842818
      2173.0000        -999.25         0.9591        -999.25        -999.25         0.9307         0.6898        -34.132      -5.188471       0.838905
      2173.5000        -999.25         0.9454        -999.25        -999.25         0.9373         0.6738       -34.8851       -5.93471      0.8102035
      2174.0000        -999.25         0.9219        -999.25        -999.25         0.9691         0.6557       -35.4022      -6.444946       0.790579
      2174.5000        -999.25         0.9015        -999.25        -999.25         1.0266         0.6254        -33.873      -4.908888      0.8496581
      2175.0000        -999.25         0.8948        -999.25        -999.25         1.0784         0.5865       -32.4261      -3.455128       0.905572
      2175.5000        -999.25         0.8921        -999.25        -999.25         1.1198         0.5398       -31.3253      -2.347464      0.9481745
      2176.0000        -999.25         0.8836        -999.25        -999.25         1.1483         0.5062       -30.7284      -1.743702      0.9713961
      2176.5000        -999.25         0.8668        -999.25        -999.25         1.1636         0.4832       -30.8027      -1.811142      0.9688022
      2177.0000        -999.25          0.836        -999.25        -999.25         1.1644         0.4682       -31.1832      -2.184782      0.9544315
      2177.5000        -999.25         0.8037        -999.25        -999.25         1.1363         0.4548       -31.3832      -2.377918      0.9470031
      2178.0000        -999.25         0.7891        -999.25        -999.25         1.0864         0.4504       -31.4606      -2.448458      0.9442901
      2178.5000        -999.25         0.7882        -999.25        -999.25         1.0183         0.4461        -34.051      -5.031996      0.8449233
      2179.0000        -999.25         0.7961        -999.25        -999.25         0.9352         0.4597       -38.1164      -9.090538      0.6888255
      2179.5000        -999.25         0.7957        -999.25        -999.25         0.8531         0.4734       -41.8271      -12.79437      0.5463703
      2180.0000        -999.25         0.7692        -999.25        -999.25         0.7549         0.4824       -44.3711      -15.33151      0.4487879
      2180.5000        -999.25         0.7394        -999.25        -999.25         0.6899           0.49       -45.5558      -16.50935      0.4034864
      2181.0000        -999.25         0.7245        -999.25        -999.25         0.6584         0.4969       -45.8684      -16.81509      0.3917272
      2181.5000        -999.25         0.7231        -999.25        -999.25         0.6373         0.5004       -46.0977      -17.03753       0.383172
      2182.0000        -999.25         0.7166        -999.25        -999.25         0.6148         0.5039       -46.5236      -17.45657       0.367055
      2182.5000        -999.25         0.7025        -999.25        -999.25         0.5901         0.5084       -46.5115      -17.43761      0.3677843
      2183.0000        -999.25         0.6852        -999.25        -999.25         0.5947         0.5134       -47.2027      -18.12195      0.3414635
      2183.5000        -999.25         0.6752        -999.25        -999.25         0.6012         0.5173       -48.4733      -19.38568      0.2928583
      2184.0000        -999.25         0.6726        -999.25        -999.25         0.6154         0.5152       -49.1196      -20.02512      0.2682646
      2184.5000        -999.25         0.6792        -999.25        -999.25         0.6296          0.513       -49.2818      -20.18046      0.2622899
      2185.0000        -999.25         0.6954        -999.25        -999.25         0.6494         0.5085       -49.1533       -20.0451       0.267496
      2185.5000        -999.25         0.7131        -999.25        -999.25         0.6704         0.5027       -49.0213      -19.90624      0.2728369
      2186.0000        -999.25          0.714        -999.25        -999.25         0.6982         0.4944       -47.5965      -18.47458      0.3279008
      2186.5000        -999.25         0.7218        -999.25        -999.25         0.7258         0.4826       -44.5423      -15.41352      0.4456339
      2187.0000        -999.25         0.7514        -999.25        -999.25         0.7525         0.4717       -42.4666      -13.33096      0.5257325
      2187.5000        -999.25         0.7836        -999.25        -999.25         0.7795         0.4689       -41.4113       -12.2688      0.5665848
      2188.0000        -999.25         0.8173        -999.25        -999.25         0.8117         0.4664       -41.0212      -11.87183      0.5818526
      2188.5000        -999.25          0.847        -999.25        -999.25         0.8488         0.4687       -40.9315      -11.77527      0.5855665
      2189.0000        -999.25          0.845        -999.25        -999.25         0.8957          0.471       -40.6417      -11.47861      0.5969764
      2189.5000        -999.25         0.8134        -999.25        -999.25         0.9408         0.4665       -39.8845      -10.71455      0.6263635
      2190.0000        -999.25          0.794        -999.25        -999.25         0.9832         0.4608       -38.5803      -9.403488      0.6767889
      2190.5000        -999.25         0.7872        -999.25        -999.25         1.0256         0.4608       -36.6023      -7.418627      0.7531297
      2191.0000        -999.25          0.789        -999.25        -999.25         1.0683         0.4648       -34.8187      -5.628166      0.8219936
      2191.5000        -999.25          0.802        -999.25        -999.25         1.0975         0.4692       -33.3131      -4.115704      0.8801652
      2192.0000        -999.25         0.8101        -999.25        -999.25         1.1183         0.4742       -32.2999      -3.095644      0.9193983
      2192.5000        -999.25         0.8132        -999.25        -999.25         1.1188         0.4874        -32.045      -2.833881      0.9294661
      2193.0000        -999.25         0.8239        -999.25        -999.25         1.1048         0.5035       -32.0569      -2.838923      0.9292722
      2193.5000        -999.25         0.8473        -999.25        -999.25         1.0846         0.5204        -32.769      -3.544161      0.9021477
      2194.0000        -999.25         0.8776        -999.25        -999.25          1.046         0.5375       -34.8543      -5.622601      0.8222077
      2194.5000        -999.25         0.8975        -999.25        -999.25         1.0021         0.5577       -37.4498      -8.211237      0.7226447
      2195.0000        -999.25         0.8895        -999.25        -999.25         0.9512         0.5784       -40.0192      -10.77378      0.6240855
      2195.5000        -999.25         0.8803        -999.25        -999.25         0.9065         0.5931       -41.3751      -12.12281      0.5721995
      2196.0000        -999.25          0.879        -999.25        -999.25         0.8796         0.6073       -41.2921      -12.03295      0.5756556
      2196.5000        -999.25         0.8862        -999.25        -999.25         0.8617         0.6027        -41.189      -11.92299      0.5798849
      2197.0000        -999.25         0.9005        -999.25        -999.25         0.8556          0.592       -41.1733      -11.90043      0.5807526
      2197.5000        -999.25         0.9206        -999.25        -999.25         0.8596          0.572       -41.6042      -12.32447      0.5644435
