#------------------------------------------------------------------------------
# Created by    : vladimir.rabinovich
# Created on    : 09/19/2023 17:22:53
#------------------------------------------------------------------------------
~Version Information Section
VERS.           2.0     :   CWLS log ASCII Standard - VERSION 2.0
WRAP.           NO      :   One line per depth step
~Well Information Section
#MNEM       .UNIT                                         VALUE :DESCRIPTION
#------------------------------------------------------------------------------
STRT        .FT                                             252 :START DEPTH
STOP        .FT                                           11321 :STOP DEPTH
STEP        .FT                                             0.5 :STEP      
NULL        .                                           -999.25 :NULL      
COMP        .                          HUMBLE OIL & REFINING CO :COMPANY   
WELL        .                                OCS 00615 ST00BP00 :WELL      
FLD         .                                           WILDCAT :FIELD     
LOC         .                                                   :LOCATION  
CNTY        .                             GALVESTON LARGE BLOCK :LOCATION  
STAT        .                                             TEXAS :STATE     
CTRY        .                                     UNITED STATES :COUNTRY   
SRVC        .                                                   :SERVICE COMPANY
DATE        .                             9/13/2023 11:19:42 AM :LOG DATE  
API         .                                    42706000270000 :API NUMBER
UWI         .                                    42706000270000 :UNIQUE WELL ID
XCOORD      .                                  1043929.24471964 :SURFACE X 
YCOORD      .                                  10527500.2798036 :SURFACE Y 
LAT         .                                         28.995876 :LATITUDE  
LON         .                                        -94.866344 :LONGITUDE 
ELEV        .FT                                              67 :ELEVATION VALUE
ELEV_TYPE   .                                                KB :ELEVATION REFERENCE TYPE
~Curve Information Section
#MNEM       .UNIT                                      API CODE :CURVE DESCRIPTION
#------------------------------------------------------------------------------
DEPT        .FT                                                 :DEPTH     
LAT         .OHMM                                               :          
LN          .OHMM                                               :          
SN          .OHMM                                               :          
SP          .MV                                                 :          
SP_NORM     .MV                                                 :SP Normalized
VSH_SP      .V/V                                                :Volume of Shale from SP
~A        DEPTH            LAT             LN             SN             SP        SP_NORM         VSH_SP
# ...
      3178.0000         0.5503         0.4191         1.1256      -157.3945       -47.6384      0.3240811
      3178.5000         0.5642         0.4344         1.1649      -153.2598       -43.5037      0.3840044
      3179.0000          0.578         0.4786         1.2042      -150.3887      -40.63261      0.4256144
      3179.5000         0.5919         0.5233         1.2434      -147.5156       -37.7595      0.4672537
      3180.0000         0.6051         0.5681         1.2691      -143.4731        -33.717      0.5258405
      3180.5000         0.6183         0.6135         1.2094      -141.7654       -32.0093      0.5505899
      3181.0000         0.6267         0.6589         1.1584      -140.2708       -30.5147      0.5722507
      3181.5000         0.5978           0.68         1.1547      -139.7837      -30.02761        0.57931
      3182.0000          0.569         0.6435         1.2008      -142.3159      -32.55981      0.5426115
      3182.5000         0.5255         0.6071         1.3059      -144.4619       -34.7058      0.5115101
      3183.0000         0.4767         0.5666         1.4111      -147.4834       -37.7273      0.4677202
      3183.5000         0.4279         0.5246         1.5162      -150.3972      -40.64111      0.4254912
      3184.0000         0.3985         0.4826         1.5978      -152.0959      -42.33981      0.4008724
      3184.5000          0.409         0.4406         1.6669      -153.5173      -43.76121      0.3802724
      3185.0000         0.5026         0.3985         1.7392      -152.5298       -42.7737       0.394584
      3185.5000         0.5995         0.4187         1.8185       -151.002       -41.2459      0.4167261
      3186.0000         0.6965         0.4832         1.9222      -149.4856       -39.7295      0.4387029
      3186.5000          0.834         0.5477         2.0709      -147.6885      -37.93241      0.4647477
      3187.0000         0.9884         0.6371         2.0813      -147.0405       -37.2844      0.4741391
      3187.5000         0.9948          0.731         2.0495      -150.8672      -41.11111      0.4186796
      3188.0000         0.8799          0.791         2.0131      -154.4822       -44.7261      0.3662885
      3188.5000         0.7269         0.8172         1.9766      -156.6526      -46.89651      0.3348332
      3189.0000         0.5565         0.8434         1.9402      -157.6487       -47.8926      0.3203971
      3189.5000         0.3636         0.8623         1.9038      -158.5925       -48.8364      0.3067188
      3190.0000         0.3089         0.8786         1.8673       -159.489       -49.7329      0.2937261
      3190.5000         0.2637         0.8949         1.8309      -160.3508       -50.5947      0.2812362
      3191.0000         0.2239         0.9148         1.7962      -161.0117      -51.25561      0.2716579
      3191.5000         0.2177         0.9483         1.7768       -161.575       -51.8189      0.2634942
      3192.0000         0.2115         0.9801         1.7573      -162.1956      -52.43951      0.2544999
      3192.5000         0.2054         0.9832         1.7497      -162.7649       -53.0088      0.2462493
      3193.0000         0.2391         0.9863         1.8138      -163.2451      -53.48901      0.2392898
      3193.5000         0.2997         0.9894         1.8777      -163.7769      -54.02081      0.2315825
      3194.0000         0.3603         0.9824         1.9417      -164.3816      -54.62551      0.2228187
      3194.5000         0.4209         0.9657         2.0455       -165.063      -55.30691      0.2129434
      3195.0000         0.4865         0.9484         2.1948      -165.7524       -55.9963      0.2029522
      3195.5000         0.5522         0.9276         2.3195      -166.2742       -56.5181      0.1953898
      3196.0000         0.6179         0.9068          2.584      -166.5002       -56.7441      0.1921145
      3196.5000         0.6977         0.8749         3.1304       -166.228       -56.4719      0.1960594
      3197.0000         0.8045         0.8249         3.4281      -165.6633       -55.9072      0.2042434
      3197.5000         0.9048          0.777         3.7205      -164.8281        -55.072      0.2163478
      3198.0000         0.9891         0.7297         4.0128      -163.9763      -54.22021      0.2286927
      3198.5000          1.073         0.6556         4.3051      -163.1174      -53.36131      0.2411405
      3199.0000         1.1247         0.5755         4.2615       -161.696       -51.9399      0.2617405
      3199.5000         1.1763         0.4888         4.0701      -158.3733      -48.61721      0.3098955
      3200.0000          1.228         0.4685         3.6118      -155.1663      -45.41021      0.3563738
      3200.5000         1.1906          0.491         2.8633      -153.3813      -43.62521      0.3822434
      3201.0000         1.1309         0.5145         2.1423      -151.4675       -41.7114      0.4099797
      3201.5000         1.0078         0.5499         1.8864      -149.9104       -40.1543      0.4325463
      3202.0000         1.0323         0.5854         1.6302       -148.062       -38.3059      0.4593348
      3202.5000         0.9277         0.6209         1.3743      -147.0869       -37.3308      0.4734666
      3203.0000         0.6003         0.6563         1.2313       -149.395      -39.63891      0.4400158
      3203.5000         0.4085         0.6755         1.2864      -153.2612       -43.5051       0.383984
      3204.0000         0.3095         0.6546         1.3245       -155.583       -45.8269      0.3503348
      3204.5000         0.2769         0.6337         1.2709      -158.7144      -48.95831      0.3049521
      3205.0000         0.2859         0.6128         1.2174      -170.4355      -60.67941      0.1350811
      3205.5000          0.295         0.5919         1.0977      -174.2236      -64.46751     0.08018107
      3206.0000         0.3029          0.571         0.9753      -176.4519      -66.69581     0.04788683
      3206.5000         0.2939         0.5501         0.8623      -176.1479      -66.39181     0.05229264
      3207.0000         0.2849         0.5298         0.7581      -171.3745       -61.6184      0.1214725
      3207.5000         0.2759         0.5201         0.7089      -168.5217       -58.7656      0.1628174
      3208.0000         0.2668         0.5104         0.6924       -165.908      -56.15191       0.200697
      3208.5000         0.2578         0.5007         0.7427       -162.156      -52.39991      0.2550738
      3209.0000         0.2488          0.491          0.793      -148.1367      -38.38061      0.4582521
      3209.5000         0.2398         0.4836         0.8433      -144.9172      -35.16111      0.5049114
      3210.0000           0.23          0.483         0.8936      -138.7678      -29.01171      0.5940332
      3210.5000         0.2192         0.4824         0.9894      -131.0361      -21.28001      0.7060869
      3211.0000         0.2198         0.4818         1.0768      -132.9961         -23.24      0.6776812
      3211.5000         0.2337         0.4812         1.1373      -134.9561          -25.2      0.6492753
      3212.0000         0.2475         0.4805          1.191      -135.9504       -26.1943      0.6348652
      3212.5000         0.2613          0.492         1.2387       -136.543       -26.7869      0.6262768
      3213.0000         0.2762           0.51         1.2865      -137.1355       -27.3794      0.6176898
      3213.5000         0.2937         0.5258         1.3342      -141.4648       -31.7087      0.5549464
      3214.0000         0.3112         0.5388         1.3686      -147.2187      -37.46261      0.4715564
      3214.5000         0.3287         0.5517         1.3988       -151.418       -41.6619       0.410697
      3215.0000         0.3462         0.5551         1.4289      -156.1172      -46.36111      0.3425927
      3215.5000         0.3637         0.5533         1.4503      -161.1016       -51.3455      0.2703551
