#------------------------------------------------------------------------------
# Created by    : vladimir.rabinovich
# Created on    : 09/19/2023 17:22:15
#------------------------------------------------------------------------------
~Version Information Section
VERS.           2.0     :   CWLS log ASCII Standard - VERSION 2.0
WRAP.           NO      :   One line per depth step
~Well Information Section
#MNEM       .UNIT                                         VALUE :DESCRIPTION
#------------------------------------------------------------------------------
STRT        .FT                                              41 :START DEPTH
STOP        .FT                                            7991 :STOP DEPTH
STEP        .FT                                             0.5 :STEP      
NULL        .                                           -999.25 :NULL      
COMP        .                           ENERGY DEVELOPMENT CORP :COMPANY   
WELL        .                               OCS G11200 ST00BP00 :WELL      
FLD         .                                           WILDCAT :FIELD     
LOC         .                                                   :LOCATION  
CNTY        .                    NORTH PADRE ISLAND LARGE BLOCK :LOCATION  
STAT        .                                             TEXAS :STATE     
CTRY        .                                     UNITED STATES :COUNTRY   
SRVC        .                                                   :SERVICE COMPANY
DATE        .                             9/13/2023 11:18:55 AM :LOG DATE  
API         .                                    42701400410000 :API NUMBER
UWI         .                                    42701400410000 :UNIQUE WELL ID
XCOORD      .                                   309944.09600436 :SURFACE X 
YCOORD      .                                  9740515.29665267 :SURFACE Y 
LAT         .                                          26.78454 :LATITUDE  
LON         .                                        -97.077486 :LONGITUDE 
ELEV        .FT                                              91 :ELEVATION VALUE
ELEV_TYPE   .                                                KB :ELEVATION REFERENCE TYPE
~Curve Information Section
#MNEM       .UNIT                                      API CODE :CURVE DESCRIPTION
#------------------------------------------------------------------------------
DEPT        .FT                                                 :DEPTH     
CALI        .IN                                                 :          
DRHO        .G/C3                                               :          
DT          .US/F                                               :          
GR          .GAPI                                               :          
GR_NORM     .GAPI                                               :GammaRay Normalized
ILD         .OHMM                                               :          
ILM         .OHMM                                               :          
NPHI        .%                                                  :          
RFOC        .OHMM                                               :          
RHOB        .G/C3                                               :          
SP          .MV                                                 :          
SP_NORM     .MV                                                 :SP Normalized
VSH_GR      .V/V                                                :Volume of Shale from GR
VSH_SP      .V/V                                                :Volume of Shale from SP
~A        DEPTH           CALI           DRHO             DT             GR        GR_NORM            ILD            ILM           NPHI           RFOC           RHOB             SP        SP_NORM         VSH_GR         VSH_SP
# ...
      4649.0000        12.6344         0.0296       117.1669         98.816       99.20087         0.7511          0.755        40.7657         0.8825         2.2748       -50.7545      -2.561729              1      0.9869365
      4649.5000        12.6141         0.0343       117.3955        97.2314        97.1719         0.7336         0.7469        39.9265         0.8788          2.277       -50.5537      -2.360928              1      0.9916064
      4650.0000        12.5225         0.0385       117.7507        93.2008       92.01006         0.7226         0.7381        40.4031         0.8755         2.2791       -50.4688      -2.276028              1      0.9935808
      4650.5000        12.4485         0.0423       118.3069        91.4633       89.78526         0.7138         0.7292        41.2154          0.869         2.2774       -50.3942      -2.201427              1      0.9953156
      4651.0000        12.4868         0.0444       118.8682        90.6462       88.73935         0.7075         0.7203        42.1791         0.8615         2.2743       -50.3237      -2.130928              1      0.9969552
      4651.5000        12.5942         0.0448       119.4741        89.1567       86.83221         0.7047         0.7129        43.0807         0.8589         2.2697       -50.2667      -2.073929              1      0.9982807
      4652.0000        12.7513         0.0451        120.146        87.5917       84.82835         0.7046          0.709        43.5723         0.8566          2.263       -50.2486      -2.055828              1      0.9987017
      4652.5000        12.9034         0.0455       120.8906        87.2817       84.43194         0.7044           0.71        43.9949         0.8537         2.2578       -50.2396      -2.046829              1       0.998911
      4653.0000        12.9135         0.0454       121.6556        87.2158       84.34817         0.7064         0.7069        44.4631         0.8504         2.2567       -50.2251       -2.03233              1      0.9992481
      4653.5000        12.8667         0.0444       122.3176        86.3052       83.18249         0.7105         0.7089        44.6913         0.8489         2.2599       -50.2968      -2.104027              1      0.9975808
      4654.0000        12.8201         0.0415       122.5615        84.9591       81.45901         0.7177         0.7137        44.0999         0.8503         2.2645        -50.544      -2.351227              1       0.991832
      4654.5000        13.0198         0.0383       122.5392        85.0198        81.5374         0.7269         0.7236        43.1669         0.8526         2.2671       -50.7902      -2.597427              1      0.9861063
      4655.0000        13.2484          0.034       121.4922        85.9049       82.67168         0.7382         0.7408        42.4223         0.8553         2.2686       -51.1043       -2.91153              1      0.9788017
      4655.5000        13.3788         0.0267       120.3599        86.2952       83.17223         0.7536         0.7578        42.2643         0.8597         2.2696       -51.0576      -2.864826              1      0.9798878
      4656.0000        13.3566         0.0222       119.8383        86.4099       83.31978         0.7703         0.7711        42.2865         0.8623         2.2735        -50.876      -2.683228              1       0.984111
      4656.5000        13.2809          0.029       119.6072        86.4917       83.42519         0.7886         0.7866         41.752         0.8646         2.2795         -50.58       -2.38723              1      0.9909946
      4657.0000         13.192         0.0406       119.0553          86.35       83.24435         0.8079         0.8125        40.1407         0.8736          2.287       -50.1071       -1.91433              1              1
      4657.5000        13.2754         0.0446       117.9135        84.7784       81.23203         0.8252         0.8377        38.1631         0.8826         2.2967       -49.9022      -1.709427              1              1
      4658.0000        13.5196         0.0291       114.3212        82.3241       78.08915         0.8409         0.8549        37.4549         0.9053         2.3098        -49.917      -1.724228      0.9593436              1
      4658.5000        13.8769         0.0183        111.507         80.033       75.15531         0.8474         0.8589        37.8236         0.9543         2.3209       -49.9918      -1.799026      0.8969215              1
      4659.0000        13.9975         0.0232       110.4276        79.6486        74.6636          0.854         0.8574        39.1658         0.9418         2.3248       -49.8286       -1.63583      0.8864595              1
      4659.5000        13.8118         0.0312       110.6194        80.0459        75.1731         0.8546          0.858        40.2577         0.9153         2.3176       -49.6646      -1.471828      0.8972999              1
      4660.0000        13.4768         0.0386       112.0824        81.0623       76.47558         0.8551         0.8591        40.7223         0.8848         2.3054       -49.5317      -1.338928      0.9250123              1
      4660.5000        13.2899         0.0417       114.1907        82.4045       78.19532         0.8623         0.8611        39.9512         0.8716         2.2972       -49.4315      -1.238728      0.9616026              1
      4661.0000         13.162         0.0462       115.7954        83.2367       79.26186         0.8718         0.8644        38.9942         0.8722         2.2983       -49.5236       -1.33083      0.9842948              1
      4661.5000        13.0309         0.0501       116.0913        83.1116       79.10227         0.8866         0.8689        38.0049         0.8777         2.3026       -49.6552      -1.462429      0.9808994              1
      4662.0000        12.9458         0.0506       115.0415        82.1423       77.86141         0.9119         0.8827        37.1851         0.8854         2.3083       -49.8659      -1.673126      0.9544981              1
      4662.5000        12.9846         0.0453       113.7729        79.3278       74.25717         0.9489            0.9        36.4454         0.9023         2.3144       -49.8244       -1.63163      0.8778121              1
      4663.0000         13.142         0.0379       110.9849        74.8693       68.54726          0.979         0.9439        35.6833         0.9349         2.3209       -49.7989      -1.606129      0.7563248              1
      4663.5000        13.3484         0.0344       107.8201        68.1689       59.96589         0.9945         0.9894        35.0845         0.9687         2.3275       -49.8812      -1.688427      0.5737423              1
      4664.0000        13.5561         0.0415       105.0605        68.0217       59.77799         1.0099         1.0043         35.481         0.9908         2.3346       -50.1371      -1.944328      0.5697444              1
      4664.5000        13.7771         0.0524       103.3911         70.658       63.15525         1.0221         0.9749        36.6201         0.9977         2.3343       -50.6044      -2.411629       0.641601      0.9904273
      4665.0000        14.0399          0.058       103.6764         71.884       64.72619         1.0277         0.9478        38.1729          0.974         2.3247       -51.0362       -2.84343      0.6750253      0.9803854
      4665.5000        14.1453         0.0516        105.114        72.5459        65.5746         1.0285         0.9273        39.9819         0.9425         2.3137       -51.3187      -3.125927      0.6930766      0.9738157
      4666.0000        14.1042         0.0397       106.9797        74.1306       67.60495         1.0133         0.9148        39.9268         0.9191         2.3057       -51.3873      -3.194527      0.7362756      0.9722203
      4666.5000        14.0665         0.0273       109.0643         77.049       71.34354         0.9748         0.9028        39.0729         0.9061         2.2994       -51.0667      -2.873928      0.8158199      0.9796761
