#------------------------------------------------------------------------------
# Created by    : vladimir.rabinovich
# Created on    : 09/19/2023 17:20:34
#------------------------------------------------------------------------------
~Version Information Section
VERS.           2.0     :   CWLS log ASCII Standard - VERSION 2.0
WRAP.           NO      :   One line per depth step
~Well Information Section
#MNEM       .UNIT                                         VALUE :DESCRIPTION
#------------------------------------------------------------------------------
STRT        .FT                                             500 :START DEPTH
STOP        .FT                                            9234 :STOP DEPTH
STEP        .FT                                             0.5 :STEP      
NULL        .                                           -999.25 :NULL      
COMP        .                                      SHELL OIL CO :COMPANY   
WELL        .                                OCS 00713 ST00BP00 :WELL      
FLD         .                                           WILDCAT :FIELD     
LOC         .                                                   :LOCATION  
CNTY        .                             GALVESTON LARGE BLOCK :LOCATION  
STAT        .                                             TEXAS :STATE     
CTRY        .                                     UNITED STATES :COUNTRY   
SRVC        .                                                   :SERVICE COMPANY
DATE        .                             9/13/2023 11:19:25 AM :LOG DATE  
API         .                                    42706000510000 :API NUMBER
UWI         .                                    42706000510000 :UNIQUE WELL ID
XCOORD      .                                  1104646.85179908 :SURFACE X 
YCOORD      .                                   10481381.387581 :SURFACE Y 
LAT         .                                         28.871549 :LATITUDE  
LON         .                                        -94.674396 :LONGITUDE 
ELEV        .FT                                              82 :ELEVATION VALUE
ELEV_TYPE   .                                                KB :ELEVATION REFERENCE TYPE
~Curve Information Section
#MNEM       .UNIT                                      API CODE :CURVE DESCRIPTION
#------------------------------------------------------------------------------
DEPT        .FT                                                 :DEPTH     
ASN         .OHMM                                               :          
ASN_1       .OHMM                                               :          
GR_NORM     .                                                   :GammaRay Normalized
ILD         .OHMM                                               :          
LAT         .OHMM                                               :          
LN          .OHMM                                               :          
SP          .MV                                                 :          
SP_1        .MV                                                 :          
SP_NORM     .MV                                                 :SP Normalized
VSH_SP      .V/V                                                :Volume of Shale from SP
~A        DEPTH            ASN          ASN_1        GR_NORM            ILD            LAT             LN             SP           SP_1        SP_NORM         VSH_SP
# ...
      3415.5000         1.0207        -999.25        -999.25         0.9158        -999.25        -999.25        -72.842        -999.25       2.980751              1
      3416.0000         1.0162        -999.25        -999.25         0.9156        -999.25        -999.25       -72.7704        -999.25       3.045227              1
      3416.5000          1.012        -999.25        -999.25         0.9141        -999.25        -999.25       -72.7399        -999.25       3.068604              1
      3417.0000         1.0079        -999.25        -999.25         0.9123        -999.25        -999.25       -72.8973        -999.25       2.904076              1
      3417.5000         1.0039        -999.25        -999.25          0.909        -999.25        -999.25       -73.1729        -999.25       2.621353              1
      3418.0000         1.0034        -999.25        -999.25         0.9057        -999.25        -999.25       -73.5576        -999.25       2.229523              1
      3418.5000         1.0037        -999.25        -999.25         0.8941        -999.25        -999.25       -74.0171        -999.25       1.762901              1
      3419.0000         1.0045        -999.25        -999.25         0.8825        -999.25        -999.25       -74.4982        -999.25       1.274673              1
      3419.5000         1.0028        -999.25        -999.25         0.8711        -999.25        -999.25        -74.417        -999.25       1.348747              1
      3420.0000         0.9996        -999.25        -999.25         0.8614        -999.25        -999.25       -73.2778        -999.25        2.48082              1
      3420.5000         0.9921        -999.25        -999.25         0.8531        -999.25        -999.25       -72.4647        -999.25       3.286797              1
      3421.0000         0.9838        -999.25        -999.25         0.8486        -999.25        -999.25       -72.3815        -999.25       3.362877              1
      3421.5000         0.9789        -999.25        -999.25         0.8449        -999.25        -999.25       -72.6823        -999.25       3.054955              1
      3422.0000         0.9783        -999.25        -999.25         0.8442        -999.25        -999.25        -73.095        -999.25       2.635124              1
      3422.5000         0.9815        -999.25        -999.25         0.8442        -999.25        -999.25       -73.5172        -999.25       2.205803              1
      3423.0000         0.9878        -999.25        -999.25          0.853        -999.25        -999.25       -73.9606        -999.25       1.755272              1
      3423.5000         0.9929        -999.25        -999.25         0.8592        -999.25        -999.25       -74.4354        -999.25       1.273346              1
      3424.0000         0.9949        -999.25        -999.25         0.8608        -999.25        -999.25       -74.8107        -999.25      0.8909225              1
      3424.5000         0.9882        -999.25        -999.25         0.8606        -999.25        -999.25       -75.1149        -999.25      0.5795975              1
      3425.0000         0.9801        -999.25        -999.25         0.8541        -999.25        -999.25       -74.6068        -999.25       1.080574              1
      3425.5000         0.9718        -999.25        -999.25         0.8476        -999.25        -999.25       -73.6968        -999.25       1.983444              1
      3426.0000          0.964        -999.25        -999.25         0.8415        -999.25        -999.25       -72.8387        -999.25       2.834419              1
      3426.5000         0.9564        -999.25        -999.25         0.8354        -999.25        -999.25       -72.2177        -999.25       3.448296              1
      3427.0000         0.9549        -999.25        -999.25         0.8291        -999.25        -999.25       -72.0703        -999.25        3.58857              1
      3427.5000         0.9553        -999.25        -999.25         0.8268        -999.25        -999.25       -71.9586        -999.25       3.693138              1
      3428.0000         0.9541        -999.25        -999.25         0.8288        -999.25        -999.25       -71.8828        -999.25       3.761818              1
      3428.5000         0.9513        -999.25        -999.25         0.8387        -999.25        -999.25       -71.9865        -999.25       3.650986              1
      3429.0000         0.9484        -999.25        -999.25         0.8514        -999.25        -999.25       -72.2787        -999.25       3.351669              1
      3429.5000         0.9451        -999.25        -999.25         0.8612        -999.25        -999.25       -72.5886        -999.25       3.034645              1
      3430.0000         0.9446        -999.25        -999.25         0.8706        -999.25        -999.25       -72.7777        -999.25       2.838417              1
      3430.5000         0.9472        -999.25        -999.25         0.8787        -999.25        -999.25       -72.7812        -999.25       2.828255              1
      3431.0000         0.9615        -999.25        -999.25         0.8875        -999.25        -999.25       -72.6692        -999.25       2.937386              1
      3431.5000         0.9703        -999.25        -999.25         0.8973        -999.25        -999.25       -72.5491        -999.25       3.054619              1
      3432.0000         0.9773        -999.25        -999.25          0.904        -999.25        -999.25       -72.9127        -999.25       2.688164              1
      3432.5000         0.9804        -999.25        -999.25         0.9078        -999.25        -999.25       -73.5302        -999.25       2.067802              1
      3433.0000         0.9823        -999.25        -999.25         0.9037        -999.25        -999.25        -73.828        -999.25       1.767128              1
      3433.5000         0.9776        -999.25        -999.25         0.8988        -999.25        -999.25       -73.5437        -999.25       2.048569              1
      3434.0000          0.968        -999.25        -999.25         0.8927        -999.25        -999.25       -73.0387        -999.25       2.550713              1
      3434.5000          0.956        -999.25        -999.25         0.8858        -999.25        -999.25       -72.2933        -999.25       3.293251              1
      3435.0000         0.9442        -999.25        -999.25         0.8782        -999.25        -999.25       -71.4089        -999.25       4.174782              1
      3435.5000         0.9375        -999.25        -999.25         0.8705        -999.25        -999.25       -71.2776        -999.25       4.303215              1
      3436.0000          0.939        -999.25        -999.25         0.8627        -999.25        -999.25       -71.7203        -999.25       3.857658              1
      3436.5000         0.9488        -999.25        -999.25         0.8596        -999.25        -999.25       -72.4333        -999.25       3.141792              1
      3437.0000         0.9579        -999.25        -999.25         0.8577        -999.25        -999.25       -73.2991        -999.25       2.273125              1
      3437.5000         0.9665        -999.25        -999.25         0.8716        -999.25        -999.25       -73.7463        -999.25       1.823067              1
      3438.0000         0.9709        -999.25        -999.25         0.8832        -999.25        -999.25       -73.9366        -999.25       1.629906              1
      3438.5000         0.9735        -999.25        -999.25         0.8923        -999.25        -999.25       -74.0631        -999.25       1.500534              1
      3439.0000         0.9729        -999.25        -999.25         0.8949        -999.25        -999.25       -74.0891        -999.25       1.471672              1
      3439.5000         0.9714        -999.25        -999.25         0.8967        -999.25        -999.25       -73.7468        -999.25       1.811111              1
