#------------------------------------------------------------------------------
# Created by    : vladimir.rabinovich
# Created on    : 09/19/2023 17:21:44
#------------------------------------------------------------------------------
~Version Information Section
VERS.           2.0     :   CWLS log ASCII Standard - VERSION 2.0
WRAP.           NO      :   One line per depth step
~Well Information Section
#MNEM       .UNIT                                         VALUE :DESCRIPTION
#------------------------------------------------------------------------------
STRT        .FT                                            3434 :START DEPTH
STOP        .FT                                            9802 :STOP DEPTH
STEP        .FT                                             0.5 :STEP      
NULL        .                                           -999.25 :NULL      
COMP        .                                  UMC PETROLEUM CO :COMPANY   
WELL        .                               OCS G11352 ST00BP00 :WELL      
FLD         .                            HIGH ISLAND BLOCK 0093 :FIELD     
LOC         .                                                   :LOCATION  
CNTY        .                           HIGH ISLAND LARGE BLOCK :LOCATION  
STAT        .                                             TEXAS :STATE     
CTRY        .                                     UNITED STATES :COUNTRY   
SRVC        .                                                   :SERVICE COMPANY
DATE        .                             9/13/2023 11:19:57 AM :LOG DATE  
API         .                                    42708403880000 :API NUMBER
UWI         .                                    42708403880000 :UNIQUE WELL ID
XCOORD      .                                  1243413.75648782 :SURFACE X 
YCOORD      .                                  10663707.7269925 :SURFACE Y 
LAT         .                                         29.377731 :LATITUDE  
LON         .                                        -94.246854 :LONGITUDE 
ELEV        .FT                                              85 :ELEVATION VALUE
ELEV_TYPE   .                                                KB :ELEVATION REFERENCE TYPE
~Curve Information Section
#MNEM       .UNIT                                      API CODE :CURVE DESCRIPTION
#------------------------------------------------------------------------------
DEPT        .FT                                                 :DEPTH     
CALI        .IN                                                 :          
CALI_1      .IN                                                 :          
DPHI        .%                                                  :          
DRHO        .G/C3                                               :          
DT          .US/F                                               :          
GR          .GAPI                                               :          
GR_1        .GAPI                                               :          
GR_NORM     .GAPI                                               :GammaRay Normalized
ILD         .OHMM                                               :          
ILM         .OHMM                                               :          
NPHI        .%                                                  :          
RFOC        .OHMM                                               :          
SP          .MV                                                 :          
SP_NORM     .MV                                                 :SP Normalized
VSH_GR      .V/V                                                :Volume of Shale from GR
VSH_SP      .V/V                                                :Volume of Shale from SP
~A        DEPTH           CALI         CALI_1           DPHI           DRHO             DT             GR           GR_1        GR_NORM            ILD            ILM           NPHI           RFOC             SP        SP_NORM         VSH_GR         VSH_SP
# ...
      5578.0000        -999.25        12.2868        -999.25        -999.25       119.5981         42.246        -999.25       58.06211         0.2141         0.2282        -999.25         0.5347       -98.5728       -58.5728      0.5332364     0.09888001
      5578.5000        -999.25        12.2594        -999.25        -999.25       120.4447        43.8513        -999.25       61.02245         0.2139         0.2252        -999.25          0.544       -98.6995       -58.6995      0.5962222     0.09693075
      5579.0000        -999.25        12.2454        -999.25        -999.25       120.3003        40.8082        -999.25       55.39754         0.2145         0.2229        -999.25         0.5471       -98.9203       -58.9203      0.4765435     0.09353379
      5579.5000        -999.25        12.3473        -999.25        -999.25       117.6036         38.114        -999.25         50.417         0.2156          0.222        -999.25         0.5443       -99.1631       -59.1631      0.3705744     0.08979844
      5580.0000        -999.25          12.53        -999.25        -999.25       113.2778        35.8121        -999.25       46.16102          0.218         0.2237        -999.25         0.5359       -98.7531       -58.7531      0.2800218     0.09610619
      5580.5000        -999.25        12.7103        -999.25        -999.25       110.8776         34.804        -999.25        44.2946         0.2223         0.2253        -999.25         0.5304       -97.6927       -57.6927      0.2403106      0.1124199
      5581.0000        -999.25        12.8893        -999.25        -999.25       110.4116        36.3137        -999.25       47.07837         0.2275         0.2273        -999.25         0.5249       -96.4697       -56.4697      0.2995397      0.1312353
      5581.5000        -999.25        13.0682        -999.25        -999.25       112.4464        37.3889        -999.25       49.05964         0.2329         0.2308        -999.25         0.5128       -96.0371       -56.0371      0.3416945      0.1378907
      5582.0000        -999.25        13.2586        -999.25        -999.25       115.8351        38.2984        -999.25       50.73487         0.2339         0.2345        -999.25         0.4999       -96.4316       -56.4316      0.3773378      0.1318215
      5582.5000        -999.25        13.1389        -999.25        -999.25       119.1787        38.9518        -999.25       51.93713         0.2322          0.233        -999.25         0.5052       -96.8323       -56.8323      0.4029177      0.1256569
      5583.0000        -999.25        12.8951        -999.25        -999.25       120.9911        37.6919        -999.25       49.60564          0.228          0.228        -999.25          0.525       -97.2544       -57.2544      0.3533116       0.119163
      5583.5000        -999.25        12.7336        -999.25        -999.25       120.2714        34.1286        -999.25       43.01996         0.2191         0.2216        -999.25         0.5262       -97.7628       -57.7628      0.2131906      0.1113415
      5584.0000        -999.25        12.6399        -999.25        -999.25       118.8383        31.8863        -999.25       38.87406         0.2118         0.2149        -999.25         0.5171       -98.3768       -58.3768        0.12498      0.1018954
      5584.5000        -999.25        12.5502        -999.25        -999.25       117.8322        30.9635        -999.25       37.16517        -999.25        -999.25        -999.25         0.5078       -98.9579       -58.9579     0.08862061     0.09295537
      5585.0000        -999.25        12.4417        -999.25        -999.25        118.606        30.9465        -999.25       37.12924        -999.25        -999.25        -999.25         0.5109       -99.5619       -59.5619     0.08785621     0.08366312
      5585.5000        -999.25        12.2545        -999.25        -999.25       119.4437         31.597        -999.25       38.32613        -999.25        -999.25        -999.25           0.53      -100.1174       -60.1174      0.1133219      0.0751169
      5586.0000        -999.25        12.1643        -999.25        -999.25       120.5729        32.5164        -999.25       40.01966        -999.25        -999.25        -999.25         0.5329      -100.4651       -60.4651      0.1493544     0.06976765
      5586.5000        -999.25        12.2965        -999.25        -999.25        121.712        33.4271        -999.25       41.69712        -999.25        -999.25        -999.25         0.5269       -99.8717       -59.8717      0.1850451     0.07889698
      5587.0000        -999.25        12.4702        -999.25        -999.25       122.8639        34.2913        -999.25        43.2887        -999.25        -999.25        -999.25         0.5162       -99.0833       -59.0833      0.2189084     0.09102619
      5587.5000        -999.25         12.789        -999.25        -999.25       123.9202        34.7407        -999.25       44.11417         0.2111         0.2011        -999.25         0.5034       -98.2241       -58.2241      0.2364716      0.1042446
      5588.0000        -999.25        13.2605        -999.25        -999.25       122.4795        33.2831        -999.25       41.41754         0.2311         0.2198        -999.25         0.4937       -97.2433       -57.2433      0.1790965      0.1193338
      5588.5000        -999.25        13.4697        -999.25        -999.25       118.5632        32.3565        -999.25       39.70164         0.2455         0.2362        -999.25         0.4906       -96.4735       -56.4735       0.142588      0.1311769
      5589.0000        -999.25        13.3471        -999.25        -999.25        114.873        32.3605        -999.25       39.70449         0.2574         0.2518        -999.25         0.4944       -96.2733       -56.2733      0.1426487      0.1342569
      5589.5000        -999.25         13.299        -999.25        -999.25       111.9464        32.3122        -999.25       39.61074         0.2629         0.2592        -999.25         0.5084       -96.2297       -56.2297      0.1406541      0.1349277
      5590.0000        -999.25        13.5437        -999.25        -999.25       110.0046        31.4046        -999.25       37.92994         0.2601         0.2553        -999.25         0.5233       -96.4667       -56.4667      0.1048923      0.1312816
      5590.5000        -999.25        13.5654        -999.25        -999.25       110.7457        30.2338        -999.25       35.76303         0.2497         0.2419        -999.25         0.5224       -97.3948       -57.3948     0.05878789      0.1170031
      5591.0000        -999.25        13.4526        -999.25        -999.25       113.4336        29.1959        -999.25       33.84155         0.2345          0.226        -999.25         0.5169        -99.041        -59.041     0.01790538     0.09167692
      5591.5000        -999.25        13.4293        -999.25        -999.25       116.4028        28.3044        -999.25       32.19048         0.2175         0.2097        -999.25         0.5099      -100.6401       -60.6401              0     0.06707541
      5592.0000        -999.25        13.4019        -999.25        -999.25       118.6273         27.611        -999.25       30.90529        -999.25        -999.25        -999.25         0.5012      -102.1971       -62.1971              0     0.04312157
      5592.5000        -999.25         13.295        -999.25        -999.25       119.6886        27.3593        -999.25       30.43588        -999.25        -999.25        -999.25         0.4926      -102.6506       -62.6506              0     0.03614467
      5593.0000        -999.25        13.1966        -999.25        -999.25       119.7235        27.7705        -999.25        31.1908        -999.25        -999.25        -999.25         0.4841       -101.873        -61.873              0     0.04810768
      5593.5000        -999.25        13.1122        -999.25        -999.25       119.5851        31.5089        -999.25       38.09081        -999.25        -999.25        -999.25         0.4758      -100.7147       -60.7147      0.1083151     0.06592771
