#------------------------------------------------------------------------------
# Created by    : vladimir.rabinovich
# Created on    : 09/19/2023 17:22:44
#------------------------------------------------------------------------------
~Version Information Section
VERS.           2.0     :   CWLS log ASCII Standard - VERSION 2.0
WRAP.           NO      :   One line per depth step
~Well Information Section
#MNEM       .UNIT                                         VALUE :DESCRIPTION
#------------------------------------------------------------------------------
STRT        .FT                                            3420 :START DEPTH
STOP        .FT                                           11707 :STOP DEPTH
STEP        .FT                                             0.5 :STEP      
NULL        .                                           -999.25 :NULL      
COMP        .                        TRI-UNION DEVELOPMENT CORP :COMPANY   
WELL        .                               OCS G08154 ST00BP00 :WELL      
FLD         .                                           WILDCAT :FIELD     
LOC         .                                                   :LOCATION  
CNTY        .                           HIGH ISLAND LARGE BLOCK :LOCATION  
STAT        .                                             TEXAS :STATE     
CTRY        .                                     UNITED STATES :COUNTRY   
SRVC        .                                                   :SERVICE COMPANY
DATE        .                             9/13/2023 11:19:57 AM :LOG DATE  
API         .                                    42708403520000 :API NUMBER
UWI         .                                    42708403520000 :UNIQUE WELL ID
XCOORD      .                                  1180527.91159004 :SURFACE X 
YCOORD      .                                  10524923.1623167 :SURFACE Y 
LAT         .                                        28.9940426 :LATITUDE  
LON         .                                       -94.4389714 :LONGITUDE 
ELEV        .FT                                             100 :ELEVATION VALUE
ELEV_TYPE   .                                                KB :ELEVATION REFERENCE TYPE
~Curve Information Section
#MNEM       .UNIT                                      API CODE :CURVE DESCRIPTION
#------------------------------------------------------------------------------
DEPT        .FT                                                 :DEPTH     
DCAL        .IN                                                 :          
DPHI        .%                                                  :          
DRHO        .G/C3                                               :          
GR          .GAPI                                               :          
GR_NORM     .GAPI                                               :GammaRay Normalized
ILD         .OHMM                                               :          
ILM         .OHMM                                               :          
NPHI        .%                                                  :          
SFL         .OHMM                                               :          
SP          .MV                                                 :          
SP_NORM     .MV                                                 :SP Normalized
VSH_GR      .V/V                                                :Volume of Shale from GR
VSH_SP      .V/V                                                :Volume of Shale from SP
~A        DEPTH           DCAL           DPHI           DRHO             GR        GR_NORM            ILD            ILM           NPHI            SFL             SP        SP_NORM         VSH_GR         VSH_SP
# ...
     10051.0000         9.7712        22.1838         0.0333         70.606       72.18102         1.0586         1.0162        35.1588          0.914       -36.3356        -2.3733      0.8336388      0.9886879
     10051.5000         9.9642         21.213         0.0365        69.8878        71.3662         1.0316         1.0268        34.5773         0.9079       -36.0046        -2.0423      0.8163022      0.9987182
     10052.0000        10.1077        20.1464         0.0419        70.6422        72.2224         1.0443         1.0583        33.1067         0.9018       -35.5263         -1.564      0.8345193              1
     10052.5000        10.1386        18.8031         0.0459        72.1722       73.95875         1.0726         1.0947        31.7993         0.8966       -35.3486        -1.3863      0.8714627              1
     10053.0000        10.2404        18.0477         0.0446        73.6448       75.62993         1.0997         1.1233        30.8214         0.8981       -35.3589        -1.3966      0.9070197              1
     10053.5000        10.1426        18.3106         0.0395         73.868       75.88337         1.1091         1.1297          30.83         0.9217       -35.9928        -2.0305      0.9124121      0.9990758
     10054.0000         9.9448         18.311         0.0339         74.283       76.35446         1.1031         1.1028        31.0562           0.95       -36.1229        -2.1606      0.9224353      0.9951333
     10054.5000         9.5309        18.2736         0.0302        75.4146       77.63869         1.0934         1.0593        31.3849          0.962       -35.4464        -1.4841      0.9497595              1
     10055.0000         9.4181        18.1726         0.0262         77.233       79.70229         1.0816         1.0301        32.0408         0.9476       -35.0605        -1.0982      0.9936658              1
     10055.5000         9.3963        17.8405         0.0244        79.3088       82.05797         1.0932         1.0234        32.6476         0.9264       -35.1941        -1.2318              1              1
     10056.0000         9.5647        17.5084         0.0268        79.9446       82.77961         1.1016         1.0237         32.844         0.9094       -35.3802        -1.4179              1              1
     10056.5000         9.7823        17.5795         0.0287        79.8287       82.64824         1.0928          1.026        33.0408         0.9044       -35.7592        -1.7969              1              1
     10057.0000        10.0954        17.9086         0.0267        79.6036       82.39297         1.0886         1.0303        32.7191         0.9103       -36.0278        -2.0655              1      0.9980152
     10057.5000         10.125        18.9721         0.0221        79.3782       82.13734          1.088         1.0331        32.2175         0.9018       -36.1864        -2.2241              1      0.9932091
     10058.0000        10.1145         20.305         0.0196        78.5121       81.15471         1.0874         1.0345        31.8634         0.9072       -35.8898        -1.9275              1              1
     10058.5000        10.1839         21.222         0.0194        77.4479       79.94726         1.0868         1.0194        31.5228         0.8875       -35.5869        -1.6246      0.9988778              1
     10059.0000         10.318         20.765         0.0216        75.6244        77.8782          1.084         1.0093        31.4946         0.8598       -35.4639        -1.5016      0.9548554              1
     10059.5000        10.4251        19.8442          0.027        73.7809       75.78645         1.0798         1.0042        31.4898         0.8559        -35.911        -1.9487      0.9103501              1
     10060.0000        10.4391        18.6097         0.0398        72.6743       74.53089         1.0754         1.0194        31.0092         0.8729       -36.1814        -2.2191       0.883636      0.9933606
     10060.5000        10.4131        18.2993         0.0507        71.6514       73.37032          1.071         1.0404         30.161         0.9024       -36.0415        -2.0792      0.8589429         0.9976
     10061.0000        10.3714        17.8098          0.061        70.7521       72.34998          1.077         1.0592        29.8677         0.9659       -35.7124        -1.7501      0.8372337              1
     10061.5000         10.561        16.9093         0.0724        72.3621       74.17709          1.085         1.0808        29.3769         0.9578       -35.5585        -1.5962      0.8761083              1
     10062.0000        10.8487        14.7081         0.0891        76.9083       79.33607         1.0968         1.1016        28.0411         0.9314       -35.4851        -1.5228      0.9858738              1
     10062.5000        11.0641        14.4179         0.0984        79.3785       82.13929         1.1122         1.1036         26.977         0.9378       -35.1866        -1.2243              1              1
     10063.0000        11.1114        14.8719         0.0943        75.0648       77.24447         1.1021         1.0912        26.9723         0.9461       -34.8673         -0.905      0.9413717              1
     10063.5000        11.1407        15.3341         0.0894        72.8167        74.6936         1.0896          1.079        27.1348         0.9521       -34.8837        -0.9214      0.8870978              1
     10064.0000        11.1697        15.9557          0.085        70.7709       72.37228          1.078         1.0693        28.1723         0.9366        -35.028        -1.0657       0.837708              1
     10064.5000        11.1979        16.6505          0.077        69.9609       71.45328         1.0681         1.0711        29.5975         0.9224       -35.6025        -1.6402      0.8181549              1
     10065.0000        11.1355        17.7036         0.0581        70.3337       71.87648         1.0775         1.0824        30.2888         0.9107       -35.8888        -1.9265      0.8271592              1
     10065.5000        10.8721        17.7814          0.037        71.2523       72.91902         1.0901         1.0932        30.1565         0.9099       -35.8065        -1.8442      0.8493409              1
     10066.0000        10.7197        17.0828          0.026        71.7688       73.50528         1.1076         1.0977        29.2844          0.911       -35.7087        -1.7464      0.8618144              1
     10066.5000        10.6693        16.5271         0.0188         71.851       73.59872         1.1327          1.117        29.3403         0.9142       -35.5756        -1.6133      0.8638025              1
     10067.0000        10.6631          17.02          0.015        71.5983       73.31213         1.1579          1.141        29.7086         0.9188       -35.2853         -1.323      0.8577048              1
     10067.5000        10.7123         17.578         0.0118        71.2549       72.92261         1.1752         1.1683        30.0648         0.9332       -35.0064        -1.0441      0.8494172              1
     10068.0000        10.6738        17.7386         0.0101         70.897       72.51664         1.1927         1.1787        30.4211         0.9758       -34.8967        -0.9344      0.8407795              1
     10068.5000         10.486        17.8753         0.0112        70.1888       71.71317         1.2021         1.1861        29.4395         1.0033        -34.787        -0.8247      0.8236844              1
     10069.0000        10.3009        17.3917         0.0141        69.7393       71.20325         1.2106         1.2022        28.5018         1.0076       -34.9327        -0.9704      0.8128352              1
     10069.5000         10.123        16.7612         0.0169        70.2738       71.80994         1.2168         1.2121         27.849         1.0111       -35.1635        -1.2012      0.8257435              1
