#------------------------------------------------------------------------------
# Created by    : vladimir.rabinovich
# Created on    : 09/19/2023 17:20:02
#------------------------------------------------------------------------------
~Version Information Section
VERS.           2.0     :   CWLS log ASCII Standard - VERSION 2.0
WRAP.           NO      :   One line per depth step
~Well Information Section
#MNEM       .UNIT                                         VALUE :DESCRIPTION
#------------------------------------------------------------------------------
STRT        .FT                                             994 :START DEPTH
STOP        .FT                                           14137 :STOP DEPTH
STEP        .FT                                             0.5 :STEP      
NULL        .                                           -999.25 :NULL      
COMP        .                                   MARATHON OIL CO :COMPANY   
WELL        .                                     ST TR 00841-L :WELL      
FLD         .                                           WILDCAT :FIELD     
LOC         .                                                   :LOCATION  
CNTY        .                        MUSTANG ISLAND LARGE BLOCK :LOCATION  
STAT        .                                             TEXAS :STATE     
CTRY        .                                     UNITED STATES :COUNTRY   
SRVC        .                                                   :SERVICE COMPANY
DATE        .                             9/13/2023 11:18:55 AM :LOG DATE  
API         .                                    42702301400000 :API NUMBER
UWI         .                                    42702301400000 :UNIQUE WELL ID
XCOORD      .                                  272565.632686387 :SURFACE X 
YCOORD      .                                  9953986.84876921 :SURFACE Y 
LAT         .                                         27.367086 :LATITUDE  
LON         .                                       -97.2136853 :LONGITUDE 
ELEV        .FT                                              88 :ELEVATION VALUE
ELEV_TYPE   .                                                KB :ELEVATION REFERENCE TYPE
~Curve Information Section
#MNEM       .UNIT                                      API CODE :CURVE DESCRIPTION
#------------------------------------------------------------------------------
DEPT        .FT                                                 :DEPTH     
ASFL        .OHMM                                               :          
CILD        .MMHO                                               :          
GR          .GAPI                                               :          
GR_NORM     .GAPI                                               :GammaRay Normalized
ILD         .OHMM                                               :          
SP          .MV                                                 :          
SP_NORM     .MV                                                 :SP Normalized
VSH_GR      .V/V                                                :Volume of Shale from GR
VSH_SP      .V/V                                                :Volume of Shale from SP
~A        DEPTH           ASFL           CILD             GR        GR_NORM            ILD             SP        SP_NORM         VSH_GR         VSH_SP
# ...
     14111.5000         0.7558       2237.227        82.1504        46.8602         0.3989       -46.7747      -3.917557      0.2948978      0.9141895
     14112.0000         0.7468       2221.695        82.4395       47.39694         0.3972       -45.9997      -3.142555      0.3063179      0.9369836
     14112.5000         0.7377       2206.164        82.7285        47.9335         0.3956       -45.2272      -2.370056      0.3177341      0.9597042
     14113.0000         0.7287       2190.633        82.8721       48.20012         0.3939       -45.4085      -2.551357      0.3234069      0.9543719
     14113.5000         0.7196       2175.102        82.7169       47.91197         0.3922       -45.7462      -2.889057       0.317276      0.9444395
     14114.0000         0.7106       2176.445        82.5618         47.624         0.3906       -46.0838      -3.226658       0.311149      0.9345101
     14114.5000         0.7109       2199.047        82.4067       47.33604         0.3889       -46.4221      -3.564957      0.3050222      0.9245601
     14115.0000         0.7167        2218.66        82.2516       47.04809         0.3872        -46.533      -3.675858      0.2988955      0.9212983
     14115.5000         0.7245       2214.738        82.0964       46.75993         0.3856       -45.9287      -3.071556      0.2927645      0.9390719
     14116.0000         0.7306       2227.918        81.9414       46.47216         0.3839       -45.3245      -2.467358      0.2866418      0.9568424
     14116.5000         0.7209       2257.984        82.2644       47.07184         0.3822       -44.3103      -1.453156      0.2994009      0.9866719
     14117.0000         0.7112       2291.238        82.6718       47.82823         0.3804        -45.521      -2.663857      0.3154942       0.951063
     14117.5000         0.7015        2329.27        83.0779       48.58221         0.3782        -45.521      -2.663857      0.3315364       0.951063
     14118.0000         0.6946       2367.398        83.3162       49.02464         0.3759        -45.521      -2.663857      0.3409499       0.951063
     14118.5000         0.6884        2405.43        83.2166       48.83971         0.3736        -45.521      -2.663857      0.3370152       0.951063
     14119.0000         0.6821       2443.461        83.1172       48.65518         0.3713        -45.521      -2.663857      0.3330889       0.951063
     14119.5000         0.6759       2479.699        83.4766       49.32244         0.3691        -45.521      -2.663857      0.3472861       0.951063
     14120.0000         0.6697       2515.641        83.8865       50.08345         0.3668       -42.6281      0.2290421      0.3634776              1
     14120.5000         0.6635       2501.402        84.2952       50.84226         0.3645       -42.9408    -0.08365631      0.3796225              1
     14121.0000         0.6573       2478.555        84.7037       51.60067         0.3622       -42.9445    -0.08735657       0.395759              1
     14121.5000         0.6567       2453.965        85.1124       52.35948           0.36       -42.9112    -0.05405807      0.4119038              1
     14122.0000         0.6692       2429.422        85.5223       53.12051         0.3577       -42.8778    -0.02065659       0.428096              1
     14122.5000         0.6816       2404.883        85.9092       53.83883         0.3554       -42.6686      0.1885452      0.4433794              1
     14123.0000         0.6954        2380.34        86.2742       54.51651         0.3558       -42.2238      0.6333427       0.457798              1
     14123.5000         0.7099       2355.801         85.865       53.75676         0.3562       -41.7803       1.076843      0.4416333              1
     14124.0000         0.7245       2331.309        84.3898        51.0179         0.3565       -41.3354       1.521744      0.3833596              1
     14124.5000          0.722       2306.816        83.3147       49.02185         0.3569       -40.9206       1.936543      0.3408905              1
     14125.0000          0.713       2282.375        82.6368       47.76326         0.3573       -40.5369       2.320244      0.3141118              1
     14125.5000         0.7045       2257.734        82.4264       47.37262         0.3576       -40.5693       2.287842      0.3058004              1
     14126.0000          0.696       2232.148        83.2037       48.81576          0.358       -41.0838       1.773342      0.3365055              1
     14126.5000          0.695       2223.125        84.0061       50.30552         0.3584        -41.546       1.311142      0.3682025              1
     14127.0000         0.6989       2216.082        83.4779       49.32484         0.3617       -42.0095      0.8476448      0.3473369              1
     14127.5000         0.7029        2245.84        81.1804       45.05927         0.3649       -42.4717      0.3854446      0.2565803              1
     14128.0000         0.7068       2280.883        80.1987       43.23664         0.3682        -42.934    -0.07685471      0.2178009              1
     14128.5000         0.7003       2315.129        79.4088        41.7701         0.3715       -43.3974     -0.5402565      0.1865979              1
     14129.0000         0.6905       2349.379        79.9819       42.83413         0.3748       -43.6092     -0.7520561      0.2092369              1
     14129.5000         0.6808       2383.625        80.5364       43.86363          0.378       -43.0062     -0.1490555       0.231141              1
     14130.0000          0.671        2407.82        81.0385       44.79582         0.3813       -42.4019      0.4552422       0.250975              1
     14130.5000         0.6614       2420.988        81.5417       45.73008         0.3846       -41.8363       1.020844      0.2708528              1
     14131.0000         0.6539       2421.309        82.0438       46.66227         0.3858       -41.2856       1.571545      0.2906867              1
     14131.5000         0.6464       2421.625        82.5472        47.5969         0.3865        -40.735       2.122143      0.3105723              1
     14132.0000         0.6388       2421.945        82.6257       47.74265         0.3871       -40.1905       2.666645      0.3136734              1
     14132.5000         0.6345       2422.262        81.5094        45.6701         0.3878       -39.7283       3.128845      0.2695766              1
     14133.0000         0.6358       2422.582        80.3955       43.60202         0.3885        -39.382       3.475143       0.225575              1
     14133.5000         0.6372       2421.547        79.2793       41.52966         0.3891       -39.3383       3.518845      0.1814822              1
     14134.0000         0.6386       2420.027        78.5504       40.17639         0.3898       -40.0236       2.833542      0.1526891              1
     14134.5000         0.6397       2418.512        79.2344       41.44631         0.3905       -40.6577       2.199444      0.1797087              1
     14135.0000         0.6408       2416.992        79.9695        42.8111         0.3911       -41.1785       1.678642      0.2087468              1
     14135.5000         0.6419       2415.477        80.7046       44.17591         0.3918       -41.6993       1.157845      0.2377853              1
     14136.0000         0.6429       2413.957         81.761       46.13723          0.391       -42.2213      0.6358452      0.2795155              1
     14136.5000          0.644       2412.438        82.5048       47.51817         0.3899       -42.4941      0.3630447      0.3088973              1
     14137.0000         0.6451       2410.926        82.1149       46.79428         0.3887       -42.2505      0.6066437      0.2934954              1
