#------------------------------------------------------------------------------
# Created by    : vladimir.rabinovich
# Created on    : 09/19/2023 17:19:47
#------------------------------------------------------------------------------
~Version Information Section
VERS.           2.0     :   CWLS log ASCII Standard - VERSION 2.0
WRAP.           NO      :   One line per depth step
~Well Information Section
#MNEM       .UNIT                                         VALUE :DESCRIPTION
#------------------------------------------------------------------------------
STRT        .FT                                            2960 :START DEPTH
STOP        .FT                                           11758 :STOP DEPTH
STEP        .FT                                             0.5 :STEP      
NULL        .                                           -999.25 :NULL      
COMP        .                             CHAMPLIN PETROLEUM CO :COMPANY   
WELL        .                               OCS G06095 ST00BP00 :WELL      
FLD         .                                           WILDCAT :FIELD     
LOC         .                                                   :LOCATION  
CNTY        .                             GALVESTON LARGE BLOCK :LOCATION  
STAT        .                                             TEXAS :STATE     
CTRY        .                                     UNITED STATES :COUNTRY   
SRVC        .                                                   :SERVICE COMPANY
DATE        .                             9/13/2023 11:19:27 AM :LOG DATE  
API         .                                    42706401150000 :API NUMBER
UWI         .                                    42706401150000 :UNIQUE WELL ID
XCOORD      .                                  1057213.14222316 :SURFACE X 
YCOORD      .                                  10507856.7651171 :SURFACE Y 
LAT         .                                        28.9424301 :LATITUDE  
LON         .                                       -94.8238502 :LONGITUDE 
ELEV        .FT                                              89 :ELEVATION VALUE
ELEV_TYPE   .                                                KB :ELEVATION REFERENCE TYPE
~Curve Information Section
#MNEM       .UNIT                                      API CODE :CURVE DESCRIPTION
#------------------------------------------------------------------------------
DEPT        .FT                                                 :DEPTH     
ASFL        .OHMM                                               :          
CILD        .MMHO                                               :          
GR          .GAPI                                               :          
GR_NORM     .GAPI                                               :GammaRay Normalized
ILD         .OHMM                                               :          
SP          .MV                                                 :          
SP_NORM     .MV                                                 :SP Normalized
VSH_GR      .V/V                                                :Volume of Shale from GR
VSH_SP      .V/V                                                :Volume of Shale from SP
~A        DEPTH           ASFL           CILD             GR        GR_NORM            ILD             SP        SP_NORM         VSH_GR         VSH_SP
# ...
      5318.5000         0.6382       2021.551        44.7767       69.03992         0.3757        59.1475       -9.52248      0.7668069      0.8295504
      5319.0000         0.6208       1962.107        46.2123       73.13899         0.3658        58.6169      -8.999908      0.8540211      0.8400018
      5319.5000         0.6033       1905.629        47.6479       77.23801         0.3558        60.0478      -10.43883      0.9412342      0.8112234
      5320.0000         0.5894       1843.691        48.3942       79.36844         0.3458        63.2566      -13.65566      0.9865626      0.7468868
      5320.5000          0.593       1950.248        46.9775       75.32137         0.3666        65.8767      -16.28379      0.9004548      0.6943243
      5321.0000          0.608       2214.188        45.4578       70.98015         0.3882        68.0112      -18.42631      0.8080882      0.6514738
      5321.5000         0.6229       2364.609        43.7083       65.98258         0.4098        69.8365      -20.25964      0.7017571      0.6148071
      5322.0000         0.6379       2515.027        41.9599       60.98819         0.4313        71.5931      -22.02427      0.5954933      0.5795146
      5322.5000         0.6528       2997.164        40.7292       57.47232         0.4529        73.8318        -24.271      0.5206878      0.5345801
      5323.0000         0.6345       3097.977        39.6335       54.34204         0.4673        77.1816      -27.62882      0.4540861      0.4674236
      5323.5000         0.6132       3200.672        38.7244       51.74465         0.4467        82.0073      -32.46255      0.3988223      0.3707491
      5324.0000          0.592       3329.066        38.1577       50.12516         0.4261        85.0538      -35.51708      0.3643652      0.3096584
      5324.5000         0.5708       3497.938        37.5909        48.5054         0.4055         87.417       -37.8883      0.3299022       0.262234
      5325.0000         0.5508       3652.688           39.2       53.09995         0.3849        82.2798      -32.75913      0.4276585      0.3648174
      5325.5000         0.5307       3746.535        41.5856       59.91218         0.3643        75.9604      -26.44776      0.5725995      0.4910448
      5326.0000         0.5107        3376.32        44.3787        67.8882         0.3437        74.6539      -25.14928      0.7423021      0.5170144
      5326.5000         0.4976       2991.516        46.7086       74.54134         0.3231        73.3971      -23.90051      0.8838582      0.5419898
      5327.0000         0.4928       2849.285        48.0838       78.46792         0.3025        72.1711      -22.68253      0.9674025      0.5663493
      5327.5000         0.5052       2706.113         48.072       78.43317         0.2902        70.8824      -21.40186      0.9666633      0.5919628
      5328.0000         0.5177       2580.637        47.2955       76.21449         0.2811        69.4694      -19.99689      0.9194571      0.6200622
      5328.5000         0.5301        2459.68        46.5273       74.01953          0.272        67.7032      -18.23872       0.872756      0.6552257
      5329.0000         0.5457         2167.5        45.7592       71.82486         0.2714        64.6638      -15.20734      0.8260608      0.7158531
      5329.5000         0.5622       1948.176        47.0367        75.4724          0.302         60.428      -10.97957       0.903668      0.8004086
      5330.0000         0.5786       1831.219        49.0883       81.33065         0.3326        57.6349      -8.194496              1      0.8561101
      5330.5000         0.5951       1791.686        48.1229       78.57253         0.3632        55.1238      -5.691422      0.9696282      0.9061716
      5331.0000         0.6116       1806.545        47.1587       75.81778         0.3938        53.0308      -3.606449      0.9110166       0.947871
      5331.5000         0.6194       1821.406        45.9517       72.36959         0.4244        51.8392      -2.422874      0.8376509      0.9715425
      5332.0000         0.6211       1836.268        44.5836        68.4613         0.4519        50.7518      -1.343502      0.7544958        0.99313
      5332.5000         0.6158       1851.117          43.54       65.47982         0.4784        50.1631     -0.7628326        0.69106              1
      5333.0000         0.6105       1864.789        42.7761       63.29715         0.5049        49.5744     -0.1821594      0.6446201              1
      5333.5000         0.6052       1850.117         42.073       61.28811         0.5314        49.9069     -0.5226822      0.6018746              1
      5334.0000         0.6161       1803.969        43.2581       64.67174         0.5579        50.6238      -1.247608      0.6738667      0.9950478
      5334.5000         0.6273       1745.703        45.2267       70.29303         0.5843        51.6721      -2.303936      0.7934687      0.9739213
      5335.0000         0.6372       1750.738        47.0355       75.45788         0.5857        52.7192      -3.359062      0.9033591      0.9528188
      5335.5000          0.647       1821.383        48.1964       78.77237         0.5786        53.7675      -4.415394      0.9738802      0.9316921
      5336.0000         0.6569       1892.074         49.356       82.08315         0.5716        55.1735      -5.829418              1      0.9034116
      5336.5000         0.6667       1963.707        50.1851       84.45003         0.5646        57.6373      -8.301243              1      0.8539751
      5337.0000         0.6765       2060.754        50.8312       86.29429         0.5468        60.0466      -10.71857              1      0.8056286
      5337.5000         0.6778       2157.805        50.6394       85.74549          0.524        62.0934       -12.7734              1      0.7645321
      5338.0000         0.6762       2308.695        50.0181       83.97009         0.5012        64.1426      -14.83063              1      0.7233875
      5338.5000         0.6746       2476.246        49.3334       82.01361         0.4785        67.2437      -17.93975              1       0.661205
      5339.0000          0.673       2640.973        48.6482       80.05571         0.4557        72.0503      -22.75438              1      0.5649124
      5339.5000         0.6616           2833         47.963       78.09775         0.4329        73.9634      -24.67551      0.9595265      0.5264899
      5340.0000         0.6458       3460.848        47.1818        75.8657         0.4101        75.5518      -26.27193      0.9120362      0.4945613
      5340.5000           0.63       3546.227        46.3669       73.53733         0.3873        77.1698      -27.89796      0.8624964      0.4620409
      5341.0000         0.6142       3423.762        45.5519       71.20863         0.3646        78.9631      -29.69928      0.8129497      0.4260143
      5341.5000          0.595       3161.891        44.6855       68.73328          0.353        80.2471      -30.99131      0.7602825      0.4001737
      5342.0000         0.5746       3032.555        43.8007       66.20531         0.3429        78.3046      -29.05684      0.7064961      0.4388632
      5342.5000         0.5543       2911.883        42.9448       63.75986         0.3375        76.3619      -27.12217      0.6544651      0.4775567
      5343.0000         0.5438       2742.824        42.1257       61.41954         0.3686        74.4193      -25.18759      0.6046712      0.5162482
      5343.5000         0.5542       2445.938         41.306       59.07748         0.3997        72.4768      -23.25312      0.5548399      0.5549376
      5344.0000         0.5756       1755.773        40.7274       57.42403         0.4308        70.5342      -21.31855      0.5196601       0.593629
      5344.5000         0.5969       1313.785        41.8687       60.68253         0.4619        67.5398      -18.33218      0.5889899      0.6533565
