#------------------------------------------------------------------------------
# Created by    : vladimir.rabinovich
# Created on    : 09/19/2023 17:22:53
#------------------------------------------------------------------------------
~Version Information Section
VERS.           2.0     :   CWLS log ASCII Standard - VERSION 2.0
WRAP.           NO      :   One line per depth step
~Well Information Section
#MNEM       .UNIT                                         VALUE :DESCRIPTION
#------------------------------------------------------------------------------
STRT        .FT                                             411 :START DEPTH
STOP        .FT                                           10036 :STOP DEPTH
STEP        .FT                                             0.5 :STEP      
NULL        .                                           -999.25 :NULL      
COMP        .                          HUMBLE OIL & REFINING CO :COMPANY   
WELL        .                                     ST TR 00278-L :WELL      
FLD         .                                           WILDCAT :FIELD     
LOC         .                                                   :LOCATION  
CNTY        .                             GALVESTON LARGE BLOCK :LOCATION  
STAT        .                                             TEXAS :STATE     
CTRY        .                                     UNITED STATES :COUNTRY   
SRVC        .                                                   :SERVICE COMPANY
DATE        .                             9/13/2023 11:19:42 AM :LOG DATE  
API         .                                    42706000220000 :API NUMBER
UWI         .                                    42706000220000 :UNIQUE WELL ID
XCOORD      .                                  941560.719964966 :SURFACE X 
YCOORD      .                                  10497824.1170516 :SURFACE Y 
LAT         .                                        28.9094621 :LATITUDE  
LON         .                                       -95.1847519 :LONGITUDE 
ELEV        .FT                                              10 :ELEVATION VALUE
ELEV_TYPE   .                                                KB :ELEVATION REFERENCE TYPE
~Curve Information Section
#MNEM       .UNIT                                      API CODE :CURVE DESCRIPTION
#------------------------------------------------------------------------------
DEPT        .FT                                                 :DEPTH     
LAT         .OHMM                                               :          
LN          .OHMM                                               :          
SN          .OHMM                                               :          
SP          .MV                                                 :          
SP_NORM     .MV                                                 :SP Normalized
VSH_SP      .V/V                                                :Volume of Shale from SP
~A        DEPTH            LAT             LN             SN             SP        SP_NORM         VSH_SP
# ...
      8087.0000         1.2544         0.8777         1.1012        76.5881      -3.829758       0.968205
      8087.5000         1.2583         0.8668         1.1047        77.1599      -4.407318      0.9617155
      8088.0000         1.2623          0.856          1.095        75.9235      -3.176682      0.9755429
      8088.5000         1.2663         0.8452         1.0853        74.6893      -1.948242      0.9893456
      8089.0000         1.2702         0.8343         1.0755        73.4529     -0.7176056              1
      8089.5000         1.2742         0.8235         1.0654        72.6603     0.06923676              1
      8090.0000         1.2741         0.8127         1.0542         71.981       0.742775              1
      8090.5000         1.2721         0.8018         1.0431         72.136       0.582016              1
      8091.0000         1.2701         0.8078         1.0319        72.4216       0.290657              1
      8091.5000         1.2681         0.8163         1.0208        72.7073  -0.0008010864              1
      8092.0000         1.2661         0.8248         1.0097        72.9929       -0.29216              1
      8092.5000         1.2641         0.8334         0.9985        73.2784     -0.5834198              1
      8093.0000         1.2473         0.8419         0.9874        73.5195     -0.8302841              1
      8093.5000         1.2292         0.8504         0.9763           73.4     -0.7165451              1
      8094.0000         1.2112         0.8589         0.9713        73.2808     -0.6031036              1
      8094.5000         1.1931         0.8674         0.9682        73.1613     -0.4893646              1
      8095.0000         1.1751         0.8684         0.9652        73.0419     -0.3757248              1
      8095.5000         1.1727         0.8688         0.9622        72.9225      -0.262085              1
      8096.0000         1.1714         0.8693         0.9592        72.8031     -0.1484451              1
      8096.5000         1.1701         0.8698         0.9562        72.4701      0.1787949              1
      8097.0000         1.1687         0.8702         0.9531        72.0941      0.5490341              1
      8097.5000         1.2252         0.8707         0.9501        71.7183       0.919075              1
      8098.0000          1.284         0.8711         0.9595        71.3423       1.289322              1
      8098.5000         1.3428         0.8761          0.977        70.9664       1.659462              1
      8099.0000         1.4015         0.8881         0.9945        70.5905       2.029602              1
      8099.5000         1.4603            0.9         1.0119        70.2146       2.399742              1
      8100.0000         1.5408          0.912         1.0294        69.9629       2.645683              1
      8100.5000         1.6442         0.9239         1.0468        70.1191       2.483719              1
      8101.0000         1.7475         0.9358         1.0643        70.2758       2.321259              1
      8101.5000         1.8508         0.9478         1.0818         70.432       2.159302              1
      8102.0000         1.8152         0.9597         1.0992        70.5883       1.997238              1
      8102.5000          1.774         0.9583         1.1126        70.6324        1.94738              1
      8103.0000         1.7327         0.9561         1.1198        70.2972       2.276817              1
      8103.5000         1.6915         0.9363          1.127        69.9615       2.606758              1
      8104.0000         1.5631         0.8844         1.1343        69.6259         2.9366              1
      8104.5000         1.4001         0.8325         1.1415        69.2906       3.266136              1
      8105.0000         1.2369         0.7806         1.1487        68.8491       3.701881              1
      8105.5000         1.1135         0.7287         1.1559        68.3916       4.153618              1
      8106.0000         1.0702         0.6894         1.1632        67.9342       4.605263              1
      8106.5000         1.0269         0.6516         1.1704        67.4773       5.056396              1
      8107.0000         0.9836         0.6138         1.1776        67.8142       4.713737              1
      8107.5000         0.9543          0.576         1.1927        68.4551       4.067078              1
      8108.0000         0.9608         0.5583         1.2092        69.0959       3.420517              1
      8108.5000         0.9673         0.5663         1.2256        69.7368       2.773857              1
      8109.0000         0.9738         0.5742         1.2409        70.1274       2.377495              1
      8109.5000         0.9802         0.5822         1.2533        70.2065       2.292641              1
      8110.0000         0.9867         0.5902         1.2658        70.2858       2.207581              1
      8110.5000         0.9932         0.6056         1.2341         70.365        2.12262              1
      8111.0000         0.9997         0.6247         1.1977        70.4246       2.057259              1
      8111.5000         1.0061         0.6439         1.1612        69.9412       2.534897              1
      8112.0000         0.9976         0.6631         1.1254        69.4583       3.012039              1
      8112.5000         0.9879         0.6822         1.0988        68.9747       3.489883              1
      8113.0000         0.9781         0.6851         1.0722        68.4913       3.967522              1
      8113.5000         0.9683         0.6814         1.0456        68.0084       4.444664              1
      8114.0000         0.9586         0.6776          1.019        69.2975       3.149803              1
      8114.5000         0.9488         0.6739         0.9924        72.5765     -0.1349564              1
      8115.0000         0.9155         0.6702         0.9659        75.8601      -3.424316      0.9727605
      8115.5000         0.8731         0.6605         0.9393        79.3519      -6.921875      0.9334621
      8116.0000         0.8307         0.6485         0.9246        82.8711      -10.44684      0.8938558
      8116.5000         0.7882         0.6365         0.9539        86.3901       -13.9716      0.8542517
      8117.0000         0.7457         0.6245         0.9832        94.3477      -21.93496      0.7647758
      8117.5000         0.7033         0.6126         1.0125       105.8877      -33.48072      0.6350481
      8118.0000         0.6753         0.6006         1.0441       101.7391      -29.33788      0.6815969
      8118.5000         0.6655         0.5886         1.0821        83.9716      -11.57614      0.8811669
      8119.0000         0.6557         0.5766         1.1201        80.6427      -8.252998      0.9185056
      8119.5000         0.6459         0.5647         1.1582        77.3546      -4.970657      0.9553859
      8120.0000         0.6361         0.5527         1.1962         74.387       -2.00882      0.9886649
      8120.5000         0.6616         0.5471         1.2192        73.2627     -0.8902817              1
      8121.0000         0.7068         0.5476         1.2136        72.1372      0.2294617              1
      8121.5000          0.752         0.5481         1.2079        73.0486     -0.6876984              1
      8122.0000         0.7972         0.5487         1.2023        75.4298      -3.074661      0.9766892
      8122.5000         0.8424         0.5492         1.1966        78.2786      -5.929222      0.9446155
      8123.0000         0.8875         0.5497         1.2405        81.1318      -8.788177      0.9124924
      8123.5000         0.9327         0.5588         1.3009        85.4436      -13.10574      0.8639804
      8124.0000         0.9395         0.5686         1.3613        93.6321          -21.3      0.7719101
      8124.5000         0.9449         0.5784         1.4043       119.1307      -46.80436      0.4853443
