#------------------------------------------------------------------------------
# Created by    : vladimir.rabinovich
# Created on    : 09/19/2023 17:21:46
#------------------------------------------------------------------------------
~Version Information Section
VERS.           2.0     :   CWLS log ASCII Standard - VERSION 2.0
WRAP.           NO      :   One line per depth step
~Well Information Section
#MNEM       .UNIT                                         VALUE :DESCRIPTION
#------------------------------------------------------------------------------
STRT        .FT                                            2869 :START DEPTH
STOP        .FT                                           10002 :STOP DEPTH
STEP        .FT                                             0.5 :STEP      
NULL        .                                           -999.25 :NULL      
COMP        .                          SEAGULL ENERGY E & P INC :COMPANY   
WELL        .                               OCS G06145 ST00BP00 :WELL      
FLD         .                                           WILDCAT :FIELD     
LOC         .                                                   :LOCATION  
CNTY        .                           HIGH ISLAND LARGE BLOCK :LOCATION  
STAT        .                                             TEXAS :STATE     
CTRY        .                                     UNITED STATES :COUNTRY   
SRVC        .                                                   :SERVICE COMPANY
DATE        .                             9/13/2023 11:19:59 AM :LOG DATE  
API         .                                    42708402850000 :API NUMBER
UWI         .                                    42708402850000 :UNIQUE WELL ID
XCOORD      .                                  1277324.30822617 :SURFACE X 
YCOORD      .                                   10672684.104362 :SURFACE Y 
LAT         .                                         29.403374 :LATITUDE  
LON         .                                        -94.140646 :LONGITUDE 
ELEV        .FT                                              88 :ELEVATION VALUE
ELEV_TYPE   .                                                KB :ELEVATION REFERENCE TYPE
~Curve Information Section
#MNEM       .UNIT                                      API CODE :CURVE DESCRIPTION
#------------------------------------------------------------------------------
DEPT        .FT                                                 :DEPTH     
CALI        .IN                                                 :          
DPHI        .%                                                  :          
DRHO        .G/C3                                               :          
GR          .GAPI                                               :          
GR_NORM     .GAPI                                               :GammaRay Normalized
ILD         .OHMM                                               :          
ILM         .OHMM                                               :          
NPHI        .%                                                  :          
SFL         .OHMM                                               :          
SP          .MV                                                 :          
SP_NORM     .MV                                                 :SP Normalized
VSH_GR      .V/V                                                :Volume of Shale from GR
VSH_SP      .V/V                                                :Volume of Shale from SP
~A        DEPTH           CALI           DPHI           DRHO             GR        GR_NORM            ILD            ILM           NPHI            SFL             SP        SP_NORM         VSH_GR         VSH_SP
# ...
      3933.0000        17.5188        34.7511        -0.0078        26.3064       34.49222         0.2819         0.3997        35.8321         0.7863       -82.4729      -61.47774     0.03174932      0.1217466
      3933.5000        17.7137        34.5423        -0.0077        26.6509       34.91584          0.284         0.3985         36.959          0.754       -82.5593      -61.56028     0.04076248      0.1205674
      3934.0000        17.9814         33.944        -0.0053        26.7548       35.04399         0.2871         0.4037        37.7803          0.739       -82.5851      -61.57326     0.04348926       0.120382
      3934.5000         18.086        33.2994        -0.0019        26.0764       34.21144          0.291         0.4145        38.8444         0.7562       -82.6235      -61.60069     0.02577526      0.1199901
      3935.0000        18.4213        32.7187        -0.0001        25.3377       33.30481         0.2936         0.4228        40.2086         0.7914       -82.7915      -61.77691    0.006485229      0.1174728
      3935.5000        18.8187         32.508         0.0011        25.6095       33.63915         0.2984         0.4262        41.3767         0.8096       -82.8435      -61.81996     0.01359899      0.1168577
      3936.0000         19.404        33.2743         0.0015        26.3603       34.56174          0.301         0.4264        41.8383         0.8157       -82.9365      -61.91008     0.03322853      0.1155703
      3936.5000        19.8828        35.0631         0.0014        27.0448       35.40291         0.3029         0.4261        42.1426         0.8158       -82.9926      -61.95784     0.05112571       0.114888
      3937.0000        20.5746        36.7201         0.0012        27.1223       35.49864         0.3045         0.4253        41.9849         0.8157       -83.0204      -61.97311     0.05316259      0.1146699
      3937.5000        21.4291        37.8807         0.0001        26.4672       34.69469         0.3062         0.4249        41.6754         0.8221       -83.0437      -61.98321     0.03605717      0.1145256
      3938.0000        22.4039        38.5295        -0.0011        25.9735       34.08894         0.3097          0.426        41.5504         0.8296       -83.0664      -61.99263     0.02316893      0.1143911
      3938.5000        23.2219        39.1978        -0.0028        25.5728        33.5974         0.3123         0.4282        43.4433          0.832       -82.9974      -61.89678     0.01271073      0.1157603
      3939.0000        23.4063         40.842        -0.0071        25.3348       33.30569         0.3124         0.4326        47.5405         0.8178       -82.9054      -61.77452    0.006503978      0.1175068
      3939.5000        23.4974        43.9614        -0.0203        25.7377       33.80102         0.3103         0.4348         52.084         0.8111       -82.7878      -61.62288     0.01704301      0.1196732
      3940.0000        23.5201        47.5225        -0.0293        26.5109       34.75112         0.3058         0.4341        54.0938         0.8048       -82.6104      -61.40258     0.03725791      0.1228202
      3940.5000        23.5211        49.1706        -0.0312        27.5958       36.08401         0.3024         0.4242        53.1173         0.7823       -82.3484      -61.08517     0.06561734      0.1273547
      3941.0000        23.5237        46.8217        -0.0228        28.2207       36.85198         0.2993         0.4165        52.2427         0.7467       -81.9928      -60.66032     0.08195706       0.133424
      3941.5000        23.5268         41.769         -0.014        28.9637         37.765         0.2964         0.4098        52.3644         0.7191        -81.437      -60.00564       0.101383      0.1427766
      3942.0000        23.5126        38.3652        -0.0073        29.7438       38.72356         0.2949          0.405        52.6645         0.6997       -80.8364      -59.29954      0.1217779      0.1528637
      3942.5000        23.4978         37.219        -0.0028        30.7687       39.98278         0.2945         0.4032        52.5771         0.6906        -80.251      -58.61088      0.1485698      0.1627017
      3943.0000        23.4883        37.8957        -0.0054        31.8653       41.33003         0.2958          0.405        52.0114         0.6906       -79.9214      -58.21587      0.1772347      0.1683447
      3943.5000        23.5005        40.0139        -0.0106        32.8912       42.59046         0.2981         0.4104        51.2327         0.6914       -79.8972      -58.17144      0.2040523      0.1689794
      3944.0000        23.5175        43.5601        -0.0157         33.707       43.59287         0.3006          0.416        50.6788         0.6918        -79.949      -58.21426      0.2253803      0.1683677
      3944.5000        23.5341        47.1272        -0.0203        33.9285       43.86545         0.3032         0.4207        50.5382         0.6921       -79.8273      -58.05792      0.2311797      0.1706012
      3945.0000        23.5433        50.6254        -0.0242        33.0891       42.83515         0.3043          0.422        51.6737         0.6905       -79.2936      -57.42861      0.2092585      0.1795913
      3945.5000          23.55        52.7504        -0.0278        31.7761       41.22326         0.3043         0.4193        53.9215         0.6816         -78.36      -56.34023       0.174963      0.1951396
      3946.0000        23.5556        53.7704        -0.0305         30.634       39.82123          0.303         0.4138        54.9944           0.66        -77.399       -55.2204      0.1451326      0.2111372
      3946.5000        23.5587        53.8289        -0.0309        29.9138       38.93733         0.3008          0.408        54.9323         0.6348       -76.7936      -54.50879      0.1263261      0.2213031
      3947.0000        23.5612        52.8687        -0.0296        29.7115       38.68945         0.2985         0.4042        53.7163         0.6134       -76.6429      -54.31914       0.121052      0.2240123
      3947.5000        23.5621        50.6135        -0.0277        29.7258       38.70756         0.2971         0.4037        52.3625         0.5989       -76.7368      -54.41029      0.1214374      0.2227101
      3948.0000        23.5643        49.8257        -0.0274        30.0356       39.08858         0.2976         0.4045         52.169         0.5925       -76.9614      -54.65148      0.1295442      0.2192646
      3948.5000        23.5676        52.8358        -0.0346        30.5188       39.68253         0.2986         0.4076        54.1896         0.5987        -77.203      -54.91219      0.1421815      0.2155402
      3949.0000        23.5674         59.416        -0.0464        30.9295       40.18745         0.2998         0.4121        57.4736          0.617         -77.28      -54.98393      0.1529246      0.2145153
      3949.5000        23.5664        64.7291        -0.0527        31.2259       40.55201          0.301         0.4174        58.2355         0.6376       -77.2203      -54.89875      0.1606811      0.2157321
      3950.0000        23.5619        67.2546        -0.0567        31.4433       40.81954         0.3025         0.4204        58.9188         0.6388       -76.9742       -54.5996      0.1663732      0.2200058
      3950.5000        23.5563        67.8911        -0.0601        31.4756       40.85976         0.3046         0.4206        59.8513         0.6343       -76.5621      -54.10989      0.1672289      0.2270016
      3951.0000        23.5493        68.6698        -0.0636        31.1079       40.40877         0.3075         0.4185        60.3181         0.6236       -76.0712      -53.52971      0.1576334      0.2352899
      3951.5000        23.5421        70.2161        -0.0674        29.9473       38.98402         0.3116         0.4179        61.6412          0.613       -75.6388      -53.01669      0.1273195      0.2426187
