#------------------------------------------------------------------------------
# Created by    : vladimir.rabinovich
# Created on    : 09/19/2023 17:22:53
#------------------------------------------------------------------------------
~Version Information Section
VERS.           2.0     :   CWLS log ASCII Standard - VERSION 2.0
WRAP.           NO      :   One line per depth step
~Well Information Section
#MNEM       .UNIT                                         VALUE :DESCRIPTION
#------------------------------------------------------------------------------
STRT        .FT                                             252 :START DEPTH
STOP        .FT                                           11321 :STOP DEPTH
STEP        .FT                                             0.5 :STEP      
NULL        .                                           -999.25 :NULL      
COMP        .                          HUMBLE OIL & REFINING CO :COMPANY   
WELL        .                                OCS 00615 ST00BP00 :WELL      
FLD         .                                           WILDCAT :FIELD     
LOC         .                                                   :LOCATION  
CNTY        .                             GALVESTON LARGE BLOCK :LOCATION  
STAT        .                                             TEXAS :STATE     
CTRY        .                                     UNITED STATES :COUNTRY   
SRVC        .                                                   :SERVICE COMPANY
DATE        .                             9/13/2023 11:19:42 AM :LOG DATE  
API         .                                    42706000270000 :API NUMBER
UWI         .                                    42706000270000 :UNIQUE WELL ID
XCOORD      .                                  1043929.24471964 :SURFACE X 
YCOORD      .                                  10527500.2798036 :SURFACE Y 
LAT         .                                         28.995876 :LATITUDE  
LON         .                                        -94.866344 :LONGITUDE 
ELEV        .FT                                              67 :ELEVATION VALUE
ELEV_TYPE   .                                                KB :ELEVATION REFERENCE TYPE
~Curve Information Section
#MNEM       .UNIT                                      API CODE :CURVE DESCRIPTION
#------------------------------------------------------------------------------
DEPT        .FT                                                 :DEPTH     
LAT         .OHMM                                               :          
LN          .OHMM                                               :          
SN          .OHMM                                               :          
SP          .MV                                                 :          
SP_NORM     .MV                                                 :SP Normalized
VSH_SP      .V/V                                                :Volume of Shale from SP
~A        DEPTH            LAT             LN             SN             SP        SP_NORM         VSH_SP
# ...
      3938.0000         0.5643         0.5436         1.5357      -164.7813      -64.61408      0.1738431
      3938.5000         0.5534         0.5449         1.5817      -163.7012      -63.53671      0.1878349
      3939.0000         0.5426          0.545         1.6297      -164.6885      -64.52673      0.1749775
      3939.5000         0.5318          0.545         1.6776      -165.8271      -65.66805      0.1601553
      3940.0000          0.521         0.5451         1.7256      -167.0244      -66.86806      0.1445706
      3940.5000         0.5102         0.5421         1.7598      -168.2217      -68.06808       0.128986
      3941.0000         0.4993         0.5374         1.7419       -169.418       -69.2671      0.1134143
      3941.5000         0.4893         0.5328         1.7222      -170.3135      -70.16533       0.101749
      3942.0000         0.4799         0.5282         1.6997      -170.9287      -70.78323     0.09372424
      3942.5000         0.4706         0.5236         1.6772      -171.5435      -71.40076     0.08570445
      3943.0000         0.4613         0.5203         1.6547      -172.1582      -72.01818     0.07768596
      3943.5000          0.452          0.517         1.6322      -172.7729       -72.6356     0.06966757
      3944.0000         0.4426         0.5137         1.6097      -173.3882      -73.25361     0.06164145
      3944.5000         0.4333         0.5104         1.5954      -173.8958      -73.76393     0.05501388
      3945.0000          0.424         0.5071         1.6221      -174.3926      -74.26344     0.04852672
      3945.5000         0.4147         0.5039         1.6489      -174.8896      -74.76317     0.04203678
      3946.0000         0.4096         0.5007         1.6756      -175.3865      -75.26279     0.03554822
      3946.5000         0.4065         0.4975         1.7023      -175.8833      -75.76231     0.02906096
      3947.0000         0.4035         0.4942          1.729      -176.3804      -76.26212     0.02256983
      3947.5000         0.4004          0.491          1.763      -176.8772      -76.76163     0.01608266
      3948.0000         0.3973         0.4878         1.8228       -177.374      -77.26115    0.009595401
      3948.5000         0.3925         0.4851         1.8825      -177.8564      -77.74628    0.003295106
      3949.0000         0.3877          0.495          1.947      -178.2144      -78.10699              0
      3949.5000          0.383          0.505         2.0667      -178.5723      -78.46761              0
      3950.0000         0.3782         0.4982         2.1884      -178.9304      -78.82844              0
      3950.5000         0.3734         0.4885         2.3217      -179.2883      -79.18905              0
      3951.0000          0.369         0.4788         2.4413      -179.6462      -79.54967              0
      3951.5000         0.3646         0.4691          2.434      -180.0044      -79.91058              0
      3952.0000         0.3601         0.4603         2.2924      -180.3623      -80.27121              0
      3952.5000         0.3557         0.4707         2.1508      -180.6284      -80.54003              0
      3953.0000         0.3513         0.4811         2.0038      -180.0171      -79.93145              0
      3953.5000          0.348         0.4915         1.8132      -179.4058      -79.32287              0
      3954.0000         0.3474         0.5019         1.5912      -178.7944      -78.71419              0
      3954.5000         0.3467         0.5115         1.4954      -178.1831      -78.10561              0
      3955.0000         0.3461          0.521         1.4459      -176.8516      -76.77681     0.01588559
      3955.5000         0.3455         0.5306         1.4824      -174.7734      -74.70135     0.04283965
      3956.0000         0.3496         0.5401         1.5189      -172.6934      -72.62406     0.06981738
      3956.5000         0.3646         0.5582         1.5594      -170.6133      -70.54667     0.09679651
      3957.0000         0.3796         0.5805         1.6063      -169.1719      -69.10799      0.1154806
      3957.5000         0.3946         0.5671         1.6533      -167.8115      -67.75031      0.1331129
      3958.0000         0.4097         0.5363         1.6955      -166.4512      -66.39273      0.1507438
      3958.5000         0.4247         0.5037         1.7211      -164.9736      -64.91785      0.1698981
      3959.0000         0.4397         0.4712         1.7467      -163.1992      -63.14617      0.1929069
      3959.5000         0.4561         0.4392         1.7724      -161.4258      -61.37548      0.2159029
      3960.0000          0.473         0.4332          1.798      -159.8672       -59.8196       0.236109
      3960.5000         0.4899          0.441         1.8237       -158.541      -58.49612      0.2532971
      3961.0000         0.5068         0.4487         1.9005      -157.2139      -57.17174      0.2704969
      3961.5000         0.5237         0.4565         1.9852      -155.8877      -55.84825       0.287685
      3962.0000         0.5372         0.4642         2.0332      -154.6611      -54.62438      0.3035794
      3962.5000         0.5499          0.472          1.858      -153.4824       -53.4484      0.3188519
      3963.0000         0.5523         0.4797         1.7321      -153.7227      -53.69141      0.3156959
      3963.5000         0.5234         0.4875         1.6653      -155.6094      -55.58084      0.2911579
      3964.0000         0.4872         0.4952         1.5986      -157.4951      -57.46925      0.2666331
      3964.5000         0.4467         0.5028         1.5319      -159.3809      -59.35777      0.2421068
      3965.0000         0.4062         0.5098         1.4449      -162.8594        -62.839      0.1968962
      3965.5000         0.3798         0.5167         1.3525      -163.4614       -63.4437      0.1890428
      3966.0000         0.3573         0.5237         1.2892      -162.5273      -62.51232      0.2011387
      3966.5000         0.3348         0.5307         1.2523      -161.5937      -61.58145      0.2132279
      3967.0000         0.3123         0.5377         1.2154      -160.6597      -60.65016      0.2253226
      3967.5000          0.332         0.5447         1.1772      -159.7256      -59.71878      0.2374184
      3968.0000          0.354         0.5516         1.2417      -158.0762       -58.0721      0.2588039
      3968.5000          0.376         0.5586         1.3008      -154.4277      -54.42632      0.3061517
      3969.0000         0.3979         0.5656         1.3549      -166.4453      -66.44663      0.1500437
      3969.5000         0.4199         0.5704         1.4091       -171.002      -71.00605     0.09083052
      3970.0000         0.4418          0.575         1.4632      -172.1738      -72.18057     0.07557698
      3970.5000         0.4638         0.5795         1.4528      -173.3457      -73.35519     0.06032215
      3971.0000          0.457          0.568         1.4019      -174.5176       -74.5298     0.04506753
      3971.5000         0.4395         0.5501           1.36      -175.4819      -75.49683     0.03250865
      3972.0000         0.4188         0.5332         1.3182      -175.8691      -75.88674     0.02744491
      3972.5000         0.3981         0.5165         1.2764      -175.2964      -75.31676     0.03484721
      3973.0000         0.3775         0.4997         1.2674      -174.7236      -74.74669     0.04225079
      3973.5000         0.3934         0.4797         1.3282      -174.1509       -74.1767     0.04965329
      3974.0000         0.4175         0.4582         1.3891      -173.5537      -73.58221     0.05737384
      3974.5000         0.4415         0.4494         1.5121      -172.9526      -72.98385     0.06514482
      3975.0000         0.4656         0.4465         1.6539      -172.9233      -72.95725     0.06549023
      3975.5000         0.4896         0.4447         1.7466      -173.5898      -73.62647     0.05679906
