#------------------------------------------------------------------------------
# Created by    : vladimir.rabinovich
# Created on    : 09/19/2023 17:22:48
#------------------------------------------------------------------------------
~Version Information Section
VERS.           2.0     :   CWLS log ASCII Standard - VERSION 2.0
WRAP.           NO      :   One line per depth step
~Well Information Section
#MNEM       .UNIT                                         VALUE :DESCRIPTION
#------------------------------------------------------------------------------
STRT        .FT                                            3512 :START DEPTH
STOP        .FT                                           11028 :STOP DEPTH
STEP        .FT                                             0.5 :STEP      
NULL        .                                           -999.25 :NULL      
COMP        .                          SEAGULL ENERGY E & P INC :COMPANY   
WELL        .                   ST TR 147-L NE/4 /ST LSE 88034/ :WELL      
FLD         .                                           WILDCAT :FIELD     
LOC         .                                                   :LOCATION  
CNTY        .                             GALVESTON LARGE BLOCK :LOCATION  
STAT        .                                             TEXAS :STATE     
CTRY        .                                     UNITED STATES :COUNTRY   
SRVC        .                                                   :SERVICE COMPANY
DATE        .                             9/13/2023 11:18:53 AM :LOG DATE  
API         .                                    42706302000000 :API NUMBER
UWI         .                                    42706302000000 :UNIQUE WELL ID
XCOORD      .                                  1107149.67333588 :SURFACE X 
YCOORD      .                                  10638300.0198507 :SURFACE Y 
LAT         .                                        29.3031745 :LATITUDE  
LON         .                                         -94.67354 :LONGITUDE 
ELEV        .FT                                              25 :ELEVATION VALUE
ELEV_TYPE   .                                                KB :ELEVATION REFERENCE TYPE
~Curve Information Section
#MNEM       .UNIT                                      API CODE :CURVE DESCRIPTION
#------------------------------------------------------------------------------
DEPT        .FT                                                 :DEPTH     
DT          .US/F                                               :          
GR          .GAPI                                               :          
GR_NORM     .GAPI                                               :GammaRay Normalized
ILD         .OHMM                                               :          
ILM         .OHMM                                               :          
SFL         .OHMM                                               :          
SP          .MV                                                 :          
SP_NORM     .MV                                                 :SP Normalized
VSH_GR      .V/V                                                :Volume of Shale from GR
VSH_SP      .V/V                                                :Volume of Shale from SP
~A        DEPTH             DT             GR        GR_NORM            ILD            ILM            SFL             SP        SP_NORM         VSH_GR         VSH_SP
# ...
     10004.5000       102.5234         63.457       68.29504         0.7234         0.7176         1.7953        -17.601     -0.6448517      0.7509582              1
     10005.0000       103.3025        61.8816       66.72119         0.7139         0.7023         1.8081        -17.835     -0.8697605      0.7174721              1
     10005.5000       104.5608        60.5148       65.35596         0.7128         0.7022          1.817       -18.0737      -1.099369      0.6884246      0.9987422
     10006.0000       105.4038        59.2781       64.12081         0.7146         0.7087         1.8231       -18.5209      -1.537477      0.6621449      0.9931965
     10006.5000       105.3167        58.2911       63.13538          0.713         0.7178         1.8244       -18.9681      -1.975586      0.6411782      0.9876508
     10007.0000        103.423        57.9445       62.79033         0.7119         0.7288          1.815       -19.5834      -2.581795      0.6338369      0.9799773
     10007.5000       101.4149        58.2107       63.05809         0.7118         0.7441         1.7825       -20.2852      -3.274502      0.6395338      0.9712088
     10008.0000        99.8715        58.1027       62.95165         0.7106         0.7575         1.7007        -21.187      -4.167212      0.6372692      0.9599087
     10008.5000        99.1428        56.7581       61.60861         0.7053         0.7735         1.5899       -22.7451      -5.716219      0.6086938       0.940301
     10009.0000        98.4362        55.1655       60.01757         0.6957         0.7911         1.4348       -25.7486      -8.710627      0.5748419      0.9023972
     10009.5000        97.3203        53.9705       58.82413         0.6738         0.8069         1.2405       -30.1801      -13.13304      0.5494496      0.8464172
     10010.0000        96.1357        53.1288       57.98399         0.6277         0.8214         1.1074       -36.7171      -19.66094      0.5315742      0.7637855
     10010.5000        94.8159        52.4492       57.30595         0.5636         0.8215         1.2236       -45.2171      -28.15185      0.5171479      0.6563057
     10011.0000        93.3879        51.8013       56.65961         0.4998         0.7621         1.7972       -54.4827      -37.40836      0.5033959      0.5391346
     10011.5000        92.5511        51.5569       56.41676         0.4525         0.6914         2.4781       -63.3949      -46.31147       0.498229      0.4264371
     10012.0000        94.2629        52.0148       56.87623         0.4374         0.6275         3.0237       -69.6472      -52.55468      0.5080048      0.3474091
     10012.5000        95.6097        52.8589       57.72188         0.4396         0.5866         3.0746       -72.5894      -55.48779      0.5259975      0.3102812
     10013.0000         94.344        54.0834       58.94794         0.4513         0.5891         3.0918       -74.3401       -57.2294      0.5520838      0.2882355
     10013.5000        92.5892        55.3324       60.19851         0.4729         0.6272         3.2196       -74.1671       -57.0473      0.5786916      0.2905405
     10014.0000        90.0676        56.1201       60.98776         0.5096         0.6858         3.3549       -72.6212      -55.49231      0.5954842      0.3102239
     10014.5000         86.494        56.0575       60.92672         0.5573         0.7458         3.6533       -69.2693      -52.13132      0.5941856      0.3527681
     10015.0000         82.365        55.2551       60.12588         0.6124          0.778         4.0065       -64.9751      -47.82803      0.5771464      0.4072402
     10015.5000        78.0149        54.5579       59.43024         0.6691         0.7905         3.9224       -57.5843      -40.42814      0.5623454      0.5009096
     10016.0000        76.4235         55.806        60.6799         0.7178         0.7927         3.4293       -47.0329      -29.86765      0.5889341      0.6345868
     10016.5000        80.2219        59.2315       64.10696         0.7503         0.7906         2.2028       -39.9758      -22.80145      0.6618502      0.7240322
     10017.0000        84.7245         63.452       68.32903          0.769         0.7865         1.6325       -35.1417      -17.95826      0.7516814      0.7853385
     10017.5000         88.416        65.7242       70.60278         0.7821         0.7758         1.2266       -32.3395      -15.14697      0.8000591      0.8209245
     10018.0000        90.7902        67.4713       72.35143         0.7835         0.7722         1.2046         -30.32      -13.11838      0.8372645      0.8466028
     10018.5000        92.6433        68.8063         73.688          0.785         0.7815         1.2855       -28.7471      -11.53639       0.865702       0.866628
     10019.0000        94.6783        67.9032       72.78645         0.7941         0.8055         1.4187       -27.6724      -10.45259      0.8465203       0.880347
     10019.5000        96.6002         65.631       70.51581         0.8255         0.8335         1.6138       -27.0245      -9.795603      0.7982087      0.8886632
     10020.0000        98.3685        62.7502       67.63657         0.8574         0.8703         1.8536       -26.5516       -9.31361      0.7369484      0.8947644
     10020.5000        96.6298        61.0817       65.96964         0.8905         0.9064         2.1046       -26.1817      -8.934618      0.7014816      0.8995618
     10021.0000        94.3859        63.1183        68.0078         0.9281         0.9311         2.3725        -26.141      -8.884829      0.7448468       0.900192
     10021.5000        92.5425        65.1133       70.00435         0.9638          0.937          2.623       -26.0455      -8.780235      0.7873266       0.901516
     10022.0000        90.7434        66.9561       71.84871         0.9695         0.9192         2.9138       -25.8038      -8.529446      0.8265683      0.9046906
     10022.5000        89.1779        68.3032       73.19737         0.9339         0.8732         2.9582       -25.3633      -8.079853      0.8552632      0.9103816
     10023.0000        88.6372        68.9951       73.89083          0.883         0.8154         2.5017       -24.7278      -7.435261      0.8700177       0.918541
     10023.5000        91.9158        69.3086       74.20589         0.8254         0.7612         2.0282       -24.0456      -6.743971       0.876721      0.9272915
     10024.0000         96.964         69.443       74.34185         0.7685         0.7239         1.7319       -23.2727      -5.961977      0.8796138      0.9371902
     10024.5000       101.4125        69.2651        74.1655         0.7275         0.7042         1.6298       -22.5598      -5.239985      0.8758618      0.9463293
     10025.0000       102.9596        68.3474       73.24937         0.7028         0.6911         1.6196       -22.0139      -4.684996      0.8563695      0.9533545
     10025.5000       103.2821        66.7058       71.60933         0.6826          0.681         1.6692       -21.5404      -4.202402      0.8214751      0.9594632
     10026.0000        103.347        64.5563       69.46138          0.669          0.674         1.7244       -21.4113      -4.064211      0.7757741      0.9612125
     10026.5000       103.1729        62.0386       66.94525         0.6628         0.6685         1.7741       -21.2837      -3.927521      0.7222394      0.9629428
     10027.0000       102.9594        59.7566        64.6648         0.6619          0.666         1.8241       -21.1796      -3.814327      0.6737192      0.9643756
     10027.5000       102.7141        57.6782       62.58797         0.6679         0.6659         1.8606       -21.0753      -3.700935      0.6295312       0.965811
     10028.0000       102.1633        56.0225       60.93382         0.6744         0.6672         1.9026       -20.9431      -3.559645      0.5943366      0.9675995
     10028.5000       101.5034        56.2366       61.14948          0.684         0.6706         1.9396        -20.783      -3.390453      0.5989251      0.9697411
