#------------------------------------------------------------------------------
# Created by    : vladimir.rabinovich
# Created on    : 09/19/2023 17:22:16
#------------------------------------------------------------------------------
~Version Information Section
VERS.           2.0     :   CWLS log ASCII Standard - VERSION 2.0
WRAP.           NO      :   One line per depth step
~Well Information Section
#MNEM       .UNIT                                         VALUE :DESCRIPTION
#------------------------------------------------------------------------------
STRT        .FT                                              10 :START DEPTH
STOP        .FT                                            7932 :STOP DEPTH
STEP        .FT                                             0.5 :STEP      
NULL        .                                           -999.25 :NULL      
COMP        .                                       ALLIED CORP :COMPANY   
WELL        .                               OCS G04069 ST00BP00 :WELL      
FLD         .                                           WILDCAT :FIELD     
LOC         .                                                   :LOCATION  
CNTY        .                             GALVESTON LARGE BLOCK :LOCATION  
STAT        .                                             TEXAS :STATE     
CTRY        .                                     UNITED STATES :COUNTRY   
SRVC        .                                                   :SERVICE COMPANY
DATE        .                             9/13/2023 11:18:53 AM :LOG DATE  
API         .                                    42706400790000 :API NUMBER
UWI         .                                    42706400790000 :UNIQUE WELL ID
XCOORD      .                                  993545.470392299 :SURFACE X 
YCOORD      .                                  10396443.6120929 :SURFACE Y 
LAT         .                                         28.633244 :LATITUDE  
LON         .                                        -95.016955 :LONGITUDE 
ELEV        .FT                                              82 :ELEVATION VALUE
ELEV_TYPE   .                                                KB :ELEVATION REFERENCE TYPE
~Curve Information Section
#MNEM       .UNIT                                      API CODE :CURVE DESCRIPTION
#------------------------------------------------------------------------------
DEPT        .FT                                                 :DEPTH     
CALI        .IN                                                 :          
CILD        .MMHO                                               :          
DPHI        .B                                                  :          
DRHO        .G/C3                                               :          
DT          .US/F                                               :          
GR          .GAPI                                               :          
GR_1        .GAPI                                               :          
GR_NORM     .GAPI                                               :GammaRay Normalized
ILD         .OHMM                                               :          
ILM         .OHMM                                               :          
NPHI        .%                                                  :          
SFL         .OHMM                                               :          
SP          .MV                                                 :          
SP_NORM     .MV                                                 :SP Normalized
VSH_GR      .V/V                                                :Volume of Shale from GR
VSH_SP      .V/V                                                :Volume of Shale from SP
~A        DEPTH           CALI           CILD           DPHI           DRHO             DT             GR           GR_1        GR_NORM            ILD            ILM           NPHI            SFL             SP        SP_NORM         VSH_GR         VSH_SP
# ...
      7402.0000        13.1996       1005.745        65.6652        -999.25       110.6604        61.7856        46.7626       72.49642         0.9741         0.9755        37.1335         0.9092       -43.9387      -3.162003      0.8403494      0.9548286
      7402.5000        13.2775       1023.523        -999.25        -999.25       110.8976        60.9092        47.1179       71.40092         0.9553          0.964        35.7585           0.93       -44.2845      -3.507801       0.817041      0.9498885
      7403.0000        13.3704       1042.389        65.6138        -999.25       110.9625        60.3821        48.5875       70.74205         0.9338         0.9505        26.7028         0.9252       -44.5686      -3.791901      0.8030223        0.94583
      7403.5000        13.4636       1061.279         65.585        -999.25       110.9447        59.6519        50.0473        69.8293         0.9128         0.9337        11.8131         0.9077        -44.568      -3.791302      0.7836021      0.9458386
      7404.0000        13.5579       1080.145        65.5562        -999.25       111.4956        57.7733        49.9094       67.48105         0.8963         0.9163          3.184         0.8774       -43.4413        -2.6646      0.7336394      0.9619343
      7404.5000        13.6491       1098.367         65.578        -999.25       113.1798        56.0476        48.1798       65.32393         0.8828         0.8969         1.1581         0.8459       -42.7443      -1.967602      0.6877432      0.9718914
      7405.0000        13.6973       1116.072        65.6322        -999.25        114.915        61.3382        47.8275       71.93718         0.8695         0.8782         2.3742         0.8285       -43.0635        -2.2868      0.8284506      0.9673314
      7405.5000        13.6559       1133.777        65.6637        -999.25       116.0977        74.2269        47.0933       88.04805         0.8604          0.862         3.4235         0.8177       -43.6174      -2.840702              1      0.9594185
      7406.0000         13.576       1150.125        65.6544        -999.25       116.1218        76.3589        44.6342       90.71305          0.857         0.8466         4.5511          0.819       -43.7446      -2.967899              1      0.9576014
      7406.5000        13.5413       1164.768         65.613        -999.25       115.6638        75.5879        42.5267        89.7493         0.8537         0.8329         5.2455         0.8283       -43.7692        -2.9925              1        0.95725
      7407.0000        13.5282       1179.436        65.5991        -999.25       115.1925        72.3484        42.6686       85.69992         0.8509         0.8314         5.3958         0.8399       -42.8139      -2.037201              1      0.9708971
      7407.5000        13.5226       1194.104        65.5874        -999.25       114.7059         67.255        43.4901       79.33318         0.8492         0.8344         3.8255         0.8517       -42.4966      -1.719902      0.9858122        0.97543
      7408.0000        13.4849       1206.795        65.5879        -999.25         114.26        64.5308        43.9329       75.92793         0.8466         0.8333         2.4228         0.8354       -42.8398      -2.063103      0.9133601      0.9705271
      7408.5000        13.4228       1216.154         65.589        -999.25       113.8492        64.5283        44.1904        75.9248          0.832         0.8322         2.8821         0.8173       -43.5979      -2.821201      0.9132935      0.9596971
      7409.0000        13.3164       1225.512        65.5912        -999.25       114.0244        65.7006         45.129       77.39017         0.8177         0.8277         4.0069         0.7935       -43.5646      -2.787903      0.9444718      0.9601728
      7409.5000        13.1605       1227.695        65.5665        -999.25       115.7413        66.1295        45.5043        77.9263         0.8064         0.8224         5.8195         0.7691         -43.22      -2.443302      0.9558787      0.9650957
      7410.0000         12.998        1228.66        65.5355        -999.25       117.5189        65.1262        43.3885       76.67217         0.7969         0.8205         9.3634         0.7779       -42.6709      -1.894199      0.9291952        0.97294
      7410.5000        12.9404       1229.623        65.5372        -999.25       118.4689        64.0205        39.9029       75.29005         0.7878         0.8202         21.397         0.7921       -42.4355      -1.658802      0.8997884      0.9763028
      7411.0000        13.0246       1230.586        65.5414        -999.25       118.8119        62.8963        38.4458        73.8848         0.7822         0.8231        31.5441         0.8353       -42.3215        -1.5448      0.8698894      0.9779314
      7411.5000        13.2077       1231.551        65.5409        -999.25       118.2926        63.1798        38.9293       74.23918         0.7767         0.8267        31.9417         0.8771       -42.5304        -1.7537      0.8774294      0.9749472
      7412.0000        13.3258       1232.514        65.4829        -999.25       117.2245        65.7462        39.9952       77.44717         0.7713         0.8294        32.1449         0.8931       -42.7658      -1.989101      0.9456846      0.9715843
      7412.5000        13.2573       1235.477         59.775        -1.4702       115.7971        68.6846        41.8821       81.12018         0.7666         0.8302        33.4684         0.9093       -43.4968        -2.7201              1      0.9611414
      7413.0000        12.8482       1239.316        36.6873        -0.6505       114.5309        67.3215        44.5037       79.41631          0.762         0.8307        34.7107         0.8835       -44.2266      -3.449902       0.987581      0.9507157
      7413.5000        11.9377       1243.156         3.1782         0.4882        113.712        65.1471        45.7419        76.6983          0.762         0.8216        35.6823         0.8387       -44.9563        -4.1796      0.9297512      0.9402914
      7414.0000        10.8871       1246.996         0.7953        -999.25       115.6953        63.5447        43.7726        74.6953         0.7629         0.8133        36.3405         0.8152       -45.3105      -4.533802       0.887134      0.9352314
      7414.5000         9.4042       1253.205        -999.25        -999.25       117.9636        62.5277        41.1313       73.42406         0.7677         0.8075        36.2302         0.7934       -44.5557      -3.778999      0.8600863      0.9460143
      7415.0000         9.1063       1260.688        -999.25        -999.25       118.9573        63.2612        39.5214       74.34093         0.7802         0.8018        36.0415          0.785       -43.6287      -2.852001      0.8795942      0.9592571
      7415.5000           8.97       1261.441        -999.25        -999.25       118.9554        66.3872        39.1768       78.24843         0.7935         0.7993        36.6931          0.782         -43.07      -2.293301      0.9627325      0.9672385
      7416.0000         8.8844       1216.055        -999.25        -999.25       118.3253        69.5477        42.3399       82.19905         0.8107         0.7968        38.3214         0.7861       -42.8685      -2.091801              1      0.9701172
      7416.5000         8.8299       1170.521        -999.25        -999.25        117.502        71.8923        47.2582       85.12981         0.8283         0.8031        39.1268         0.8036       -42.6382        -1.8615              1      0.9734071
      7417.0000         8.7899       1149.951        -999.25        -999.25       116.9382        73.3136        48.9432       86.90643         0.8693         0.8096        38.8496         0.8297       -42.1199      -1.343201              1      0.9808114
      7417.5000         8.7714       1129.357        -999.25        -999.25       116.8708        73.7684        47.0958       87.47493         0.8948         0.8318        37.9774         0.8561        -41.657     -0.8803024              1      0.9874243
