#------------------------------------------------------------------------------
# Created by    : vladimir.rabinovich
# Created on    : 09/19/2023 17:20:30
#------------------------------------------------------------------------------
~Version Information Section
VERS.           2.0     :   CWLS log ASCII Standard - VERSION 2.0
WRAP.           NO      :   One line per depth step
~Well Information Section
#MNEM       .UNIT                                         VALUE :DESCRIPTION
#------------------------------------------------------------------------------
STRT        .FT                                             609 :START DEPTH
STOP        .FT                                           12866 :STOP DEPTH
STEP        .FT                                             0.5 :STEP      
NULL        .                                           -999.25 :NULL      
COMP        .                                        SUN OIL CO :COMPANY   
WELL        .                               OCS G01769 ST00BP00 :WELL      
FLD         .                                           WILDCAT :FIELD     
LOC         .                                                   :LOCATION  
CNTY        .                             GALVESTON LARGE BLOCK :LOCATION  
STAT        .                                             TEXAS :STATE     
CTRY        .                                     UNITED STATES :COUNTRY   
SRVC        .                                                   :SERVICE COMPANY
DATE        .                             9/13/2023 11:19:24 AM :LOG DATE  
API         .                                    42706001410000 :API NUMBER
UWI         .                                    42706001410000 :UNIQUE WELL ID
XCOORD      .                                  1110717.91749569 :SURFACE X 
YCOORD      .                                  10538856.4752018 :SURFACE Y 
LAT         .                                         29.029845 :LATITUDE  
LON         .                                        -94.657945 :LONGITUDE 
ELEV        .FT                                              65 :ELEVATION VALUE
ELEV_TYPE   .                                                KB :ELEVATION REFERENCE TYPE
~Curve Information Section
#MNEM       .UNIT                                      API CODE :CURVE DESCRIPTION
#------------------------------------------------------------------------------
DEPT        .FT                                                 :DEPTH     
ASN         .OHMM                                               :          
CALI        .IN                                                 :          
CILD        .MMHO                                               :          
DT          .US/F                                               :          
ILD         .OHMM                                               :          
SP          .MV                                                 :          
SP_NORM     .MV                                                 :SP Normalized
VSH_SP      .V/V                                                :Volume of Shale from SP
~A        DEPTH            ASN           CALI           CILD             DT            ILD             SP        SP_NORM         VSH_SP
# ...
      6332.0000         0.8868        13.3459       1435.947        75.7571         0.6737       -83.9867      0.3973999              1
      6332.5000         0.8921        13.1664       1474.547        77.4106         0.6639       -86.4255       -2.03904       0.966016
      6333.0000         0.8832        12.9983       1485.313        79.9534         0.6542       -90.3687      -5.979881      0.9003353
      6333.5000         0.8698        13.1703       1491.643        84.5393         0.6444       -94.4479      -10.05672       0.832388
      6334.0000         0.8564         13.502       1497.977        89.5752         0.6427       -98.5271      -14.13356      0.7644407
      6334.5000          0.843         13.718       1504.496        94.5115         0.6467      -102.6062       -18.2103      0.6964951
      6335.0000         0.8382        13.7539       1511.832        97.9814         0.6507       -98.8534      -14.45514       0.759081
      6335.5000         0.8498        13.6584       1519.168       100.2383         0.6799       -93.4541      -9.053482      0.8491086
      6336.0000          0.868        13.5977         1526.5         97.882         0.7256       -90.7593      -6.356316      0.8940614
      6336.5000         0.8861        13.6978        1505.65        89.8336         0.7667       -87.9583      -3.552956      0.9407841
      6337.0000         0.9045        13.8371       1471.396        81.6262         0.8051       -86.0769      -1.669189      0.9721802
      6337.5000         0.9251         13.988       1412.607        74.8157         0.8435       -86.6134      -2.203339      0.9632777
      6338.0000         0.9457         14.176       1304.992        71.2986         0.8486       -87.3396      -2.927177      0.9512137
      6338.5000          0.959        14.3547       1215.393        77.3907         0.8161         -88.09      -3.675209      0.9387465
      6339.0000         0.9416        13.9311       1176.916        87.5718         0.7838       -87.8434      -3.426254      0.9428958
      6339.5000         0.9242        13.4473       1143.225        95.2075         0.7534       -86.7605      -2.340988      0.9609835
      6340.0000         0.9068        13.2345       1140.197       102.6593          0.723       -85.6332      -1.211334      0.9798111
      6340.5000          0.887        13.1094       1156.385       104.4613         0.6927       -84.5071    -0.08287048      0.9986188
      6341.0000          0.867        13.0278        1172.57       104.3732         0.6628       -83.6121      0.8144913              1
      6341.5000         0.8454        12.9745       1188.756       103.2882         0.6336       -82.7802        1.64875              1
      6342.0000         0.8223        13.0468       1231.994       102.0752         0.6043       -82.2585       2.172813              1
      6342.5000         0.8023        13.2491       1275.305       100.6609         0.5815       -81.9091       2.524567              1
      6343.0000         0.7827        13.4518       1497.471        98.8116          0.562       -81.5592       2.876839              1
      6343.5000         0.7675        13.5932       1553.037        96.8442         0.5425       -81.2097       3.228691              1
      6344.0000         0.7572         13.642       1660.947        95.5294         0.5369       -80.9236       3.517151              1
      6344.5000          0.747        13.6515       1714.316        92.0061         0.5334       -80.6448       3.798317              1
      6345.0000         0.7367        13.6436       1743.344        89.8684         0.5573       -80.3663       4.076675              1
      6345.5000         0.7444        13.6348       1659.873        85.7026         0.6153        -80.088       4.351593              1
      6346.0000         0.7773        13.5789       1580.283        77.9773         0.6919       -79.8092       4.626999              1
      6346.5000         0.8125        13.6433       1479.404        73.1155         0.7455       -80.1466       4.286201              1
      6347.0000         0.8628        13.6304       1423.496        69.3734          0.799        -80.698       3.731415              1
      6347.5000         0.9523        13.2285       1381.115        70.5454         0.8014       -81.5416       2.884415              1
      6348.0000          1.012        12.9722       1339.904        77.9177         0.7645       -83.0361       1.386528              1
      6348.5000           1.03         12.824       1211.779        80.8433         0.5935       -85.0065      -0.587265      0.9902123
      6349.0000          0.906         12.699       1158.594        83.9825         0.4805       -87.0485      -2.632652      0.9561225
      6349.5000         0.8575         12.615       1157.092        86.0941          0.393       -88.5367      -4.124245      0.9312626
      6350.0000         0.7237        12.7318       1212.512        86.9976         0.3254       -89.5702      -5.161133      0.9139811
      6350.5000         0.6819        13.1644       1285.266        88.0863         0.2864      -119.8228      -35.41713      0.4097145
      6351.0000         0.6689        13.3387       1351.281        89.9106         0.2544      -129.4841      -45.08183      0.2486362
      6351.5000         0.6562        13.3651       1461.436        88.6648         0.2293      -133.0369      -48.63801      0.1893665
      6352.0000         0.6449         13.307         1717.5        87.8563         0.2042      -134.9131      -50.51761      0.1580399
      6352.5000         0.6359         13.097        1898.25        86.5005         0.1935      -136.7524      -52.36029      0.1273285
      6353.0000         0.6315        12.9708        2078.75          86.67         0.1886      -139.9614      -55.57269     0.07378858
      6353.5000         0.6345        12.8582       2259.496        87.5668         0.1911      -141.3953      -57.00997     0.04983381
      6354.0000         0.6381        12.6701        2440.25        85.5336         0.2094      -142.0459      -57.66397     0.03893382
      6354.5000         0.6418        12.4118        2572.18        80.4828         0.2277      -141.2668      -56.88827     0.05186221
      6355.0000         0.6502        12.3653       2494.934         75.293         0.2698      -136.6882      -52.31306      0.1281157
      6355.5000         0.6918        12.5563       2402.844        64.3264         0.3203       -132.624      -48.25224       0.195796
      6356.0000         0.8265        12.7463       2308.605        57.9236         0.3782      -129.1802      -44.81184      0.2531359
      6356.5000         0.9042        12.6639       2193.668        56.4844         0.4696      -127.4373      -43.07233      0.2821278
      6357.0000         1.0851        12.4486        2059.73        61.6669         0.7898      -125.8352      -41.47362       0.308773
      6357.5000         1.2361        12.3714       2026.531         65.358         0.9222      -124.1467      -39.78851      0.3368581
      6358.0000         1.3871        12.3198       2023.898        68.1667         1.0455      -122.2456       -37.8908      0.3684867
      6358.5000         1.7149        12.2784       2021.262        69.7749         1.0235      -120.9811       -36.6297       0.389505
      6359.0000         1.7204        12.2682       2018.629        70.6082           0.99       -120.625      -36.27699      0.3953834
      6359.5000         1.7244        12.2586       2015.992        69.8718         0.9503      -121.7747      -37.43008      0.3761654
      6360.0000         1.7267        12.2887       1814.852        68.5619          0.866      -122.9353      -38.59408      0.3567654
      6360.5000         1.3726        12.3969       1423.447        72.2108         0.7816      -124.1134      -39.77557      0.3370739
      6361.0000         1.2205        12.5001       1032.043         76.153         0.7002      -125.2914      -40.95695      0.3173841
