#------------------------------------------------------------------------------
# Created by    : vladimir.rabinovich
# Created on    : 09/19/2023 17:20:06
#------------------------------------------------------------------------------
~Version Information Section
VERS.           2.0     :   CWLS log ASCII Standard - VERSION 2.0
WRAP.           NO      :   One line per depth step
~Well Information Section
#MNEM       .UNIT                                         VALUE :DESCRIPTION
#------------------------------------------------------------------------------
STRT        .FT                                             325 :START DEPTH
STOP        .FT                                           10896 :STOP DEPTH
STEP        .FT                                             0.5 :STEP      
NULL        .                                           -999.25 :NULL      
COMP        .                                      GETTY OIL CO :COMPANY   
WELL        .                               OCS G03737 ST00BP00 :WELL      
FLD         .                                           WILDCAT :FIELD     
LOC         .                                                   :LOCATION  
CNTY        .                             GALVESTON LARGE BLOCK :LOCATION  
STAT        .                                             TEXAS :STATE     
CTRY        .                                     UNITED STATES :COUNTRY   
SRVC        .                                                   :SERVICE COMPANY
DATE        .                             9/13/2023 11:10:15 AM :LOG DATE  
API         .                                    42706400540000 :API NUMBER
UWI         .                                    42706400540000 :UNIQUE WELL ID
XCOORD      .                                  1098214.74516992 :SURFACE X 
YCOORD      .                                   10573216.961531 :SURFACE Y 
LAT         .                                         29.123847 :LATITUDE  
LON         .                                        -94.698615 :LONGITUDE 
ELEV        .FT                                              99 :ELEVATION VALUE
ELEV_TYPE   .                                                KB :ELEVATION REFERENCE TYPE
~Curve Information Section
#MNEM       .UNIT                                      API CODE :CURVE DESCRIPTION
#------------------------------------------------------------------------------
DEPT        .FT                                                 :DEPTH     
ASFL        .OHMM                                               :          
DT          .US/F                                               :          
DTL         .US/F                                               :          
GR          .GAPI                                               :          
GR_1        .GAPI                                               :          
GR_NORM     .GAPI                                               :GammaRay Normalized
ILD         .OHMM                                               :          
RHOB        .G/CC                                               :          
SP          .MV                                                 :          
SP_NORM     .MV                                                 :SP Normalized
VSH_GR      .V/V                                                :Volume of Shale from GR
VSH_SP      .V/V                                                :Volume of Shale from SP
~A        DEPTH           ASFL             DT            DTL             GR           GR_1        GR_NORM            ILD           RHOB             SP        SP_NORM         VSH_GR         VSH_SP
# ...
      8074.0000          0.718       110.6287       106.7722        48.5427         62.066         67.911         0.3051         2.3586       -53.7607        -1.3555         0.7428         0.9909
      8074.5000         0.7177       110.0375        106.457        51.6654        62.4612        72.9461         0.3038          2.374        -53.736        -1.3068         0.8499         0.9921
      8075.0000         0.7155       109.6807       106.1348        54.3271        62.8529        77.2249         0.3025         2.3797       -53.7112         -1.258          0.941         0.9934
      8075.5000         0.7082       109.6818       105.8631        55.6906        63.2151        79.3741         0.3012         2.3759       -53.6864        -1.2092         0.9867         0.9946
      8076.0000         0.7002       109.7653       105.9246        55.6909        63.1656        79.2869         0.2999          2.368       -53.6616        -1.1604         0.9848         0.9959
      8076.5000          0.692       109.8607       106.1074        55.8466        62.6252        79.4546         0.2986         2.3585       -53.6368        -1.1117         0.9884         0.9971
      8077.0000         0.6848       109.9604        106.493        56.2069        61.9575         79.958         0.2973         2.3512        -53.612        -1.0629         0.9991         0.9984
      8077.5000         0.6803       110.4329       107.4084        56.8748        61.2899         80.966         0.2961         2.3455       -53.5626        -0.9895              1              1
      8078.0000           0.68       111.3074       109.5558        57.6902        60.7493         82.216         0.2953         2.3458       -53.5016        -0.9045              1              1
      8078.5000         0.6837       113.1202       111.7084        58.4188        60.2872        83.3235         0.2945           2.35       -53.4407        -0.8197              1              1
      8079.0000         0.6874       115.0028       112.2012        58.9999        60.6589        84.1891         0.2937           2.36       -53.3797        -0.7347              1              1
      8079.5000         0.6974       114.9429       111.8876        59.0895        61.0302        84.2484         0.2929         2.3731       -53.3188        -0.6498              1              1
      8080.0000         0.7084       113.0762       110.6911        58.3593        61.4013        82.9628         0.2921         2.3803       -53.2578        -0.5648              1              1
      8080.5000         0.7225       111.2034       108.5872         57.078         62.031        80.7732         0.2913         2.3839       -53.1207        -0.4038              1              1
      8081.0000         0.7387        109.901       107.3448         55.876        62.7107        78.7136         0.2905         2.3832        -53.267        -0.5261         0.9726              1
      8081.5000         0.7483       108.9841        106.177        55.8909        63.3356        78.6503         0.2897         2.3776       -53.4978        -0.7329         0.9713              1
      8082.0000         0.7478       108.6859        105.664        56.5526        63.9297        79.6482          0.289         2.3659       -53.6313        -0.8424         0.9925              1
      8082.5000         0.7473        108.642       105.3851        57.2156        64.5244        80.6481         0.2884         2.3481       -53.7645        -0.9517              1              1
      8083.0000         0.7466       108.6387       105.1104         58.078        65.0294        81.9752         0.2878         2.3411       -53.8976        -1.0608              1         0.9984
      8083.5000         0.7423       108.5106       105.1649        58.1245         65.306        81.9638         0.2873         2.3403       -54.0308          -1.17              1         0.9956
      8084.0000          0.738       108.5366       105.4664        57.9702        64.7733        81.6229         0.2867         2.3474       -54.1407        -1.2559              1         0.9934
      8084.5000         0.7259       108.7041       105.8539        57.4111        64.2406         80.618         0.2861         2.3543       -54.2055        -1.2968              1         0.9924
      8085.0000         0.7091        109.057       106.7583        57.6363         63.708        80.8998         0.2875          2.359       -54.2704        -1.3377              1         0.9913
      8085.5000         0.6931       110.4542       108.1232        58.0743        62.9999        81.5306         0.2892         2.3579       -54.3353        -1.3786              1         0.9903
      8086.0000         0.6863       111.6201       108.8481        58.5024        62.1865        82.1452         0.2908         2.3414       -54.4001        -1.4194              1         0.9892
      8086.5000         0.6816       111.8344       109.0162        58.7733        61.5225         82.502         0.2925         2.3191       -54.4158        -1.4111              1         0.9895
      8087.0000           0.68       111.9015       109.0265        57.8364         61.743        80.8772         0.2941         2.3163       -54.3919        -1.3633              1         0.9907
      8087.5000         0.6796       111.8011       108.8669        56.5253        64.9186        78.6387         0.2933         2.3205        -54.368        -1.3154          0.971         0.9919
      8088.0000         0.6792       111.8694       108.2347        55.9959        65.9188        77.6825         0.2913          2.326       -54.3441        -1.2675         0.9507         0.9931
      8088.5000         0.6786       111.9137       107.4659        56.8042        67.4023        78.9208         0.2892         2.3275       -54.3203        -1.2197          0.977         0.9944
      8089.0000         0.6773       111.2657       106.6336        57.7917        68.5557        80.4531         0.2872         2.3274       -54.2964        -1.1719              1         0.9956
      8089.5000         0.6752        110.363       106.6538        59.6456        69.2764        83.4068         0.2852         2.3274       -54.2725         -1.124              1         0.9968
      8090.0000         0.6726       109.9193       107.3793        64.6121        71.2758        91.4667          0.284         2.3273       -54.2529        -1.0804              1         0.9979
      8090.5000           0.67       111.2596       108.5091        67.4634        71.9594        96.0565         0.2842         2.3291       -54.2397        -1.0432              1         0.9989
      8091.0000         0.6671       112.4617       109.3387         67.731        71.7976        96.4078         0.2843         2.3381       -54.2267        -1.0063              1         0.9998
      8091.5000          0.663       112.9186       109.3878        67.2019        71.6357        95.4521         0.2844         2.3557       -54.2136        -0.9692              1              1
      8092.0000         0.6596       112.9435        109.356        66.3035        71.1281        93.8906         0.2846          2.372       -54.2005        -0.9531              1              1
      8092.5000         0.6583       112.9684       109.4103        65.1375         70.514        91.8901         0.2858          2.372       -54.1874         -0.952              1              1
      8093.0000         0.6569       113.0117       109.7261        62.1536        69.6174        86.9073         0.2889         2.3531       -54.1743         -0.951              1              1
      8093.5000         0.6555       113.1074       110.3301        58.9417        68.7244        81.5505          0.292         2.3212       -54.1553         -0.944              1              1
      8094.0000         0.6539       113.3481       111.3033        57.7387        68.0229        79.4892         0.2951         2.3146        -54.116        -0.9167         0.9891              1
