#------------------------------------------------------------------------------
# Created by    : vladimir.rabinovich
# Created on    : 09/19/2023 17:20:24
#------------------------------------------------------------------------------
~Version Information Section
VERS.           2.0     :   CWLS log ASCII Standard - VERSION 2.0
WRAP.           NO      :   One line per depth step
~Well Information Section
#MNEM       .UNIT                                         VALUE :DESCRIPTION
#------------------------------------------------------------------------------
STRT        .FT                                            2124 :START DEPTH
STOP        .FT                                            8264 :STOP DEPTH
STEP        .FT                                             0.5 :STEP      
NULL        .                                           -999.25 :NULL      
COMP        .                               SUPERIOR OIL CO THE :COMPANY   
WELL        .                                     ST TR 00009-L :WELL      
FLD         .                                           WILDCAT :FIELD     
LOC         .                                                   :LOCATION  
CNTY        .                           HIGH ISLAND LARGE BLOCK :LOCATION  
STAT        .                                             TEXAS :STATE     
CTRY        .                                     UNITED STATES :COUNTRY   
SRVC        .                                                   :SERVICE COMPANY
DATE        .                             9/13/2023 11:19:15 AM :LOG DATE  
API         .                                    42708300270000 :API NUMBER
UWI         .                                    42708300270000 :UNIQUE WELL ID
XCOORD      .                                  1318170.30554107 :SURFACE X 
YCOORD      .                                  10738395.6931535 :SURFACE Y 
LAT         .                                        29.5851559 :LATITUDE  
LON         .                                       -94.0141459 :LONGITUDE 
ELEV        .FT                                              72 :ELEVATION VALUE
ELEV_TYPE   .                                                KB :ELEVATION REFERENCE TYPE
~Curve Information Section
#MNEM       .UNIT                                      API CODE :CURVE DESCRIPTION
#------------------------------------------------------------------------------
DEPT        .FT                                                 :DEPTH     
ASN         .OHMM                                               :          
CILD        .MMHO                                               :          
ILD         .OHMM                                               :          
SN          .OHMM                                               :          
SP          .MV                                                 :          
SP_NORM     .MV                                                 :SP Normalized
VSH_SP      .V/V                                                :Volume of Shale from SP
~A        DEPTH            ASN           CILD            ILD             SN             SP        SP_NORM         VSH_SP
# ...
      4167.5000         0.7188       4224.656         0.3352          0.723       -119.717      -63.92352      0.0466134
      4168.0000         0.7198       4225.758         0.3363         0.7404      -119.8655      -64.07466     0.04432331
      4168.5000         0.7129       4225.555         0.3399         0.7161      -120.5211      -64.73291     0.03434985
      4169.0000         0.7086        4229.07         0.3457         0.7255      -121.1169      -65.33134     0.02528266
      4169.5000         0.7239       4219.391         0.3531         0.7292      -121.5089        -65.726     0.01930306
      4170.0000         0.7065       4159.461         0.3619         0.6845      -121.6847      -65.90445     0.01659925
      4170.5000         0.6545       4079.711         0.3678         0.6334      -121.3828      -65.60519     0.02113342
      4171.0000         0.6183        -999.25         0.3747         0.6307      -120.1169      -64.34193     0.04027373
      4171.5000         0.6155        -999.25         0.3836         0.6496      -118.5192      -62.74689      0.0644411
      4172.0000          0.637        -999.25         0.3858         0.6706      -116.7806      -61.01093     0.09074344
      4172.5000         0.6653        -999.25         0.3861         0.6836      -115.2037      -59.43668      0.1145958
      4173.0000         0.6487        -999.25          0.391         0.6451      -114.1906      -58.42622      0.1299057
      4173.5000         0.6109        -999.25         0.3861         0.6065      -113.5299      -57.76817      0.1398762
      4174.0000         0.5803       3739.512         0.3752         0.5763      -113.5308      -57.77172      0.1398225
      4174.5000         0.5557       3666.051         0.3732         0.5609      -114.8285      -59.07206      0.1201202
      4175.0000         0.5482       3651.426         0.3748         0.5591      -116.1151      -60.36131      0.1005862
      4175.5000         0.5802       3648.133         0.3807         0.5821      -116.9379      -61.18676     0.08807945
      4176.0000         0.6132       3636.035         0.3887         0.6132      -117.4906      -61.74211     0.07966504
      4176.5000           0.64       3615.762         0.3958         0.6441      -117.7465      -62.00065     0.07574775
      4177.0000         0.6621       3595.023         0.4018          0.674      -118.1267       -62.3835     0.06994698
      4177.5000         0.6926        3595.41         0.4014         0.6942      -118.4048      -62.66425     0.06569325
      4178.0000         0.7071       3636.086          0.397         0.7156      -118.6283       -62.8904     0.06226673
      4178.5000          0.714       3743.008         0.3899         0.7026      -118.7552      -63.01994     0.06030389
      4179.0000         0.7046       3861.316         0.3847         0.6868      -118.9694      -63.23679      0.0570184
      4179.5000         0.6841       3946.313         0.3799         0.6833      -119.3297      -63.59973     0.05151928
      4180.0000         0.6652        4155.32         0.3719         0.6912      -119.7722      -64.04488      0.0447746
      4180.5000         0.6623       4245.711         0.3638         0.6966      -119.9369      -64.21222      0.0422391
      4181.0000         0.6748        4307.75         0.3587         0.6628      -119.5846      -63.86258     0.04753673
      4181.5000         0.6149       4236.867         0.3544         0.6091      -119.1307      -63.41132     0.05437394
      4182.0000         0.5476       4060.531         0.3563         0.5655       -118.793      -63.07626     0.05945056
      4182.5000         0.5209       3994.953         0.3609         0.5533       -118.631      -62.91691     0.06186503
      4183.0000         0.5132       3854.375         0.3703         0.5567      -118.4424      -62.73096     0.06468247
      4183.5000         0.5187       3507.191         0.3918         0.5601      -116.9768      -61.26801      0.0868484
      4184.0000         0.5477       3286.855         0.4224         0.5837      -113.0233      -57.31715      0.1467098
      4184.5000         0.6019        3034.16         0.4605         0.6277      -110.3521       -54.6486      0.1871425
      4185.0000          0.673        2744.91         0.5029         0.6803      -108.1975      -52.49665      0.2197478
      4185.5000         0.7275       2338.699         0.5506         0.7296      -106.1259      -50.42769      0.2510956
      4186.0000         0.7529       1979.748         0.6113         0.7444        -102.86      -47.16444      0.3005388
      4186.5000         0.7569       1856.072         0.6688         0.7629       -99.7852      -44.09229      0.3470865
      4187.0000         0.7782       1726.877          0.715          0.774       -95.9789      -40.28863      0.4047177
      4187.5000         0.8065       1665.451          0.739         0.7949       -90.0178      -34.33018      0.4949973
      4188.0000         0.8233       1619.857         0.7394         0.8197       -86.7268      -31.04182      0.5448208
      4188.5000         0.8486       1609.443         0.7245         0.8565        -83.324      -27.64167      0.5963383
      4189.0000         0.8792       1683.131         0.6927         0.8907       -82.4944      -26.81472      0.6088679
      4189.5000          0.907       1761.436         0.6601         0.9257       -85.2964      -29.61937      0.5663732
      4190.0000         0.9192       1896.125         0.6309         0.9383        -87.505      -31.83061      0.5328695
      4190.5000         0.9136       1970.734         0.6078          0.933       -89.0499      -33.37815      0.5094219
      4191.0000         0.9089       2006.156          0.593         0.9232       -90.3278       -34.6587      0.4900196
      4191.5000         0.8964       2026.813         0.5916         0.9111       -91.2415      -35.57505      0.4761356
      4192.0000         0.8871       2068.672         0.6055         0.9084       -90.8833       -35.2195      0.4815227
      4192.5000         0.9011       2014.689          0.622         0.9603       -89.9663      -34.30515      0.4953765
      4193.0000         0.9911       1888.234         0.6468         1.0585       -90.4755        -34.817      0.4876212
      4193.5000         1.1019       1787.654         0.6778         1.1625       -93.3893      -37.73344      0.4434328
      4194.0000          1.231       1672.494         0.7189         1.2284       -95.8217      -40.16849      0.4065381
      4194.5000         1.2068       1524.072         0.7607         1.1841       -94.1008      -38.45023      0.4325722
      4195.0000         1.1527       1421.396         0.8032          1.158       -89.6835      -34.03558      0.4994608
      4195.5000         1.1986       1357.873         0.8299         1.2047       -84.2781      -28.63283      0.5813208
      4196.0000         1.1989       1320.418         0.8452         1.1692       -79.0537      -23.41108      0.6604382
      4196.5000         1.0865       1320.018         0.8427         1.0672       -73.9954      -18.35542      0.7370391
      4197.0000         1.0277       1372.953         0.8329          1.005       -70.9143      -15.27697      0.7836823
      4197.5000         0.9983       1425.516          0.814         0.9756       -69.7786      -14.14392      0.8008497
      4198.0000         0.9758       1477.479         0.7952         0.9756       -68.9187      -13.28666      0.8138384
      4198.5000         0.9608       1541.252         0.7763         0.9303       -68.1838      -12.55441      0.8249332
      4199.0000         0.9343       1593.264          0.756         0.8643       -68.4073      -12.78056      0.8215067
      4199.5000          0.884       1638.635         0.7357         0.8171       -68.4883       -12.8642      0.8202394
      4200.0000         0.8142       1682.656         0.7155          0.785       -67.2374      -11.61594      0.8391523
      4200.5000         0.7757        1734.17         0.6952         0.7489       -63.1369      -7.518097      0.9012409
