#------------------------------------------------------------------------------
# Created by    : vladimir.rabinovich
# Created on    : 09/19/2023 17:21:34
#------------------------------------------------------------------------------
~Version Information Section
VERS.           2.0     :   CWLS log ASCII Standard - VERSION 2.0
WRAP.           NO      :   One line per depth step
~Well Information Section
#MNEM       .UNIT                                         VALUE :DESCRIPTION
#------------------------------------------------------------------------------
STRT        .FT                                            4500 :START DEPTH
STOP        .FT                                            8225 :STOP DEPTH
STEP        .FT                                             0.5 :STEP      
NULL        .                                           -999.25 :NULL      
COMP        .                             WALTER OIL & GAS CORP :COMPANY   
WELL        .                               OCS G08132 ST00BP00 :WELL      
FLD         .                              GALVESTON BLOCK 0385 :FIELD     
LOC         .                                                   :LOCATION  
CNTY        .                             GALVESTON LARGE BLOCK :LOCATION  
STAT        .                                             TEXAS :STATE     
CTRY        .                                     UNITED STATES :COUNTRY   
SRVC        .                                                   :SERVICE COMPANY
DATE        .                             9/13/2023 11:19:34 AM :LOG DATE  
API         .                                    42706402490000 :API NUMBER
UWI         .                                    42706402490000 :UNIQUE WELL ID
XCOORD      .                                  1009947.10754335 :SURFACE X 
YCOORD      .                                  10405011.8756564 :SURFACE Y 
LAT         .                                         28.657556 :LATITUDE  
LON         .                                        -94.966279 :LONGITUDE 
ELEV        .FT                                             101 :ELEVATION VALUE
ELEV_TYPE   .                                                KB :ELEVATION REFERENCE TYPE
~Curve Information Section
#MNEM       .UNIT                                      API CODE :CURVE DESCRIPTION
#------------------------------------------------------------------------------
DEPT        .FT                                                 :DEPTH     
CALI        .IN                                                 :          
DPHI        .%                                                  :          
DRHO        .G/C3                                               :          
GR          .GAPI                                               :          
GR_NORM     .GAPI                                               :GammaRay Normalized
ILD         .OHMM                                               :          
ILM         .OHMM                                               :          
NPHI        .%                                                  :          
SFL         .OHMM                                               :          
SP          .MV                                                 :          
SP_NORM     .MV                                                 :SP Normalized
VSH_GR      .V/V                                                :Volume of Shale from GR
VSH_SP      .V/V                                                :Volume of Shale from SP
~A        DEPTH           CALI           DPHI           DRHO             GR        GR_NORM            ILD            ILM           NPHI            SFL             SP        SP_NORM         VSH_GR         VSH_SP
# ...
      5564.0000           9.88        28.1205        -0.0196          53.54       45.49306         0.5058         0.5703         32.153         0.6908      -104.3542       -32.7445      0.2658097      0.4542584
      5564.5000         9.8544        28.0225        -0.0172        52.5368       44.44806         0.4907         0.5589        32.3842         0.7251      -105.4993      -34.08701      0.2435757      0.4318832
      5565.0000         9.8189        28.2681        -0.0147        50.5129       42.33983         0.4912         0.5599        32.1683         0.7764      -106.1359      -34.83628      0.1987198      0.4193953
      5565.5000         9.7899        28.4939        -0.0112         49.359       41.13785         0.4913         0.5623        32.0418         0.7676       -106.731      -35.53714      0.1731458      0.4077144
      5566.0000          9.766        27.5196        -0.0087        49.9542       41.75785         0.4917         0.5647        32.3979         0.7414       -107.209      -36.10137      0.1863372      0.3983105
      5566.5000         9.7586        26.3056        -0.0081        52.0572       43.94847          0.492         0.5661        32.3962         0.7207      -107.2969      -36.21049      0.2329463      0.3964919
      5567.0000         9.7525        25.3178        -0.0129        54.8871       46.89629         0.4908         0.5642        32.1599         0.7089      -107.0386       -35.9157      0.2956657      0.4014049
      5567.5000         9.7579        25.0121        -0.0179         56.793        48.8816         0.4874         0.5584        32.0701         0.7082      -106.7881      -35.63003      0.3379064      0.4061662
      5568.0000         9.7633         25.293        -0.0241        57.1269       49.22941         0.4797         0.5475        32.2717         0.7048      -107.0687      -35.96397      0.3453066      0.4006006
      5568.5000         9.7772        25.8745        -0.0295        57.0792       49.17973          0.466         0.5335        32.7968         0.7004      -107.8301      -36.85883      0.3442495      0.3856861
      5569.0000         9.7943        26.2707         -0.033        57.4566       49.57285         0.4485         0.5157        33.7275         0.6933      -108.0214      -37.08858      0.3526138      0.3818569
      5569.5000         9.8109        26.3632        -0.0335        58.1333       50.27775         0.4306         0.4954        34.4374         0.6815      -108.2325      -37.34142      0.3676117       0.377643
      5570.0000         9.8217        26.2692         -0.031        56.5344       48.61222          0.413         0.4736        34.6191         0.6846      -108.5195      -37.68283       0.332175      0.3719528
      5570.5000         9.8325        26.6839        -0.0282        53.3604       45.30598         0.3968         0.4543        33.9318         0.6929      -109.1354      -38.40795      0.2618293      0.3598675
      5571.0000         9.8432        27.8756        -0.0252        50.3396       42.15931         0.3821         0.4406        32.8148         0.6804      -110.6458      -40.17665      0.1948789      0.3303892
      5571.5000         9.8476         29.058        -0.0238        47.4619        39.1617         0.3767         0.4324        32.0485         0.6127      -112.5253      -42.37597         0.1311      0.2937339
      5572.0000          9.852         29.558        -0.0233        46.1938       37.84077         0.3819         0.4315          32.15         0.5455      -114.0646      -44.17839       0.102995      0.2636935
      5572.5000         9.8564        28.9634        -0.0217        51.3842       43.24743         0.3924         0.4386        33.0679         0.5125      -113.0049      -42.94864      0.2180305      0.2841893
      5573.0000         9.8706        27.5106        -0.0187        57.4635       49.58004         0.4119         0.4657        34.4531         0.5428      -107.1189       -36.0882      0.3527668      0.3985299
      5573.5000         9.8849        25.5574        -0.0159        60.4969       52.73983         0.4428         0.5031        35.9645         0.5783      -101.3335      -29.34515      0.4199963      0.5109142
      5574.0000         9.9132        23.5742        -0.0134        62.1467       54.45837         0.4834         0.5467         37.168         0.6078       -95.2919      -22.30318      0.4565611      0.6282803
      5574.5000         9.9476        21.7954        -0.0122        63.2283       55.58504          0.526         0.5884        37.0898         0.6629       -91.5804      -17.97966      0.4805327       0.700339
      5575.0000         9.9814        20.7494        -0.0144        63.9973       56.38608         0.5665         0.6185         36.229         0.7289        -88.974      -14.94543      0.4975761      0.7509094
      5575.5000        10.0126        20.6382         -0.016        65.1637       57.60107         0.5997          0.642        35.7422         0.7866       -87.3995      -13.11508      0.5234271      0.7814153
      5576.0000        10.0252        21.3612        -0.0161        66.5083       59.00171         0.6208         0.6598        35.4009         0.8064       -86.8035      -12.42632      0.5532278      0.7928947
      5576.5000        10.0261        22.3318        -0.0163        66.0249       58.49817         0.6322         0.6658        35.2656         0.7923       -87.3318      -13.04924      0.5425141      0.7825126
      5577.0000        10.0108        23.2603        -0.0151        64.9778       57.40743         0.6424           0.67        35.4902         0.7806        -88.645      -14.58787      0.5193071      0.7568688
      5577.5000         9.9875        23.3896        -0.0136        64.1511       56.54629         0.6488         0.6695        35.8474         0.7731       -90.4028       -16.6452      0.5009848      0.7225799
      5578.0000         9.9829        22.7577         -0.011        64.3531       56.75671         0.6542          0.669        36.2202         0.7775       -91.8755      -18.36993      0.5054618      0.6938345
      5578.5000         9.9813        21.8916        -0.0073        65.0833       57.51733         0.6589           0.67        35.6483         0.7898       -92.2045      -18.76032      0.5216452       0.687328
      5579.0000         9.9816        20.9736         0.0015        66.2949       58.77941          0.662          0.671        34.2473         0.8099       -90.0914      -16.30161      0.5484981      0.7283065
      5579.5000         9.9778        20.3636         0.0049        67.0784       59.59556         0.6651         0.6734        33.1693          0.836       -87.8766      -13.72425       0.565863      0.7712625
      5580.0000         9.9718        20.2542         0.0064        66.8838       59.39285         0.6687         0.6768        32.8681         0.8423       -85.7925      -11.29937      0.5615499      0.8116772
      5580.5000          9.979        20.5402         0.0057         66.701       59.20243         0.6727         0.6802        34.6049         0.8194       -86.5182      -12.15259      0.5574985      0.7974569
      5581.0000         9.9902        20.9783         0.0042        70.0665       62.70816         0.6768         0.6835        36.5775         0.7669       -87.1936      -12.94712      0.6320885      0.7842146
      5581.5000        10.0412        21.0174         0.0011        74.7596       67.59681         0.6805         0.6867        38.7079          0.718       -86.4014      -12.02945      0.7361023      0.7995091
      5582.0000        10.0967         20.965        -0.0019        77.5269       70.47942         0.6836         0.6916        40.3531         0.7011       -84.3385      -9.629308      0.7974344      0.8395115
      5582.5000        10.1623         20.651        -0.0037        76.8916       69.81764         0.6867         0.6975        40.9427         0.7362       -82.2217      -7.166279      0.7833541       0.880562
