#------------------------------------------------------------------------------
# Created by    : vladimir.rabinovich
# Created on    : 09/19/2023 17:20:32
#------------------------------------------------------------------------------
~Version Information Section
VERS.           2.0     :   CWLS log ASCII Standard - VERSION 2.0
WRAP.           NO      :   One line per depth step
~Well Information Section
#MNEM       .UNIT                                         VALUE :DESCRIPTION
#------------------------------------------------------------------------------
STRT        .FT                                             530 :START DEPTH
STOP        .FT                                           15895 :STOP DEPTH
STEP        .FT                                             0.5 :STEP      
NULL        .                                           -999.25 :NULL      
COMP        .                                      SHELL OIL CO :COMPANY   
WELL        .                                OCS 00708 ST00BP00 :WELL      
FLD         .                                FEDERAL BLOCK 0288 :FIELD     
LOC         .                                                   :LOCATION  
CNTY        .                             GALVESTON LARGE BLOCK :LOCATION  
STAT        .                                             TEXAS :STATE     
CTRY        .                                     UNITED STATES :COUNTRY   
SRVC        .                                                   :SERVICE COMPANY
DATE        .                             9/13/2023 11:19:24 AM :LOG DATE  
API         .                                    42706000930000 :API NUMBER
UWI         .                                    42706000930000 :UNIQUE WELL ID
XCOORD      .                                  1077631.85251343 :SURFACE X 
YCOORD      .                                  10490946.9562601 :SURFACE Y 
LAT         .                                         28.896779 :LATITUDE  
LON         .                                        -94.759235 :LONGITUDE 
ELEV        .FT                                              76 :ELEVATION VALUE
ELEV_TYPE   .                                                KB :ELEVATION REFERENCE TYPE
~Curve Information Section
#MNEM       .UNIT                                      API CODE :CURVE DESCRIPTION
#------------------------------------------------------------------------------
DEPT        .FT                                                 :DEPTH     
ASN         .OHMM                                               :          
CILD        .MMHO                                               :          
SP          .MV                                                 :          
SP_NORM     .MV                                                 :SP Normalized
VSH_SP      .V/V                                                :Volume of Shale from SP
~A        DEPTH            ASN           CILD             SP        SP_NORM         VSH_SP
# ...
      9726.0000         0.4908        2898.25       -72.3613      -28.72029      0.2892233
      9726.5000         0.4822       2959.875        -70.749      -27.11337      0.3304265
      9727.0000         0.4736       2992.063       -69.9863      -26.35603      0.3498453
      9727.5000          0.465       2984.219       -69.3096      -25.68471      0.3670588
      9728.0000         0.4564       2975.797       -68.6016      -24.98208      0.3850749
      9728.5000         0.4569       2967.375       -67.8369      -24.22275      0.4045449
      9729.0000         0.4599       2958.969       -67.1123      -23.50352      0.4229867
      9729.5000           0.47       2948.438       -66.6992      -23.09579      0.4334412
      9730.0000         0.4716       2937.797       -71.1719      -27.57386       0.318619
      9730.5000         0.4702           3054       -75.0156      -31.42294      0.2199247
      9731.0000         0.4703       3130.875        -77.207      -33.61971      0.1635973
      9731.5000          0.473       3165.438       -79.0801      -35.49818      0.1154314
      9732.0000         0.4758       3152.688       -79.7754      -36.19884     0.09746552
      9732.5000          0.481       3133.813       -79.6772      -36.10602     0.09984569
      9733.0000         0.4883       3106.438       -78.1719      -34.60609      0.1383055
      9733.5000         0.4956       3060.625       -76.6172      -33.05676      0.1780317
      9734.0000         0.5029         2957.5       -75.0625      -31.50743      0.2177582
      9734.5000         0.5103         2820.5       -73.7246       -30.1749      0.2519255
      9735.0000         0.5193        2683.25       -71.7598      -28.21548      0.3021673
      9735.5000         0.5304           2546       -70.2051      -26.66615      0.3418937
      9736.0000         0.5415        2408.75       -66.6406      -23.10702      0.4331534
      9736.5000         0.5525         2271.5       -64.1523      -20.62408      0.4968183
      9737.0000         0.5613       2072.938       -62.0664      -18.54356      0.5501652
      9737.5000         0.5665       2047.344         -60.25      -16.73253      0.5966018
      9738.0000         0.5717       2030.938       -59.7008       -16.1887      0.6105461
      9738.5000         0.5661       2087.125       -59.6594      -16.15267      0.6114699
      9739.0000         0.5592       2175.625       -59.0547      -15.55334      0.6268375
      9739.5000          0.552       2209.625       -58.3428      -14.84681      0.6449536
      9740.0000         0.5471       2240.938       -57.6299      -14.13928      0.6630954
      9740.5000         0.5519       2266.531       -55.0215      -11.53625      0.7298397
      9741.0000         0.5566       2287.875       -53.7109      -10.23102      0.7633072
      9741.5000         0.5612       2301.188       -54.2324      -10.75789      0.7497976
      9742.0000         0.5656       2304.844       -54.9063      -11.43716      0.7323804
      9742.5000           0.57       2287.844       -55.7949      -12.33113      0.7094581
      9743.0000         0.5744       2269.875       -56.6855      -13.22711      0.6864844
      9743.5000         0.5788       2239.438       -57.7969      -14.34388      0.6578493
      9744.0000         0.5815       2213.438       -59.0566      -15.60895      0.6254116
      9744.5000         0.5837       2179.125       -60.2246      -16.78232      0.5953251
      9745.0000         0.5872       2151.375       -61.1055      -17.66859      0.5726002
      9745.5000         0.5908       2133.438       -61.9863      -18.55476      0.5498778
      9746.0000         0.5945       2120.594       -61.2852      -17.85903      0.5677171
      9746.5000         0.5981       2109.313       -60.5742       -17.1534      0.5858101
      9747.0000         0.6017       2100.297       -59.9639      -16.54848      0.6013211
      9747.5000         0.6054       2091.453       -59.4287      -16.01865      0.6149065
      9748.0000         0.6066       2082.609       -58.9365      -15.53182      0.6273893
      9748.5000         0.6068        2073.75       -58.4443      -15.04499       0.639872
      9749.0000         0.6069       2065.078       -57.9355      -14.54156      0.6527805
      9749.5000         0.6067       2056.813       -57.4033      -14.01473      0.6662889
      9750.0000         0.6019       2047.844       -57.0208       -13.6376      0.6759589
      9750.5000         0.5971       2048.188       -56.8606      -13.48277      0.6799289
      9751.0000         0.5904       2114.313       -56.7759      -13.40345      0.6819629
      9751.5000         0.5835        2162.75       -57.0044      -13.63731      0.6759663
      9752.0000         0.5806       2203.188       -57.2329      -13.87119      0.6699696
      9752.5000         0.5862       2266.375       -57.4629      -14.10656      0.6639345
      9753.0000         0.5961       2300.859       -58.1904      -14.83943      0.6451429
      9753.5000         0.6065       2299.219        -58.917       -15.5714      0.6263744
      9754.0000         0.6146       2281.188       -59.7754      -16.43517      0.6042264
      9754.5000         0.6201       2258.875       -60.7109      -17.37604      0.5801015
      9755.0000         0.6254         2070.5        -61.873      -18.54351      0.5501663
      9755.5000         0.6237       2025.938       -63.2812      -19.95708      0.5139209
      9756.0000         0.6221       1986.563       -60.4805      -17.16175       0.585596
      9756.5000         0.6203       1973.406       -58.4141      -15.10073      0.6384429
      9757.0000         0.6167       1949.188       -56.9102       -13.6022      0.6768668
      9757.5000          0.613       1953.563       -55.9009      -12.59827      0.7026085
      9758.0000         0.6094       1971.875        -55.769      -12.47174      0.7058529
      9758.5000          0.607       1993.375       -56.0728      -12.78091      0.6979254
      9759.0000         0.6082       1997.766        -56.377      -13.09048      0.6899878
      9759.5000         0.6095        1992.25       -56.2432      -12.96205      0.6932808
      9760.0000         0.6119       1991.994       -55.8037      -12.52792      0.7044123
      9760.5000         0.6177       1993.406       -55.3652      -12.09479      0.7155182
      9761.0000         0.6234       1994.818       -54.9258      -11.66076      0.7266471
      9761.5000         0.6292        1996.23       -54.4863      -11.22663      0.7377786
      9762.0000          0.635       1881.344        -54.063       -10.8087      0.7484947
      9762.5000         0.6374       1896.688       -53.6689      -10.41998      0.7584622
      9763.0000         0.6278        1943.25       -53.9883      -10.74475      0.7501347
      9763.5000         0.6206       1994.188       -54.9375      -11.69932      0.7256585
      9764.0000         0.6134       1999.898        -57.125      -13.89219       0.669431
      9764.5000         0.6081       1995.719       -59.5781      -16.35066      0.6063934
      9765.0000         0.6032       1991.539       -61.4375      -18.21543      0.5585787
      9765.5000         0.5979       2027.875       -64.9844       -21.7677      0.4674949
      9766.0000         0.5884         2146.5       -67.0879      -23.87657      0.4134212
      9766.5000         0.5721         2278.5       -69.3066      -26.10065      0.3563937
      9767.0000         0.5551        2410.25       -68.4609      -25.26031      0.3779407
      9767.5000          0.541        2542.25       -66.3711      -23.17589      0.4313875
      9768.0000         0.5288        2674.25       -65.4834      -22.29356      0.4540114
      9768.5000         0.5198        2806.25       -65.9336      -22.74913        0.44233
      9769.0000         0.5102        2938.25       -66.8594       -23.6803      0.4184539
      9769.5000         0.5007         3075.5       -68.8125      -25.63877      0.3682366
