#------------------------------------------------------------------------------
# Created by    : vladimir.rabinovich
# Created on    : 09/19/2023 17:20:32
#------------------------------------------------------------------------------
~Version Information Section
VERS.           2.0     :   CWLS log ASCII Standard - VERSION 2.0
WRAP.           NO      :   One line per depth step
~Well Information Section
#MNEM       .UNIT                                         VALUE :DESCRIPTION
#------------------------------------------------------------------------------
STRT        .FT                                             502 :START DEPTH
STOP        .FT                                            9122 :STOP DEPTH
STEP        .FT                                             0.5 :STEP      
NULL        .                                           -999.25 :NULL      
COMP        .                       BLUE DOLPHIN EXPLORATION CO :COMPANY   
WELL        .                                OCS 00714 ST00BP00 :WELL      
FLD         .                              GALVESTON BLOCK 0288 :FIELD     
LOC         .                                                   :LOCATION  
CNTY        .                             GALVESTON LARGE BLOCK :LOCATION  
STAT        .                                             TEXAS :STATE     
CTRY        .                                     UNITED STATES :COUNTRY   
SRVC        .                                                   :SERVICE COMPANY
DATE        .                             9/13/2023 11:19:24 AM :LOG DATE  
API         .                                    42706000680000 :API NUMBER
UWI         .                                    42706000680000 :UNIQUE WELL ID
XCOORD      .                                  1088404.51782723 :SURFACE X 
YCOORD      .                                  10474534.8869196 :SURFACE Y 
LAT         .                                        28.8520809 :LATITUDE  
LON         .                                       -94.7248272 :LONGITUDE 
ELEV        .FT                                              85 :ELEVATION VALUE
ELEV_TYPE   .                                                KB :ELEVATION REFERENCE TYPE
~Curve Information Section
#MNEM       .UNIT                                      API CODE :CURVE DESCRIPTION
#------------------------------------------------------------------------------
DEPT        .FT                                                 :DEPTH     
ASN         .OHMM                                               :          
ASN_1       .OHMM                                               :          
DT          .US/F                                               :          
ILD         .OHMM                                               :          
LAT         .OHMM                                               :          
LN          .OHMM                                               :          
SP          .MV                                                 :          
SP_NORM     .MV                                                 :SP Normalized
VSH_SP      .V/V                                                :Volume of Shale from SP
~A        DEPTH            ASN          ASN_1             DT            ILD            LAT             LN             SP        SP_NORM         VSH_SP
# ...
      9088.0000         0.8919        -999.25        99.5219         0.5947        -999.25        -999.25        -999.25      -26.70658       0.340857
      9088.5000         0.8838        -999.25         88.307         0.5906        -999.25        -999.25        -999.25      -33.30797      0.1715905
      9089.0000         0.8553        -999.25        81.4199         0.5858        -999.25        -999.25        -999.25      -35.93058      0.1043442
      9089.5000         0.8424        -999.25        88.8927          0.581        -999.25        -999.25        -999.25      -34.34748      0.1449365
      9090.0000         0.8769        -999.25        96.0659         0.5772        -999.25        -999.25        -999.25      -30.33828      0.2477365
      9090.5000         0.9249        -999.25        96.1471         0.5758        -999.25        -999.25        -999.25      -29.55198      0.2678981
      9091.0000         0.9729        -999.25         88.316         0.5744        -999.25        -999.25        -999.25      -36.05607      0.1011264
      9091.5000         0.9978        -999.25        88.6134         0.5858        -999.25        -999.25        -999.25      -38.00297     0.05120585
      9092.0000         0.9969        -999.25        95.4531         0.5974        -999.25        -999.25        -999.25      -38.69538     0.03345186
      9092.5000         0.9731        -999.25        97.5889         0.6207        -999.25        -999.25        -999.25      -38.65728     0.03442882
      9093.0000         0.9643        -999.25        96.4376         0.6576        -999.25        -999.25        -999.25      -37.01428     0.07655697
      9093.5000         0.9879        -999.25       100.1571         0.6962        -999.25        -999.25        -999.25      -33.89107      0.1566392
      9094.0000         1.0606        -999.25       101.4368         0.7355        -999.25        -999.25        -999.25      -29.78238      0.2619904
      9094.5000         1.1823        -999.25        94.5632         0.7654        -999.25        -999.25        -999.25      -25.01847      0.3841417
      9095.0000         1.2849        -999.25        94.5139         0.7936        -999.25        -999.25        -999.25      -20.80138      0.4922724
      9095.5000         1.5337        -999.25        91.3258         0.8153        -999.25        -999.25        -999.25      -18.42387       0.553234
      9096.0000         1.7537        -999.25        76.8623         0.8364        -999.25        -999.25        -999.25      -20.39008      0.5028186
      9096.5000         1.8619        -999.25         61.723         0.8536        -999.25        -999.25        -999.25      -24.67488      0.3929519
      9097.0000         1.8983        -999.25        67.3102         0.8672        -999.25        -999.25        -999.25      -27.18338      0.3286314
      9097.5000         1.7191        -999.25        92.8308         0.8809        -999.25        -999.25        -999.25      -28.63437      0.2914263
      9098.0000         1.6026        -999.25       106.6962         0.8946        -999.25        -999.25        -999.25      -28.61628      0.2918904
      9098.5000         1.3851        -999.25       106.8927         0.9083        -999.25        -999.25        -999.25      -23.91558      0.4124211
      9099.0000         1.3018        -999.25        93.1508         0.9144        -999.25        -999.25        -999.25      -16.75607      0.5959981
      9099.5000         1.2742        -999.25        89.1541         0.9207        -999.25        -999.25        -999.25      -10.64518      0.7526878
      9100.0000         1.2688        -999.25        87.6017         0.9285        -999.25        -999.25        -999.25      -8.857574      0.7985237
      9100.5000         1.2763        -999.25        86.6018         0.9448        -999.25        -999.25        -999.25      -10.38078      0.7594673
      9101.0000         1.3018        -999.25        93.9298         0.9703        -999.25        -999.25        -999.25      -12.08707      0.7157161
      9101.5000         1.3417        -999.25        93.0155         1.0038        -999.25        -999.25        -999.25      -16.47588      0.6031827
      9102.0000         1.3667        -999.25         89.338         1.0448        -999.25        -999.25        -999.25      -22.64097      0.4451033
      9102.5000         1.3899        -999.25        84.7327         1.0864        -999.25        -999.25        -999.25      -24.72467       0.391675
      9103.0000         1.4327        -999.25       105.3203         1.1178        -999.25        -999.25        -999.25      -22.60478      0.4460313
      9103.5000         1.5042        -999.25       151.1104         1.1462        -999.25        -999.25        -999.25      -13.00457      0.6921904
      9104.0000         1.5923        -999.25       235.2087         1.1713        -999.25        -999.25        -999.25      -8.448475      0.8090135
      9104.5000         1.6763        -999.25       221.1743         1.1894        -999.25        -999.25        -999.25      -5.510574      0.8843442
      9105.0000         1.7647        -999.25       137.4607            1.2        -999.25        -999.25        -999.25      -3.718376       0.930298
      9105.5000         1.8218        -999.25        92.3984         1.2053        -999.25        -999.25        -999.25      -2.787273      0.9541725
      9106.0000         1.7248        -999.25        83.9714         1.1863        -999.25        -999.25        -999.25      -2.138775      0.9708006
      9106.5000         1.5754        -999.25        77.2493         1.1673        -999.25        -999.25        -999.25      -1.700275      0.9820442
      9107.0000         1.4892        -999.25        81.2871         1.1264        -999.25        -999.25        -999.25     -0.8990746              1
      9107.5000         1.4828        -999.25       100.1858         1.0754        -999.25        -999.25        -999.25     -0.2819748              1
      9108.0000         1.5792        -999.25       207.6265         1.0239        -999.25        -999.25        -999.25      -2.559074      0.9600238
      9108.5000         1.6332        -999.25       134.0017          0.971        -999.25        -999.25        -999.25      -8.168274      0.8161981
      9109.0000         1.6323        -999.25        93.4479           0.94        -999.25        -999.25        -999.25      -14.23397      0.6606673
      9109.5000          1.569        -999.25        84.5299          0.916        -999.25        -999.25        -999.25      -21.07708      0.4852032
      9110.0000         1.5263        -999.25        87.1198         0.9065        -999.25        -999.25        -999.25      -25.00487      0.3844905
      9110.5000         1.4574        -999.25        91.0787         0.8979        -999.25        -999.25        -999.25      -24.77098      0.3904878
      9111.0000         1.3798        -999.25        96.7178         0.8901        -999.25        -999.25        -999.25      -23.89757      0.4128828
      9111.5000          1.319        -999.25       102.6675         0.8838        -999.25        -999.25        -999.25      -19.16967      0.5341109
      9112.0000         1.2939        -999.25       105.8878         0.8775        -999.25        -999.25        -999.25      -10.32877      0.7608007
      9112.5000         1.2888        -999.25       120.0214         0.8703        -999.25        -999.25        -999.25      -4.596375      0.9077853
      9113.0000         1.2815        -999.25       163.5232         0.8615        -999.25        -999.25        -999.25      -3.929676      0.9248801
      9113.5000         1.2207        -999.25       149.3513         0.8542        -999.25        -999.25        -999.25      -2.549976       0.960257
      9114.0000         1.1734        -999.25       100.7848         0.8525        -999.25        -999.25        -999.25      -1.078773      0.9979802
