#------------------------------------------------------------------------------
# Created by    : vladimir.rabinovich
# Created on    : 09/19/2023 17:20:12
#------------------------------------------------------------------------------
~Version Information Section
VERS.           2.0     :   CWLS log ASCII Standard - VERSION 2.0
WRAP.           NO      :   One line per depth step
~Well Information Section
#MNEM       .UNIT                                         VALUE :DESCRIPTION
#------------------------------------------------------------------------------
STRT        .FT                                             309 :START DEPTH
STOP        .FT                                            9124 :STOP DEPTH
STEP        .FT                                             0.5 :STEP      
NULL        .                                           -999.25 :NULL      
COMP        .                         SONAT EXPLORATION GOM INC :COMPANY   
WELL        .                               OCS G03084 ST00BP00 :WELL      
FLD         .                                           WILDCAT :FIELD     
LOC         .                                                   :LOCATION  
CNTY        .                      MATAGORDA ISLAND LARGE BLOCK :LOCATION  
STAT        .                                             TEXAS :STATE     
CTRY        .                                     UNITED STATES :COUNTRY   
SRVC        .                                                   :SERVICE COMPANY
DATE        .                             9/13/2023 11:12:09 AM :LOG DATE  
API         .                                    42703400260000 :API NUMBER
UWI         .                                    42703400260000 :UNIQUE WELL ID
XCOORD      .                                  563826.313549269 :SURFACE X 
YCOORD      .                                  10238444.2560225 :SURFACE Y 
LAT         .                                         28.172716 :LATITUDE  
LON         .                                        -96.341662 :LONGITUDE 
ELEV        .FT                                              97 :ELEVATION VALUE
ELEV_TYPE   .                                                KB :ELEVATION REFERENCE TYPE
~Curve Information Section
#MNEM       .UNIT                                      API CODE :CURVE DESCRIPTION
#------------------------------------------------------------------------------
DEPT        .FT                                                 :DEPTH     
ASFL        .OHMM                                               :          
CILD        .MMHO                                               :          
DT          .US/F                                               :          
GR          .GAPI                                               :          
GR_NORM     .GAPI                                               :GammaRay Normalized
ILD         .OHMM                                               :          
SP          .MV                                                 :          
SP_NORM     .MV                                                 :SP Normalized
VSH_GR      .V/V                                                :Volume of Shale from GR
VSH_SP      .V/V                                                :Volume of Shale from SP
~A        DEPTH           ASFL           CILD             DT             GR        GR_NORM            ILD             SP        SP_NORM         VSH_GR         VSH_SP
# ...
      6752.5000         0.8803       931.5957       113.8214        -999.25        -999.25         0.7914       -72.2222      -8.171799        -999.25      0.8879406
      6753.0000         0.8466       950.2783       108.1969        -999.25        -999.25         0.7483       -73.5963      -9.547638        -999.25      0.8664432
      6753.5000         0.8271       997.5752        103.343        -999.25        -999.25         0.7051       -75.0691      -11.02219        -999.25      0.8434033
      6754.0000         0.8203       1061.352          99.47        -999.25        -999.25          0.662       -76.7545      -12.70933        -999.25      0.8170418
      6754.5000         0.8399       1163.813        98.8519        -999.25        -999.25         0.6189       -79.8756      -15.83218        -999.25      0.7682472
      6755.0000         0.8661       1249.844       104.0336        -999.25        -999.25         0.5758      -100.7046      -36.66292        -999.25      0.4427669
      6755.5000         0.9013       1338.064       108.1869        -999.25        -999.25         0.5414      -104.4781      -40.43816        -999.25      0.3837787
      6756.0000         0.9367       1443.314       109.1846        -999.25        -999.25         0.5069      -104.7227      -40.68451        -999.25      0.3799295
      6756.5000          0.972       1614.779       108.9607        -999.25        -999.25         0.4724      -104.1808      -40.14435        -999.25      0.3883696
      6757.0000          0.974       1714.451       108.5046        -999.25        -999.25          0.438       -103.422      -39.38729        -999.25      0.4001986
      6757.5000         0.9464       1877.453       108.0493        -999.25        -999.25         0.4035      -102.6622      -38.62923        -999.25      0.4120432
      6758.0000         0.9117       2047.922        108.337        -999.25        -999.25         0.3709      -101.9025      -37.87128        -999.25      0.4238863
      6758.5000         0.8769       2149.086       108.8606        -999.25        -999.25         0.3496       -122.656      -58.62652        -999.25     0.09958565
      6759.0000         0.8409       2381.289       109.4761        -999.25        -999.25         0.3282       -125.902      -61.87427        -999.25     0.04883957
      6759.5000         0.8481       2572.871       110.1328        -999.25        -999.25         0.3068      -127.6377      -63.61172        -999.25     0.02169192
      6760.0000         0.8947       2641.773       109.6443        -999.25        -999.25         0.2854      -128.9426      -64.91835        -999.25    0.001275778
      6760.5000         0.8814       2685.535       109.1257        -999.25        -999.25         0.2733      -129.4575      -65.43501        -999.25              0
      6761.0000         0.8636        2684.23       108.5735        -999.25        -999.25         0.2698      -128.8774      -64.85664        -999.25    0.002240062
      6761.5000         0.8365       2640.332       107.4313        -999.25        -999.25         0.2664      -127.2593      -63.24029        -999.25      0.0274955
      6762.0000         0.8093       2579.293       106.4314        -999.25        -999.25         0.2629      -121.8208      -57.80353        -999.25      0.1124449
      6762.5000         0.7821       2517.109        106.387        -999.25        -999.25         0.2634      -118.1256      -54.11008        -999.25       0.170155
      6763.0000          0.793       2378.305       106.4171        -999.25        -999.25         0.2896        -112.95      -48.93622        -999.25      0.2509966
      6763.5000         0.8182        2223.07       106.5541        -999.25        -999.25         0.3158      -108.4978      -44.48576        -999.25      0.3205349
      6764.0000         0.8426       2114.832        106.691        -999.25        -999.25          0.342       -107.092      -43.08171        -999.25      0.3424733
      6764.5000          0.867       2008.789       106.9047        -999.25        -999.25         0.3683      -105.6881      -41.67955        -999.25       0.364382
      6765.0000         0.8914       1919.373       107.1458        -999.25        -999.25         0.3945      -106.5812      -42.57439        -999.25      0.3504001
      6765.5000         0.9158       1854.998       107.5114        -999.25        -999.25         0.4202      -107.6019      -43.59683        -999.25      0.3344245
      6766.0000         0.9202       1878.971       108.3108        -999.25        -999.25         0.4332      -109.0254      -45.02208        -999.25       0.312155
      6766.5000          0.915        1906.08       109.1115        -999.25        -999.25         0.4463      -111.2701      -47.26853        -999.25      0.2770542
      6767.0000         0.9067       1929.455       109.9146        -999.25        -999.25         0.4533      -113.0675      -49.06767        -999.25      0.2489427
      6767.5000         0.8985        1945.66       110.5986        -999.25        -999.25         0.4435      -110.8861      -46.88801        -999.25      0.2829998
      6768.0000         0.8902       1879.543       110.6844        -999.25        -999.25         0.4337      -108.1958      -44.19946        -999.25      0.3250085
      6768.5000         0.9016       1796.799       109.1277        -999.25        -999.25         0.4858      -104.3812       -40.3866        -999.25      0.3845843
      6769.0000         0.9714       1653.213       100.4108        -999.25        -999.25         0.5475       -98.6836      -34.69075        -999.25      0.4735821
      6769.5000         1.0537       1441.721        93.0398        -999.25        -999.25         0.6092       -88.7352      -24.74409        -999.25      0.6289986
      6770.0000         1.1264       1165.705        95.3767        -999.25        -999.25         0.6804       -80.7295      -16.74013        -999.25      0.7540604
      6770.5000         1.1372       1064.438        104.569        -999.25        -999.25         0.7669       -77.7352      -13.74757        -999.25      0.8008192
      6771.0000         1.1163       1031.928       108.4972        -999.25        -999.25          0.849       -75.0393      -11.05342        -999.25      0.8429154
      6771.5000         1.0954        999.418       112.2627        -999.25        -999.25         0.8795       -72.6603      -8.676163        -999.25        0.88006
      6772.0000         1.0461       974.1758       114.7775        -999.25        -999.25         0.8694       -71.1017      -7.119305        -999.25      0.9043859
      6772.5000         0.9274        1001.21       114.8589        -999.25        -999.25         0.8549        -69.627      -5.646351        -999.25      0.9274008
      6773.0000         0.9016       1029.961       113.8464        -999.25        -999.25         0.8404       -68.6277      -4.648796        -999.25      0.9429876
      6773.5000         0.8813       1058.688        112.105        -999.25        -999.25         0.8258       -67.6703      -3.693142        -999.25      0.9579197
      6774.0000         0.8611       1081.715       110.0709        -999.25        -999.25         0.8139       -66.9995      -3.024078        -999.25      0.9683738
      6774.5000         0.8511       1098.766       109.7556        -999.25        -999.25         0.8083       -66.5381      -2.564426        -999.25      0.9755558
      6775.0000         0.8476       1115.793       110.0734        -999.25        -999.25         0.8026       -66.7485      -2.776566        -999.25      0.9722412
      6775.5000         0.8543         1131.4       110.2189        -999.25        -999.25         0.7969        -66.959      -2.988811        -999.25      0.9689248
      6776.0000         0.8634       1119.615       110.3643        -999.25        -999.25         0.7912       -67.1697       -3.20126        -999.25      0.9656053
      6776.5000         0.8817        1107.84       107.7516        -999.25        -999.25         0.7861       -67.9005        -3.9338        -999.25      0.9541594
