#------------------------------------------------------------------------------
# Created by    : vladimir.rabinovich
# Created on    : 09/19/2023 17:20:03
#------------------------------------------------------------------------------
~Version Information Section
VERS.           2.0     :   CWLS log ASCII Standard - VERSION 2.0
WRAP.           NO      :   One line per depth step
~Well Information Section
#MNEM       .UNIT                                         VALUE :DESCRIPTION
#------------------------------------------------------------------------------
STRT        .FT                                            3149 :START DEPTH
STOP        .FT                                           10186 :STOP DEPTH
STEP        .FT                                             0.5 :STEP      
NULL        .                                           -999.25 :NULL      
COMP        .                                  SAMEDAN OIL CORP :COMPANY   
WELL        .                                     ST TR 00817-L :WELL      
FLD         .                                           WILDCAT :FIELD     
LOC         .                                                   :LOCATION  
CNTY        .                        MUSTANG ISLAND LARGE BLOCK :LOCATION  
STAT        .                                             TEXAS :STATE     
CTRY        .                                     UNITED STATES :COUNTRY   
SRVC        .                                                   :SERVICE COMPANY
DATE        .                             9/13/2023 11:18:55 AM :LOG DATE  
API         .                                    42702300080000 :API NUMBER
UWI         .                                    42702300080000 :UNIQUE WELL ID
XCOORD      .                                  304914.569303086 :SURFACE X 
YCOORD      .                                  10013906.4088957 :SURFACE Y 
LAT         .                                        27.5345201 :LATITUDE  
LON         .                                       -97.1203623 :LONGITUDE 
ELEV        .FT                                              65 :ELEVATION VALUE
ELEV_TYPE   .                                                KB :ELEVATION REFERENCE TYPE
~Curve Information Section
#MNEM       .UNIT                                      API CODE :CURVE DESCRIPTION
#------------------------------------------------------------------------------
DEPT        .FT                                                 :DEPTH     
ASFL        .OHMM                                               :          
CILD        .MMHO                                               :          
DT          .US/F                                               :          
GR          .GAPI                                               :          
ILD         .OHMM                                               :          
SP          .MV                                                 :          
SP_NORM     .MV                                                 :SP Normalized
VSH_SP      .V/V                                                :Volume of Shale from SP
~A        DEPTH           ASFL           CILD             DT             GR            ILD             SP        SP_NORM         VSH_SP
# ...
      6423.5000         0.8284       1439.824       116.5356        -999.25          0.799       -50.5674        1.24873              1
      6424.0000         0.8204       1450.178       113.6289        -999.25         0.7854       -50.3632       1.460232              1
      6424.5000         0.8181       1455.953       110.5035        -999.25          0.771       -50.0997        1.73103              1
      6425.0000         0.8387       1448.719         105.65        -999.25         0.7704       -50.3991       1.438931              1
      6425.5000         0.8582        1441.49       103.2347        -999.25          0.804       -50.8502      0.9951286              1
      6426.0000         0.8805       1434.256       103.8645        -999.25         0.8376       -51.2615      0.5911293              1
      6426.5000         0.9123       1427.023       105.3474        -999.25         0.8782       -51.6391       0.220829              1
      6427.0000         0.9612       1406.357       105.5056        -999.25         0.9296       -52.1274     -0.2601738              1
      6427.5000          1.029       1386.164       102.5621        -999.25         0.9806       -52.7465     -0.8719711              1
      6428.0000         1.0711       1366.727        94.5134        -999.25         1.0317       -54.1299      -2.248077      0.9831341
      6428.5000         1.1105       1347.289         90.026        -999.25         1.0811        -59.217      -7.327873      0.9144882
      6429.0000         1.1572       1327.852        87.7972        -999.25         1.1288       -64.6599      -12.76347      0.8410341
      6429.5000         1.1982       1305.582         90.559        -999.25          1.142       -67.4231      -15.51938      0.8037922
      6430.0000         1.2122       1233.107        93.0667        -999.25         1.1538       -70.1355      -18.22448      0.7672368
      6430.5000         1.2002       1146.275        94.9791        -999.25         1.1656       -72.4994      -20.58108      0.7353908
      6431.0000         1.1846       1104.471        94.0242        -999.25         1.1831       -71.8857      -19.96008      0.7437828
      6431.5000         1.1689       1073.947        92.2897        -999.25         1.1878        -70.043      -18.11008      0.7687827
      6432.0000         1.1567       1042.887        90.4294        -999.25         1.1924       -68.2184      -16.27818      0.7935381
      6432.5000         1.2292       1009.678        88.6389        -999.25         1.1987       -66.2667      -14.31918       0.820011
      6433.0000         1.3704       968.4102        87.3975        -999.25         1.2102       -64.7434      -12.78858      0.8406948
      6433.5000         1.4444       927.5342        87.4153        -999.25          1.211       -64.6804      -12.71828      0.8416449
      6434.0000         1.4943       896.6445        87.2147        -999.25         1.2107       -64.9409      -12.97149      0.8382231
      6434.5000         1.5155        870.248        86.4301        -999.25         1.1899       -64.8297      -12.85298      0.8398246
      6435.0000          1.475        855.792         85.282        -999.25         1.1474       -63.9873      -12.00329      0.8513069
      6435.5000         1.4266       932.4668        86.0316        -999.25          1.034        -63.144      -11.15269      0.8628016
      6436.0000         1.3644       1142.857        91.4554        -999.25          0.944       -62.3007      -10.30209      0.8742961
      6436.5000         1.3089       1467.918        97.4121        -999.25         0.8539       -61.3793      -9.373386      0.8868461
      6437.0000         1.2514       1792.979       103.5681        -999.25          0.758       -63.7595      -11.74629      0.8547799
      6437.5000         1.1779        2118.43       108.1403        -999.25          0.656         -65.84      -13.81949      0.8267637
      6438.0000         1.1178       2443.488        110.536        -999.25         0.5385       -69.2495      -17.22169       0.780788
      6438.5000         1.0583       2768.551       110.0629        -999.25          0.421       -71.9783       -19.9432      0.7440109
      6439.0000         1.0092       3509.996       106.5615        -999.25         0.3431       -73.2573      -21.21489      0.7268258
      6439.5000         0.9675       3598.785       104.5668        -999.25         0.2983       -79.1333       -27.0836       0.647519
      6440.0000         0.9245       3669.117         103.75        -999.25         0.2929       -93.5847      -41.52769      0.4523284
      6440.5000         0.8835       3670.375       103.3185        -999.25         0.3044      -108.0508      -55.98649      0.2569393
      6441.0000         0.9043        3644.25         102.78        -999.25         0.3158      -122.5023      -70.43069     0.06174737
      6441.5000         0.9728       3560.691       102.1262        -999.25         0.3411      -119.7064      -67.62749     0.09962845
      6442.0000         1.0365       3458.914       101.4508        -999.25         0.3672      -111.5657       -59.4795      0.2097365
      6442.5000         1.0948        3194.41       101.6967        -999.25         0.3932      -103.4176       -51.3241      0.3199446
      6443.0000         1.1375       2928.738       103.5432        -999.25         0.4193       -95.2695       -43.1687      0.4301527
      6443.5000         1.1544       2663.063       105.5853        -999.25         0.4595       -87.1288       -35.0207      0.5402609
      6444.0000          1.122       2397.777       106.7274        -999.25         0.5283       -78.9807       -26.8653      0.6504689
      6444.5000         1.0961       2132.102       105.5466        -999.25         0.5892         -70.84       -18.7173      0.7605771
      6445.0000         1.0702        1952.48       103.8844        -999.25         0.5823       -64.3912       -12.2612      0.8478216
      6445.5000         1.0443       1830.096       102.1736        -999.25         0.5594       -59.9251      -7.787804      0.9082729
      6446.0000         1.0184       1709.174       100.3457        -999.25         0.5365       -57.4396      -5.295006      0.9419594
      6446.5000         1.0739       1735.691        97.8605        -999.25         0.5137       -58.9502      -6.798306      0.9216445
      6447.0000         1.1386       1772.809        98.6473        -999.25         0.4934       -60.6059      -8.446705      0.8993689
      6447.5000         1.2558       1855.295        99.3665        -999.25         0.4731        -62.416      -10.24951      0.8750067
      6448.0000         1.5322       1984.713        98.3112        -999.25         0.4529       -67.7245      -15.55071      0.8033688
      6448.5000         1.6066       2070.668         96.807        -999.25         0.4326       -73.1855      -21.00441      0.7296702
      6449.0000         1.6565       2154.375        96.6738        -999.25         0.4124       -77.8007      -25.61231      0.6674013
      6449.5000         1.6852       2230.949        98.0348        -999.25         0.3921       -80.6365      -28.44081      0.6291783
      6450.0000          1.693       2346.059        99.5625        -999.25         0.3719       -83.3961      -31.19312      0.5919849
      6450.5000         1.6837       2390.063       100.9546        -999.25         0.3577       -86.3009      -34.09061      0.5528296
      6451.0000         1.6743       2499.457        97.1233        -999.25         0.3452       -89.4926      -37.27501      0.5097971
      6451.5000          1.665       2571.883        92.5411        -999.25         0.3472       -94.3545      -42.12961      0.4441944
      6452.0000         1.6542       2606.559        89.1693        -999.25         0.3511      -100.7683      -48.53612        0.35762
      6452.5000         1.6423       2631.637        86.2009        -999.25         0.3574      -100.8579      -48.61842      0.3565078
