#------------------------------------------------------------------------------
# Created by    : vladimir.rabinovich
# Created on    : 09/19/2023 17:19:40
#------------------------------------------------------------------------------
~Version Information Section
VERS.           2.0     :   CWLS log ASCII Standard - VERSION 2.0
WRAP.           NO      :   One line per depth step
~Well Information Section
#MNEM       .UNIT                                         VALUE :DESCRIPTION
#------------------------------------------------------------------------------
STRT        .FT                                             305 :START DEPTH
STOP        .FT                                          9892.5 :STOP DEPTH
STEP        .FT                                             0.5 :STEP      
NULL        .                                           -999.25 :NULL      
COMP        .                         ATLANTIC RICHFIELD CO THE :COMPANY   
WELL        .                               OCS G07247 ST00BP00 :WELL      
FLD         .                                           WILDCAT :FIELD     
LOC         .                                                   :LOCATION  
CNTY        .                             GALVESTON LARGE BLOCK :LOCATION  
STAT        .                                             TEXAS :STATE     
CTRY        .                                     UNITED STATES :COUNTRY   
SRVC        .                                                   :SERVICE COMPANY
DATE        .                             9/13/2023 11:19:27 AM :LOG DATE  
API         .                                    42706401220000 :API NUMBER
UWI         .                                    42706401220000 :UNIQUE WELL ID
XCOORD      .                                  995038.545578968 :SURFACE X 
YCOORD      .                                  10445559.0196594 :SURFACE Y 
LAT         .                                         28.768363 :LATITUDE  
LON         .                                        -95.014888 :LONGITUDE 
ELEV        .FT                                              98 :ELEVATION VALUE
ELEV_TYPE   .                                                KB :ELEVATION REFERENCE TYPE
~Curve Information Section
#MNEM       .UNIT                                      API CODE :CURVE DESCRIPTION
#------------------------------------------------------------------------------
DEPT        .FT                                                 :DEPTH     
ALL         .OHMM                                               :          
CILD        .MMHO                                               :          
GR          .GAPI                                               :          
GR_NORM     .GAPI                                               :GammaRay Normalized
ILD         .OHMM                                               :          
SP          .MV                                                 :          
VSH_GR      .V/V                                                :Volume of Shale from GR
~A        DEPTH            ALL           CILD             GR        GR_NORM            ILD             SP         VSH_GR
# ...
      7943.0000         0.9214       1182.416        49.5519       53.07385         0.9118        30.2863      0.4271033
      7943.5000         0.9329       1167.182        50.4516       54.07871         0.9151        30.2255      0.4484832
      7944.0000          0.951       1152.713        51.3502       55.08233         0.9184        30.1646      0.4698369
      7944.5000         0.9709       1138.363        52.1772       56.00641         0.9217        30.1038       0.489498
      7945.0000         0.9911       1124.014         52.713       56.60693          0.925        30.0746       0.502275
      7945.5000         1.0058       1109.834        53.2487       57.20733         0.9283        30.0972      0.5150496
      7946.0000         1.0164       1095.844          52.77       56.68063         0.9316        30.1198      0.5038431
      7946.5000         1.0149       1082.131        50.4516       54.10981         0.9349        30.1424      0.4491449
      7947.0000         1.0016       1070.668        48.8179       52.29977         0.9379        30.1649      0.4106334
      7947.5000         0.9826       1074.447        47.1818       50.48707         0.9379        30.1954      0.3720653
      7948.0000         0.9639       1081.723        46.0803       49.26836         0.9378        30.3026      0.3461352
      7948.5000         0.9474       1089.688        44.9932       48.06565         0.9377        30.4099      0.3205459
      7949.0000          0.931       1097.652        43.7366       46.67461         0.9376        30.5171      0.2909492
      7949.5000         0.9165       1105.617        42.4789       45.28236         0.9376        30.6243      0.2613268
      7950.0000         0.9023       1113.582          41.59       44.29987         0.9354        30.7351      0.2404228
      7950.5000         0.8918       1121.225        40.9894       43.63773         0.9312        30.9276      0.2263346
      7951.0000          0.887       1128.805        41.8087       44.55324         0.9271        31.1198      0.2458136
      7951.5000         0.8822       1136.398        42.5258        45.3552          0.923        31.3123      0.2628766
      7952.0000         0.8964        1143.98        43.2429       46.15716         0.9189        31.5048      0.2799396
      7952.5000         0.9293       1126.074        43.9601       46.95924         0.9287        31.6973       0.297005
      7953.0000          0.959       1092.395         44.676       47.75986         0.9424        31.9222      0.3140396
      7953.5000         0.9865       1052.246        45.3397       48.50249         0.9562        32.1541      0.3298403
      7954.0000         1.0148       1010.231        45.9536       49.18979         0.9699        32.3859      0.3444636
      7954.5000           1.04       972.4785        46.5668        49.8763         0.9837        32.6279      0.3590703
      7955.0000         1.0645       943.2539          47.18       50.56282         1.0092        32.9219       0.373677
      7955.5000         1.0882         917.79        47.7939       51.25012         1.0381        33.2159      0.3883004
      7956.0000         1.1152       904.6152        48.3344       51.85585          1.067        32.7913      0.4011884
      7956.5000          1.145       892.3623        48.8221       52.40293         1.0959        32.0189      0.4128283
      7957.0000         1.1826        903.873        49.3092       52.94933         1.1218        31.5862      0.4244539
      7957.5000          1.149         941.96        49.5195       53.18819          1.145        31.3937      0.4295359
      7958.0000         1.1161       980.0479         47.511        50.9617         1.1261        31.2015      0.3821639
      7958.5000         1.0856       1019.573        45.5025       48.73522         1.0909        31.0097       0.334792
      7959.0000         1.0503        1052.15        43.4916       46.50607         1.0557        30.9615      0.2873632
      7959.5000           0.96       1068.129        41.4831       44.27959         1.0288        30.9135      0.2399913
      7960.0000         0.9174       1084.105        39.4746        42.0531         1.0125        30.8654      0.1926192
      7960.5000          0.896       1081.986        37.4661       39.82662         0.9962        31.0429      0.1452473
      7961.0000         0.8884       1075.268        35.2991       37.42402         0.9798        31.2597     0.09412814
      7961.5000         0.8811       1068.547        32.9807       34.85321         0.9635        31.8099     0.03943009
      7962.0000         0.8879       1061.816        30.7824       32.41585         0.9472        32.6165              0
      7962.5000         0.9149       1055.098        34.6792        36.7508          0.944        32.9841     0.07980428
      7963.0000         0.9442       1051.334        38.8067        41.3421          0.945        33.3517      0.1774915
      7963.5000         0.9882       1048.094        44.2364       47.38028         0.9459        33.4534      0.3059635
      7964.0000         0.9802        1046.33        38.3791       40.87736         0.9469        33.5477      0.1676033
      7964.5000         0.9616       1060.295        35.6835       37.88742          0.928         33.642      0.1039878
      7965.0000         0.9209       1078.262        33.7591       35.75439          0.909        33.7136     0.05860414
      7965.5000         0.8796       1099.676        32.7776       34.66901         0.8901        33.7253     0.03551093
      7966.0000         0.8559       1121.068        31.7975       33.58521         0.8711        33.7369     0.01245117
      7966.5000         0.8418       1134.471        31.6185       33.39149         0.8546        33.7486    0.008329676
      7967.0000          0.835       1143.766        35.3279       37.51824          0.858         33.858     0.09613273
      7967.5000         0.8378       1153.059        42.5642       45.56375         0.8613        34.2604      0.2673139
      7968.0000          0.844       1162.354        44.8562       48.11561         0.8647        35.0725      0.3216087
      7968.5000         0.8503       1171.637        45.0845       48.37445          0.868        36.2665       0.327116
      7969.0000         0.8577       1166.629        43.0183       46.08386         0.8713        37.2275        0.27838
      7969.5000         0.8652       1161.545        40.9498       43.79071         0.8747        37.9976      0.2295895
      7970.0000         0.8728       1140.256        38.5233       41.09978         0.8841        38.4125      0.1723358
      7970.5000         0.8803       1104.947        36.0973       38.40941          0.904        37.8113      0.1150939
      7971.0000          0.888       1052.727        36.8799       39.28416          0.924        37.2552      0.1337055
      7971.5000         0.9077       1000.122        40.2867       43.07467          0.944        36.8755      0.2143547
      7972.0000         0.9361       946.9434        43.6934       46.86508         0.9686         36.496      0.2950017
      7972.5000         1.0545       919.1797        48.2966       51.98492         1.0208        36.1164      0.4039346
      7973.0000         1.0692       897.3809        58.4297        63.2491         1.0707        35.7368       0.643598
      7973.5000         1.0707       918.9404        59.0015       63.88962          1.096        35.3746      0.6572259
      7974.0000         1.0642       940.5234        59.5733       64.53015         1.0808        35.0449      0.6708543
      7974.5000         1.0528        962.082        60.1451       65.17066           1.06        34.7157      0.6844822
      7975.0000         1.0348       1024.172         61.246       66.39906         1.0392         34.386      0.7106184
      7975.5000         1.0106       1080.514         62.553       67.85647         1.0203        34.0562       0.741627
      7976.0000         0.9864       1122.289        67.4973       73.35532         1.0106        33.7265      0.8586239
