#------------------------------------------------------------------------------
# Created by    : vladimir.rabinovich
# Created on    : 09/19/2023 17:19:47
#------------------------------------------------------------------------------
~Version Information Section
VERS.           2.0     :   CWLS log ASCII Standard - VERSION 2.0
WRAP.           NO      :   One line per depth step
~Well Information Section
#MNEM       .UNIT                                         VALUE :DESCRIPTION
#------------------------------------------------------------------------------
STRT        .FT                                            2960 :START DEPTH
STOP        .FT                                           11758 :STOP DEPTH
STEP        .FT                                             0.5 :STEP      
NULL        .                                           -999.25 :NULL      
COMP        .                             CHAMPLIN PETROLEUM CO :COMPANY   
WELL        .                               OCS G06095 ST00BP00 :WELL      
FLD         .                                           WILDCAT :FIELD     
LOC         .                                                   :LOCATION  
CNTY        .                             GALVESTON LARGE BLOCK :LOCATION  
STAT        .                                             TEXAS :STATE     
CTRY        .                                     UNITED STATES :COUNTRY   
SRVC        .                                                   :SERVICE COMPANY
DATE        .                             9/13/2023 11:19:27 AM :LOG DATE  
API         .                                    42706401150000 :API NUMBER
UWI         .                                    42706401150000 :UNIQUE WELL ID
XCOORD      .                                  1057213.14222316 :SURFACE X 
YCOORD      .                                  10507856.7651171 :SURFACE Y 
LAT         .                                        28.9424301 :LATITUDE  
LON         .                                       -94.8238502 :LONGITUDE 
ELEV        .FT                                              89 :ELEVATION VALUE
ELEV_TYPE   .                                                KB :ELEVATION REFERENCE TYPE
~Curve Information Section
#MNEM       .UNIT                                      API CODE :CURVE DESCRIPTION
#------------------------------------------------------------------------------
DEPT        .FT                                                 :DEPTH     
ASFL        .OHMM                                               :          
CILD        .MMHO                                               :          
GR          .GAPI                                               :          
GR_NORM     .GAPI                                               :GammaRay Normalized
ILD         .OHMM                                               :          
SP          .MV                                                 :          
SP_NORM     .MV                                                 :SP Normalized
VSH_GR      .V/V                                                :Volume of Shale from GR
VSH_SP      .V/V                                                :Volume of Shale from SP
~A        DEPTH           ASFL           CILD             GR        GR_NORM            ILD             SP        SP_NORM         VSH_GR         VSH_SP
# ...
     11731.5000         0.4306       3203.109        72.2772       85.64133         0.3221        19.6587     -0.7907772              1              1
     11732.0000         0.4307       3208.246        72.1105       81.09135         0.3212        19.6491     -0.7811756              1              1
     11732.5000         0.4307       3213.383        69.5336       82.20451         0.3202        19.6396      -0.771677              1              1
     11733.0000         0.4308       3218.531        65.7036       83.57505         0.3192          19.63     -0.7620754              1              1
     11733.5000         0.4308       3213.523        59.4623       79.23096         0.3183        19.6205     -0.7525768      0.9836376              1
     11734.0000         0.4309       3188.027        30.9696       86.92467         0.2895        19.6109     -0.7429771              1              1
     11734.5000         0.4305       3162.488        25.3619       81.38693         0.2904        19.6006     -0.7326756              1              1
     11735.0000         0.4298       3136.992         6.5716       84.49621         0.2912          19.59     -0.7220764              1              1
     11735.5000         0.4291       3111.496         7.2087       83.35921          0.292        19.5795     -0.7115765              1              1
     11736.0000         0.4284       3091.469        11.0008       87.11016         0.2929        19.5689     -0.7009754              1              1
     11736.5000         0.4277       3104.051        18.4063       79.93822         0.2937        19.5583     -0.6903763      0.9986855              1
     11737.0000          0.427       3116.633        49.3533       84.62053         0.2945        19.5417     -0.6737766              1              1
     11737.5000         0.4283       3139.535        91.1892       86.97955         0.2954        19.5026      -0.634676              1              1
     11738.0000         0.4298       3168.848       115.5162       80.15498         0.2962        19.4633      -0.595377              1              1
     11738.5000         0.4312       3198.207       118.1688       82.56613          0.297        19.4241     -0.5561771              1              1
     11739.0000         0.4321       3227.566       119.5748       79.74483         0.2979        19.3849     -0.5169754      0.9945708              1
     11739.5000          0.432       3245.262       119.5718       79.80192         0.2987        19.3457     -0.4777756      0.9957855              1
     11740.0000          0.432       3257.914       119.5688       83.36034         0.2995        19.3892     -0.5212765              1              1
     11740.5000          0.432        3270.57       119.5658       84.04438         0.3004        19.4484     -0.5804768              1              1
     11741.0000          0.434       3283.223       119.5627        78.1308         0.3012        19.5077     -0.6397762      0.9602298              1
     11741.5000         0.4379       3293.496       119.5585       87.48822         0.3021        19.5671     -0.6991768              1              1
     11742.0000         0.4418       3206.598       119.5508       86.61611         0.3029        19.6263     -0.7583771              1              1
     11742.5000         0.4457       3119.695       119.5431       86.74669         0.3037        19.5811     -0.7131767              1              1
     11743.0000         0.4498       3032.797       119.5353       85.17787         0.3046        19.4142     -0.5462761              1              1
     11743.5000         0.4538       2945.898       119.5276       85.87342         0.3054        19.2472     -0.3792763              1              1
     11744.0000         0.4578        2807.16       119.5199       86.06369         0.3062        19.0802     -0.2122765              1              1
     11744.5000         0.4601       2692.457       119.5122       80.32977         0.3071        18.9132    -0.04527664              1              1
     11745.0000         0.4548        2688.23       119.5045       79.12547         0.3076        18.7463       0.121624      0.9813929              1
     11745.5000         0.4495       2693.402       119.4965       83.47295         0.3063        18.9594    -0.09147644              1              1
     11746.0000         0.4442       2698.574       119.4872       80.63137         0.3049        19.2153     -0.3473759              1              1
     11746.5000         0.4389       2703.746       119.4779       86.46299         0.3036        19.4718     -0.6038761              1              1
     11747.0000         0.4332       2708.918       119.4686        81.8392         0.3023        19.7277     -0.8597755              1              1
     11747.5000         0.4266        2714.09       119.4594       79.15082         0.3009        19.9354      -1.067476      0.9819323              1
     11748.0000           0.42       2731.102       119.4501       85.98144         0.2996        20.1355      -1.267576              1              1
     11748.5000         0.4134       2754.898       119.4408       79.80817         0.2993        20.3353      -1.467377      0.9959186              1
     11749.0000         0.4068       2778.652       119.4315       85.35799         0.2998        20.4458      -1.577877              1              1
     11749.5000         0.4016       2891.234       119.4222        79.5122         0.3003        20.2289      -1.360977      0.9896213              1
     11750.0000         0.4006       2928.238        119.413       79.44033         0.3009         20.012      -1.144075      0.9880921              1
     11750.5000         0.4092       2933.043       119.4037       80.97272         0.3014        19.7951     -0.9271755              1              1
     11751.0000         0.4223       2937.852       119.3944       81.70402         0.3044        19.5782     -0.7102757              1              1
     11751.5000         0.4408       2942.648       119.3851       81.59761         0.3136        19.3672     -0.4992771              1              1
     11752.0000         0.4639        2946.91       119.3759       84.78069         0.3228         19.173     -0.3050766              1              1
     11752.5000         0.4797       2930.605       119.3666       79.07789         0.3319        19.3447     -0.4767761      0.9803806              1
     11753.0000         0.4841       2914.301       119.3573       82.44647         0.3411        19.5657     -0.6977768              1              1
     11753.5000         0.4884       2897.996        119.348       79.75069         0.3492        19.7862     -0.9182758      0.9946956              1
     11754.0000         0.4927       2881.691       119.3387       79.28551         0.3561        20.0551      -1.187176       0.984798              1
     11754.5000         0.4971       2865.359       119.3295       79.60572         1.2689        20.4795      -1.611576      0.9916111              1
     11755.0000         0.4943       2849.055       119.3202       78.76662         4.2221         20.879      -2.011076       0.973758       0.999791
     11755.5000         0.4692       2807.254       119.3109       84.27434         7.1752        21.2756      -2.407677              1       0.992308
     11756.0000         0.4441       2761.355       119.3015       83.65587         9.7744        21.4967      -2.628777              1      0.9881363
     11756.5000         0.4048       2715.359       119.2924       83.59818          9.817        21.7118      -2.843876              1      0.9840778
     11757.0000         0.1638       2644.109        119.283       81.57626         9.8193        21.7709      -2.902977              1      0.9829627
     11757.5000         0.1376       1919.697       119.2738       78.98013         9.8217        21.6527      -2.784777      0.9783007      0.9851929
