#------------------------------------------------------------------------------
# Created by    : vladimir.rabinovich
# Created on    : 09/19/2023 17:21:23
#------------------------------------------------------------------------------
~Version Information Section
VERS.           2.0     :   CWLS log ASCII Standard - VERSION 2.0
WRAP.           NO      :   One line per depth step
~Well Information Section
#MNEM       .UNIT                                         VALUE :DESCRIPTION
#------------------------------------------------------------------------------
STRT        .FT                                            1005 :START DEPTH
STOP        .FT                                            8973 :STOP DEPTH
STEP        .FT                                             0.5 :STEP      
NULL        .                                           -999.25 :NULL      
COMP        .                            MARITECH RESOURCES INC :COMPANY   
WELL        .                               OCS G06113 ST00BP00 :WELL      
FLD         .                              GALVESTON BLOCK 0343 :FIELD     
LOC         .                                                   :LOCATION  
CNTY        .                             GALVESTON LARGE BLOCK :LOCATION  
STAT        .                                             TEXAS :STATE     
CTRY        .                                     UNITED STATES :COUNTRY   
SRVC        .                                                   :SERVICE COMPANY
DATE        .                             9/13/2023 11:19:36 AM :LOG DATE  
API         .                                    42706402140000 :API NUMBER
UWI         .                                    42706402140000 :UNIQUE WELL ID
XCOORD      .                                  914498.553138379 :SURFACE X 
YCOORD      .                                  10427492.1426863 :SURFACE Y 
LAT         .                                         28.714711 :LATITUDE  
LON         .                                        -95.265111 :LONGITUDE 
ELEV        .FT                                              84 :ELEVATION VALUE
ELEV_TYPE   .                                                KB :ELEVATION REFERENCE TYPE
~Curve Information Section
#MNEM       .UNIT                                      API CODE :CURVE DESCRIPTION
#------------------------------------------------------------------------------
DEPT        .FT                                                 :DEPTH     
CALI        .IN                                                 :          
DPHI        .%                                                  :          
DRHO        .G/C3                                               :          
DT          .US/F                                               :          
GR          .GAPI                                               :          
ILD         .OHMM                                               :          
ILM         .OHMM                                               :          
NPHI        .%                                                  :          
SGRD        .OHMM                                               :          
SP          .MV                                                 :          
SP_NORM     .MV                                                 :SP Normalized
VSH_SP      .V/V                                                :Volume of Shale from SP
~A        DEPTH           CALI           DPHI           DRHO             DT             GR            ILD            ILM           NPHI           SGRD             SP        SP_NORM         VSH_SP
# ...
      7913.5000        10.1358        21.3931        -0.0229       121.7421        72.0634         0.4748         0.5099        42.4393         0.5999        -83.863    -0.00819397              1
      7914.0000        10.1204         21.328        -0.0214       124.7352         75.733         0.4682         0.5033        43.3253         0.5952       -83.6052      0.2482834              1
      7914.5000        10.1176        21.3314        -0.0193       127.1106        78.2305         0.4624         0.4943        43.4921         0.5808       -83.3735      0.4786682              1
      7915.0000        10.1177         21.493        -0.0159       128.3987         77.623          0.458         0.4855        43.2739         0.5649       -83.2148      0.6360474              1
      7915.5000        10.1177         21.141        -0.0119        126.734        75.0427         0.4545          0.482        43.2632         0.5537       -83.1062      0.7433243              1
      7916.0000        10.1177        20.8854         -0.008       122.9724        72.6281         0.4518         0.4832        42.6472         0.5486        -83.108      0.7402039              1
      7916.5000        10.1164        20.8092        -0.0045       121.8375        71.2651         0.4523         0.4925         41.444         0.5498       -83.2231      0.6237869              1
      7917.0000        10.1124        20.8939        -0.0016       120.6002        74.1743         0.4632         0.5038        40.4981         0.5704       -83.4512      0.3943634              1
      7917.5000        10.1125        20.5413         0.0001       120.4213        75.0403         0.4866         0.5167        40.3392         0.5851       -83.3473      0.4969482              1
      7918.0000        10.1198        20.0168         0.0013       121.8903        72.5227          0.509         0.5288         40.152         0.5964       -83.0933      0.7496262              1
      7918.5000        10.1203        19.2499         0.0018       121.6868        73.7859         0.5324         0.5393        39.6022         0.5953       -83.0931      0.7485046              1
      7919.0000        10.1181        18.4358         0.0023       119.3064        73.5568         0.5562         0.5537        39.3648         0.6063       -83.3779      0.4623871              1
      7919.5000          10.09        17.8889         0.0032       116.4087        72.8926         0.5768         0.5715        39.0305         0.6342       -83.7443     0.09466553              1
      7920.0000        10.0613        17.5952         0.0041       115.0483        73.1515         0.5962          0.594          38.23         0.6635       -84.0333     -0.1956635              1
      7920.5000        10.0349        17.6588         0.0052       114.7896         72.652          0.609         0.6166        36.8767         0.6796       -84.1166     -0.2802811              1
      7921.0000        10.0427        17.5986         0.0065       114.5078        71.6116         0.6189         0.6397        35.7925         0.6809       -83.9941     -0.1591034              1
      7921.5000        10.0516         17.159         0.0097       112.8907        70.8925         0.6234          0.646        34.4481          0.678       -83.9006    -0.06691742              1
      7922.0000        10.0593        16.9012         0.0119       110.6409        74.3424         0.6176         0.6442        33.6084         0.6908       -83.8452    -0.01284027              1
      7922.5000        10.0689        17.5021         0.0128       109.0852        76.5864         0.6075         0.6346        33.5459         0.7021       -84.0856     -0.2545624              1
      7923.0000        10.0923        18.1291          0.013       112.7024        77.4128         0.5978         0.6168        33.7537         0.7118       -84.4257     -0.5959778              1
      7923.5000        10.1375        18.5499         0.0131       116.9886         78.651         0.5903         0.6006        34.9481         0.6913       -84.5747     -0.7462997              1
      7924.0000        10.1903        18.9311         0.0129       117.7913         77.214         0.5836         0.5942         36.504         0.6631       -84.5297     -0.7026215              1
      7924.5000        10.2432        19.4384         0.0118       116.7169        76.2671         0.5773         0.5974        36.9333         0.6336        -84.548     -0.7222366              1
      7925.0000        10.2745        19.8843         0.0095       116.5957        75.4117         0.5707         0.6041        37.3448         0.6147       -84.6261     -0.8016586              1
      7925.5000        10.2855        20.1945         0.0061       116.0471        71.9027         0.5647          0.606        37.1644         0.6137       -84.7675     -0.9443817              1
      7926.0000        10.2556          20.12         0.0038       113.5248        69.8545         0.5593         0.5984        36.6793         0.6278       -84.9655        -1.1437      0.9963154
      7926.5000        10.2477        19.8249         0.0034       112.6069        70.5742         0.5507         0.5853        36.3361         0.6486       -85.2599      -1.439423      0.9887328
      7927.0000        10.2433        20.0864         0.0026       112.2504        69.2822          0.537         0.5685        36.6874         0.6613       -85.5004      -1.681244      0.9825322
      7927.5000        10.2698        20.5345        -0.0059       118.6987        68.6798         0.5212         0.5513        37.2531         0.6379       -85.1559      -1.338066      0.9913316
      7928.0000        10.3149        21.0605        -0.0182       121.4301        73.8555         0.5028         0.5336        38.0851         0.6058        -84.814     -0.9974899              1
      7928.5000        10.3718        21.6354        -0.0259       122.3497        74.2521         0.4901         0.5145        39.0486         0.5777       -84.4583     -0.6431046              1
      7929.0000        10.4224        21.4241        -0.0312        125.594        73.7853          0.478         0.5029        39.7098         0.5538       -84.1172     -0.3033295              1
      7929.5000        10.4543        21.0302        -0.0331       124.9888        74.4504         0.4663         0.4943        40.2245         0.5389       -83.8436    -0.03104401              1
      7930.0000        10.4748        21.1365        -0.0314       123.6246        72.3645         0.4603         0.4886        40.5392         0.5338       -83.7759     0.03533173              1
      7930.5000        10.4655        21.3901        -0.0256       123.3767        70.7054          0.455         0.4845        41.0024         0.5354       -83.6816      0.1283112              1
      7931.0000        10.4387        21.1241        -0.0169       124.2029        72.4498         0.4509          0.482        41.2842         0.5421       -83.6484      0.1601944              1
      7931.5000        10.4014        20.8233          -0.01       124.2205        74.2069         0.4509         0.4852        41.3105         0.5528       -83.7252     0.08207703              1
      7932.0000        10.3701        21.0628        -0.0059       122.2543        75.8234         0.4529         0.4871        41.2593         0.5568       -83.8807    -0.07474518              1
      7932.5000        10.3229        20.9475         -0.005       120.6112        77.2867         0.4561         0.4893        40.8856         0.5593        -83.848    -0.04336548              1
      7933.0000        10.3224        21.1675        -0.0045       121.0641        78.3965         0.4632         0.4923        40.3254         0.5563        -83.672      0.1313171              1
      7933.5000        10.3446         20.658         -0.004       121.7417        77.0332         0.4706         0.4961        40.1221          0.553       -83.6216       0.180397              1
