#------------------------------------------------------------------------------
# Created by    : vladimir.rabinovich
# Created on    : 09/19/2023 17:19:58
#------------------------------------------------------------------------------
~Version Information Section
VERS.           2.0     :   CWLS log ASCII Standard - VERSION 2.0
WRAP.           NO      :   One line per depth step
~Well Information Section
#MNEM       .UNIT                                         VALUE :DESCRIPTION
#------------------------------------------------------------------------------
STRT        .FT                                             782 :START DEPTH
STOP        .FT                                            8251 :STOP DEPTH
STEP        .FT                                             0.5 :STEP      
NULL        .                                           -999.25 :NULL      
COMP        .                                     TALOS ERT LLC :COMPANY   
WELL        .                               OCS G06037 ST00BP00 :WELL      
FLD         .                       MATAGORDA ISLAND BLOCK 0619 :FIELD     
LOC         .                                                   :LOCATION  
CNTY        .                      MATAGORDA ISLAND LARGE BLOCK :LOCATION  
STAT        .                                             TEXAS :STATE     
CTRY        .                                     UNITED STATES :COUNTRY   
SRVC        .                                                   :SERVICE COMPANY
DATE        .                             9/13/2023 11:18:52 AM :LOG DATE  
API         .                                    42703402240000 :API NUMBER
UWI         .                                    42703402240000 :UNIQUE WELL ID
XCOORD      .                                  606760.800591327 :SURFACE X 
YCOORD      .                                  10227689.0556145 :SURFACE Y 
LAT         .                                        28.1463556 :LATITUDE  
LON         .                                       -96.2076889 :LONGITUDE 
ELEV        .FT                                              77 :ELEVATION VALUE
ELEV_TYPE   .                                                KB :ELEVATION REFERENCE TYPE
~Curve Information Section
#MNEM       .UNIT                                      API CODE :CURVE DESCRIPTION
#------------------------------------------------------------------------------
DEPT        .FT                                                 :DEPTH     
ASFL        .OHMM                                               :          
CALI        .IN                                                 :          
CILD        .MMHO                                               :          
DRHO        .G/C3                                               :          
DT          .US/F                                               :          
GR          .GAPI                                               :          
GR_NORM     .GAPI                                               :GammaRay Normalized
ILD         .OHMM                                               :          
ILM         .OHMM                                               :          
NPHI        .%                                                  :          
RHOB        .G/C3                                               :          
SFL         .OHMM                                               :          
SP          .MV                                                 :          
SP_NORM     .MV                                                 :SP Normalized
VSH_GR      .V/V                                                :Volume of Shale from GR
VSH_SP      .V/V                                                :Volume of Shale from SP
~A        DEPTH           ASFL           CALI           CILD           DRHO             DT             GR        GR_NORM            ILD            ILM           NPHI           RHOB            SFL             SP        SP_NORM         VSH_GR         VSH_SP
# ...
       798.0000        -999.25        -999.25        -999.25        -999.25        -999.25        20.9493       78.48732        -999.25        -999.25        62.2809        -999.25        -999.25        -999.25       2.785402      0.9678153              1
       798.5000        -999.25        -999.25        -999.25        -999.25        -999.25        20.5986       78.08197        -999.25        -999.25        66.0057        -999.25        -999.25        -999.25        3.34458      0.9591908              1
       799.0000        -999.25        -999.25        -999.25        -999.25        -999.25        20.3185       77.00927        -999.25        -999.25        68.1715        -999.25        -999.25        -999.25      0.1489064      0.9363675      0.9807954
       799.5000        -999.25        -999.25        -999.25        -999.25        -999.25        20.2427       75.76794        -999.25        -999.25        68.3524        -999.25        -999.25        -999.25       1.799201      0.9099563      0.9960647
       800.0000        -999.25        -999.25        -999.25        -999.25        -999.25        20.7824       75.23802        -999.25        -999.25        68.3954        -999.25        -999.25        -999.25      0.5639097      0.8986813      0.9842962
       800.5000        -999.25        -999.25        -999.25        -999.25        -999.25        21.8199       75.28346        -999.25        -999.25        68.1924        -999.25        -999.25        -999.25        2.71122      0.8996481              1
       801.0000        -999.25        -999.25        -999.25        -999.25        -999.25        22.9617       75.44945        -999.25        -999.25        67.9851        -999.25        -999.25        -999.25       2.029297      0.9031798              1
       801.5000        -999.25        -999.25        -999.25        -999.25        -999.25        24.3375        75.8859        -999.25        -999.25        67.3551        -999.25        -999.25        -999.25       0.756336       0.912466              1
       802.0000        -999.25        -999.25        -999.25        -999.25        -999.25        25.7905       76.41158        -999.25        -999.25        61.0533        -999.25        -999.25        -999.25     -0.8493385      0.9236506              1
       802.5000        -999.25        -999.25        -999.25        -999.25        -999.25        27.7873       77.56579        -999.25        -999.25        59.6348        -999.25        -999.25        -999.25      0.4215779      0.9482083              1
       803.0000        -999.25        -999.25        -999.25        -999.25        -999.25        31.0819       80.22002        -999.25        -999.25        60.1001        -999.25        -999.25        -999.25      0.7810171              1              1
       803.5000        -999.25        -999.25        -999.25        -999.25        -999.25        36.1015       84.86803        -999.25        -999.25        61.8419        -999.25        -999.25        -999.25       1.045064              1              1
       804.0000        -999.25        -999.25        -999.25        -999.25        -999.25        41.2976       89.72003        -999.25        -999.25        65.3174        -999.25        -999.25        -999.25      0.6894087              1              1
       804.5000        -999.25        -999.25        -999.25        -999.25        -999.25        42.8672       90.38049        -999.25        -999.25        60.9698        -999.25        -999.25        -999.25      0.6724463              1              1
       805.0000        -999.25        -999.25        -999.25        -999.25        -999.25        43.7278       90.22146        -999.25        -999.25        56.5942        -999.25        -999.25        -999.25       1.187209              1              1
       805.5000        -999.25        -999.25        -999.25        -999.25        -999.25        44.4885       89.94698        -999.25        -999.25          52.29        -999.25        -999.25        -999.25        2.82824              1              1
       806.0000          0.987         22.757        53.1875         0.0195        -999.25        45.1645       89.57457         2.8058         2.6413        49.4805         1.5866         0.3967        20.9518       2.799368              1              1
       806.5000         0.9913        21.8787       273.1987         0.0237        -999.25        45.6947       89.03368         3.3473         3.2568        49.4506         1.6237         0.6963         10.176       1.185467              1              1
       807.0000         0.9966        21.2708       372.1411         0.0327         175.26        45.9446       88.16879         1.8174         2.4215        50.2864         1.6581          0.746          -1.59       3.332562              1              1
       807.5000         1.0029        21.5389       1277.057         0.0394       171.5413        46.1119       87.20846         0.9297          1.076        51.8644         1.6384         0.7976        -8.0156     -0.7994504              1              1
       808.0000         1.0137        21.6675       1207.279         0.0362       162.3474        44.0734       83.69859         0.8285         0.7634        53.6044         1.5733         0.8909       -14.0374      0.1220386              1              1
       808.5000         1.0264        20.8927       1148.887          0.008        180.835        41.0579       79.05953         0.9466         0.7496        55.8619         1.4795         1.0405       -20.2151        2.68275      0.9799901              1
       809.0000         1.0624        20.4461       1090.494        -0.0029       187.1594        39.6955       76.33114         1.0647          0.771        56.8143         1.4497         1.1825       -24.6266     -0.9376566      0.9219391              1
       809.5000         1.1278        20.3157       993.6514        -0.0049       206.8857        39.3853       74.81889         1.1584         0.8352        56.4239         1.4625           1.29       -24.9282       3.641243      0.8897637              1
       810.0000         1.1305        21.4219       935.8604         0.0118        217.928        41.1904       75.75154          1.115         0.8918        55.1282         1.5044         1.2689       -26.6166       1.888104      0.9096072              1
       810.5000         1.1212        22.5977       896.5234         0.0202       218.2292        43.0273       76.72094         1.0336         0.9132        54.8986         1.5543         1.1891       -28.6506       2.191269      0.9302328              1
       811.0000          1.104        22.7458       915.3496         0.0228       180.5037        45.2559       78.14307         0.9894         0.8707        54.8963         1.5921         1.1118       -30.3172       2.899739      0.9604908              1
       811.5000         1.0378        22.8397       981.5801         0.0225       158.7334        47.2898       79.34016         0.9959         0.8481        55.3776         1.6211           1.02       -32.0373     -0.3711061       0.985961              1
       812.0000         0.9638         22.857       1033.434         0.0217       145.6511        48.8542       79.99458         0.9927         0.8518        56.6699         1.6329         0.9527       -33.2839       2.945904      0.9998847      0.9958842
       812.5000         0.9529        22.2696       1061.691         0.0154       134.6636        50.7332       81.01265         0.9653         0.8543        57.6786         1.6186         0.9087       -34.6895       2.721222              1              1
       813.0000         0.9447        21.7439       1088.344         0.0051        133.281        52.8698       82.32845         0.9645         0.8518        57.0311         1.6054         0.8927       -35.9537       2.395908              1      0.9863263
       813.5000         0.9388        21.7217       1091.127          0.004        129.572        55.2786       83.95884         0.9738          0.846        56.1625         1.6276         0.9054       -37.1003      0.3161295              1              1
