#------------------------------------------------------------------------------
# Created by    : vladimir.rabinovich
# Created on    : 09/19/2023 17:21:23
#------------------------------------------------------------------------------
~Version Information Section
VERS.           2.0     :   CWLS log ASCII Standard - VERSION 2.0
WRAP.           NO      :   One line per depth step
~Well Information Section
#MNEM       .UNIT                                         VALUE :DESCRIPTION
#------------------------------------------------------------------------------
STRT        .FT                                            1005 :START DEPTH
STOP        .FT                                            8973 :STOP DEPTH
STEP        .FT                                             0.5 :STEP      
NULL        .                                           -999.25 :NULL      
COMP        .                            MARITECH RESOURCES INC :COMPANY   
WELL        .                               OCS G06113 ST00BP00 :WELL      
FLD         .                              GALVESTON BLOCK 0343 :FIELD     
LOC         .                                                   :LOCATION  
CNTY        .                             GALVESTON LARGE BLOCK :LOCATION  
STAT        .                                             TEXAS :STATE     
CTRY        .                                     UNITED STATES :COUNTRY   
SRVC        .                                                   :SERVICE COMPANY
DATE        .                             9/13/2023 11:19:36 AM :LOG DATE  
API         .                                    42706402140000 :API NUMBER
UWI         .                                    42706402140000 :UNIQUE WELL ID
XCOORD      .                                  914498.553138379 :SURFACE X 
YCOORD      .                                  10427492.1426863 :SURFACE Y 
LAT         .                                         28.714711 :LATITUDE  
LON         .                                        -95.265111 :LONGITUDE 
ELEV        .FT                                              84 :ELEVATION VALUE
ELEV_TYPE   .                                                KB :ELEVATION REFERENCE TYPE
~Curve Information Section
#MNEM       .UNIT                                      API CODE :CURVE DESCRIPTION
#------------------------------------------------------------------------------
DEPT        .FT                                                 :DEPTH     
CALI        .IN                                                 :          
DPHI        .%                                                  :          
DRHO        .G/C3                                               :          
DT          .US/F                                               :          
GR          .GAPI                                               :          
ILD         .OHMM                                               :          
ILM         .OHMM                                               :          
NPHI        .%                                                  :          
SGRD        .OHMM                                               :          
SP          .MV                                                 :          
SP_NORM     .MV                                                 :SP Normalized
VSH_SP      .V/V                                                :Volume of Shale from SP
~A        DEPTH           CALI           DPHI           DRHO             DT             GR            ILD            ILM           NPHI           SGRD             SP        SP_NORM         VSH_SP
# ...
      6314.5000        -999.25        -999.25        -999.25        -999.25        -999.25         0.7116         0.7148        -999.25         0.7053       -90.9104      0.6327286              1
      6315.0000        -999.25        -999.25        -999.25        -999.25        -999.25          0.707         0.7118        -999.25         0.7025       -90.9857      0.5707703              1
      6315.5000        -999.25        -999.25        -999.25        -999.25        -999.25         0.7026         0.7048        -999.25         0.6985       -91.0643      0.5055161              1
      6316.0000        -999.25        -999.25        -999.25        -999.25        -999.25         0.7009         0.6969        -999.25         0.6951       -91.0907      0.4924622              1
      6316.5000        -999.25        -999.25        -999.25        -999.25        -999.25         0.7002         0.6934        -999.25         0.6946       -91.0834      0.5130997              1
      6317.0000        -999.25        -999.25        -999.25        -999.25        -999.25         0.6999         0.6949        -999.25         0.6972        -91.113      0.4968414              1
      6317.5000        -999.25        -999.25        -999.25        -999.25        -999.25          0.699         0.6991        -999.25          0.702       -91.1632      0.4599838              1
      6318.0000        -999.25        -999.25        -999.25        -999.25        -999.25          0.698         0.7034        -999.25         0.7037       -91.2926      0.3439255              1
      6318.5000        -999.25        -999.25        -999.25        -999.25        -999.25         0.6969          0.705        -999.25         0.7051       -91.3657      0.2841644              1
      6319.0000        -999.25        -999.25        -999.25        -999.25        -999.25         0.6948          0.704        -999.25         0.7032       -91.3384      0.3248062              1
      6319.5000        -999.25        -999.25        -999.25        -999.25        -999.25         0.6926         0.7029        -999.25         0.6961       -91.2819      0.3946533              1
      6320.0000        -999.25        -999.25        -999.25        -999.25        -999.25         0.6904            0.7        -999.25         0.6891       -91.1743      0.5155945              1
      6320.5000        -999.25        -999.25        -999.25        -999.25        -999.25         0.6882          0.696        -999.25         0.6821       -91.0557      0.6475372              1
      6321.0000        -999.25        -999.25        -999.25        -999.25        -999.25         0.6861         0.6921        -999.25         0.6766       -90.9371      0.7794724              1
      6321.5000        -999.25        -999.25        -999.25        -999.25        -999.25         0.6871         0.6909        -999.25         0.6774       -90.9324      0.7975159              1
      6322.0000        -999.25        -999.25        -999.25        -999.25        -999.25          0.693         0.6901        -999.25         0.6782       -90.9795      0.7637634              1
      6322.5000        -999.25        -999.25        -999.25        -999.25        -999.25         0.6958          0.691        -999.25         0.6807       -91.0765      0.6801071              1
      6323.0000        -999.25        -999.25        -999.25        -999.25        -999.25         0.6987          0.693        -999.25          0.684        -91.209      0.5609512              1
      6323.5000        -999.25        -999.25        -999.25        -999.25        -999.25         0.7019         0.6958        -999.25         0.6873       -91.4885      0.2947845              1
      6324.0000        -999.25        -999.25        -999.25        -999.25        -999.25         0.7052         0.6999        -999.25         0.6903       -91.7883    0.008331299              1
      6324.5000        -999.25        -999.25        -999.25        -999.25        -999.25         0.7107         0.7033        -999.25         0.6927       -92.1038     -0.2938232              1
      6325.0000        -999.25        -999.25        -999.25        -999.25        -999.25         0.7172         0.7056        -999.25         0.6951       -92.4232      -0.599884              1
      6325.5000        -999.25        -999.25        -999.25        -999.25        -999.25         0.7212         0.7071        -999.25         0.6975       -92.2643     -0.4276428              1
      6326.0000        -999.25        -999.25        -999.25        -999.25        -999.25         0.7244         0.7074        -999.25         0.7006       -92.1666     -0.3166046              1
      6326.5000        -999.25        -999.25        -999.25        -999.25        -999.25         0.7275         0.7077        -999.25          0.704       -91.9189    -0.05555725              1
      6327.0000        -999.25        -999.25        -999.25        -999.25        -999.25         0.7305         0.7084        -999.25         0.7074       -91.6711      0.2055893              1
      6327.5000        -999.25        -999.25        -999.25        -999.25        -999.25         0.7322         0.7091        -999.25         0.7094       -91.2926      0.5974274              1
      6328.0000        -999.25        -999.25        -999.25        -999.25        -999.25         0.7325         0.7098        -999.25         0.7111       -91.0884      0.8149643              1
      6328.5000        -999.25        -999.25        -999.25        -999.25        -999.25           0.73          0.708        -999.25         0.7128       -91.1832      0.7335129              1
      6329.0000        -999.25        -999.25        -999.25        -999.25        -999.25         0.7245          0.706        -999.25         0.7112       -91.3308      0.5992508              1
      6329.5000        -999.25        -999.25        -999.25        -999.25        -999.25         0.7199         0.7039        -999.25         0.7096       -91.4285      0.5149002              1
      6330.0000        -999.25        -999.25        -999.25        -999.25        -999.25         0.7154         0.7018        -999.25         0.7075       -91.5258      0.4309387              1
      6330.5000        -999.25        -999.25        -999.25        -999.25        -999.25         0.7111         0.6996        -999.25         0.7036       -91.6165      0.3535767              1
      6331.0000        -999.25        -999.25        -999.25        -999.25        -999.25         0.7068         0.6974        -999.25         0.6998       -91.7072      0.2762222              1
      6331.5000        -999.25        -999.25        -999.25        -999.25        -999.25         0.7023         0.6946        -999.25          0.696       -91.8007      0.1960678              1
      6332.0000        -999.25        -999.25        -999.25        -999.25        -999.25         0.6978         0.6912        -999.25         0.6927        -91.907      0.1031113              1
      6332.5000        -999.25        -999.25        -999.25        -999.25        -999.25         0.6936         0.6879        -999.25         0.6894       -92.0131     0.01035309              1
      6333.0000        -999.25        -999.25        -999.25        -999.25        -999.25         0.6897         0.6846        -999.25         0.6861       -92.1221    -0.08531189              1
      6333.5000        -999.25        -999.25        -999.25        -999.25        -999.25          0.686         0.6815        -999.25         0.6828       -92.2356     -0.1854706              1
      6334.0000        -999.25        -999.25        -999.25        -999.25        -999.25         0.6869         0.6791        -999.25         0.6805        -92.349     -0.2855225              1
      6334.5000        -999.25        -999.25        -999.25        -999.25        -999.25         0.6885         0.6856        -999.25         0.6989       -92.4832     -0.4063797              1
