#------------------------------------------------------------------------------
# Created by    : vladimir.rabinovich
# Created on    : 09/19/2023 17:20:58
#------------------------------------------------------------------------------
~Version Information Section
VERS.           2.0     :   CWLS log ASCII Standard - VERSION 2.0
WRAP.           NO      :   One line per depth step
~Well Information Section
#MNEM       .UNIT                                         VALUE :DESCRIPTION
#------------------------------------------------------------------------------
STRT        .FT                                             521 :START DEPTH
STOP        .FT                                           11050 :STOP DEPTH
STEP        .FT                                             0.5 :STEP      
NULL        .                                           -999.25 :NULL      
COMP        .                                      SHELL OIL CO :COMPANY   
WELL        .                                     ST TR 00335-L :WELL      
FLD         .                                           WILDCAT :FIELD     
LOC         .                                                   :LOCATION  
CNTY        .                                BRAZOS LARGE BLOCK :LOCATION  
STAT        .                                             TEXAS :STATE     
CTRY        .                                     UNITED STATES :COUNTRY   
SRVC        .                                                   :SERVICE COMPANY
DATE        .                             9/13/2023 11:18:52 AM :LOG DATE  
API         .                                    42704000130000 :API NUMBER
UWI         .                                    42704000130000 :UNIQUE WELL ID
XCOORD      .                                  903482.990868916 :SURFACE X 
YCOORD      .                                   10450808.276789 :SURFACE Y 
LAT         .                                        28.7782296 :LATITUDE  
LON         .                                       -95.3008656 :LONGITUDE 
ELEV        .FT                                              81 :ELEVATION VALUE
ELEV_TYPE   .                                                DF :ELEVATION REFERENCE TYPE
~Curve Information Section
#MNEM       .UNIT                                      API CODE :CURVE DESCRIPTION
#------------------------------------------------------------------------------
DEPT        .FT                                                 :DEPTH     
ASN         .OHMM                                               :          
CILD        .MMHO                                               :          
ILD         .OHMM                                               :          
SP          .MV                                                 :          
SP_NORM     .MV                                                 :SP Normalized
VSH_SP      .V/V                                                :Volume of Shale from SP
~A        DEPTH            ASN           CILD            ILD             SP        SP_NORM         VSH_SP
       521.0000         0.0707              0         1.5349         6.8333      -2.922798              1
       521.5000         0.1088              0         1.9591         7.6021    -0.01296377              1
       522.0000         0.1458              0         2.3833         8.7628       3.288771              1
       522.5000         0.1829        10.8066         2.8075        10.0802       6.747205              1
       523.0000         0.2199        62.2064         3.2318        10.3201       9.128139              1
       523.5000         0.2569        780.918          3.656         9.4617       10.41077              1
       524.0000          0.294        833.373         4.0802         8.2245       11.31461              1
       524.5000          0.646       883.6689         4.5044         6.6348       11.86594              1
       525.0000         1.0458       847.3408         4.9286       -21.3175      -13.94532      0.4239303
       525.5000         1.3743        487.209         5.3528       -22.5216      -13.00839      0.4732425
       526.0000         1.6617        318.083          5.777       -23.4517      -11.79746      0.5369759
       526.5000         1.9313       230.4224         6.2013       -24.7262      -10.93092       0.582583
       527.0000         2.1969       165.8674         6.6255        -26.319      -10.38269      0.6114374
       527.5000         2.4529       137.1309         5.4862       -28.6293      -10.55195      0.6025288
       528.0000         2.6247       183.5825         5.0438       -32.5148      -12.29642      0.5107146
       528.5000          2.717       221.3875         4.8461       -38.8442      -16.48479      0.2902744
       529.0000         2.7706       237.7583         4.6484       -40.6779      -16.17745      0.3064499
       529.5000         2.8033       259.2715         4.4232       -43.3508      -16.70932      0.2784569
       530.0000         2.8361       273.1235         4.1971        -46.834      -18.05149      0.2078166
       530.5000         2.8713       288.8696         3.8206       -48.3358      -17.41225      0.2414605
       531.0000         2.9066       302.5825         3.3394       -50.3318      -17.26722      0.2490939
       531.5000          2.943       312.5698         3.2437       -51.6416      -16.43599      0.2928429
       532.0000         2.9604       322.2847         3.1784       -52.5681      -15.22145       0.356766
       532.5000         2.9638       329.1938         3.1577       -53.4741      -13.98641      0.4217678
       533.0000         2.9663       333.1382         3.1487       -54.7372      -13.10848      0.4679746
       533.5000         2.9652        335.355         3.1515       -55.5034      -11.73365      0.5403344
       534.0000         2.9641       336.6655         3.2067       -56.2695      -10.35872      0.6126992
       534.5000         2.9631       332.4385         3.3133       -56.9678      -8.915977      0.6886328
       535.0000         2.9644       327.5396         3.4206       -57.5104      -8.717651       0.699071
       535.5000          2.966       321.7021         3.4598       -57.8073      -8.995968      0.6844227
       536.0000         2.9752       312.9194          3.496       -57.8945      -9.064583      0.6808114
       536.5000         2.9998        307.644          3.526       -57.9817      -9.133198      0.6772001
       537.0000          3.046       302.7446         3.5457       -58.0744      -9.207314      0.6732993
       537.5000         3.0738       297.6494         3.5588        -58.176      -9.290325      0.6689302
       538.0000         3.0902       294.2583         3.5673       -58.2775      -9.373241      0.6645662
       538.5000         3.1034       293.1875         3.5759        -58.379      -9.456158      0.6602022
       539.0000         3.1076       292.2534         3.5747       -58.4951      -9.553669      0.6550701
       539.5000         3.1117       292.9355         3.5717       -58.6133      -9.653286      0.6498271
       540.0000         3.1157       293.6182         3.5686       -58.7531      -9.774502      0.6434473
       540.5000         3.1184       302.4966         3.5654       -58.9124      -9.915215      0.6360413
       541.0000          3.121       304.1807         3.5604       -59.0718      -10.05603        0.62863
       541.5000         3.1237       305.8647         3.5554       -59.1849      -10.15054      0.6236558
       542.0000         3.1264       307.5483         3.5505       -59.2864      -10.23346      0.6192918
       542.5000         3.1278       309.2319         3.5455        -59.388      -10.31647      0.6149226
       543.0000         3.1279       310.9155         3.5405       -59.4895      -10.39938      0.6105587
       543.5000          3.128       312.6001         3.5355       -59.5096       -10.4009      0.6104789
       544.0000         3.1281       314.2842         3.5297       -59.4469      -10.31961      0.6147571
       544.5000         3.1282       313.2817         3.5214       -59.3713      -10.22543      0.6197143
       545.0000         3.1256       312.2026         3.5131       -59.2903      -10.12584      0.6249557
       545.5000         3.1222        311.124         3.5049       -59.2092      -10.02616      0.6302021
       546.0000         3.1189       310.0454         3.4966       -59.1282      -9.926575      0.6354434
       546.5000         3.1156       308.9668         3.4879       -59.1329      -9.912689      0.6361743
       547.0000         3.1118       307.3623         3.4768       -59.2233      -9.984505      0.6323945
       547.5000          3.107       305.0483         3.4658       -59.3467      -10.08932       0.626878
       548.0000         3.1021       302.7354         3.4552       -59.4672      -10.19123       0.621514
       548.5000         3.1218       300.4214         3.4603       -59.5765      -10.28195      0.6167396
       549.0000         3.1431       298.1079         3.4653       -59.6871      -10.37396      0.6118967
       549.5000          3.169       295.7939         3.5231       -59.8448      -10.51308      0.6045749
       550.0000         3.2029       294.1138         3.6068       -59.9739      -10.62359      0.5987583
       550.5000         3.2368       293.1177         3.6905       -60.0288      -10.65991      0.5968469
       551.0000         3.2708       292.1211         3.7514       -60.0837      -10.69622      0.5949358
       551.5000         3.3046       291.1255         3.8003       -60.1503      -10.74424      0.5924087
       552.0000          3.325       290.1294         3.8491       -60.2407      -10.81605      0.5886289
       552.5000         3.3454       289.1333         3.8979        -60.331      -10.88777      0.5848543
       553.0000         3.3658       288.1372         3.9377       -60.4214      -10.95958       0.581075
       553.5000         3.3863       286.7954         3.9528       -60.5896      -11.10919      0.5732004
       554.0000         3.4067       285.3374         3.9678       -60.7771      -11.27811      0.5643102
       554.5000         3.4269       283.8779         3.9829       -61.0568      -11.53922      0.5505672
       555.0000         3.4451       282.4199          3.998       -61.5684      -12.03224       0.524619
       555.5000         3.4633       280.9614         4.0202       -62.1043      -12.54955      0.4973919
       556.0000         3.4815       279.5024         4.0567       -62.6056      -13.03226      0.4719861
       556.5000         3.4997       277.9932         4.0931       -62.7408      -13.14888      0.4658484
       557.0000          3.517        271.396         4.1296        -62.876       -13.2655      0.4597108
       557.5000         3.5292       264.7974         4.1767       -62.8419      -13.21281      0.4624836
       558.0000         3.5413       258.2007         4.2764       -62.7608      -13.11312      0.4677303
       558.5000         3.5535       251.6033          4.376       -62.6797      -13.01344      0.4729769
