#------------------------------------------------------------------------------
# Created by    : vladimir.rabinovich
# Created on    : 09/19/2023 17:19:46
#------------------------------------------------------------------------------
~Version Information Section
VERS.           2.0     :   CWLS log ASCII Standard - VERSION 2.0
WRAP.           NO      :   One line per depth step
~Well Information Section
#MNEM       .UNIT                                         VALUE :DESCRIPTION
#------------------------------------------------------------------------------
STRT        .FT                                             290 :START DEPTH
STOP        .FT                                         11377.5 :STOP DEPTH
STEP        .FT                                             0.5 :STEP      
NULL        .                                           -999.25 :NULL      
COMP        .                         SONAT EXPLORATION GOM INC :COMPANY   
WELL        .                               OCS G04571 ST00BP00 :WELL      
FLD         .                                           WILDCAT :FIELD     
LOC         .                                                   :LOCATION  
CNTY        .                           HIGH ISLAND LARGE BLOCK :LOCATION  
STAT        .                                             TEXAS :STATE     
CTRY        .                                     UNITED STATES :COUNTRY   
SRVC        .                                                   :SERVICE COMPANY
DATE        .                             9/13/2023 11:19:19 AM :LOG DATE  
API         .                                    42708401190000 :API NUMBER
UWI         .                                    42708401190000 :UNIQUE WELL ID
XCOORD      .                                  1324427.25220013 :SURFACE X 
YCOORD      .                                  10679041.7751219 :SURFACE Y 
LAT         .                                         29.422046 :LATITUDE  
LON         .                                        -93.992863 :LONGITUDE 
ELEV        .FT                                             116 :ELEVATION VALUE
ELEV_TYPE   .                                                KB :ELEVATION REFERENCE TYPE
~Curve Information Section
#MNEM       .UNIT                                      API CODE :CURVE DESCRIPTION
#------------------------------------------------------------------------------
DEPT        .FT                                                 :DEPTH     
ASFL        .OHMM                                               :          
CALI        .IN                                                 :          
CILD        .MMHO                                               :          
GR          .GAPI                                               :          
GR_NORM     .GAPI                                               :GammaRay Normalized
ILD         .OHMM                                               :          
RHOB        .G/C3                                               :          
SP          .MV                                                 :          
SP_NORM     .GAPI                                               :SP Normalized
VSH_GR      .V/V                                                :Volume of Shale from GR
VSH_SP      .V/V                                                :Volume of Shale from SP
~A        DEPTH           ASFL           CALI           CILD             GR        GR_NORM            ILD           RHOB             SP        SP_NORM         VSH_GR         VSH_SP
# ...
      5465.0000          0.586        18.4993         6187.5         40.079       39.20757         0.1699         2.1142      -128.0898      -73.68816       0.132076              0
      5465.5000         0.5371        17.1071       6210.102        39.5335       38.41776         0.1759         2.1112      -123.2257      -69.14539      0.1152714     0.01220867
      5466.0000         0.5267        17.0583       5586.016        40.8918       40.38442         0.1818         2.1154      -118.3566      -64.59797      0.1571154     0.07717187
      5466.5000         0.5287        15.4325       4702.141        43.2744       43.83417         0.1878         2.1295      -113.4874      -60.05045      0.2305143      0.1421364
      5467.0000         0.5351        14.7737       4364.719        46.1717       48.02915         0.1937         2.1773      -109.2169      -56.06172      0.3197692      0.1991183
      5467.5000         0.5415        14.5085       4090.375        50.3134       54.02588         0.2039         2.2294      -103.7194      -50.92778      0.4473592      0.2724602
      5468.0000          0.548        14.3134       3975.375        52.8433       57.68891         0.2164          2.262       -98.5336      -46.08477      0.5252959      0.3416461
      5468.5000          0.555        14.0188       3716.234        54.4799       60.05853          0.229         2.2672       -93.8521      -41.71244      0.5757133       0.404108
      5469.0000         0.5622        13.7987       3407.832        56.9689       63.66233         0.2415         2.2485       -94.1632      -41.99987        0.65239      0.4000019
      5469.5000         0.5769        13.5783       3300.824        57.4585       64.37122         0.2541         2.2045       -105.202      -52.29981      0.6674727      0.2528598
      5470.0000         0.5998        13.5591       3112.738         54.851       60.59585         0.2666          2.174      -106.0995      -53.13454      0.5871457      0.2409351
      5470.5000          0.611        13.8545       3314.039        50.9023       54.87855         0.2792           2.17      -106.5436       -53.5461       0.465501      0.2350557
      5471.0000         0.6058        14.2527       3440.223        47.9085       50.54385         0.2917         2.1817      -102.9474      -50.18672      0.3732735      0.2830469
      5471.5000         0.6006        14.6196       3526.266        49.9868       53.55301            0.3         2.1917       -101.432      -48.76941      0.4372981      0.3032942
      5472.0000         0.5953        14.8834       3503.809        51.4503       55.67199         0.3076         2.2002      -100.0328      -47.46055      0.4823827      0.3219921
      5472.5000         0.5901        14.9247       3348.414        52.9125        57.7891         0.3152         2.2089       -97.6082      -45.19466      0.5274277       0.354362
      5473.0000         0.5889        14.1751       3233.359        54.3278        59.8383         0.3229         2.2236       -94.6887      -42.46686      0.5710277      0.3933306
      5473.5000         0.6165         13.511       3136.934        55.5178        61.5613         0.3305         2.2409       -95.3097      -43.04353      0.6076872      0.3850925
      5474.0000         0.6442        13.1588       3080.547        54.8399       60.57977         0.3382         2.2489       -97.3583      -44.95262      0.5868037      0.3578197
      5474.5000         0.6722        13.1299       2933.648        53.6412       58.84418         0.3458         2.2531       -99.4069      -46.86171      0.5498763      0.3305469
      5475.0000         0.7002        13.1681       2886.902        52.4412       57.10671         0.3487         2.2499      -101.3195      -48.64388      0.5129088      0.3050875
      5475.5000         0.7409        13.2166       2930.617        51.2425       55.37112         0.3433         2.2444      -103.2963      -50.48595      0.4759812      0.2787721
      5476.0000         0.7632         13.311       3168.379        51.1247       55.20056          0.338         2.2299      -105.6047      -52.63752      0.4723524      0.2480354
      5476.5000         0.6816        13.6862       3336.094        51.1205       55.19448          0.332          2.195      -112.8986      -59.44223      0.4722229      0.1508253
      5477.0000         0.6141        14.1721       3504.008        51.3742       55.56181         0.3225         2.1655      -115.8464      -62.19057      0.4800385      0.1115632
      5477.5000         0.5496        14.5205       3930.051        51.7376       56.08797          0.313         2.1537      -116.4841      -62.78283      0.4912334      0.1031024
      5478.0000         0.4949        14.8354       4055.723         52.101       56.61414         0.3035         2.1432      -116.5188      -62.81228      0.5024286      0.1026817
      5478.5000          0.464        14.9715       4254.039        52.3753        57.0113          0.294         2.1339      -116.5535      -62.84173      0.5108788       0.102261
      5479.0000          0.444        14.7572       4399.195        52.1273       56.65222         0.2845         2.1279      -115.8044      -62.13964      0.5032387      0.1122908
      5479.5000         0.4285        14.9123       4435.664        51.7855       56.15733          0.275         2.1229       -113.929      -60.38634      0.4927091       0.137338
      5480.0000         0.4326        15.5982       4382.109        51.0606       55.10775         0.2681         2.1055      -112.0673      -58.64581      0.4703777      0.1622027
      5480.5000         0.4532        16.1637       4295.172        50.3357       54.05817         0.2629         2.0941      -110.3315       -57.0228      0.4480461      0.1853886
      5481.0000         0.4819        16.2747       4317.477        49.6108        53.0086         0.2578         2.1045       -109.752        -56.479      0.4257149      0.1931571
      5481.5000         0.5105        15.4275       4350.016        49.4725       52.80835         0.2527         2.1214      -110.3718      -57.05455      0.4214543      0.1849349
      5482.0000         0.5347         15.422       4418.672        49.6097       53.00701         0.2476         2.1228      -110.9916       -57.6301       0.425681      0.1767129
      5482.5000         0.5471        15.5128       4500.148         49.788       53.26516         0.2425         2.1215      -111.6113      -58.20555      0.4311736      0.1684922
      5483.0000         0.5435        15.5811       4706.313        50.0179       53.59803         0.2373         2.1242      -112.1185        -58.676       0.438256      0.1617714
      5483.5000         0.5397         15.488       4827.352        50.2479       53.93105         0.2322         2.1338      -112.4392      -58.97239      0.4453414      0.1575373
      5484.0000         0.5357        15.2055       4860.141        50.4778       54.26392         0.2285         2.1491      -112.4928      -59.01948      0.4524238      0.1568646
      5484.5000          0.531        15.0006       4302.328        50.7078       54.59694         0.2319         2.1821      -111.6454      -58.22564      0.4595093      0.1682051
      5485.0000         0.5263        14.7371       4139.781        49.8062       53.29151         0.2354         2.1983       -110.652      -57.29554      0.4317343      0.1814923
      5485.5000         0.5312        14.4783           4025        48.4293       51.29791         0.2388         2.2087      -109.6698      -56.37588      0.3893172      0.1946303
      5486.0000         0.5452        14.3166       3401.867        47.5414       50.01233         0.2423         2.2083      -110.3527      -57.01032      0.3619644      0.1855669
      5486.5000          0.582        14.5671        3245.68        47.9039       50.53719         0.2457         2.1759      -112.1415      -58.67694      0.3731316       0.161758
      5487.0000         0.6502        14.9705       3089.688        48.2667       51.06248         0.2538           2.15      -114.2625      -60.65359      0.3843082      0.1335201
