#------------------------------------------------------------------------------
# Created by    : vladimir.rabinovich
# Created on    : 09/19/2023 17:20:37
#------------------------------------------------------------------------------
~Version Information Section
VERS.           2.0     :   CWLS log ASCII Standard - VERSION 2.0
WRAP.           NO      :   One line per depth step
~Well Information Section
#MNEM       .UNIT                                         VALUE :DESCRIPTION
#------------------------------------------------------------------------------
STRT        .FT                                             254 :START DEPTH
STOP        .FT                                            9030 :STOP DEPTH
STEP        .FT                                             0.5 :STEP      
NULL        .                                           -999.25 :NULL      
COMP        .                                    MOBIL OIL CORP :COMPANY   
WELL        .                                OCS 00724 ST00BP00 :WELL      
FLD         .                                           WILDCAT :FIELD     
LOC         .                                                   :LOCATION  
CNTY        .                             GALVESTON LARGE BLOCK :LOCATION  
STAT        .                                             TEXAS :STATE     
CTRY        .                                     UNITED STATES :COUNTRY   
SRVC        .                                                   :SERVICE COMPANY
DATE        .                             9/13/2023 11:19:25 AM :LOG DATE  
API         .                                    42706000340000 :API NUMBER
UWI         .                                    42706000340000 :UNIQUE WELL ID
XCOORD      .                                  1011870.95166473 :SURFACE X 
YCOORD      .                                   10400634.765487 :SURFACE Y 
LAT         .                                         28.645607 :LATITUDE  
LON         .                                        -94.960058 :LONGITUDE 
ELEV        .FT                                              34 :ELEVATION VALUE
ELEV_TYPE   .                                                KB :ELEVATION REFERENCE TYPE
~Curve Information Section
#MNEM       .UNIT                                      API CODE :CURVE DESCRIPTION
#------------------------------------------------------------------------------
DEPT        .FT                                                 :DEPTH     
ASN         .OHMM                                               :          
CALI        .IN                                                 :          
CILD        .MMHO                                               :          
DT          .US/F                                               :          
ILD         .OHMM                                               :          
SP          .MV                                                 :          
SP_NORM     .MV                                                 :SP Normalized
VSH_SP      .V/V                                                :Volume of Shale from SP
~A        DEPTH            ASN           CALI           CILD             DT            ILD             SP        SP_NORM         VSH_SP
# ...
      6685.0000         0.5689          9.759       2048.043       118.2838         0.5715       -51.3321       -2.98576      0.9415953
      6685.5000         0.5687         9.6427       2019.492       118.2992         0.5723       -51.7718      -3.423328      0.9287257
      6686.0000         0.5664         9.3923       1993.094       118.9916         0.5731       -52.0938      -3.743195      0.9193178
      6686.5000         0.5608         9.2615       1970.182       120.7155         0.5739       -52.2393      -3.886562      0.9151011
      6687.0000         0.5552         9.1872       1948.174       122.2568         0.5735       -52.0116      -3.656731      0.9218609
      6687.5000         0.5709         9.1476       1926.756       122.7085         0.5729       -51.7842      -3.427197      0.9286119
      6688.0000         0.5912         9.1071           1926       122.1385         0.5723       -51.5569      -3.197765      0.9353598
      6688.5000         0.6116         9.0719       2149.266       116.0823         0.5717       -51.5385      -3.177235      0.9359637
      6689.0000          0.624         9.0554       2250.422       114.4937         0.5711       -52.1995      -3.836102      0.9165853
      6689.5000         0.6252         9.0724        2301.59       111.0886         0.5697       -53.2007      -4.835167       0.887201
      6690.0000         0.6202         9.0894       2328.082       110.4994         0.5662       -54.9526      -6.584934      0.8357372
      6690.5000         0.6151         9.1067       2353.957       110.2847         0.5628       -56.5378      -8.168003      0.7891764
      6691.0000           0.61         9.1279       2379.633       108.3551         0.5593       -58.3884      -10.01647      0.7348096
      6691.5000          0.605         9.1491       2402.004       107.1449         0.5558        -61.688      -13.31394      0.6378254
      6692.0000         0.6004         9.1478       2421.313         98.309         0.5524       -63.5816      -15.20541      0.5821939
      6692.5000         0.5957         9.1372       2426.852        98.2042         0.5489       -64.5828      -16.20448      0.5528094
      6693.0000          0.591         9.1265       2411.488        98.9231         0.5454       -65.3947      -17.01424      0.5289928
      6693.5000         0.5866         9.1249       2388.395       102.2932         0.5407        -66.181      -17.79841      0.5059291
      6694.0000         0.5835         9.1445       2365.301       105.0109          0.536       -66.5527      -18.16798      0.4950595
      6694.5000         0.5805         9.1641       2336.094       106.8723         0.5314       -66.5677      -18.18085      0.4946809
      6695.0000         0.5889         9.1837       2305.258       110.0602         0.5267       -66.5828      -18.19382      0.4942995
      6695.5000         0.6054         9.2032       2266.816       110.1437         0.5261       -66.8251      -18.43399      0.4872357
      6696.0000         0.6236         9.2268       2232.762       110.1721           0.53       -67.0828      -18.68955       0.479719
      6696.5000         0.6419         9.2588       2214.992       109.6931         0.5339       -67.3988      -19.00342      0.4704876
      6697.0000         0.6491         9.2909       2202.656       109.1985         0.5378       -67.7634      -19.36588       0.459827
      6697.5000         0.6521         9.3229       2196.316       108.8652         0.5417       -67.4771      -19.07745      0.4683103
      6698.0000         0.6515         9.3027       2184.313       109.0768         0.5456       -67.1591      -18.75732      0.4777257
      6698.5000         0.6466         9.2787           2165       109.2881         0.5495       -66.6998      -18.29589      0.4912975
      6699.0000         0.6417         9.2546         2147.5       108.9906         0.5517         -66.27      -17.86395      0.5040014
      6699.5000         0.6368         9.2509       2130.109       108.6608         0.5536       -66.5907      -18.18252      0.4946317
      6700.0000         0.6334         9.2905       2109.461       107.9607         0.5556       -66.9113        -18.501      0.4852648
      6700.5000         0.6318         9.3302       2087.863       107.6134         0.5575       -66.6544      -18.24197      0.4928834
      6701.0000         0.6343         9.3452        2064.52       107.8788         0.5595       -65.1532      -16.73863      0.5370992
      6701.5000         0.6391         9.3228       2032.168       108.0897         0.5615        -63.043       -14.6263      0.5992265
      6702.0000         0.6439         9.3006       2018.078       108.2312         0.5634       -62.2277      -13.80886      0.6232687
      6702.5000         0.6487         9.2857       2008.875       107.6993         0.5647       -61.4709      -13.04993      0.6455902
      6703.0000         0.6535          9.309       1999.672       106.9635         0.5653        -61.519       -13.0959      0.6442382
      6703.5000         0.6583         9.4755       1981.025       105.3579         0.5658       -61.5673      -13.14207      0.6428804
      6704.0000         0.6632         9.5957       1967.193       105.0018         0.5663       -61.4283      -13.00093      0.6470313
      6704.5000         0.6681         9.7013       1957.752       108.7157         0.5669       -60.2513       -11.8218      0.6817117
      6705.0000         0.6731         9.7746        1948.99       109.0931         0.5674        -59.283      -10.85137      0.7102538
      6705.5000          0.678         9.8357       1942.453       107.7556         0.5678        -58.512      -10.07824      0.7329929
      6706.0000         0.6805         9.8641       1935.914       106.7418         0.5678       -58.5539      -10.11801      0.7318233
      6706.5000         0.6825          9.863       1927.912       111.2531         0.5678       -59.3613      -10.92327      0.7081389
      6707.0000         0.6829         9.8618       1917.463       110.5229         0.5677       -60.6414      -12.20124      0.6705518
      6707.5000         0.6824         9.8386       1907.342       107.0886         0.5677       -60.5768      -12.13451      0.6725143
      6708.0000         0.6819         9.7889       1898.014       103.6498         0.5676       -59.6459      -11.20148      0.6999564
      6708.5000         0.6762         9.7436       1897.098       103.7771         0.5676       -58.0709      -9.624348      0.7463427
      6709.0000         0.6694         9.7087       1915.098       106.7821         0.5676       -56.6127      -8.164017      0.7892936
      6709.5000         0.6621         9.6932       1992.936       111.0706         0.5686       -55.4595      -7.008682      0.8232741
      6710.0000         0.6448         9.6978       2082.625       112.7877          0.572       -54.3052      -5.852249      0.8572868
      6710.5000         0.6288         9.6875           2171       115.9944         0.5754        -52.999      -4.543919      0.8957671
      6711.0000         0.6244         9.6732       2189.699        118.297         0.5787       -52.2233      -3.766087      0.9186445
      6711.5000         0.6177         9.6473       2155.152       117.7279         0.5821       -51.1484      -2.689053       0.950322
      6712.0000         0.6099         9.6179       2123.863       115.2552         0.5855       -50.4205      -1.959023      0.9717935
      6712.5000         0.6011         9.5885       2087.637       111.2892         0.5889       -49.8949       -1.43129       0.987315
      6713.0000         0.5732         9.5582       2044.666       109.7252         0.5923       -49.4977      -1.031956      0.9990602
      6713.5000         0.5288         9.5595       2021.906       109.7925         0.5977       -49.3274     -0.8595238              1
      6714.0000         0.5406         9.6328       2008.797       122.9054         0.6032       -49.7701      -1.300091      0.9911738
