#------------------------------------------------------------------------------
# Created by    : vladimir.rabinovich
# Created on    : 09/19/2023 17:21:54
#------------------------------------------------------------------------------
~Version Information Section
VERS.           2.0     :   CWLS log ASCII Standard - VERSION 2.0
WRAP.           NO      :   One line per depth step
~Well Information Section
#MNEM       .UNIT                                         VALUE :DESCRIPTION
#------------------------------------------------------------------------------
STRT        .FT                                             404 :START DEPTH
STOP        .FT                                            9564 :STOP DEPTH
STEP        .FT                                             0.5 :STEP      
NULL        .                                           -999.25 :NULL      
COMP        .                               AMOCO PRODUCTION CO :COMPANY   
WELL        .                               OCS G03108 ST00BP01 :WELL      
FLD         .                                           WILDCAT :FIELD     
LOC         .                                                   :LOCATION  
CNTY        .                      MATAGORDA ISLAND LARGE BLOCK :LOCATION  
STAT        .                                             TEXAS :STATE     
CTRY        .                                     UNITED STATES :COUNTRY   
SRVC        .                                                   :SERVICE COMPANY
DATE        .                             9/13/2023 11:12:09 AM :LOG DATE  
API         .                                    42703400030000 :API NUMBER
UWI         .                                    42703400030000 :UNIQUE WELL ID
XCOORD      .                                  482242.907024332 :SURFACE X 
YCOORD      .                                  10146341.7942038 :SURFACE Y 
LAT         .                                         27.913374 :LATITUDE  
LON         .                                         -96.58609 :LONGITUDE 
ELEV        .FT                                              95 :ELEVATION VALUE
ELEV_TYPE   .                                                KB :ELEVATION REFERENCE TYPE
~Curve Information Section
#MNEM       .UNIT                                      API CODE :CURVE DESCRIPTION
#------------------------------------------------------------------------------
DEPT        .FT                                                 :DEPTH     
CALI        .IN                                                 :          
CILD        .MMHO                                               :          
GR          .GAPI                                               :          
GR_NORM     .GAPI                                               :GammaRay Normalized
ILD         .OHMM                                               :          
RHOB        .G/C3                                               :          
SFL         .OHMM                                               :          
SP          .MV                                                 :          
SP_NORM     .MV                                                 :SP Normalized
VSH_GR      .V/V                                                :Volume of Shale from GR
VSH_SP      .V/V                                                :Volume of Shale from SP
~A        DEPTH           CALI           CILD             GR        GR_NORM            ILD           RHOB            SFL             SP        SP_NORM         VSH_GR         VSH_SP
# ...
      5781.5000        15.0925        -999.25        49.4926       75.21056         0.6353         2.2584         1.4308       -85.0867       -47.3508      0.8980971      0.3787562
      5782.0000        14.9504        -999.25        50.6025        78.1506         0.6055         2.2537         1.3952       -85.0999        -47.364       0.960651      0.3785754
      5782.5000        14.8257        -999.25        49.3056       74.70111         0.5909         2.2496         1.4007        -84.568       -46.8321      0.8872577      0.3858616
      5783.0000        14.7334        -999.25        47.4407       69.74416         0.5952         2.2455         1.4379       -83.5367       -45.8008      0.7817906       0.399989
      5783.5000        14.6713        -999.25        46.3138       66.74624         0.6183         2.2414         1.4793        -82.176       -44.4402      0.7180051      0.4186274
      5784.0000        14.6331        -999.25        46.3518       66.84075         0.6494         2.2382         1.4922       -80.1211       -42.3853       0.720016      0.4467767
      5784.5000        14.6101        -999.25        46.9989       68.55222         0.6795         2.2529          1.446       -77.6716       -39.9357      0.7564303      0.4803329
      5785.0000        14.5965        -999.25         47.407       69.62917         0.6955         2.2674         1.4431       -73.7041       -35.9683       0.779344      0.5346808
      5785.5000        14.6001        -999.25        47.8505       70.80016          0.675         2.2891         1.5397       -71.0948        -33.359      0.8042588      0.5704246
      5786.0000        14.6037        -999.25        49.2269       74.44766         0.6344         2.3546         1.6441       -70.5349        -32.799      0.8818651      0.5780959
      5786.5000        14.6073        -999.25        50.6768       78.28998         0.6067         2.3667         1.1193       -72.2683       -34.5325      0.9636165      0.5543493
      5787.0000         14.611        -999.25        51.0692       79.32529         0.5857         2.3821         1.0495       -77.5493       -39.8134      0.9856446      0.4820082
      5787.5000        14.6146        -999.25        48.2883       71.93664          0.568         2.3949         1.0734       -77.4493       -39.7135      0.8284391      0.4833767
      5788.0000        14.6021        -999.25        47.1514        68.9122         0.5541         2.3459         0.9302       -66.6429        -28.907      0.7640894       0.631411
      5788.5000        14.5885        -999.25         47.743       70.47626         0.5415         2.3125         0.8387       -58.0836       -20.3477      0.7973673      0.7486616
      5789.0000        14.5749        -999.25        49.9505       76.33003         0.5317         2.3034          0.746       -57.9101       -20.1742      0.9219156      0.7510384
      5789.5000        14.5737        -999.25        52.0138         81.801         0.5268         2.2973         0.7572       -63.4569       -25.7211              1      0.6750534
      5790.0000        14.5913        -999.25        51.8277       81.30058         0.5231         2.2904         0.9072       -70.7827       -33.0468              1      0.5747014
      5790.5000        14.6244        -999.25        50.5605       77.93025         0.5222          2.282         0.9952       -74.6979        -36.962      0.9559628      0.5210685
      5791.0000        14.6677        -999.25        47.3603       69.42824         0.5265         2.2765         1.0227       -78.9775       -41.2416      0.7750689      0.4624438
      5791.5000        14.6871        -999.25         46.087        66.0417         0.5341         2.2715         1.3013       -85.2346       -47.4987       0.703015      0.3767301
      5792.0000        14.6892        -999.25        45.1318       63.49964         0.5413         2.2667         1.6454       -86.4282       -48.6923      0.6489285      0.3603795
      5792.5000        14.6751        -999.25        44.2116       61.05043         0.5421         2.3124         1.3966       -85.7653       -48.0294      0.5968177      0.3694603
      5793.0000        14.6492        -999.25        43.0807       58.04194          0.499         2.3312         0.8345       -89.1348        -51.399      0.5328072      0.3233014
      5793.5000         14.376        -999.25        41.8791       54.84574         0.4472         2.3289         1.0226       -99.1823       -61.4464       0.464803      0.1856658
      5794.0000        14.0706        -999.25        40.2065       50.39922         0.4059         2.3015         1.1377      -108.6304       -70.8945      0.3701963     0.05623972
      5794.5000        13.8712        -999.25        38.1947       45.05224         0.3773         2.1545         1.2519      -114.3258         -76.59      0.2564306              0
      5795.0000        13.7541        -999.25        36.5002        40.5473         0.3533         2.1326         1.1013      -117.3571       -79.6212      0.1605809              0
      5795.5000         13.638        -999.25        35.7045       38.42865         0.3348         2.1256         0.9506      -118.6055       -80.8696      0.1155033              0
      5796.0000        13.5414        -999.25        35.8669       38.85336         0.3215         2.1151         0.8211      -119.3551       -81.6192      0.1245395              0
      5796.5000        13.4551        -999.25        35.8387       38.77214         0.3122         2.1069         0.7446      -119.8976       -82.1617      0.1228116              0
      5797.0000        13.3872        -999.25        34.9997       36.53852         0.3088         2.1096         0.7787      -120.4281       -82.6922     0.07528776              0
      5797.5000        13.3365        -999.25        34.1691       34.32721         0.3071         2.1139         0.8504      -120.9874       -83.2515      0.0282385              0
      5798.0000         13.296        -999.25        35.2846       37.28209         0.3066         2.1186         0.9228      -121.4291       -83.6933      0.0911082              0
      5798.5000        13.2718        -999.25        36.8664       41.47485          0.307         2.1233         0.9069       -121.833       -84.0972      0.1803159              0
      5799.0000        13.2495        -999.25        37.8006       43.94816         0.3071         2.1278         0.8403      -122.0663       -84.3304      0.2329396              0
      5799.5000        13.2331        -999.25        38.9969       47.11754         0.3069          2.132         0.7851       -122.233       -84.4971      0.3003732              0
      5800.0000        13.2167        -999.25        39.4964       48.43716         0.3061         2.1345         0.7509      -122.5305       -84.7946      0.3284502              0
      5800.5000        13.2038        -999.25        39.0582       47.26754         0.3044         2.1322         0.7326      -122.7389       -85.0031      0.3035648              0
      5801.0000        13.1991        -999.25        37.4606       43.02011          0.299         2.1298         0.7388      -122.9451       -85.2092      0.2131938              0
      5801.5000        13.1943        -999.25        36.0449       39.25554         0.2913         2.1307          0.751      -123.4006       -85.6647      0.1330967              0
      5802.0000        13.1895        -999.25        34.8704       36.13131         0.2833         2.1343         0.7538      -124.0267       -86.2908     0.06662369              0
      5802.5000        13.1891        -999.25        33.7396       33.12305         0.2755         2.1377         0.7096      -124.4006       -86.6647    0.002618019              0
      5803.0000        13.1891        -999.25        33.0164       31.19687          0.268         2.1365         0.6802      -124.5149       -86.7791              0              0
      5803.5000         13.189        -999.25        32.7852       30.57646         0.2614         2.1253         0.6611      -124.6107       -86.8748              0              0
