#------------------------------------------------------------------------------
# Created by    : vladimir.rabinovich
# Created on    : 09/19/2023 17:22:45
#------------------------------------------------------------------------------
~Version Information Section
VERS.           2.0     :   CWLS log ASCII Standard - VERSION 2.0
WRAP.           NO      :   One line per depth step
~Well Information Section
#MNEM       .UNIT                                         VALUE :DESCRIPTION
#------------------------------------------------------------------------------
STRT        .FT                                            3370 :START DEPTH
STOP        .FT                                           10136 :STOP DEPTH
STEP        .FT                                             0.5 :STEP      
NULL        .                                           -999.25 :NULL      
COMP        .                                  W&T OFFSHORE INC :COMPANY   
WELL        .                               OCS G04565 ST00BP00 :WELL      
FLD         .                              GALVESTON BLOCK 0303 :FIELD     
LOC         .                                                   :LOCATION  
CNTY        .                             GALVESTON LARGE BLOCK :LOCATION  
STAT        .                                             TEXAS :STATE     
CTRY        .                                     UNITED STATES :COUNTRY   
SRVC        .                                                   :SERVICE COMPANY
DATE        .                             9/13/2023 11:19:27 AM :LOG DATE  
API         .                                    42706401000000 :API NUMBER
UWI         .                                    42706401000000 :UNIQUE WELL ID
XCOORD      .                                  988505.563749319 :SURFACE X 
YCOORD      .                                  10486369.8338556 :SURFACE Y 
LAT         .                                        28.8802688 :LATITUDE  
LON         .                                       -95.0374578 :LONGITUDE 
ELEV        .FT                                              93 :ELEVATION VALUE
ELEV_TYPE   .                                                KB :ELEVATION REFERENCE TYPE
~Curve Information Section
#MNEM       .UNIT                                      API CODE :CURVE DESCRIPTION
#------------------------------------------------------------------------------
DEPT        .FT                                                 :DEPTH     
DPHI        .DEC                                                :          
DRHO        .G/C3                                               :          
DT          .US/F                                               :          
GR          .GAPI                                               :          
GR_1        .GAPI                                               :          
GR_NORM     .GAPI                                               :GammaRay Normalized
ILD         .OHMM                                               :          
NPHI        .DEC                                                :          
RHOB        .G/C3                                               :          
SP          .MV                                                 :          
SP_NORM     .MV                                                 :SP Normalized
VSH_GR      .V/V                                                :Volume of Shale from GR
VSH_SP      .V/V                                                :Volume of Shale from SP
~A        DEPTH           DPHI           DRHO             DT             GR           GR_1        GR_NORM            ILD           NPHI           RHOB             SP        SP_NORM         VSH_GR         VSH_SP
# ...
      8348.0000         0.2544         -0.031        89.5776        48.7457        -999.25       41.78648         7.1498         0.2409         2.2317       -79.5078      -47.99146      0.1869463      0.3144077
      8348.5000         0.2527        -0.0301        90.7258        48.4579        -999.25       41.42715          6.295         0.2492         2.2349       -79.6199      -48.09676       0.179301      0.3129035
      8349.0000         0.2428        -0.0281        90.8201        47.9592        -999.25       40.80419         6.0157         0.2413         2.2514       -79.7262      -48.19623      0.1660466      0.3114824
      8349.5000         0.2363         -0.029        88.6931        47.0524        -999.25        39.6711         5.9245         0.2143         2.2729       -79.8269      -48.29012      0.1419384      0.3101411
      8350.0000         0.2082        -0.0285        81.4838        42.8939        -999.25        34.4734         6.2971         0.1878         2.4184       -79.9646      -48.42101     0.03134902      0.3082713
      8350.5000         0.1379        -0.0263        74.2546        40.7346        -999.25        31.7747         6.6244          0.144         2.4785       -80.2881      -48.73769              0      0.3037472
      8351.0000         0.0873        -0.0214        72.4092        40.7534        -999.25       31.79861         6.4448         0.1328         2.5112        -80.611      -49.05378              0      0.2992317
      8351.5000         0.0827        -0.0166        73.7323        42.3448        -999.25       33.78828         5.7908         0.1549         2.5016       -80.9376      -49.37357     0.01677201      0.2946633
      8352.0000         0.1209         -0.015        77.1276        43.8635        -999.25       35.68707         5.1089         0.2061         2.4263       -81.2646      -49.69376     0.05717168      0.2900892
      8352.5000         0.1743        -0.0199         81.193         45.439        -999.25       37.65686          4.589         0.2197         2.3616       -81.5404      -49.96274     0.09908222      0.2862466
      8353.0000         0.2163        -0.0242        84.5636        46.6461        -999.25       39.16616         4.0777         0.2276         2.2884         -81.76      -50.17553      0.1311949      0.2832067
      8353.5000         0.2316        -0.0267        87.7421        47.4895        -999.25       40.22083         3.6234          0.235         2.2609       -81.9069      -50.31561      0.1536347      0.2812056
      8354.0000          0.243        -0.0281        89.5062        48.3403        -999.25       41.28475          3.224         0.2368         2.2457       -81.8593       -50.2612      0.1762713      0.2819829
      8354.5000         0.2542        -0.0289        88.4098        48.8894        -999.25       41.97155         2.9317         0.2299         2.2337       -81.4406      -49.83568       0.190884      0.2880617
      8355.0000         0.2566        -0.0301         87.715        48.3057        -999.25       41.24234         2.6184         0.2238         2.2251       -80.7345      -49.12276      0.1753689      0.2982462
      8355.5000         0.2547        -0.0331        87.5005        46.5521        -999.25       39.05076         2.4114          0.221         2.2253       -79.5076      -47.88905      0.1287395      0.3158707
      8356.0000         0.2484        -0.0337         87.593        44.9344        -999.25       37.02904          2.281         0.2192         2.2455       -78.3584      -46.73304     0.08572428      0.3323852
      8356.5000          0.233        -0.0329        86.3623        44.3312        -999.25       36.27546          2.166         0.2041         2.2899       -77.2369      -45.60473      0.0696907      0.3485039
      8357.0000         0.1889         -0.031        79.9167        44.7922        -999.25       36.85213         2.0552         0.1784         2.3412       -76.1339      -44.49492     0.08196023      0.3643583
      8357.5000         0.1434        -0.0279        77.1472        45.8471        -999.25       38.17118         1.9382         0.1621         2.4164       -74.8256       -43.1798       0.110025      0.3831457
      8358.0000         0.1281        -0.0242        77.2705        47.1729        -999.25       39.82885         1.8289         0.1725         2.4343        -73.149      -41.49639      0.1452947      0.4071945
      8358.5000         0.1513        -0.0272        80.9958        48.6816        -999.25       41.71514         1.7395         0.1953         2.4042       -70.5027      -38.84327      0.1854285      0.4450961
      8359.0000         0.1772        -0.0349        84.5193        50.9201        -999.25       44.51369         1.6424          0.218         2.3613       -67.1716      -35.50536      0.2449721      0.4927806
      8359.5000         0.1861        -0.0367        87.8553        54.7341        -999.25       49.28161          1.496         0.2409         2.3424       -63.8702      -32.19714      0.3464172      0.5400408
      8360.0000         0.1817        -0.0341         91.911        64.1825        -999.25       61.09252         1.3594         0.2553         2.3541       -59.6657      -27.98583      0.5977132      0.6002024
      8360.5000         0.1537        -0.0291        95.2372        66.2737        -999.25       63.70693         1.2704          0.276         2.4066       -54.4471      -22.76042       0.653339      0.6748512
      8361.0000         0.1319        -0.0222        97.2108        66.5599        -999.25        64.0651         1.1945         0.2979         2.4326       -49.9724       -18.2789      0.6609596      0.7388728
      8361.5000          0.127         -0.015       100.0492        64.3837        -999.25       61.34527         1.1866         0.3061         2.4427       -48.1589      -16.45859      0.6030909      0.7648773
      8362.0000         0.1238        -0.0118       100.8641        59.6783        -999.25       55.46394         1.1699         0.2927          2.451       -48.5808      -16.87367      0.4779562      0.7589475
      8362.5000         0.1197        -0.0123        96.5037         54.694        -999.25       49.23399         1.0437         0.2563         2.4538       -52.1228      -20.40886       0.345404      0.7084449
      8363.0000          0.126        -0.0141        91.0012        51.8392        -999.25       45.66591         0.9074         0.2429          2.434       -57.9558      -26.23505      0.2694874      0.6252136
      8363.5000         0.1545        -0.0148        91.4231        50.8633        -999.25       44.44645         0.8116         0.2497         2.3785       -63.6703      -31.94273      0.2435414      0.5436752
      8364.0000          0.192        -0.0156        92.6378        50.4945        -999.25       43.98586         0.7494         0.2634         2.3269       -69.3849      -37.65052      0.2337418      0.4621354
      8364.5000         0.2295        -0.0233        93.8477        50.3125        -999.25       43.75878          0.708         0.2688         2.2782        -72.616       -40.8748      0.2289102      0.4160743
      8365.0000         0.2467        -0.0274        93.8981         50.046        -999.25       43.42608         0.6784         0.2617         2.2436       -74.4352      -42.68719      0.2218315      0.3901829
      8365.5000         0.2484        -0.0285        92.3545        50.0534        -999.25       43.43575         0.6674         0.2474         2.2428        -74.561      -42.80618      0.2220371      0.3884832
      8366.0000         0.2306        -0.0312        88.8903        50.3871        -999.25       43.85329         0.6633         0.2351         2.2877       -71.1985      -39.43687      0.2309212      0.4366162
      8366.5000         0.1998        -0.0288        88.0007         53.559        -999.25       47.81858         0.6714         0.2259         2.3691       -65.4099      -33.64145       0.315289      0.5194079
