#------------------------------------------------------------------------------
# Created by    : vladimir.rabinovich
# Created on    : 09/19/2023 17:20:39
#------------------------------------------------------------------------------
~Version Information Section
VERS.           2.0     :   CWLS log ASCII Standard - VERSION 2.0
WRAP.           NO      :   One line per depth step
~Well Information Section
#MNEM       .UNIT                                         VALUE :DESCRIPTION
#------------------------------------------------------------------------------
STRT        .FT                                             523 :START DEPTH
STOP        .FT                                           11863 :STOP DEPTH
STEP        .FT                                             0.5 :STEP      
NULL        .                                           -999.25 :NULL      
COMP        .                                      SHELL OIL CO :COMPANY   
WELL        .                                OCS 00727 ST00BP00 :WELL      
FLD         .                                           WILDCAT :FIELD     
LOC         .                                                   :LOCATION  
CNTY        .                             GALVESTON LARGE BLOCK :LOCATION  
STAT        .                                             TEXAS :STATE     
CTRY        .                                     UNITED STATES :COUNTRY   
SRVC        .                                                   :SERVICE COMPANY
DATE        .                             9/13/2023 11:19:42 AM :LOG DATE  
API         .                                    42706000240000 :API NUMBER
UWI         .                                    42706000240000 :UNIQUE WELL ID
XCOORD      .                                  977080.798970248 :SURFACE X 
YCOORD      .                                   10388448.113324 :SURFACE Y 
LAT         .                                         28.610486 :LATITUDE  
LON         .                                        -95.067834 :LONGITUDE 
ELEV        .FT                                              76 :ELEVATION VALUE
ELEV_TYPE   .                                                KB :ELEVATION REFERENCE TYPE
~Curve Information Section
#MNEM       .UNIT                                      API CODE :CURVE DESCRIPTION
#------------------------------------------------------------------------------
DEPT        .FT                                                 :DEPTH     
ASN         .OHMM                                               :          
ILD         .OHMM                                               :          
LN          .OHMM                                               :          
SP          .MV                                                 :          
SP_NORM     .MV                                                 :SP Normalized
VSH_SP      .V/V                                                :Volume of Shale from SP
~A        DEPTH            ASN            ILD             LN             SP        SP_NORM         VSH_SP
# ...
      5805.0000         0.7625         0.6064        -999.25       -39.8019      -5.655556      0.8394636
      5805.5000         0.7579         0.6056        -999.25       -39.3073      -5.160957      0.8565187
      5806.0000         0.7532         0.6048        -999.25       -38.8126      -4.666256      0.8735774
      5806.5000          0.749          0.604        -999.25       -38.3179      -4.171558      0.8906359
      5807.0000         0.7466         0.6032        -999.25       -37.8232      -3.676857      0.9076946
      5807.5000         0.7443         0.6023        -999.25       -37.3953      -3.248959      0.9224497
      5808.0000         0.7419         0.6059        -999.25       -37.1107      -2.964355      0.9322636
      5808.5000         0.7462          0.612        -999.25       -36.8264      -2.680058       0.942067
      5809.0000         0.7532         0.6181        -999.25       -36.5421      -2.395756      0.9518705
      5809.5000         0.7601         0.6243        -999.25       -36.2578      -2.111458      0.9616739
      5810.0000         0.7703         0.6304        -999.25       -35.9734      -1.827057      0.9714808
      5810.5000         0.7816         0.6359        -999.25       -36.0296      -1.883255      0.9695429
      5811.0000         0.7783         0.6384        -999.25        -36.183      -2.036655      0.9642532
      5811.5000         0.7654         0.6409        -999.25       -36.3365      -2.190155      0.9589602
      5812.0000         0.7574         0.6434        -999.25       -36.4902      -2.343857      0.9536601
      5812.5000         0.7548         0.6458        -999.25       -36.6437      -2.497356       0.948367
      5813.0000         0.7522         0.6427        -999.25       -36.7971      -2.650757      0.9430773
      5813.5000         0.7612         0.6266        -999.25       -36.9507      -2.804356      0.9377809
      5814.0000         0.7729         0.6106        -999.25       -37.2808      -3.134457       0.926398
      5814.5000         0.7634         0.5945        -999.25       -37.6505      -3.504158      0.9136497
      5815.0000         0.7505         0.5778        -999.25       -38.5476      -4.401257      0.8827153
      5815.5000         0.7366         0.5582        -999.25       -40.3121      -6.165756      0.8218704
      5816.0000         0.7227         0.5387        -999.25       -42.2368      -8.090458      0.7555014
      5816.5000         0.7184         0.5191        -999.25        -43.087      -8.940659      0.7261842
      5817.0000         0.7303         0.5178        -999.25       -43.9384      -9.792057      0.6968256
      5817.5000         0.7423         0.5631        -999.25       -45.1905      -11.04416      0.6536498
      5818.0000         0.7543         0.6084        -999.25       -47.1383      -12.99196      0.5864842
      5818.5000         0.7662           0.67        -999.25       -49.1149      -14.96856      0.5183257
      5819.0000          0.781         0.7329        -999.25       -51.1046      -16.95826      0.4497153
      5819.5000         0.8016         0.7775        -999.25       -53.3087      -19.16236      0.3737118
      5820.0000         0.8222          0.755        -999.25       -50.3847      -16.23836      0.4745394
      5820.5000         0.8316         0.7356        -999.25       -47.1008      -12.95446      0.5877774
      5821.0000           0.83         0.7219        -999.25       -45.9326      -11.78625      0.6280602
      5821.5000         0.8238         0.7083        -999.25       -44.7654      -10.61906      0.6683084
      5822.0000          0.817         0.6946        -999.25       -43.5971      -9.450756      0.7085946
      5822.5000         0.8102          0.681        -999.25         -42.43      -8.283657      0.7488394
      5823.0000         0.8034         0.6673        -999.25       -41.5936      -7.447258      0.7776808
      5823.5000         0.7966         0.6537        -999.25        -41.816      -7.669659      0.7700118
      5824.0000         0.7898           0.64        -999.25       -43.7749      -9.628555      0.7024636
      5824.5000          0.783         0.6264        -999.25       -45.8619      -11.71556      0.6304981
      5825.0000         0.7762          0.611        -999.25       -48.7858      -14.63946      0.5296739
      5825.5000         0.7692          0.595        -999.25        -51.612      -17.46566      0.4322188
      5826.0000         0.7612          0.579        -999.25       -52.2061      -18.05976      0.4117325
      5826.5000         0.7532          0.563        -999.25       -52.8002      -18.65386      0.3912463
      5827.0000         0.7452          0.547        -999.25       -53.3942      -19.24786      0.3707636
      5827.5000         0.7372          0.531        -999.25       -53.9888      -19.84246      0.3502601
      5828.0000         0.7292          0.515        -999.25       -54.5829      -20.43656      0.3297739
      5828.5000         0.7212          0.499        -999.25       -55.1769      -21.03056      0.3092912
      5829.0000         0.7132         0.4936        -999.25        -55.776      -21.62966      0.2886325
      5829.5000         0.7079         0.4889        -999.25       -56.3761      -22.22976      0.2679395
      5830.0000         0.7045         0.4842        -999.25       -56.9763      -22.82996      0.2472429
      5830.5000         0.7011         0.4796        -999.25       -58.1163      -23.96996      0.2079326
      5831.0000         0.6977         0.4749        -999.25       -58.8396      -24.69326      0.1829912
      5831.5000         0.6967         0.4715        -999.25       -58.0065      -23.86016      0.2117187
      5832.0000         0.6984         0.4723        -999.25       -57.2131      -23.06676      0.2390773
      5832.5000            0.7         0.4731        -999.25       -56.4203      -22.27396      0.2664153
      5833.0000         0.7017         0.4739        -999.25       -55.6269      -21.48056      0.2937739
      5833.5000         0.7034         0.4747        -999.25       -54.8336      -20.68726      0.3211291
      5834.0000         0.6986         0.4754        -999.25       -54.5619      -20.41556       0.330498
      5834.5000         0.6901         0.4762        -999.25       -56.0714      -21.92506      0.2784463
      5835.0000         0.6836          0.477        -999.25       -59.2029      -25.05656      0.1704636
      5835.5000         0.6835         0.4914        -999.25       -61.0513      -26.90496      0.1067256
      5836.0000         0.6975         0.5068        -999.25       -59.4833      -25.33696      0.1607946
      5836.5000         0.7115         0.5222        -999.25       -57.5223      -23.37596      0.2284153
      5837.0000         0.7256         0.5376        -999.25       -56.3043      -22.15796      0.2704153
      5837.5000         0.7358         0.5634        -999.25       -55.3006      -21.15425      0.3050257
      5838.0000          0.734         0.5934        -999.25       -54.2969      -20.15056      0.3396359
      5838.5000         0.7322         0.6234        -999.25       -49.7443      -15.59796      0.4966221
      5839.0000         0.7304         0.6177        -999.25       -46.8865      -12.74016       0.595167
      5839.5000         0.7286         0.5994        -999.25       -44.4197      -10.27336      0.6802291
      5840.0000         0.7312         0.5827        -999.25        -42.059      -7.912655      0.7616326
      5840.5000         0.7426         0.5703        -999.25       -39.9367      -5.790356      0.8348153
      5841.0000         0.7421         0.5579        -999.25       -42.5536      -8.407257      0.7445773
      5841.5000         0.7381         0.5455        -999.25       -53.7039      -19.55756      0.3600843
      5842.0000         0.7342         0.5331        -999.25       -56.1199      -21.97356      0.2767739
      5842.5000         0.7294         0.5206        -999.25       -57.5974      -23.45106      0.2258256
