#------------------------------------------------------------------------------
# Created by    : vladimir.rabinovich
# Created on    : 09/19/2023 17:20:38
#------------------------------------------------------------------------------
~Version Information Section
VERS.           2.0     :   CWLS log ASCII Standard - VERSION 2.0
WRAP.           NO      :   One line per depth step
~Well Information Section
#MNEM       .UNIT                                         VALUE :DESCRIPTION
#------------------------------------------------------------------------------
STRT        .FT                                             510 :START DEPTH
STOP        .FT                                            8711 :STOP DEPTH
STEP        .FT                                             0.5 :STEP      
NULL        .                                           -999.25 :NULL      
COMP        .                                      SHELL OIL CO :COMPANY   
WELL        .                                OCS 00708 ST00BP00 :WELL      
FLD         .                                           WILDCAT :FIELD     
LOC         .                                                   :LOCATION  
CNTY        .                             GALVESTON LARGE BLOCK :LOCATION  
STAT        .                                             TEXAS :STATE     
CTRY        .                                     UNITED STATES :COUNTRY   
SRVC        .                                                   :SERVICE COMPANY
DATE        .                             9/13/2023 11:19:25 AM :LOG DATE  
API         .                                    42706000300000 :API NUMBER
UWI         .                                    42706000300000 :UNIQUE WELL ID
XCOORD      .                                  1082576.09526943 :SURFACE X 
YCOORD      .                                  10493698.2734572 :SURFACE Y 
LAT         .                                         28.904546 :LATITUDE  
LON         .                                        -94.743912 :LONGITUDE 
ELEV        .FT                                              92 :ELEVATION VALUE
ELEV_TYPE   .                                                KB :ELEVATION REFERENCE TYPE
~Curve Information Section
#MNEM       .UNIT                                      API CODE :CURVE DESCRIPTION
#------------------------------------------------------------------------------
DEPT        .FT                                                 :DEPTH     
ASN         .OHMM                                               :          
CILD        .MMHO                                               :          
DT          .US/F                                               :          
ILD         .OHMM                                               :          
SP          .MV                                                 :          
SP_NORM     .MV                                                 :SP Normalized
VSH_SP      .V/V                                                :Volume of Shale from SP
~A        DEPTH            ASN           CILD             DT            ILD             SP        SP_NORM         VSH_SP
# ...
      3223.5000         0.9331       1253.238       162.4067         0.9733       -72.3728      -1.922981              1
      3224.0000         0.9315       1242.314       162.2453         0.9751       -72.3649      -1.923653              1
      3224.5000         0.9378       1232.396       161.9919         0.9769       -72.3569      -1.924232              1
      3225.0000         0.9446       1225.377       162.4712         0.9787        -72.349      -1.924911              1
      3225.5000         0.9513       1221.477        162.583         0.9806       -72.3142      -1.898689              1
      3226.0000         0.9581       1217.576       162.7064         0.9824       -72.2679      -1.860962              1
      3226.5000         0.9646       1213.678       162.9869         0.9842       -72.2216       -1.82325              1
      3227.0000         0.9624       1210.525       163.3341          0.986       -72.2111       -1.82132              1
      3227.5000         0.9597       1208.254       164.3636          0.988       -72.2814        -1.9002              1
      3228.0000         0.9571       1205.982       165.0142         0.9905       -72.3517       -1.97908              1
      3228.5000         0.9544       1207.963       165.4053         0.9929        -72.422      -2.057953      0.9986523
      3229.0000         0.9517       1212.232       166.1059         0.9953       -72.4109      -2.055428       0.998711
      3229.5000           0.95       1218.984       167.8249         0.9978       -72.3036      -1.956703              1
      3230.0000         0.9482       1228.754       167.8951         1.0002       -72.1963      -1.857986              1
      3230.5000         0.9464       1235.426       167.4764         1.0026       -72.1837      -1.853966              1
      3231.0000         0.9465       1238.053       167.1275          1.005       -72.2151      -1.893944              1
      3231.5000         0.9466       1233.881       166.9882         1.0075       -72.2465      -1.933922              1
      3232.0000         0.9478       1229.711       164.4047         1.0099       -72.2778      -1.973801              1
      3232.5000         0.9505       1225.539       164.6146         1.0123       -72.3093      -2.013878      0.9996772
      3233.0000         0.9631       1221.252       164.1288         1.0148       -72.3521      -2.065254      0.9984825
      3233.5000         0.9661       1216.898        162.791         1.0154        -72.401      -2.122734      0.9971457
      3234.0000         0.9691       1212.547       161.9109         1.0159       -72.4501      -2.180412      0.9958044
      3234.5000         0.9721       1208.195       161.5323         1.0164       -72.4991      -2.237991      0.9944653
      3235.0000         0.9752       1204.453       161.4737          1.017       -72.4503      -2.197769      0.9954007
      3235.5000           0.98       1202.852       161.4741         1.0175       -72.3368      -2.092842      0.9978409
      3236.0000         0.9922        1201.32       161.4188          1.018       -72.2231      -1.987724              1
      3236.5000         0.9835       1204.104       160.9702         1.0186       -72.1096      -1.882797              1
      3237.0000         0.9727       1206.887       159.7461         1.0191       -71.9958      -1.777573              1
      3237.5000         0.9627       1210.193       158.3694         1.0197       -71.8823      -1.672661              1
      3238.0000         0.9527       1214.232       157.9017         1.0189       -71.7654      -1.564339              1
      3238.5000         0.9503       1218.271        158.171         1.0182       -71.5975      -1.405014              1
      3239.0000         0.9595       1222.271       158.2695         1.0174       -71.4106      -1.226685              1
      3239.5000         0.9688       1224.406       157.9444         1.0166       -71.0337     -0.8583679              1
      3240.0000         0.9772       1226.539       157.9691         1.0159       -70.9021     -0.7353439              1
      3240.5000         0.9819       1228.674       158.3722         1.0151       -71.1986      -1.040421              1
      3241.0000         0.9866       1229.164       158.3268         1.0143       -71.4952      -1.345604              1
      3241.5000         0.9912       1228.639       158.1961         1.0135       -71.7778       -1.63678              1
      3242.0000           0.99       1228.102       159.0231         1.0125       -71.6246      -1.492157              1
      3242.5000         0.9879       1226.697       159.4862         1.0114       -71.4714      -1.347534              1
      3243.0000         0.9857       1225.229       159.3093         1.0104       -71.3182      -1.202911              1
      3243.5000         0.9836       1213.605       159.8036         1.0093       -71.1649      -1.058189              1
      3244.0000         0.9879       1201.092       159.2453         1.0082       -71.0117     -0.9135742              1
      3244.5000         1.0031       1189.549        158.687         1.0071       -70.8846     -0.7950439              1
      3245.0000         1.0194       1185.652       156.4527          1.006       -70.7828     -0.7018204              1
      3245.5000         1.0318       1182.299       155.6848         1.0049       -70.6809     -0.6085052              1
      3246.0000         1.0435       1181.771       156.1041         1.0038       -70.5791     -0.5152817              1
      3246.5000         1.0676       1181.246       155.7553         1.0027       -70.4773     -0.4220581              1
      3247.0000         1.0749       1181.359       156.2054         1.0016        -70.342     -0.2953415              1
      3247.5000         1.0823        1181.98         156.81         0.9981       -70.1954     -0.1573105              1
      3248.0000         1.0926       1181.586       157.7233         0.9935       -70.0488    -0.01928711              1
      3248.5000         1.1074       1175.508       158.7594          0.989       -70.1195    -0.09856415              1
      3249.0000         1.1385       1158.287       157.8259         0.9872       -70.3068     -0.2944489              1
      3249.5000         1.2225       1120.291       154.7395         1.2655       -71.0924      -1.088623              1
      3250.0000          1.393       1070.977       147.5723         1.5258       -71.9688      -1.973602              1
      3250.5000         1.7541       955.9355       130.0598          1.856       -73.3081       -3.32148      0.9692679
      3251.0000         1.9966       832.7354       119.0266         2.1862       -74.9635      -4.985458      0.9305707
      3251.5000         1.9891       709.5352       116.3733         2.5164       -76.7429       -6.77343        0.88899
      3252.0000         2.0564       586.2451       114.2088         2.8465       -78.9731      -9.012215      0.8369253
      3252.5000         2.8222       386.5151       112.0443         2.8752       -79.8763      -9.923988      0.8157212
      3253.0000         3.0179       336.4595       111.5558         3.2027       -80.7091      -10.76537      0.7961543
      3253.5000         3.1321        297.063       111.7975         3.5615       -81.4735      -11.53835      0.7781779
      3254.0000         3.2453       270.7124       113.3624         3.6315         -82.13      -12.20342      0.7627111
      3254.5000         3.0577       251.2832       115.7959         3.3507       -82.7491       -12.8311      0.7481139
      3255.0000         2.5208       277.1685       119.7219         2.9694       -83.3777      -13.46828      0.7332957
      3255.5000           2.33       306.6011        126.019         2.5881       -83.7059      -13.80506      0.7254637
      3256.0000         2.0471       337.8271       132.5681         2.1413       -83.2035      -13.31123      0.7369481
      3256.5000         2.0087       369.2769       135.1236         1.8458       -82.6512      -12.76751      0.7495928
