#------------------------------------------------------------------------------
# Created by    : vladimir.rabinovich
# Created on    : 09/19/2023 17:21:32
#------------------------------------------------------------------------------
~Version Information Section
VERS.           2.0     :   CWLS log ASCII Standard - VERSION 2.0
WRAP.           NO      :   One line per depth step
~Well Information Section
#MNEM       .UNIT                                         VALUE :DESCRIPTION
#------------------------------------------------------------------------------
STRT        .FT                                            4185 :START DEPTH
STOP        .FT                                            8075 :STOP DEPTH
STEP        .FT                                             0.5 :STEP      
NULL        .                                           -999.25 :NULL      
COMP        .                                         HESS CORP :COMPANY   
WELL        .                               OCS G07236 ST00BP00 :WELL      
FLD         .                              GALVESTON BLOCK 0210 :FIELD     
LOC         .                                                   :LOCATION  
CNTY        .                             GALVESTON LARGE BLOCK :LOCATION  
STAT        .                                             TEXAS :STATE     
CTRY        .                                     UNITED STATES :COUNTRY   
SRVC        .                                                   :SERVICE COMPANY
DATE        .                             9/13/2023 11:19:34 AM :LOG DATE  
API         .                                    42706402930000 :API NUMBER
UWI         .                                    42706402930000 :UNIQUE WELL ID
XCOORD      .                                   1127714.7472722 :SURFACE X 
YCOORD      .                                  10563055.4663979 :SURFACE Y 
LAT         .                                         29.097041 :LATITUDE  
LON         .                                        -94.605794 :LONGITUDE 
ELEV        .FT                                              89 :ELEVATION VALUE
ELEV_TYPE   .                                                KB :ELEVATION REFERENCE TYPE
~Curve Information Section
#MNEM       .UNIT                                      API CODE :CURVE DESCRIPTION
#------------------------------------------------------------------------------
DEPT        .FT                                                 :DEPTH     
CALI        .IN                                                 :          
DRHO        .G/CC                                               :          
DT          .US/F                                               :          
ILD         .OHMM                                               :          
ILM         .OHMM                                               :          
NPHI        .%                                                  :          
RFOC        .OHMM                                               :          
RHOB        .G/CC                                               :          
SP          .MV                                                 :          
SP_NORM     .MV                                                 :SP Normalized
VSH_SP      .V/V                                                :Volume of Shale from SP
~A        DEPTH           CALI           DRHO             DT            ILD            ILM           NPHI           RFOC           RHOB             SP        SP_NORM         VSH_SP
# ...
      5782.5000        12.3666         0.0017       126.4393            0.3         0.3134        34.4511         1.0418         2.0899      -135.6963      -73.11472     0.02513713
      5783.0000        12.3529         0.0016       125.9907         0.3018         0.3142        35.0344         1.0178         2.0914       -135.624      -73.04761      0.0260319
      5783.5000        12.3386         0.0014       125.6597          0.302         0.3143        35.6041         0.9568         2.0927      -135.8328       -73.2616     0.02317871
      5784.0000        12.3235          0.001       125.4554         0.2987         0.3138        35.6824         0.8973         2.0927      -136.0903       -73.5243     0.01967601
      5784.5000        12.3102         0.0006       125.4374         0.2943         0.3125        35.3222         0.8692         2.0922      -136.2412      -73.68039     0.01759481
      5785.0000        12.3031         0.0003       125.6361         0.2891           0.31        34.8083         0.9096         2.0949      -137.0088      -74.45319    0.007290853
      5785.5000        12.3068         0.0001       125.9362         0.2829         0.3067        34.7076         0.9813         2.0988       -137.782      -75.23158              0
      5786.0000         12.319        -0.0002       126.1561         0.2761         0.3039        34.8495         1.0594         2.0985      -138.6335      -76.08827              0
      5786.5000        12.3488        -0.0003       126.1073         0.2694         0.2987         35.415         1.0957         2.0959      -139.6506      -77.11057              0
      5787.0000        12.3832        -0.0004       125.8884         0.2614          0.292        35.5735         1.0734         2.0933      -140.6438      -78.10896              0
      5787.5000        12.3961              0       125.4141         0.2529         0.2843         35.697         1.0284         2.0911       -141.606      -79.07635              0
      5788.0000        12.3775         0.0004       125.0211         0.2457         0.2789        35.8715          0.991         2.0892      -142.1428      -79.61836              0
      5788.5000        12.3636         0.0009       124.7363         0.2427         0.2762        35.8835         0.9797         2.0894       -141.916      -79.39674              0
      5789.0000        12.3902         0.0014       124.4972         0.2457         0.2789        35.7589         0.9611         2.0923      -140.9307      -78.41663              0
      5789.5000        12.4729          0.002       124.1917         0.2543         0.2883        35.6487         0.9303         2.1013      -139.0217      -76.51283              0
      5790.0000        12.5769         0.0025       123.5273          0.273          0.303        35.5139         0.8665         2.1257      -135.3318      -72.82813     0.02895833
      5790.5000        12.7106         0.0025       121.5182         0.2969         0.3229        35.1183         0.8121         2.1563      -130.0994      -67.60092     0.09865438
      5791.0000        12.7373         0.0022       119.5985         0.3281         0.3498        34.4317         0.7961         2.1959      -120.4031      -57.90982      0.2278691
      5791.5000        12.7291         0.0018       117.6101         0.3707         0.3877        33.9529         0.8319         2.2234      -105.2949      -42.80681      0.4292426
      5792.0000         12.714         0.0013       116.2487         0.4166         0.4424        33.7514         0.9114         2.2328      -100.0214      -37.53851      0.4994866
      5792.5000        12.7327         0.0011       116.0612         0.4781         0.4995        33.8216         1.0087         2.2272       -96.9387        -34.461        0.54052
      5793.0000        12.7934         0.0034       116.4412         0.5753         0.5505        34.5071          1.052         2.2235       -93.6819      -31.20939      0.5838748
      5793.5000        12.8689         0.0054       117.6619         0.6381          0.574        39.3677         0.9962         2.2378       -86.1381      -23.67079      0.6843895
      5794.0000        12.9395          0.007        120.212         0.6712         0.5916        41.0671         0.8794         2.2688       -75.8934      -13.43129      0.8209162
      5794.5000        12.9893         0.0072       122.1616          0.683         0.6009        40.8015         0.8069         2.2821         -70.42      -7.963074      0.8938257
      5795.0000        12.9902          0.007       122.6359         0.6783         0.5988        39.9595         0.8128         2.2864       -68.8187      -6.366974       0.915107
      5795.5000         12.953          0.007       122.2114         0.6553         0.5901        39.5214         0.8485         2.2829       -69.0876      -6.641068      0.9114524
      5796.0000        12.8844          0.008       121.9558         0.6238         0.5763        39.8218         0.8812         2.2657       -69.9115      -7.470158      0.9003979
      5796.5000        12.7874         0.0101       122.7183         0.5837          0.559        39.4407         0.8626          2.222       -71.6064      -9.170254        0.87773
      5797.0000        12.6875         0.0105        124.603         0.5397         0.5383        37.6046         0.8196          2.176       -75.1863      -12.75535      0.8299287
      5797.5000        12.6187         0.0074       127.8574         0.4803         0.4979        36.4435         0.8265         2.1397       -84.4469      -22.02114      0.7063848
      5798.0000          12.59         0.0026       130.1448         0.4259         0.4427        36.8372          0.953         2.1304      -101.5947      -39.17414      0.4776781
      5798.5000        12.6263         0.0001       130.5518         0.3967         0.3944        37.5972         1.1788          2.127      -117.7688      -55.35343      0.2619543
      5799.0000        12.6731              0       129.4612         0.3665         0.3579        37.4523         1.1848         2.1264      -130.0532      -67.64304     0.09809285
      5799.5000        12.7182         0.0005       128.1824         0.3389          0.343         38.257         1.1578         2.1272      -133.5842      -71.17921     0.05094381
      5800.0000        12.7352         0.0014       127.3953         0.3165         0.3439        39.9913         1.1412         2.1297      -134.4797      -72.07992     0.03893443
      5800.5000        12.7266         0.0036       126.6949         0.3153         0.3521        40.0558         1.0806         2.1367      -127.9777      -65.58311      0.1255586
      5801.0000        12.7162         0.0071       124.9266         0.3219         0.3619        39.2962         0.9037         2.1533      -114.0482      -51.65881      0.3112159
      5801.5000        12.7009         0.0109        124.406         0.3349         0.3724        38.9009         0.7832         2.1601       -94.0714       -31.6872       0.577504
      5802.0000        12.6816         0.0113       124.7422         0.3528          0.384        38.6255         0.7026         2.1584       -84.4572      -22.07819      0.7056242
      5802.5000        12.6612         0.0082        125.407         0.3743         0.3953        37.9944         0.7177         2.1447        -86.051      -23.67719      0.6843042
      5803.0000        12.6479         0.0038        126.203         0.3891         0.3986        36.3991         0.8594         2.1339       -95.6909      -33.32228      0.5557029
      5803.5000        12.6416         0.0021       127.1105         0.3954         0.3981        34.4775         1.0244         2.1312       -108.995      -46.63158      0.3782457
      5804.0000        12.6431         0.0008       126.9791         0.3881         0.3925        33.2907         1.2575         2.1292      -119.8086      -57.45037      0.2339951
      5804.5000        12.6574         0.0003       126.4937          0.373         0.3742        33.3909         1.3264         2.1273      -127.2755      -64.92245      0.1343673
