#------------------------------------------------------------------------------
# Created by    : vladimir.rabinovich
# Created on    : 09/19/2023 17:20:03
#------------------------------------------------------------------------------
~Version Information Section
VERS.           2.0     :   CWLS log ASCII Standard - VERSION 2.0
WRAP.           NO      :   One line per depth step
~Well Information Section
#MNEM       .UNIT                                         VALUE :DESCRIPTION
#------------------------------------------------------------------------------
STRT        .FT                                            3149 :START DEPTH
STOP        .FT                                           10186 :STOP DEPTH
STEP        .FT                                             0.5 :STEP      
NULL        .                                           -999.25 :NULL      
COMP        .                                  SAMEDAN OIL CORP :COMPANY   
WELL        .                                     ST TR 00817-L :WELL      
FLD         .                                           WILDCAT :FIELD     
LOC         .                                                   :LOCATION  
CNTY        .                        MUSTANG ISLAND LARGE BLOCK :LOCATION  
STAT        .                                             TEXAS :STATE     
CTRY        .                                     UNITED STATES :COUNTRY   
SRVC        .                                                   :SERVICE COMPANY
DATE        .                             9/13/2023 11:18:55 AM :LOG DATE  
API         .                                    42702300080000 :API NUMBER
UWI         .                                    42702300080000 :UNIQUE WELL ID
XCOORD      .                                  304914.569303086 :SURFACE X 
YCOORD      .                                  10013906.4088957 :SURFACE Y 
LAT         .                                        27.5345201 :LATITUDE  
LON         .                                       -97.1203623 :LONGITUDE 
ELEV        .FT                                              65 :ELEVATION VALUE
ELEV_TYPE   .                                                KB :ELEVATION REFERENCE TYPE
~Curve Information Section
#MNEM       .UNIT                                      API CODE :CURVE DESCRIPTION
#------------------------------------------------------------------------------
DEPT        .FT                                                 :DEPTH     
ASFL        .OHMM                                               :          
CILD        .MMHO                                               :          
DT          .US/F                                               :          
GR          .GAPI                                               :          
ILD         .OHMM                                               :          
SP          .MV                                                 :          
SP_NORM     .MV                                                 :SP Normalized
VSH_SP      .V/V                                                :Volume of Shale from SP
~A        DEPTH           ASFL           CILD             DT             GR            ILD             SP        SP_NORM         VSH_SP
# ...
      9698.0000         0.6813       2104.648       123.8806        49.1084         0.4314       -44.2507       1.363331              1
      9698.5000         0.6853       2024.328       122.7307        49.4818         0.4415       -44.3921       1.221931              1
      9699.0000         0.6894        1978.92       121.2266        48.9772         0.4516       -44.5335       1.080532              1
      9699.5000         0.6949       1963.035       119.5166         48.193         0.4632       -44.6749      0.9391327              1
      9700.0000         0.7014       1947.176       117.9288         47.853         0.4786       -44.8163      0.7977333              1
      9700.5000         0.7079       1931.291       117.3937        46.7142          0.494       -44.9576      0.6564331              1
      9701.0000         0.7144       1915.408       118.1816        45.7422         0.5095       -45.0991      0.5149345              1
      9701.5000         0.7209       1898.156       119.0587        45.0338         0.5234       -45.2404      0.3736343              1
      9702.0000         0.7283       1883.541       120.2407        44.4789         0.5326       -45.3806      0.2334328              1
      9702.5000         0.7393       1908.967       121.5317        43.9476         0.5217       -45.4052      0.2088318              1
      9703.0000         0.7504       1934.391       122.9218        44.1713         0.5109       -45.4299      0.1841316              1
      9703.5000         0.7615       1959.814       124.0814        44.6137            0.5       -45.4545      0.1595345              1
      9704.0000         0.7725       1997.293        124.738        45.0755         0.4891       -45.4791      0.1349335              1
      9704.5000         0.7664       2040.041       124.8132        45.5585         0.4791        -45.482      0.1320343              1
      9705.0000          0.755        2078.25       124.7675        45.7824         0.4692       -45.4092       0.204834              1
      9705.5000         0.7437       2102.844       124.6141        45.6343         0.4592       -45.3364      0.2776337              1
      9706.0000         0.7323       2127.441       124.5328          45.44         0.4493       -45.2634      0.3506317              1
      9706.5000          0.721       2151.496       124.6675        45.1456         0.4394       -45.1906      0.4234314              1
      9707.0000         0.7117       2168.309         124.87        45.4908         0.4318       -45.1178      0.4962311              1
      9707.5000         0.7082        2175.02        126.366        47.6354         0.4355        -45.045      0.5690346              1
      9708.0000         0.7046       2158.695        129.052        50.4448         0.4391       -44.9456      0.6684341              1
      9708.5000         0.7011       2142.371       128.2542        53.6557         0.4537       -44.7996      0.8144341              1
      9709.0000         0.7105       2126.023       124.1111        54.8912         0.4694       -44.6534      0.9606323              1
      9709.5000         0.7221       2099.281       118.9572        54.8307         0.4851       -44.5075       1.106533              1
      9710.0000          0.738       2055.852       112.3462        51.5812         0.5009       -44.3613       1.252731              1
      9710.5000         0.7539       1931.316        104.308        45.3046         0.5169       -44.5709       1.043133              1
      9711.0000         0.7698       1866.852       111.6128        28.2954          0.533       -45.0114      0.6026344              1
      9711.5000         0.7857       1842.258        115.005        26.8303          0.549       -45.4525      0.1615334              1
      9712.0000         0.7997       1817.662       116.3108        26.7916         0.5583       -45.8132     -0.1991692              1
      9712.5000         0.8135       1793.117       118.0082         38.235         0.5672       -46.0316     -0.4175682              1
      9713.0000         0.8263       1769.254       119.6436        40.1789         0.5761       -45.9894     -0.3753662              1
      9713.5000         0.8144       1787.699       119.1083        41.7698         0.5753       -45.9471     -0.3330688              1
      9714.0000         0.8027       1821.225       117.4457         43.484         0.5553       -45.9048     -0.2907677              1
      9714.5000         0.7916       1863.875       111.4542        44.1392         0.5353       -45.8145     -0.2004662              1
      9715.0000         0.7805       1906.525       104.9622         32.118         0.5153        -45.704    -0.08996582              1
      9715.5000         0.7694       1947.176        92.7115        27.6112         0.4953       -45.5937     0.02033234              1
      9716.0000         0.7583       1987.875        77.8641        22.7853         0.4753       -45.4833      0.1307335              1
      9716.5000         0.7472       2039.064        87.6963        12.0793         0.4553        -45.372      0.2420311              1
      9717.0000         0.7384        2062.73       101.6318         10.278         0.4388       -45.2595      0.3545341              1
      9717.5000         0.7303       2079.641       127.1837         9.5309         0.4246       -45.1471      0.4669342              1
      9718.0000         0.7222       2093.184       126.2644        18.6702         0.4103       -45.0345      0.5795326              1
      9718.5000         0.7141       2107.871       125.9769        34.3568         0.3961       -44.9222      0.6918335              1
      9719.0000         0.7061       2139.055       127.7585        37.8094         0.3818       -44.8072      0.8068314              1
      9719.5000          0.698       2170.578       130.4197        42.1422         0.3695        -44.688       0.926033              1
      9720.0000           0.69       2211.813       131.6885        44.3762         0.3637        -44.569       1.045033              1
      9720.5000         0.6821       2368.168       132.5322        45.8655         0.3579         -44.45       1.164032              1
      9721.0000         0.6741       2400.277       133.1492        46.8568         0.3521       -44.3307       1.283333              1
      9721.5000         0.6662       2429.262       133.5579        47.1693         0.3463       -44.2117       1.402332              1
      9722.0000         0.6586       2464.059       133.9185         47.451         0.3409       -44.0925       1.521534              1
      9722.5000         0.6522       2509.488       134.1694        47.6807         0.3404       -43.9344       1.679634              1
      9723.0000         0.6458        2557.41       134.3318        48.0089         0.3398       -43.7722       1.841831              1
      9723.5000         0.6394       2587.227        134.394        48.4175         0.3392       -43.6099       2.004131              1
      9724.0000          0.633       2611.625       134.2917         48.892         0.3387       -43.4477       2.166332              1
      9724.5000         0.6316       2626.047       134.1667        49.4022         0.3405       -43.2806       2.333431              1
      9725.0000         0.6315       2624.898       133.7549        49.9564         0.3562       -43.0876       2.526432              1
      9725.5000         0.6314       2605.281        133.123        50.5331         0.3719       -42.8945       2.719532              1
      9726.0000         0.6312       2585.664       132.2607        51.2729         0.3893       -42.7012       2.912834              1
      9726.5000         0.6384       2543.746       131.1384        52.0394         0.4182       -42.5526       3.061432              1
      9727.0000           0.65       2473.965        129.208        52.8361          0.447       -42.4854       3.128632              1
