#------------------------------------------------------------------------------
# Created by    : vladimir.rabinovich
# Created on    : 09/19/2023 17:19:55
#------------------------------------------------------------------------------
~Version Information Section
VERS.           2.0     :   CWLS log ASCII Standard - VERSION 2.0
WRAP.           NO      :   One line per depth step
~Well Information Section
#MNEM       .UNIT                                         VALUE :DESCRIPTION
#------------------------------------------------------------------------------
STRT        .FT                                            1601 :START DEPTH
STOP        .FT                                            6340 :STOP DEPTH
STEP        .FT                                             0.5 :STEP      
NULL        .                                           -999.25 :NULL      
COMP        .                 FAIRWAYS OFFSHORE EXPLORATION INC :COMPANY   
WELL        .                                ST TR 00629-L SE/4 :WELL      
FLD         .                                       BLOCK 630-L :FIELD     
LOC         .                                                   :LOCATION  
CNTY        .                      MATAGORDA ISLAND LARGE BLOCK :LOCATION  
STAT        .                                             TEXAS :STATE     
CTRY        .                                     UNITED STATES :COUNTRY   
SRVC        .                                                   :SERVICE COMPANY
DATE        .                             9/13/2023 11:19:05 AM :LOG DATE  
API         .                                    42703302840100 :API NUMBER
UWI         .                                    42703302840100 :UNIQUE WELL ID
XCOORD      .                                  449566.970470722 :SURFACE X 
YCOORD      .                                  10204940.3648147 :SURFACE Y 
LAT         .                                        28.0716107 :LATITUDE  
LON         .                                       -96.6925833 :LONGITUDE 
ELEV        .FT                                              82 :ELEVATION VALUE
ELEV_TYPE   .                                                KB :ELEVATION REFERENCE TYPE
~Curve Information Section
#MNEM       .UNIT                                      API CODE :CURVE DESCRIPTION
#------------------------------------------------------------------------------
DEPT        .FT                                                 :DEPTH     
ASFL        .OHMM                                               :          
CILD        .MMHO                                               :          
GR          .GAPI                                               :          
GR_NORM     .GAPI                                               :GammaRay Normalized
ILD         .OHMM                                               :          
SP          .MV                                                 :          
SP_NORM     .MV                                                 :SP Normalized
VSH_GR      .V/V                                                :Volume of Shale from GR
VSH_SP      .V/V                                                :Volume of Shale from SP
~A        DEPTH           ASFL           CILD             GR        GR_NORM            ILD             SP        SP_NORM         VSH_GR         VSH_SP
# ...
      2263.5000         0.8777       1117.533        53.7352       68.80213         0.8253       -35.3637       1.762047      0.7617475              1
      2264.0000         0.8938       1097.186        53.6052       68.60158          0.835       -35.3336       1.792149      0.7574804              1
      2264.5000           0.91       1078.557        53.1425       67.91875         0.8447       -35.4202       1.705547       0.742952              1
      2265.0000         0.9282       1060.699        52.6354       67.17157         0.8555       -35.6094       1.516346      0.7270547              1
      2265.5000         0.9506       1047.844        51.5623       65.60394         0.8664       -35.9627       1.163048      0.6937009              1
      2266.0000         0.9723       1035.752        48.9819       61.85142         0.8773       -36.4102      0.7155495        0.61386              1
      2266.5000         0.9888       1023.755        46.2737       57.91362         0.8971       -36.9391      0.1866493      0.5300771              1
      2267.0000         1.0169       1012.983        44.2985       55.03835         0.9205       -37.4717     -0.3459511      0.4689011              1
      2267.5000         1.0384       1002.344        43.2335       53.48247         0.9421       -38.2121      -1.086353      0.4357972      0.9981228
      2268.0000         1.0464       993.5625        42.5148       52.42856         0.9629       -39.0511      -1.925354      0.4133736      0.9798836
      2268.5000         1.0477       984.7822        42.0281       51.71095         0.9838       -39.9385      -2.812752      0.3981053      0.9605923
      2269.0000         1.0489       976.3105        42.1421       51.86408         0.9925       -40.3185      -3.192753      0.4013635      0.9523315
      2269.5000         1.0483       968.6367        42.6369       52.56919         1.0005        -40.598      -3.472252      0.4163658      0.9462554
      2270.0000         1.0475       960.9658         44.988       55.96511         1.0084       -40.3467      -3.220951      0.4886194      0.9517184
      2270.5000         1.0475       953.1514        48.6506        61.2621         1.0157       -40.0955      -2.969753      0.6013213      0.9571792
      2271.0000         1.0475       944.0693        50.2321       63.54246         1.0226       -39.8443      -2.718552      0.6498396      0.9626402
      2271.5000         1.0522       934.9854        50.8116       64.37034         1.0295       -39.2755      -2.149754       0.667454      0.9750053
      2272.0000         1.1051       916.3955        51.3091       65.07939         1.0513       -38.8029      -1.677151      0.6825402      0.9852793
      2272.5000         1.1374       896.3125        51.2869        65.0351         1.0759       -38.5911      -1.465351      0.6815979      0.9898837
      2273.0000         1.1802       869.8496        50.8132       64.33632         1.1005       -38.5369      -1.411152      0.6667302      0.9910619
      2273.5000         1.2079       844.7246        50.2336       63.48404         1.1268       -38.4828      -1.357052      0.6485966       0.992238
      2274.0000         1.2217       822.9541         49.654       62.63176         1.1781       -38.4286      -1.302853      0.6304629      0.9934162
      2274.5000         1.2385       805.7178        49.0317       61.71759         1.2012       -38.3123      -1.186554      0.6110126      0.9959445
      2275.0000         1.2392       794.3057        48.4087       60.80241         1.2193       -38.1487      -1.022953      0.5915406       0.999501
      2275.5000         1.2058       789.4834        47.9096       60.06683         1.2364       -37.9487     -0.8229523      0.5758899              1
      2276.0000         1.1689       792.4082        47.8378       59.95063         1.2412       -37.6278     -0.5020523      0.5734177              1
      2276.5000         1.1575       801.5215        47.7659       59.83427         1.2459       -37.3033     -0.1775513       0.570942              1
      2277.0000          1.146       814.0664        47.8248       59.90755         1.2367       -36.9315      0.1942482       0.572501              1
      2277.5000         1.1168       822.9082        47.9297       60.04747         1.2172       -36.5511       0.574646      0.5754782              1
      2278.0000         1.1043        830.374        48.1351        60.3331         1.1889       -36.0787       1.047047      0.5815552              1
      2278.5000         1.1057       834.2256        48.6982       61.13722          1.164       -35.4813       1.644447      0.5986642              1
      2279.0000          1.107       838.3252        49.2648       61.94641         1.1397       -35.1669       1.958847      0.6158811              1
      2279.5000         1.1174       843.2832        50.2281       63.33064         1.1298       -35.0142       2.111549      0.6453328              1
      2280.0000         1.1315       848.2393        50.8201       64.17667         1.1258       -35.2759       1.849846      0.6633333              1
      2280.5000         1.1505       855.5723        50.7346       64.04061         1.1218       -35.6048       1.520947      0.6604385              1
      2281.0000         1.1549        863.127        51.0603       64.50061         1.1194       -35.9341       1.191647      0.6702257              1
      2281.5000         1.1414        875.917         51.774       65.52306         1.1182       -36.2633      0.8624458      0.6919799              1
      2282.0000         1.1272       888.7861        52.4877       66.54546          1.117       -36.7085      0.4172478      0.7137333              1
      2282.5000         1.0921       907.9062        53.3624       67.80126         1.1157       -37.1857    -0.05995178      0.7404524              1
      2283.0000          1.051       933.3867        54.2866       69.12882         1.1131       -37.7305     -0.6047516      0.7686983              1
      2283.5000         0.9781       967.1123        54.7141        69.7364         1.1098       -38.5445      -1.418751      0.7816254      0.9908967
      2284.0000         0.9326       993.8086        55.1509       70.35744          1.101       -39.7211      -2.595352      0.7948391      0.9653184
      2284.5000         0.9065       1018.014        55.6733       71.10255         1.0566       -40.3893      -3.263554      0.8106927      0.9507923
      2285.0000         0.8887       1040.096        56.1956       71.84753         1.0067       -40.7472      -3.621452      0.8265431      0.9430119
      2285.5000          0.879       1047.723        57.1234       73.18032         0.9653       -40.9425      -3.816753      0.8549004      0.9387662
      2286.0000         0.8742       1055.354        58.2893       74.85822         0.9429       -41.1378      -4.012051      0.8906005      0.9345207
      2286.5000         0.8724       1061.439        59.7087       76.90359         0.9224       -41.1686       -4.04285       0.934119      0.9338511
      2287.0000         0.8728       1061.238        61.6183       79.65955         0.9183       -41.1859      -4.060154      0.9927563      0.9334749
      2287.5000         0.9508       1057.053        61.8383       79.96632         0.9148       -41.1954      -4.069653      0.9992833      0.9332684
      2288.0000         0.9658       1039.709        60.3088       77.73711         0.9196       -41.0301      -3.904354      0.9518535      0.9368619
      2288.5000         0.9857       1019.743        59.1777       76.08541         0.9293       -40.8647      -3.738953      0.9167109      0.9404575
      2289.0000         1.0115       999.7764        57.8964         74.216         0.9408       -40.6993      -3.573551      0.8769361      0.9440532
      2289.5000         1.0445       979.8164        56.4495       72.10653         0.9573       -40.4189      -3.293152      0.8320538      0.9501489
