#------------------------------------------------------------------------------
# Created by    : vladimir.rabinovich
# Created on    : 09/19/2023 17:20:49
#------------------------------------------------------------------------------
~Version Information Section
VERS.           2.0     :   CWLS log ASCII Standard - VERSION 2.0
WRAP.           NO      :   One line per depth step
~Well Information Section
#MNEM       .UNIT                                         VALUE :DESCRIPTION
#------------------------------------------------------------------------------
STRT        .FT                                             507 :START DEPTH
STOP        .FT                                            6530 :STOP DEPTH
STEP        .FT                                             0.5 :STEP      
NULL        .                                           -999.25 :NULL      
COMP        .                                      SHELL OIL CO :COMPANY   
WELL        .                                ST TR 00692-L SE/4 :WELL      
FLD         .                                           WILDCAT :FIELD     
LOC         .                                                   :LOCATION  
CNTY        .                      MATAGORDA ISLAND LARGE BLOCK :LOCATION  
STAT        .                                             TEXAS :STATE     
CTRY        .                                     UNITED STATES :COUNTRY   
SRVC        .                                                   :SERVICE COMPANY
DATE        .                             9/13/2023 11:12:05 AM :LOG DATE  
API         .                                    42703000180000 :API NUMBER
UWI         .                                    42703000180000 :UNIQUE WELL ID
XCOORD      .                                  399042.886430441 :SURFACE X 
YCOORD      .                                  10159669.4462586 :SURFACE Y 
LAT         .                                        27.9430215 :LATITUDE  
LON         .                                       -96.8445442 :LONGITUDE 
ELEV        .FT                                              84 :ELEVATION VALUE
ELEV_TYPE   .                                                DF :ELEVATION REFERENCE TYPE
~Curve Information Section
#MNEM       .UNIT                                      API CODE :CURVE DESCRIPTION
#------------------------------------------------------------------------------
DEPT        .FT                                                 :DEPTH     
ASN         .OHMM                                               :          
CILD        .MMHO                                               :          
ILD         .OHMM                                               :          
SP          .MV                                                 :          
SP_NORM     .MV                                                 :SP Normalized
VSH_SP      .V/V                                                :Volume of Shale from SP
~A        DEPTH            ASN           CILD            ILD             SP        SP_NORM         VSH_SP
# ...
      1305.0000         0.7017       1294.527         0.7517       -45.8912        -0.6109              1
      1305.5000         0.7083       1269.043         0.7501       -46.0576          -0.78              1
      1306.0000         0.7097       1243.559         0.7486       -46.2238        -0.9489              1
      1306.5000         0.7111       1218.074         0.7471       -46.3741        -1.1018              1
      1307.0000         0.7125       1192.584         0.7455       -46.5052        -1.2356              1
      1307.5000         0.7106       1169.953         0.7305       -46.6363        -1.3694              1
      1308.0000         0.7072       1147.889         0.7145       -46.7673        -1.5031              1
      1308.5000         0.7037       1151.398         0.6985       -46.8914        -1.6298              1
      1309.0000         0.6973       1188.012         0.6826       -46.9446        -1.6857              1
      1309.5000         0.6897       1212.123         0.6725       -46.8052         -1.549              1
      1310.0000          0.682       1226.676         0.6635       -46.6249        -1.3714              1
      1310.5000         0.6799       1249.445         0.6545       -46.4445        -1.1937              1
      1311.0000         0.6782       1277.783         0.6482       -46.2642         -1.016              1
      1311.5000         0.6766       1300.791         0.6612       -46.4261        -1.1806              1
      1312.0000         0.6749       1290.254         0.6746        -46.808        -1.5652              1
      1312.5000         0.6732       1267.307         0.6926       -47.1183        -1.8782              1
      1313.0000         0.6715       1246.258         0.7105       -47.4285         -2.191              1
      1313.5000         0.6699       1225.201         0.7285       -47.7387        -2.5039              1
      1314.0000         0.6694       1204.152         0.7464       -48.0577        -2.8256              1
      1314.5000         0.6708       1183.102         0.7644       -48.3772        -3.1478        0.98522
      1315.0000         0.6722       1154.709         0.7823       -48.6878        -3.4611        0.95389
      1315.5000         0.6736        1124.48         0.7718       -48.9405        -3.7164        0.92836
      1316.0000          0.675       1103.424         0.7599        -49.065        -3.8436        0.91564
      1316.5000         0.6764       1082.598          0.748       -49.1896        -3.9709        0.90291
      1317.0000         0.6759       1058.174         0.7276        -49.314         -4.098         0.8902
      1317.5000         0.6689       1023.234         0.7054       -49.4386        -4.2252        0.87748
      1318.0000         0.6618       978.8184         0.6832       -49.5631        -4.3524        0.86476
      1318.5000          0.657       1428.318         0.6675       -49.6577        -4.4497        0.85503
      1319.0000         0.6533       1463.742         0.6569       -49.6882        -4.4829        0.85171
      1319.5000         0.6496       1488.318         0.6463       -49.7186        -4.5159        0.84841
      1320.0000          0.646       1497.113         0.6356       -49.7491        -4.5491        0.84509
      1320.5000         0.6423       1495.291         0.6279       -49.7744        -4.5771        0.84229
      1321.0000         0.6391       1490.371         0.6289       -49.7956         -4.601         0.8399
      1321.5000         0.6371       1485.449         0.6299       -49.7436        -4.5517        0.84483
      1322.0000          0.635       1480.529         0.6309       -49.6697        -4.4804        0.85196
      1322.5000          0.633       1473.037          0.632       -49.5958        -4.4092        0.85908
      1323.0000         0.6309       1452.277          0.633       -49.5219         -4.338         0.8662
      1323.5000         0.6289       1431.512          0.634       -49.4271        -4.2459        0.87541
      1324.0000         0.6269       1410.746          0.635       -49.3054        -4.1268        0.88732
      1324.5000         0.6274        1389.98         0.6413        -49.197        -4.0211        0.89789
      1325.0000         0.6324       1361.771         0.6483       -49.1034        -3.9302        0.90698
      1325.5000         0.6374       1333.381         0.6554       -49.0097        -3.8392        0.91608
      1326.0000         0.6425       1315.557         0.6624       -48.9643        -3.7965        0.92035
      1326.5000         0.6475        1297.73         0.6712       -48.9233        -3.7581        0.92419
      1327.0000         0.6557       1273.619          0.685       -48.8823        -3.7198        0.92802
      1327.5000         0.6641       1234.807         0.6989       -48.9742        -3.8144        0.91856
      1328.0000         0.6724       1198.086         0.7128       -49.0726        -3.9155        0.90845
      1328.5000         0.6805       1161.373         0.7254       -49.0212        -3.8667        0.91333
      1329.0000         0.6884       1138.648         0.7318        -48.856        -3.7042        0.92958
      1329.5000         0.6963       1113.615         0.7383       -48.6907        -3.5416        0.94584
      1330.0000         0.7042       1084.795         0.7447       -48.5255        -3.3791        0.96209
      1330.5000          0.712       1056.285         0.7511       -48.3602        -3.2164        0.97836
      1331.0000         0.7161       1027.773         0.7566       -48.2453        -3.1042        0.98958
      1331.5000         0.7193         1023.5         0.7568       -48.2609        -3.1225        0.98775
      1332.0000         0.7225       1051.189          0.757       -48.2766        -3.1409        0.98591
      1332.5000         0.7256       1078.873         0.7572       -48.2922        -3.1592        0.98408
      1333.0000         0.7288       1102.992         0.7575       -48.3078        -3.1774        0.98226
      1333.5000         0.7329        1117.68         0.7577       -48.3426        -3.2149        0.97851
      1334.0000         0.7373       1128.908         0.7579       -48.3947        -3.2697        0.97303
      1334.5000         0.7417       1136.441         0.7581       -48.4468        -3.3245        0.96755
      1335.0000         0.7461        1143.98         0.7583       -48.5025        -3.3828        0.96172
      1335.5000         0.7504       1149.916         0.7585       -48.5612        -3.4442        0.95558
      1336.0000         0.7558       1138.906         0.7555       -48.5519        -3.4376        0.95624
      1336.5000         0.7644       1127.893         0.7477       -48.4899        -3.3783        0.96217
      1337.0000         0.7729       1116.879         0.7398       -48.4279         -3.319         0.9681
      1337.5000         0.7583       1124.078          0.732        -48.366        -3.2597        0.97403
      1338.0000         0.7397       1135.271         0.7245       -48.3026         -3.199         0.9801
      1338.5000         0.7221       1147.379         0.7221       -48.1919         -3.091         0.9909
      1339.0000         0.7126       1162.232         0.7196       -48.0813        -2.9831              1
      1339.5000         0.7031       1177.084         0.7171       -48.0273        -2.9317              1
      1340.0000         0.6937       1203.707         0.7146       -47.9896        -2.8967              1
      1340.5000         0.6864        1239.24          0.717       -48.0285        -2.9383              1
      1341.0000         0.6792       1273.404         0.7197       -48.0703        -2.9828              1
      1341.5000         0.6721       1288.893         0.7225       -48.1356        -3.0508        0.99492
      1342.0000         0.6719       1304.379         0.7253       -48.2779        -3.1957        0.98043
      1342.5000         0.6719       1297.406          0.728        -48.582        -3.5025        0.94975
