#------------------------------------------------------------------------------
# Created by    : vladimir.rabinovich
# Created on    : 09/19/2023 17:21:34
#------------------------------------------------------------------------------
~Version Information Section
VERS.           2.0     :   CWLS log ASCII Standard - VERSION 2.0
WRAP.           NO      :   One line per depth step
~Well Information Section
#MNEM       .UNIT                                         VALUE :DESCRIPTION
#------------------------------------------------------------------------------
STRT        .FT                                            4500 :START DEPTH
STOP        .FT                                            8225 :STOP DEPTH
STEP        .FT                                             0.5 :STEP      
NULL        .                                           -999.25 :NULL      
COMP        .                             WALTER OIL & GAS CORP :COMPANY   
WELL        .                               OCS G08132 ST00BP00 :WELL      
FLD         .                              GALVESTON BLOCK 0385 :FIELD     
LOC         .                                                   :LOCATION  
CNTY        .                             GALVESTON LARGE BLOCK :LOCATION  
STAT        .                                             TEXAS :STATE     
CTRY        .                                     UNITED STATES :COUNTRY   
SRVC        .                                                   :SERVICE COMPANY
DATE        .                             9/13/2023 11:19:34 AM :LOG DATE  
API         .                                    42706402490000 :API NUMBER
UWI         .                                    42706402490000 :UNIQUE WELL ID
XCOORD      .                                  1009947.10754335 :SURFACE X 
YCOORD      .                                  10405011.8756564 :SURFACE Y 
LAT         .                                         28.657556 :LATITUDE  
LON         .                                        -94.966279 :LONGITUDE 
ELEV        .FT                                             101 :ELEVATION VALUE
ELEV_TYPE   .                                                KB :ELEVATION REFERENCE TYPE
~Curve Information Section
#MNEM       .UNIT                                      API CODE :CURVE DESCRIPTION
#------------------------------------------------------------------------------
DEPT        .FT                                                 :DEPTH     
CALI        .IN                                                 :          
DPHI        .%                                                  :          
DRHO        .G/C3                                               :          
GR          .GAPI                                               :          
GR_NORM     .GAPI                                               :GammaRay Normalized
ILD         .OHMM                                               :          
ILM         .OHMM                                               :          
NPHI        .%                                                  :          
SFL         .OHMM                                               :          
SP          .MV                                                 :          
SP_NORM     .MV                                                 :SP Normalized
VSH_GR      .V/V                                                :Volume of Shale from GR
VSH_SP      .V/V                                                :Volume of Shale from SP
~A        DEPTH           CALI           DPHI           DRHO             GR        GR_NORM            ILD            ILM           NPHI            SFL             SP        SP_NORM         VSH_GR         VSH_SP
# ...
      6533.0000         9.9182        20.5473        -0.0147        64.2847       56.68545         0.5964         0.6308        34.4186          0.715       -81.5507      -19.20035      0.5039458      0.6799942
      6533.5000         9.9106        20.6349        -0.0153        64.2709       56.67107         0.5827          0.619        35.4197         0.6586       -82.0154      -19.75051      0.5036399      0.6708248
      6534.0000          9.903        20.7616         -0.016         65.802       58.26598         0.5524         0.6039           35.9         0.6266       -81.7943      -19.50056      0.5375739      0.6749906
      6534.5000         9.8955         21.098        -0.0167        66.4485       58.93941         0.5133         0.5848        35.9019         0.6352       -81.0791      -18.67418      0.5519025      0.6887637
      6535.0000         9.8879        21.4853        -0.0173        64.3761       56.78066          0.479         0.5619        35.6798         0.6657       -81.2069      -18.83129      0.5059716      0.6861452
      6535.5000         9.8774        21.8858        -0.0179        62.4303       54.75379         0.4478         0.5321        35.3629         0.6866       -83.0125      -20.94583      0.4628465      0.6509029
      6536.0000         9.8639        23.0575        -0.0186        60.8917       53.15108         0.4262         0.5023        35.0848         0.7001       -86.1729      -24.64097      0.4287464      0.5893171
      6536.5000         9.8503        25.0791        -0.0194        59.8223       52.03712         0.4116         0.4787        34.8568         0.6992       -89.1443      -28.11562      0.4050451      0.5314063
      6537.0000         9.8383        26.1809        -0.0204        59.2446       51.43535         0.4011         0.4623        34.7795         0.6896       -91.8286      -31.25531      0.3922414      0.4790781
      6537.5000         9.8328        26.3667        -0.0213        59.9069       52.12524         0.3992          0.454        34.8707         0.6704       -93.9817      -33.77527      0.4069201      0.4370788
      6538.0000         9.8273        24.8971        -0.0218        61.5545        53.8415         0.3973         0.4484        35.2418         0.6539       -95.5417      -35.60329      0.4434361      0.4066118
      6538.5000         9.8292        24.0736        -0.0205        64.2733       56.67358         0.3988         0.4465         35.699         0.6454       -95.2345       -35.2529      0.5036932      0.4124517
      6539.0000         9.8535         23.743        -0.0192        66.1284       58.60598         0.4047         0.4552        36.2267         0.6616       -93.2867      -32.98847       0.544808      0.4501921
      6539.5000         9.8777        23.4362        -0.0176         65.688       58.14723         0.4142         0.4722        36.6448         0.6736       -90.4789      -29.72072      0.5350474      0.5046547
      6540.0000         9.9162        22.2423        -0.0146        65.1705       57.60817         0.4499         0.4937        36.9177          0.667       -88.4417        -27.352       0.523578      0.5441333
      6540.5000         9.9719        21.2675        -0.0116        64.4895       56.89879         0.4877         0.5204        37.1677         0.6571       -86.4674      -25.05666      0.5084848      0.5823891
      6541.0000        10.0271        19.6627        -0.0091        65.4586       57.90827         0.5248         0.5471        37.3373         0.6562       -83.8459      -22.00625      0.5299631      0.6332291
      6541.5000        10.0815        18.9055        -0.0069         70.235       62.88368         0.5565         0.5732        38.2454         0.6699       -79.8219       -17.3196       0.635823      0.7113401
      6542.0000        10.1063        19.2969        -0.0046          76.61       69.52431         0.5858         0.5972        39.6259         0.6792       -75.1129      -11.83377      0.7771129      0.8027704
      6542.5000        10.1104        19.8035        -0.0036        78.5483       71.54337         0.6053         0.6146        39.6439         0.6842       -71.1392      -7.205799      0.8200718      0.8799034
      6543.0000        10.0615        20.2957        -0.0025        78.6222       71.62035         0.6201         0.6306        38.5299         0.6893       -67.8303      -3.353428      0.8217095      0.9441096
      6543.5000        10.0126        20.0259        -0.0013        78.4558       71.44702          0.632           0.64        37.0411         0.7004       -66.5391       -1.85504      0.8180217      0.9690827
      6544.0000         9.9777         19.712              0         78.516       71.50972         0.6348         0.6459        36.0761         0.7098       -66.0483      -1.290452      0.8193557      0.9784924
      6544.5000         9.9435        19.3421         0.0014        78.7162       71.71827         0.6376         0.6452        37.1404          0.706       -66.1598      -1.428542       0.823793       0.976191
      6545.0000          9.914        19.4697         0.0024        79.6985        72.7415         0.6374         0.6385         38.181            0.7       -66.1289      -1.400495      0.8455638      0.9766584
      6545.5000          9.916        19.7643         0.0025        80.7122       73.79743         0.6341         0.6325        38.5886         0.6903       -66.0703      -1.340137      0.8680305      0.9776644
      6546.0000         9.9181        20.0406         0.0026        81.6682       74.79327         0.6308         0.6301        38.9958         0.6806       -66.0825      -1.362381      0.8892184      0.9772937
      6546.5000         9.9201        20.3048         0.0023        82.6105       75.77483         0.6281         0.6277        39.0312         0.6842       -66.2933      -1.616325      0.9101027      0.9730613
      6547.0000         9.9226        20.5694         0.0013        83.0908       76.27514         0.6261         0.6263        39.0331         0.6886       -66.4426      -1.798519      0.9207476      0.9700247
      6547.5000         9.9258        20.6475         0.0002        83.1824       76.37056         0.6241         0.6257        38.9063         0.7023       -66.6212      -2.014901      0.9227779      0.9664183
      6548.0000          9.929        20.5913         0.0008        82.7238       75.89285         0.6221         0.6254        38.6229         0.7198       -66.9426      -2.397874      0.9126139      0.9600354
      6548.5000         9.9323        20.0406         0.0025        82.5212       75.68181         0.6199          0.627        38.3403          0.713       -67.3839      -2.920743      0.9081236      0.9513209
      6549.0000         9.9327        19.4843         0.0046        82.4492       75.60681         0.6174         0.6288        38.0587         0.7017       -67.8511      -3.473813      0.9065279      0.9421031
      6549.5000         9.9324        19.0135         0.0089        81.7264        74.8539         0.6009         0.6316        37.9046         0.6955       -68.0947      -3.766032      0.8905085      0.9372328
      6550.0000         9.9322        18.7983         0.0132        80.4691        73.5442         0.5841         0.6337        38.0557         0.6964       -68.1531      -3.842171      0.8626426      0.9359638
      6550.5000         9.9322         18.726          0.015        79.4141       72.44524         0.5624         0.6316        38.5111         0.6995       -68.2766       -3.99427      0.8392605      0.9334288
      6551.0000         9.9365        19.0098         0.0157        78.2013       71.18192         0.5409          0.614         39.662         0.6925       -68.8048      -4.618513      0.8123811      0.9230248
      6551.5000         9.9409        19.4625         0.0108        76.1489         69.044         0.5072         0.5781        40.7805         0.6822       -69.7505      -5.729842      0.7668936      0.9045026
