#------------------------------------------------------------------------------
# Created by    : vladimir.rabinovich
# Created on    : 09/19/2023 17:22:54
#------------------------------------------------------------------------------
~Version Information Section
VERS.           2.0     :   CWLS log ASCII Standard - VERSION 2.0
WRAP.           NO      :   One line per depth step
~Well Information Section
#MNEM       .UNIT                                         VALUE :DESCRIPTION
#------------------------------------------------------------------------------
STRT        .FT                                             606 :START DEPTH
STOP        .FT                                           12703 :STOP DEPTH
STEP        .FT                                             0.5 :STEP      
NULL        .                                           -999.25 :NULL      
COMP        .                                       PURE OIL CO :COMPANY   
WELL        .                                OCS 00099 ST00BP00 :WELL      
FLD         .                                           WILDCAT :FIELD     
LOC         .                                                   :LOCATION  
CNTY        .                             GALVESTON LARGE BLOCK :LOCATION  
STAT        .                                             TEXAS :STATE     
CTRY        .                                     UNITED STATES :COUNTRY   
SRVC        .                                                   :SERVICE COMPANY
DATE        .                             9/13/2023 11:19:42 AM :LOG DATE  
API         .                                    42706000130000 :API NUMBER
UWI         .                                    42706000130000 :UNIQUE WELL ID
XCOORD      .                                  1105531.03723184 :SURFACE X 
YCOORD      .                                  10576678.2721464 :SURFACE Y 
LAT         .                                         29.133654 :LATITUDE  
LON         .                                        -94.675857 :LONGITUDE 
ELEV        .FT                                              66 :ELEVATION VALUE
ELEV_TYPE   .                                                KB :ELEVATION REFERENCE TYPE
~Curve Information Section
#MNEM       .UNIT                                      API CODE :CURVE DESCRIPTION
#------------------------------------------------------------------------------
DEPT        .FT                                                 :DEPTH     
LAT         .OHMM                                               :          
LN          .OHMM                                               :          
SN          .OHMM                                               :          
SP          .MV                                                 :          
SP_NORM     .MV                                                 :SP Normalized
VSH_SP      .V/V                                                :Volume of Shale from SP
~A        DEPTH            LAT             LN             SN             SP        SP_NORM         VSH_SP
# ...
      7826.0000          0.829         0.7198          0.841       -76.1909      -24.97139       0.385349
      7826.5000         0.8963         0.7132         0.8973       -72.4733      -21.25378      0.4806722
      7827.0000         0.9636         0.7066         0.9536       -72.7299      -21.51038      0.4740927
      7827.5000         1.0307            0.7         1.0098       -72.9862      -21.76669      0.4675209
      7828.0000          1.098         0.6934         1.0261       -73.2428      -22.02328      0.4609414
      7828.5000         1.0432         0.6868         0.9867       -73.4994      -22.27988      0.4543619
      7829.0000         0.9672         0.6713         0.9473       -74.2423      -23.02279      0.4353131
      7829.5000         0.8912         0.6506         0.9079       -75.3517      -24.13219       0.406867
      7830.0000         0.8153         0.6298         0.8686       -76.4609      -25.24139       0.378426
      7830.5000         0.7393         0.6091         0.8292       -77.5703      -26.35078      0.3499799
      7831.0000         0.6633         0.5884         0.7898       -78.6797      -27.46019      0.3215336
      7831.5000         0.5873         0.5676         0.7504       -79.7902      -28.57069      0.2930593
      7832.0000         0.5228         0.5469          0.711       -80.8995      -29.67999      0.2646158
      7832.5000         0.4854         0.5262         0.6717       -82.0044      -30.78489      0.2362849
      7833.0000          0.448         0.5055         0.6322       -83.0364      -31.81689      0.2098234
      7833.5000         0.4166         0.4847         0.5929       -84.0685      -32.84898      0.1833594
      7834.0000         0.4083          0.464         0.5775       -84.2219      -33.00239       0.179426
      7834.5000         0.3999          0.453         0.5762       -83.6566      -32.43709      0.1939208
      7835.0000         0.3916         0.4512         0.5749       -83.0919      -31.87239      0.2084002
      7835.5000         0.3832         0.4494         0.5736       -82.5271      -31.30759      0.2228824
      7836.0000         0.3566         0.4477         0.5723       -83.7278      -32.50829      0.1920952
      7836.5000         0.3218         0.4459          0.571       -85.5005      -34.28099      0.1466413
      7837.0000          0.287         0.4441         0.5697       -87.2732      -36.05369      0.1011875
      7837.5000         0.2522         0.4423         0.5684       -89.0482      -37.82869     0.05567463
      7838.0000         0.2174         0.4406         0.5696       -90.8209      -39.60139     0.01022085
      7838.5000         0.1832         0.4388          0.573       -91.9078      -40.68829              0
      7839.0000         0.1552          0.437         0.5763       -92.0422      -40.82269              0
      7839.5000         0.1714         0.4353         0.5797       -90.0231      -38.80359     0.03067721
      7840.0000         0.2274         0.4388          0.583       -88.0061      -36.78659     0.08239511
      7840.5000         0.2833         0.4432         0.5864       -85.9868      -34.76729      0.1341721
      7841.0000         0.3392         0.4475         0.5897       -83.9698      -32.75029        0.18589
      7841.5000         0.3951         0.4519         0.5931       -82.7765      -31.55698      0.2164876
      7842.0000         0.4405         0.4563         0.5964       -81.6357      -30.41618      0.2457389
      7842.5000         0.4472         0.4606         0.5998        -80.495      -29.27549      0.2749874
      7843.0000         0.4539          0.465         0.6031       -79.3363      -28.11679      0.3046977
      7843.5000         0.4607         0.4693         0.6065       -78.1395      -26.91999      0.3353848
      7844.0000         0.4618         0.4737         0.6007       -76.9429      -25.72339       0.366067
      7844.5000         0.4463         0.4781         0.5939       -77.4124      -26.19289      0.3540286
      7845.0000         0.4307         0.4824          0.587         -78.71      -27.49049      0.3207568
      7845.5000         0.4151         0.4868         0.5801       -80.0076      -28.78809       0.287485
      7846.0000         0.3996         0.4898         0.5732       -81.3052      -30.08569      0.2542132
      7846.5000         0.3841          0.492         0.5663       -82.6028      -31.38329      0.2209414
      7847.0000         0.4005         0.4942         0.5595       -83.9026      -32.68309      0.1876131
      7847.5000         0.4403         0.4964         0.5526       -82.3988      -31.17929       0.226172
      7848.0000         0.4802         0.4986         0.5457       -80.6261      -29.40659       0.271626
      7848.5000           0.52         0.5007         0.5388       -78.6427      -27.42319      0.3224824
      7849.0000         0.5656         0.5029         0.5319       -76.0027      -24.78319      0.3901747
      7849.5000         0.6233         0.5051         0.5251       -73.3672      -22.14769      0.4577515
      7850.0000         0.6809         0.5073         0.5226       -70.7271      -19.50758      0.5254466
      7850.5000         0.6535         0.5095         0.5245       -68.3896      -17.17009      0.5853823
      7851.0000         0.6138         0.5117         0.5263       -70.6106      -19.39109      0.5284336
      7851.5000         0.5741         0.5143         0.5282       -72.8292      -21.60969      0.4715465
      7852.0000         0.5344         0.5176         0.5301        -75.048      -23.82848      0.4146543
      7852.5000         0.4948         0.5209         0.5319       -77.2667      -26.04719      0.3577644
      7853.0000          0.455         0.5242         0.5338       -79.7319      -28.51239      0.2945541
      7853.5000         0.4089         0.5274         0.5356       -82.2151      -30.99559      0.2308823
      7854.0000         0.3566         0.5307         0.5375       -84.7026      -33.48309      0.1671004
      7854.5000         0.3043          0.534         0.5394       -87.1903      -35.97079      0.1033132
      7855.0000          0.252         0.5373         0.5765       -89.6735      -38.45399     0.03964135
      7855.5000         0.1983         0.5405         0.6207       -91.9078      -40.68829              0
      7856.0000         0.1336         0.5434         0.6649       -91.0226      -39.80309    0.005049094
      7856.5000         0.1674         0.5464         0.7092        -87.764      -36.54449      0.0886029
      7857.0000         0.2295         0.5493         0.7534       -84.5055      -33.28599      0.1721542
      7857.5000         0.3134         0.5494         0.7976       -81.2468      -30.02729      0.2557105
      7858.0000         0.4053         0.5253         0.8418        -78.329      -27.10949      0.3305259
      7858.5000         0.4974         0.5013         0.9182       -75.4335      -24.21399      0.4047695
      7859.0000         0.5893         0.4772         0.8589       -75.3751      -24.15559       0.406267
      7859.5000         0.6813          0.461         0.7906        -79.324      -28.10448      0.3050132
      7860.0000         0.6624         0.4563         0.7223       -83.2728      -32.05328       0.203762
      7860.5000         0.5984         0.4515          0.654       -87.2217      -36.00219       0.102508
      7861.0000         0.5345         0.4467         0.6539       -88.6067      -37.38718     0.06699528
      7861.5000         0.4706          0.442         0.6766       -88.9899      -37.77039      0.0571696
      7862.0000         0.4067         0.4372         0.6992       -88.8174      -37.59789     0.06159269
      7862.5000         0.3294         0.4325         0.7219       -88.6445      -37.42499     0.06602596
      7863.0000         0.2479         0.4439         0.7158       -88.4719      -37.25239     0.07045159
      7863.5000         0.1666         0.4618         0.7084       -88.2991      -37.07959     0.07488231
