#------------------------------------------------------------------------------
# Created by    : vladimir.rabinovich
# Created on    : 09/19/2023 17:19:45
#------------------------------------------------------------------------------
~Version Information Section
VERS.           2.0     :   CWLS log ASCII Standard - VERSION 2.0
WRAP.           NO      :   One line per depth step
~Well Information Section
#MNEM       .UNIT                                         VALUE :DESCRIPTION
#------------------------------------------------------------------------------
STRT        .FT                                            3127 :START DEPTH
STOP        .FT                                           13892 :STOP DEPTH
STEP        .FT                                             0.5 :STEP      
NULL        .                                           -999.25 :NULL      
COMP        .                                       MONSANTO CO :COMPANY   
WELL        .                                     ST TR 00010-L :WELL      
FLD         .                                           WILDCAT :FIELD     
LOC         .                                                   :LOCATION  
CNTY        .                           HIGH ISLAND LARGE BLOCK :LOCATION  
STAT        .                                             TEXAS :STATE     
CTRY        .                                     UNITED STATES :COUNTRY   
SRVC        .                                                   :SERVICE COMPANY
DATE        .                             9/13/2023 11:19:15 AM :LOG DATE  
API         .                                    42708300750000 :API NUMBER
UWI         .                                    42708300750000 :UNIQUE WELL ID
XCOORD      .                                  1327265.43976741 :SURFACE X 
YCOORD      .                                  10725214.5969587 :SURFACE Y 
LAT         .                                        29.5491158 :LATITUDE  
LON         .                                       -93.9851741 :LONGITUDE 
ELEV        .FT                                              54 :ELEVATION VALUE
ELEV_TYPE   .                                                KB :ELEVATION REFERENCE TYPE
~Curve Information Section
#MNEM       .UNIT                                      API CODE :CURVE DESCRIPTION
#------------------------------------------------------------------------------
DEPT        .FT                                                 :DEPTH     
ASFL        .OHMM                                               :          
CILD        .MMHO                                               :          
ILD         .OHMM                                               :          
SP          .MV                                                 :          
SP_NORM     .MV                                                 :SP Normalized
VSH_SP      .V/V                                                :Volume of Shale from SP
~A        DEPTH           ASFL           CILD            ILD             SP        SP_NORM         VSH_SP
# ...
      4571.0000         0.7533       2227.949        -999.25       -63.6065      -19.45657       0.780279
      4571.5000         0.7676       2144.559        -999.25       -59.0143      -14.87053      0.8348746
      4572.0000         0.7818       1995.217        -999.25       -52.9687      -8.831093      0.9067727
      4572.5000         0.7959       1911.082        -999.25       -49.4173      -5.285854      0.9489779
      4573.0000          0.794       1807.381        -999.25          -47.1      -2.974712      0.9764915
      4573.5000         0.7922       1678.051        -999.25       -42.0528       2.066322              1
      4574.0000         0.7882       1600.313        -999.25       -38.9048        5.20816              1
      4574.5000         0.7816       1583.736        -999.25       -36.5262       7.580597              1
      4575.0000          0.775        1567.16        -999.25       -36.0938       8.006836              1
      4575.5000         0.7684       1550.584        -999.25       -36.6888        7.40567              1
      4576.0000         0.7618       1532.816        -999.25       -37.3745        6.71381              1
      4576.5000         0.7565       1512.949        -999.25       -38.0598       6.022346              1
      4577.0000         0.7582       1493.084        -999.25       -38.7454       5.330585              1
      4577.5000         0.7598       1473.217        -999.25       -39.4307       4.639126              1
      4578.0000         0.7646       1453.352        -999.25       -40.1887       3.874958              1
      4578.5000         0.7702       1437.148        -999.25       -40.9978         3.0597              1
      4579.0000         0.7758       1421.217        -999.25       -41.8065       2.244835              1
      4579.5000         0.7814       1414.879        -999.25       -42.6155       1.429672              1
      4580.0000          0.787       1421.783        -999.25       -43.4247      0.6143074              1
      4580.5000         0.7926       1448.844        -999.25        -44.195     -0.1621513              1
      4581.0000         0.7982       1479.936        -999.25       -44.2304     -0.2037125              1
      4581.5000         0.8037       1511.025        -999.25       -44.2658     -0.2406425              1
      4582.0000         0.8093       1563.225        -999.25       -44.3012     -0.2760429              1
      4582.5000         0.8122       1651.381        -999.25       -44.0871    -0.06194305              1
      4583.0000         0.8149       1719.869        -999.25       -43.7753      0.2498589              1
      4583.5000         0.8175       1776.488        -999.25       -43.4636      0.5615578              1
      4584.0000         0.8078       1819.549        -999.25       -43.1519      0.8732567              1
      4584.5000         0.7981       1861.789        -999.25       -42.8401       1.185059              1
      4585.0000         0.7884       1889.578        -999.25       -42.5283       1.496857              1
      4585.5000         0.7796       1915.379        -999.25       -42.2871       1.738056              1
      4586.0000         0.7825       1912.125        -999.25       -42.0807       1.944458              1
      4586.5000         0.7854       1903.863        -999.25       -41.8743        2.15086              1
      4587.0000         0.7883       1895.594        -999.25        -41.668       2.357159              1
      4587.5000         0.7911       1889.336        -999.25       -42.2297        1.79546              1
      4588.0000         0.7965       1883.801        -999.25       -43.1406      0.8845596              1
      4588.5000         0.8064       1917.391        -999.25       -44.1445     -0.1193428              1
      4589.0000         0.8163       1951.982        -999.25       -45.1475      -1.122341      0.9985436
      4589.5000         0.8261       1986.551        -999.25       -47.1608      -3.135643      0.9745757
      4590.0000          0.836       2043.342        -999.25       -49.8483      -5.823143      0.9425817
      4590.5000         0.8458       2102.543        -999.25       -52.3093      -8.284142       0.913284
      4591.0000         0.8557       2161.695        -999.25       -54.7076      -10.68244      0.8847328
      4591.5000         0.8652       2227.352        -999.25       -60.8969      -16.87174      0.8110507
      4592.0000         0.8708       2510.148        -999.25       -72.1259      -28.10074      0.6773721
      4592.5000         0.8765       2650.754        -999.25       -81.5646      -37.53944      0.5650067
      4593.0000         0.8821       2699.375        -999.25       -85.0442      -41.01904      0.5235829
      4593.5000         0.8878       2741.691        -999.25       -86.7793      -42.75414      0.5029269
      4594.0000         0.8934       2782.441        -999.25       -88.6545      -44.62934       0.480603
      4594.5000         0.8991       2816.539        -999.25       -90.7821      -46.75694      0.4552745
      4595.0000         0.9047       2848.324        -999.25       -92.9427      -48.91755       0.429553
      4595.5000         0.9079       2847.504        -999.25        -95.319      -51.29384      0.4012638
      4596.0000         0.9095       2799.801        -999.25       -97.3066      -53.28144      0.3776019
      4596.5000         0.9111       2683.582        -999.25       -92.8876      -48.86245       0.430209
      4597.0000         0.9128       2545.016        -999.25        -91.645      -47.61984      0.4450019
      4597.5000         0.9144        2430.09        -999.25       -90.4017      -46.37654       0.459803
      4598.0000          0.916        2353.43        -999.25       -88.4335      -44.40834       0.483234
      4598.5000         0.9077       2317.223        -999.25        -86.026      -42.00084      0.5118947
      4599.0000         0.8957       2281.043        -999.25       -81.3176      -37.29244      0.5679471
      4599.5000         0.8838       2244.836        -999.25       -77.6888      -33.66364      0.6111472
      4600.0000         0.8719       2208.652        -999.25       -74.3843      -30.35914      0.6504864
      4600.5000         0.8599       2191.195        -999.25       -71.0814      -27.05624      0.6898066
      4601.0000         0.8507       2265.398        -999.25       -67.7787      -23.75354      0.7291245
      4601.5000         0.8416        2564.98        -999.25       -64.4741      -20.44894       0.768465
      4602.0000         0.8326       2749.539        -999.25       -62.0951      -18.06994      0.7967864
      4602.5000         0.8236       3070.578        -999.25       -69.2965      -25.27134      0.7110555
      4603.0000         0.8149       3356.254        -999.25       -78.8972      -34.87204      0.5967614
      4603.5000         0.8062       3641.934        -999.25       -88.4979      -44.47274      0.4824673
      4604.0000         0.7974       3927.809        -999.25       -98.0986      -54.07344      0.3681733
      4604.5000         0.7887       4213.484        -999.25       -88.3433      -44.31814      0.4843078
      4605.0000           0.78       4499.156        -999.25       -77.1362      -33.11104      0.6177257
      4605.5000         0.7683       4497.969        -999.25       -65.9366      -21.91144      0.7510543
      4606.0000         0.7472       4047.402        -999.25       -54.7297      -10.70454      0.8844697
      4606.5000         0.7351       3597.234        -999.25         -47.45      -3.424843      0.9711328
      4607.0000          0.742       3146.664        -999.25       -45.7609      -1.735741      0.9912412
      4607.5000          0.749       2696.098        -999.25       -44.0698     -0.0446434              1
      4608.0000         0.7542       2245.531        -999.25       -43.1848      0.8403587              1
      4608.5000         0.7582       1794.965        -999.25       -42.6772       1.347958              1
