#------------------------------------------------------------------------------
# Created by    : vladimir.rabinovich
# Created on    : 09/19/2023 17:20:34
#------------------------------------------------------------------------------
~Version Information Section
VERS.           2.0     :   CWLS log ASCII Standard - VERSION 2.0
WRAP.           NO      :   One line per depth step
~Well Information Section
#MNEM       .UNIT                                         VALUE :DESCRIPTION
#------------------------------------------------------------------------------
STRT        .FT                                             500 :START DEPTH
STOP        .FT                                            9234 :STOP DEPTH
STEP        .FT                                             0.5 :STEP      
NULL        .                                           -999.25 :NULL      
COMP        .                                      SHELL OIL CO :COMPANY   
WELL        .                                OCS 00713 ST00BP00 :WELL      
FLD         .                                           WILDCAT :FIELD     
LOC         .                                                   :LOCATION  
CNTY        .                             GALVESTON LARGE BLOCK :LOCATION  
STAT        .                                             TEXAS :STATE     
CTRY        .                                     UNITED STATES :COUNTRY   
SRVC        .                                                   :SERVICE COMPANY
DATE        .                             9/13/2023 11:19:25 AM :LOG DATE  
API         .                                    42706000510000 :API NUMBER
UWI         .                                    42706000510000 :UNIQUE WELL ID
XCOORD      .                                  1104646.85179908 :SURFACE X 
YCOORD      .                                   10481381.387581 :SURFACE Y 
LAT         .                                         28.871549 :LATITUDE  
LON         .                                        -94.674396 :LONGITUDE 
ELEV        .FT                                              82 :ELEVATION VALUE
ELEV_TYPE   .                                                KB :ELEVATION REFERENCE TYPE
~Curve Information Section
#MNEM       .UNIT                                      API CODE :CURVE DESCRIPTION
#------------------------------------------------------------------------------
DEPT        .FT                                                 :DEPTH     
ASN         .OHMM                                               :          
ASN_1       .OHMM                                               :          
GR_NORM     .                                                   :GammaRay Normalized
ILD         .OHMM                                               :          
LAT         .OHMM                                               :          
LN          .OHMM                                               :          
SP          .MV                                                 :          
SP_1        .MV                                                 :          
SP_NORM     .MV                                                 :SP Normalized
VSH_SP      .V/V                                                :Volume of Shale from SP
~A        DEPTH            ASN          ASN_1        GR_NORM            ILD            LAT             LN             SP           SP_1        SP_NORM         VSH_SP
# ...
      9222.0000         1.4894        -999.25        -999.25         0.8866        -999.25        -999.25       -48.1896        -999.25      -9.165211      0.8333672
      9222.5000         1.4046        -999.25        -999.25         0.8531        -999.25        -999.25       -66.4465        -999.25      -27.42211      0.4087881
      9223.0000         1.3663        -999.25        -999.25         0.8218        -999.25        -999.25       -68.6102        -999.25      -29.58581      0.3584696
      9223.5000         1.3707        -999.25        -999.25         0.7947        -999.25        -999.25       -69.2632        -999.25      -30.23881      0.3432835
      9224.0000         1.3843        -999.25        -999.25         0.7754        -999.25        -999.25       -68.7595        -999.25      -29.73511      0.3549975
      9224.5000         1.3982        -999.25        -999.25         0.7562        -999.25        -999.25       -67.7333        -999.25      -28.70891      0.3788626
      9225.0000         1.3649        -999.25        -999.25         0.7445        -999.25        -999.25       -69.6488        -999.25      -30.62441       0.334316
      9225.5000         1.3249        -999.25        -999.25         0.7418        -999.25        -999.25       -74.7778        -999.25      -35.75341       0.215037
      9226.0000         1.2954        -999.25        -999.25         0.7392        -999.25        -999.25       -71.7238        -999.25      -32.69941      0.2860602
      9226.5000         1.4016        -999.25        -999.25         0.7365        -999.25        -999.25       -67.0394        -999.25      -28.01501      0.3949998
      9227.0000         1.4507        -999.25        -999.25         0.7364        -999.25        -999.25        -65.198        -999.25      -26.17361      0.4378231
      9227.5000         1.4936        -999.25        -999.25         0.7367        -999.25        -999.25       -64.2515        -999.25      -25.22711      0.4598346
      9228.0000         1.5253        -999.25        -999.25          0.737        -999.25        -999.25       -65.6628        -999.25      -26.63841      0.4270137
      9228.5000         1.5475        -999.25        -999.25         0.7373        -999.25        -999.25       -69.7656        -999.25      -30.74121      0.3315997
      9229.0000         1.5818        -999.25        -999.25         0.7376        -999.25        -999.25       -74.0435        -999.25      -35.01911      0.2321137
      9229.5000          1.847        -999.25        -999.25         0.7378        -999.25        -999.25       -75.0383        -999.25      -36.01391      0.2089789
      9230.0000         1.8738        -999.25        -999.25         0.7381        -999.25        -999.25       -71.8989        -999.25      -32.87451      0.2819881
      9230.5000         1.8823        -999.25        -999.25         0.7384        -999.25        -999.25       -59.4896        -999.25      -20.46521      0.5705765
      9231.0000         1.8958        -999.25        -999.25         0.7387        -999.25        -999.25       -57.8548        -999.25      -18.83041      0.6085951
      9231.5000         1.9114        -999.25        -999.25         0.7389        -999.25        -999.25       -59.1152        -999.25      -20.09081      0.5792835
      9232.0000         1.9304        -999.25        -999.25         0.7392        -999.25        -999.25        -59.303        -999.25      -20.27861      0.5749161
      9232.5000         1.9164        -999.25        -999.25         0.7399        -999.25        -999.25       -59.4905        -999.25      -20.46611      0.5705556
      9233.0000         1.8995        -999.25        -999.25         0.7412        -999.25        -999.25       -60.2576        -999.25      -21.23321      0.5527161
      9233.5000         1.8864        -999.25        -999.25         0.7425        -999.25        -999.25       -61.0189        -999.25      -21.99451      0.5350114
      9234.0000         1.8821        -999.25        -999.25         0.7438        -999.25        -999.25       -60.3171        -999.25      -21.29271      0.5513324
