#------------------------------------------------------------------------------
# Created by    : vladimir.rabinovich
# Created on    : 09/19/2023 17:19:46
#------------------------------------------------------------------------------
~Version Information Section
VERS.           2.0     :   CWLS log ASCII Standard - VERSION 2.0
WRAP.           NO      :   One line per depth step
~Well Information Section
#MNEM       .UNIT                                         VALUE :DESCRIPTION
#------------------------------------------------------------------------------
STRT        .FT                                            3460 :START DEPTH
STOP        .FT                                           13634 :STOP DEPTH
STEP        .FT                                             0.5 :STEP      
NULL        .                                           -999.25 :NULL      
COMP        .                                SHELL OFFSHORE INC :COMPANY   
WELL        .                               OCS G06107 ST00BP00 :WELL      
FLD         .                                           WILDCAT :FIELD     
LOC         .                                                   :LOCATION  
CNTY        .                             GALVESTON LARGE BLOCK :LOCATION  
STAT        .                                             TEXAS :STATE     
CTRY        .                                     UNITED STATES :COUNTRY   
SRVC        .                                                   :SERVICE COMPANY
DATE        .                             9/13/2023 11:19:27 AM :LOG DATE  
API         .                                    42706401270000 :API NUMBER
UWI         .                                    42706401270000 :UNIQUE WELL ID
XCOORD      .                                  941908.785460496 :SURFACE X 
YCOORD      .                                  10441108.8632451 :SURFACE Y 
LAT         .                                         28.753553 :LATITUDE  
LON         .                                        -95.180411 :LONGITUDE 
ELEV        .FT                                              90 :ELEVATION VALUE
ELEV_TYPE   .                                                KB :ELEVATION REFERENCE TYPE
~Curve Information Section
#MNEM       .UNIT                                      API CODE :CURVE DESCRIPTION
#------------------------------------------------------------------------------
DEPT        .FT                                                 :DEPTH     
ASFL        .OHMM                                               :          
CALI        .IN                                                 :          
CILD        .MMHO                                               :          
DT          .US/F                                               :          
GR          .GAPI                                               :          
GR_1        .GAPI                                               :          
GR_NORM     .GAPI                                               :GammaRay Normalized
ILD         .OHMM                                               :          
ILM         .OHMM                                               :          
RHOB        .G/C3                                               :          
SP          .MV                                                 :          
VSH_GR      .V/V                                                :Volume of Shale from GR
~A        DEPTH           ASFL           CALI           CILD             DT             GR           GR_1        GR_NORM            ILD            ILM           RHOB             SP         VSH_GR
# ...
      7580.5000        -999.25        10.8573       2657.848       131.8647        -999.25        35.3132       74.57277         0.3737         0.3953         2.2936        -999.25       0.884527
      7581.0000        -999.25        10.8596       2704.141       132.5205        -999.25        36.1265       75.89391          0.368         0.3881         2.2914        -999.25      0.9126365
      7581.5000        -999.25        10.8695       2740.313       133.8689        -999.25         36.826       77.03021         0.3632         0.3804         2.2889        -999.25      0.9368131
      7582.0000        -999.25        10.8761       2771.848       134.7488        -999.25        37.2828       77.77224         0.3596         0.3722         2.2858        -999.25      0.9526008
      7582.5000        -999.25         10.888       2804.172       135.9546        -999.25        38.3791       79.55312         0.3558         0.3664         2.2822        -999.25      0.9904918
      7583.0000        -999.25        10.8961       2839.707        136.365        -999.25        40.2458       82.58544          0.352         0.3627          2.279        -999.25              1
      7583.5000        -999.25         10.901       2876.027       136.2329        -999.25        42.2557       85.85038         0.3473         0.3608         2.2812        -999.25              1
      7584.0000        -999.25        10.8933        2904.75       136.0471        -999.25        42.8937       86.88677         0.3415         0.3593         2.2848        -999.25              1
      7584.5000        -999.25        10.8866       2934.066       135.8738        -999.25         40.978       83.77484         0.3384         0.3572         2.2866        -999.25              1
      7585.0000        -999.25        10.8979       2966.785       136.1025        -999.25        39.9865       82.16422         0.3346         0.3549         2.2845        -999.25              1
      7585.5000        -999.25        10.9032       3004.488         136.55        -999.25        39.1877       80.86662         0.3304         0.3529         2.2813        -999.25              1
      7586.0000        -999.25        10.9303       3042.293       137.2842        -999.25        39.9725       82.14149         0.3257         0.3502         2.2758        -999.25              1
      7586.5000        -999.25        10.9485       3074.766       138.3352        -999.25        41.1096       83.98863         0.3219         0.3474         2.2693        -999.25              1
      7587.0000        -999.25        10.9612       3106.422       139.1731        -999.25        41.5789       84.75098         0.3187         0.3445         2.2643        -999.25              1
      7587.5000        -999.25        10.9734       3129.074       139.4722        -999.25        41.4501       84.54175         0.3169         0.3416         2.2608        -999.25              1
      7588.0000        -999.25        10.9807       3140.219       139.1211        -999.25        40.6407       83.22692         0.3156         0.3386         2.2625        -999.25              1
      7588.5000        -999.25        10.9803       3138.898        138.637        -999.25        40.2465       82.58657          0.316          0.336          2.266        -999.25              1
      7589.0000        -999.25        10.9874       3126.879       138.4485        -999.25        39.9047       82.03134         0.3178         0.3336         2.2698        -999.25              1
      7589.5000        -999.25        10.9899        3108.52       138.6746        -999.25        39.4748         81.333         0.3212          0.334         2.2729        -999.25              1
      7590.0000        -999.25        10.9929       3080.488       139.3804        -999.25        38.7509       80.15707         0.3251         0.3355         2.2754        -999.25              1
      7590.5000        -999.25        10.9954       3047.227       139.9602        -999.25        37.8961       78.76852         0.3284         0.3373         2.2767        -999.25      0.9737982
      7591.0000        -999.25         10.996       3005.031       139.6321        -999.25        37.9022       78.77843         0.3311         0.3391         2.2772        -999.25      0.9740091
      7591.5000        -999.25        11.0297       2958.445       138.6733        -999.25        38.2283       79.30815         0.3339          0.343         2.2752        -999.25      0.9852798
      7592.0000        -999.25        11.0497       2929.203       138.0132        -999.25         39.078       80.68842         0.3385         0.3459         2.2709        -999.25              1
      7592.5000        -999.25        11.0695       2911.785       137.5667        -999.25        40.6765       83.28507         0.3429         0.3481         2.2719        -999.25              1
      7593.0000        -999.25        11.1769       2894.793       136.7832        -999.25        41.0228       83.84761         0.3445         0.3498         2.2761        -999.25              1
      7593.5000        -999.25        11.3096       2889.891       136.0535        -999.25        40.8167       83.51282         0.3445         0.3508         2.2852        -999.25              1
      7594.0000        -999.25         11.309        2891.82       136.2559        -999.25        40.6624       83.26217         0.3431         0.3508         2.2875        -999.25              1
      7594.5000        -999.25        11.1948        2899.41       137.1213        -999.25        41.1415       84.04044         0.3409         0.3515         2.2756        -999.25              1
      7595.0000        -999.25        11.0415        2907.02       138.1873        -999.25        41.5214       84.65757         0.3392         0.3503         2.2642        -999.25              1
      7595.5000        -999.25        11.0795       2917.879       138.4343        -999.25        40.8541       83.57358         0.3384         0.3496         2.2636        -999.25              1
      7596.0000        -999.25        11.1933       2933.102       138.1606        -999.25        38.8276       80.28167         0.3378         0.3488         2.2807        -999.25              1
      7596.5000        -999.25        11.2416       2946.219       138.2285        -999.25        36.0933       75.83998         0.3369         0.3461         2.2882        -999.25       0.911489
      7597.0000        -999.25        11.1817       2957.422       138.8022        -999.25        35.9489       75.60541         0.3365         0.3451         2.2914        -999.25       0.906498
      7597.5000        -999.25        11.1165       2966.773       139.3147        -999.25         37.486       78.10233         0.3355         0.3451          2.276        -999.25      0.9596241
      7598.0000        -999.25        11.0526       2974.027       138.9768        -999.25        39.1368       80.78394         0.3338         0.3458         2.2593        -999.25              1
      7598.5000        -999.25        11.0991       2977.559       137.8306        -999.25        41.1173       84.00111         0.3334         0.3468           2.25        -999.25              1
      7599.0000        -999.25        11.2166       2973.141       136.5686        -999.25        41.9368       85.33234         0.3342         0.3486         2.2656        -999.25              1
      7599.5000        -999.25        11.2355       2960.223       135.9663        -999.25        41.9769       85.39748         0.3359         0.3506          2.287        -999.25              1
      7600.0000        -999.25        11.1508       2939.469       135.7881        -999.25        41.6329        84.8387         0.3385         0.3526         2.2993        -999.25              1
      7600.5000        -999.25        11.0473       2913.336       135.9033        -999.25        40.3174       82.70174         0.3425         0.3556         2.2877        -999.25              1
