#------------------------------------------------------------------------------
# Created by    : vladimir.rabinovich
# Created on    : 09/19/2023 17:22:50
#------------------------------------------------------------------------------
~Version Information Section
VERS.           2.0     :   CWLS log ASCII Standard - VERSION 2.0
WRAP.           NO      :   One line per depth step
~Well Information Section
#MNEM       .UNIT                                         VALUE :DESCRIPTION
#------------------------------------------------------------------------------
STRT        .FT                                            2472 :START DEPTH
STOP        .FT                                            8382 :STOP DEPTH
STEP        .FT                                             0.5 :STEP      
NULL        .                                           -999.25 :NULL      
COMP        .                                 EPL OIL & GAS LLC :COMPANY   
WELL        .                               OCS G07215 ST00BP00 :WELL      
FLD         .                                 BRAZOS BLOCK 0376 :FIELD     
LOC         .                                                   :LOCATION  
CNTY        .                                BRAZOS LARGE BLOCK :LOCATION  
STAT        .                                             TEXAS :STATE     
CTRY        .                                     UNITED STATES :COUNTRY   
SRVC        .                                                   :SERVICE COMPANY
DATE        .                             9/13/2023 11:19:08 AM :LOG DATE  
API         .                                    42704402290000 :API NUMBER
UWI         .                                    42704402290000 :UNIQUE WELL ID
XCOORD      .                                  871225.230552878 :SURFACE X 
YCOORD      .                                  10399792.7272756 :SURFACE Y 
LAT         .                                         28.636239 :LATITUDE  
LON         .                                        -95.398308 :LONGITUDE 
ELEV        .FT                                              95 :ELEVATION VALUE
ELEV_TYPE   .                                                KB :ELEVATION REFERENCE TYPE
~Curve Information Section
#MNEM       .UNIT                                      API CODE :CURVE DESCRIPTION
#------------------------------------------------------------------------------
DEPT        .FT                                                 :DEPTH     
DT          .US/F                                               :          
GR          .GAPI                                               :          
GR_NORM     .GAPI                                               :GammaRay Normalized
ILD         .OHMM                                               :          
ILM         .OHMM                                               :          
SFL         .OHMM                                               :          
SP          .MV                                                 :          
SP_NORM     .MV                                                 :SP Normalized
VSH_GR      .V/V                                                :Volume of Shale from GR
VSH_SP      .V/V                                                :Volume of Shale from SP
~A        DEPTH             DT             GR        GR_NORM            ILD            ILM            SFL             SP        SP_NORM         VSH_GR         VSH_SP
# ...
      2888.5000        97.6478        43.1282       55.04047         0.7386         0.8521          1.863       -88.6885      -28.14494      0.4689462      0.3379284
      2889.0000       106.3042        40.1632       49.95417         0.7637         0.9073         1.7088       -90.6687       -30.1449       0.360727      0.2891488
      2889.5000       120.9034        37.7755       45.85702         0.7861         0.9368         1.4368       -92.7528      -32.24875      0.2735536      0.2378353
      2890.0000       130.2983        36.1382       43.04559         0.7733         0.9669         1.3197       -94.4833      -33.99901       0.213736      0.1951461
      2890.5000       136.8896        35.2948       41.59447         0.7215         0.9522         1.4743       -95.3468      -34.88227      0.1828612      0.1736031
      2891.0000       138.6133        35.4919       41.92616         0.6771          0.899         1.4515        -95.799      -35.35423      0.1899183      0.1620919
      2891.5000       138.0024        36.0016       42.79344         0.6409         0.8439         1.2134       -96.0403      -35.61529      0.2083711      0.1557247
      2892.0000       136.3804        36.3834        43.4416         0.6063         0.7662         0.9186       -95.9585      -35.55325      0.2221616      0.1572377
      2892.5000       139.3098        36.4141       43.48817         0.5752         0.6573         0.7171       -95.2721      -34.88661      0.2231526      0.1734973
      2893.0000        138.811        35.8893       42.58293         0.5417         0.5981         0.6967       -94.4688      -34.10307      0.2038921      0.1926081
      2893.5000       138.7268        35.7789       42.38773         0.5128         0.5693         0.7089        -93.625      -33.27903       0.199739      0.2127067
      2894.0000       141.6526        36.6688       43.90647         0.4956         0.5563         0.7312       -92.8064      -32.48018      0.2320525      0.2321907
      2894.5000       143.4199        38.3801       46.83259          0.486         0.5496         0.7659       -92.0442      -31.73774      0.2943105      0.2502989
      2895.0000       145.5012         40.462       50.39374         0.4819          0.548            0.8       -91.3015       -31.0148      0.3700795      0.2679317
      2895.5000       149.8979        42.7924       54.38064         0.4865         0.5533         0.8304       -90.4359      -30.16896      0.4549073      0.2885619
      2896.0000       152.1926        44.3848       57.10305         0.4985         0.5668         0.8656       -89.7762      -29.52902      0.5128308      0.3041702
      2896.5000       152.3333        45.4592       58.93792         0.5135          0.588         0.9139       -89.4384      -29.21098      0.5518705      0.3119273
      2897.0000       149.6653        46.4528       60.63432         0.5262          0.616         0.9696       -89.4586      -29.25094      0.5879642      0.3109526
      2897.5000        130.958        46.9067         61.406         0.5336         0.6421         1.0115       -89.9343       -29.7464      0.6043831      0.2988682
      2898.0000        120.205        46.7849       61.19128         0.5339         0.6611         1.0068       -90.3038      -30.13566      0.5998145      0.2893741
      2898.5000       118.3522        46.0328       59.89658         0.5264         0.6414         0.9263       -90.2517      -30.10332      0.5722677       0.290163
      2899.0000       123.5128        44.5551       57.35865         0.5143         0.6047          0.844        -90.274      -30.14538      0.5182691      0.2891371
      2899.5000       142.0842        42.4356       53.72102         0.5009         0.5788         0.7695       -89.9753      -29.86644      0.4408728      0.2959405
      2900.0000       153.9841        42.8915       54.49612         0.4916          0.558         0.6974       -89.6412      -29.55209      0.4573642      0.3036076
      2900.5000        152.863        45.0988       58.27211         0.4898         0.5408         0.6624       -89.6439      -29.57455      0.5377045      0.3030597
      2901.0000       146.1682        47.4077       62.22219         0.4916         0.5324         0.6472       -90.0858      -30.03621      0.6217487      0.2917997
      2901.5000       134.5615        48.5007       64.08892         0.4969           0.54         0.6516       -91.3158      -31.28598      0.6614664      0.2613176
      2902.0000       125.9622        46.0573        59.8963         0.5069         0.5683         0.7456       -93.3433      -33.33323      0.5722618      0.2113847
      2902.5000       118.5122        44.1909       56.69238         0.5175         0.6109         1.3712       -96.0405      -36.05019      0.5040932      0.1451174
      2903.0000       111.3097         43.717       55.87436         0.5267          0.656          1.708       -98.2848      -38.31425      0.4866886     0.08989641
      2903.5000       108.4335        43.4347       55.38462          0.531         0.6834         1.5403       -99.8109       -39.8601      0.4762686     0.05219259
      2904.0000       114.7679        40.8539        50.9566         0.5325         0.6648         1.2304      -100.6403      -40.70926      0.3820554     0.03148139
      2904.5000       124.3374        38.6514       47.17678          0.531         0.6225         1.0263      -100.6881      -40.77683      0.3016335     0.02983345
      2905.0000       129.1392        37.4934        45.1866         0.5222         0.5932         0.8858      -100.1975      -40.30599      0.2592894     0.04131736
      2905.5000       132.0503        37.6571       45.46107         0.5105         0.5719         0.7844       -99.2761      -39.40434      0.2651291     0.06330872
      2906.0000       133.3054         38.851       47.50067         0.5023         0.5593         0.7898       -98.7083       -38.8563      0.3085249      0.0766756
      2906.5000       134.7239        38.4429        46.7954         0.4958          0.565          0.882       -99.0751      -39.24287      0.2935192     0.06724716
      2907.0000       134.3152        36.4418       43.36064         0.4906         0.5821         0.9803       -99.8833      -40.07082      0.2204392     0.04705317
      2907.5000       138.3328        34.3743       39.81212         0.4867          0.597         1.0456      -100.5085      -40.71578      0.1449387     0.03132248
      2908.0000       143.0107        34.4017       39.85304         0.4853         0.6041         1.0375      -100.7191      -40.94614      0.1458094      0.0257039
      2908.5000       144.0168         35.503       41.73399         0.4874         0.5972         1.0004       -99.6724       -39.9192      0.1858295      0.0507512
      2909.0000       141.6538        36.3668         43.208          0.491         0.5853         0.9837       -98.2383      -38.50485      0.2171915      0.0852475
      2909.5000       138.6394        36.9252       44.15874         0.4959         0.5722         0.9774       -96.9297      -37.21602        0.23742      0.1166825
      2910.0000       129.1367        37.2943       44.78514         0.5033         0.5595         0.9755       -95.9464      -36.25248      0.2507476      0.1401834
      2910.5000       124.3799        37.4613       45.06524          0.525         0.5645         0.9652       -94.3984      -34.72423      0.2567071      0.1774578
      2911.0000        121.089        37.6159       45.32409         0.5466         0.5782         0.9424       -91.4586       -31.8042      0.2622147      0.2486782
      2911.5000       119.9309        38.4632       46.76984         0.5649         0.5961           0.83       -88.6251      -28.99045      0.2929753       0.317306
      2912.0000       121.9122        40.3974        50.0779         0.5783         0.6174         0.7038       -82.8792      -23.26432      0.3633595      0.4569679
      2912.5000       126.2969        43.1258       54.74674         0.5903         0.6366         0.6603       -77.7775      -18.18237      0.4626966      0.5809179
