#------------------------------------------------------------------------------
# Created by    : vladimir.rabinovich
# Created on    : 09/19/2023 17:20:37
#------------------------------------------------------------------------------
~Version Information Section
VERS.           2.0     :   CWLS log ASCII Standard - VERSION 2.0
WRAP.           NO      :   One line per depth step
~Well Information Section
#MNEM       .UNIT                                         VALUE :DESCRIPTION
#------------------------------------------------------------------------------
STRT        .FT                                             582 :START DEPTH
STOP        .FT                                            8015 :STOP DEPTH
STEP        .FT                                             0.5 :STEP      
NULL        .                                           -999.25 :NULL      
COMP        .                                CONTINENTAL OIL CO :COMPANY   
WELL        .                                OCS 00719 ST00BP00 :WELL      
FLD         .                                           WILDCAT :FIELD     
LOC         .                                                   :LOCATION  
CNTY        .                             GALVESTON LARGE BLOCK :LOCATION  
STAT        .                                             TEXAS :STATE     
CTRY        .                                     UNITED STATES :COUNTRY   
SRVC        .                                                   :SERVICE COMPANY
DATE        .                             9/13/2023 11:19:25 AM :LOG DATE  
API         .                                    42706000350000 :API NUMBER
UWI         .                                    42706000350000 :UNIQUE WELL ID
XCOORD      .                                  1010979.62119212 :SURFACE X 
YCOORD      .                                  10432235.4027546 :SURFACE Y 
LAT         .                                          28.73246 :LATITUDE  
LON         .                                        -94.964458 :LONGITUDE 
ELEV        .FT                                              63 :ELEVATION VALUE
ELEV_TYPE   .                                                KB :ELEVATION REFERENCE TYPE
~Curve Information Section
#MNEM       .UNIT                                      API CODE :CURVE DESCRIPTION
#------------------------------------------------------------------------------
DEPT        .FT                                                 :DEPTH     
ASN         .OHMM                                               :          
DT          .US/F                                               :          
LN          .OHMM                                               :          
SP          .MV                                                 :          
SP_NORM     .MV                                                 :SP Normalized
VSH_SP      .V/V                                                :Volume of Shale from SP
~A        DEPTH            ASN             DT             LN             SP        SP_NORM         VSH_SP
# ...
      2558.0000         0.7536       162.3469         0.7887       -51.9544      -4.418229      0.9219926
      2558.5000         0.7512       175.3909         0.7877       -50.0927      -1.614082              1
      2559.0000         0.7488        -999.25         0.7868       -49.7851      -1.153027              1
      2559.5000         0.7529        -999.25         0.7859       -49.4775     -0.6919842              1
      2560.0000         0.7575        -999.25          0.785       -49.2156     -0.2998314              1
      2560.5000         0.7622        -999.25          0.784       -48.9709     0.06637679              1
      2561.0000         0.7668        -999.25         0.7846       -48.7263       0.432447              1
      2561.5000         0.7715        -999.25          0.787       -48.6047      0.6130694              1
      2562.0000         0.7761        -999.25         0.7894       -49.5535      -0.820154              1
      2562.5000         0.7778        -999.25         0.7918       -50.2403      -1.858349              1
      2563.0000         0.7795        -999.25         0.7942       -50.4366       -2.15703      0.9949345
      2563.5000         0.7813        -999.25         0.7966       -50.6327      -2.455406      0.9853095
      2564.0000          0.783        -999.25          0.799       -50.8054      -2.718504      0.9768224
      2564.5000         0.7847        -999.25         0.8014       -50.7019      -2.565172      0.9817687
      2565.0000         0.7894        -999.25         0.8038       -50.4218      -2.145585      0.9953038
      2565.5000         0.7949        -999.25         0.8062       -50.2433       -1.87918              1
      2566.0000         0.8004        -999.25         0.8115       -50.1115      -1.683179              1
      2566.5000         0.8059        -999.25         0.8171       -49.9797      -1.487183              1
      2567.0000         0.8122        -999.25         0.8228        -49.848      -1.291337              1
      2567.5000         0.8203        -999.25         0.8284       -50.0972      -1.669772              1
      2568.0000         0.8284        -999.25          0.834        -50.438       -2.18631        0.99399
      2568.5000         0.8344        -999.25         0.8397       -50.8118      -2.752604      0.9757225
      2569.0000         0.8374        -999.25         0.8453       -51.2148      -3.362924      0.9560347
      2569.5000         0.8371        -999.25         0.8513       -51.5336      -3.846294      0.9404421
      2570.0000          0.836        -999.25         0.8574       -51.7571      -4.185977      0.9294846
      2570.5000         0.8348        -999.25         0.8635       -51.0176      -3.073756      0.9653627
      2571.0000         0.8354        -999.25         0.8697       -50.3922      -2.133564      0.9956915
      2571.5000         0.8371        -999.25         0.8758       -49.7668      -1.193367              1
      2572.0000         0.8388        -999.25         0.8819       -49.3862     -0.6222601              1
      2572.5000         0.8405        -999.25         0.8864       -49.0732     -0.1530675              1
      2573.0000         0.8376        -999.25         0.8903       -48.7678      0.3046626              1
      2573.5000         0.8323        -999.25         0.8941       -48.6084      0.5422755              1
      2574.0000         0.8273        -999.25          0.898       -48.4489      0.7800322              1
      2574.5000         0.8223        -999.25         0.9019       -50.1852      -1.840491              1
      2575.0000         0.8173        -999.25         0.9057       -50.4396      -2.226766       0.992685
      2575.5000         0.8123        -999.25          0.905       -50.6643       -2.56826       0.981669
      2576.0000         0.8074        -999.25         0.9041       -50.7273      -2.665959      0.9785175
      2576.5000         0.8028        -999.25         0.9031       -50.7169      -2.653001      0.9789354
      2577.0000         0.7993        -999.25         0.8969       -50.6847      -2.607168      0.9804139
      2577.5000         0.7957        -999.25         0.8891       -50.6525      -2.561341      0.9818922
      2578.0000         0.7922        -999.25         0.8814       -50.7083      -2.648187      0.9790908
      2578.5000         0.7887        -999.25         0.8736       -50.9667      -3.040495      0.9664356
      2579.0000         0.7851        -999.25         0.8658       -51.5127      -3.866406      0.9397933
      2579.5000         0.7832        -999.25         0.8591        -52.105      -4.762133      0.9108989
      2580.0000         0.7896        -999.25         0.8542       -51.5507      -3.929137      0.9377698
      2580.5000          0.796        -999.25         0.8494       -51.2096      -3.417574      0.9542718
      2581.0000          0.803        -999.25         0.8445       -50.8934      -2.943561      0.9695625
      2581.5000         0.8111        -999.25         0.8397       -50.5773      -2.469699      0.9848484
      2582.0000         0.8193        -999.25           0.84       -50.2739      -2.014982      0.9995167
      2582.5000         0.8275        -999.25         0.8485       -50.0742      -1.716612              1
      2583.0000         0.8332        -999.25          0.857       -49.8746      -1.418396              1
      2583.5000         0.8389        -999.25         0.8631        -49.675      -1.120175              1
      2584.0000         0.8445        -999.25         0.8655       -50.3784      -2.183406      0.9940837
      2584.5000         0.8488        -999.25         0.8679       -50.9338      -3.023494      0.9669841
      2585.0000          0.847        -999.25         0.8703       -51.4021      -3.732261      0.9441206
      2585.5000         0.8365        -999.25         0.8727       -51.2429      -3.494959      0.9517756
      2586.0000         0.8288        -999.25         0.8751       -50.4825       -2.35122      0.9886703
      2586.5000         0.8211        -999.25         0.8775       -49.9693      -1.580194              1
      2587.0000         0.8134        -999.25         0.8799       -49.7203      -1.207493              1
      2587.5000         0.8119        -999.25         0.8809        -49.513     -0.8976711              1
      2588.0000         0.8179        -999.25         0.8801       -49.4785     -0.8483703              1
      2588.5000         0.8239        -999.25         0.8792       -49.5992       -1.03307              1
      2589.0000         0.8281        -999.25         0.8783       -49.8294      -1.382853              1
      2589.5000         0.8296        -999.25         0.8775       -50.0596      -1.732641              1
      2590.0000         0.8226        -999.25         0.8766       -50.2897      -2.082279      0.9973458
      2590.5000         0.8123        -999.25         0.8757       -50.5043      -2.408544      0.9868212
      2591.0000         0.8041        -999.25         0.8748       -50.6331      -2.605454      0.9804692
      2591.5000         0.7959        -999.25          0.874       -50.4725      -2.366035      0.9881924
      2592.0000         0.7902        -999.25         0.8731       -50.1094      -1.821316              1
      2592.5000         0.7904        -999.25         0.8724       -49.7712      -1.314124              1
      2593.0000         0.7905        -999.25         0.8747       -49.4619     -0.8505155              1
      2593.5000         0.7907        -999.25         0.8771       -49.1526     -0.3869017              1
      2594.0000         0.7907        -999.25         0.8795       -48.8602     0.05123338              1
      2594.5000         0.7906        -999.25         0.8818       -48.7169      0.2645639              1
      2595.0000         0.7913       195.8401         0.8842       -48.5736      0.4779002              1
      2595.5000         0.7982       159.6394         0.8865       -48.4302      0.6914723              1
