#------------------------------------------------------------------------------
# Created by    : vladimir.rabinovich
# Created on    : 09/19/2023 17:20:28
#------------------------------------------------------------------------------
~Version Information Section
VERS.           2.0     :   CWLS log ASCII Standard - VERSION 2.0
WRAP.           NO      :   One line per depth step
~Well Information Section
#MNEM       .UNIT                                         VALUE :DESCRIPTION
#------------------------------------------------------------------------------
STRT        .FT                                            2653 :START DEPTH
STOP        .FT                                           10423 :STOP DEPTH
STEP        .FT                                             0.5 :STEP      
NULL        .                                           -999.25 :NULL      
COMP        .                                       MONSANTO CO :COMPANY   
WELL        .                                     ST TR 00150-L :WELL      
FLD         .                                           WILDCAT :FIELD     
LOC         .                                                   :LOCATION  
CNTY        .                             GALVESTON LARGE BLOCK :LOCATION  
STAT        .                                             TEXAS :STATE     
CTRY        .                                     UNITED STATES :COUNTRY   
SRVC        .                                                   :SERVICE COMPANY
DATE        .                             9/13/2023 11:19:24 AM :LOG DATE  
API         .                                    42706300340000 :API NUMBER
UWI         .                                    42706300340000 :UNIQUE WELL ID
XCOORD      .                                  1113316.22146511 :SURFACE X 
YCOORD      .                                  10612518.3672968 :SURFACE Y 
LAT         .                                         29.232517 :LATITUDE  
LON         .                                       -94.6530532 :LONGITUDE 
ELEV        .FT                                              81 :ELEVATION VALUE
ELEV_TYPE   .                                                KB :ELEVATION REFERENCE TYPE
~Curve Information Section
#MNEM       .UNIT                                      API CODE :CURVE DESCRIPTION
#------------------------------------------------------------------------------
DEPT        .FT                                                 :DEPTH     
ASN         .OHMM                                               :          
CILD        .MMHO                                               :          
ILD         .OHMM                                               :          
SP          .MV                                                 :          
SP_NORM     .MV                                                 :SP Normalized
VSH_SP      .V/V                                                :Volume of Shale from SP
~A        DEPTH            ASN           CILD            ILD             SP        SP_NORM         VSH_SP
# ...
     10367.0000         0.4741       2248.145         0.4038       -43.3204      -2.417717      0.9636483
     10367.5000         0.4759       2241.813         0.4018       -43.0234      -2.105526      0.9716532
     10368.0000         0.4777       2240.402         0.3997       -42.7263       -1.79324      0.9796605
     10368.5000          0.479       2244.035         0.3977       -42.4293      -1.481049      0.9876654
     10369.0000           0.48       2247.676         0.3957       -42.1323      -1.168861      0.9956702
     10369.5000         0.4799       2251.793         0.3937       -41.8586     -0.8799744              1
     10370.0000         0.4787       2258.875         0.3916       -42.1981      -1.204285      0.9947619
     10370.5000         0.4775        2267.23         0.3899       -42.2202      -1.211197      0.9945847
     10371.0000         0.4747       2277.813         0.3908       -42.2151      -1.190907       0.995105
     10371.5000         0.4713       2288.184         0.3917       -42.3376      -1.298218      0.9923534
     10372.0000         0.4668       2298.656         0.3924       -42.4602      -1.405632      0.9895992
     10372.5000         0.4613        2316.52         0.3913       -42.5828      -1.513042      0.9868451
     10373.0000         0.4558       2336.379         0.3903       -42.7053       -1.62035      0.9840936
     10373.5000         0.4494       2362.352         0.3892       -42.8278      -1.727665      0.9813419
     10374.0000         0.4441        2398.52         0.3882       -42.9503      -1.834972      0.9785904
     10374.5000          0.441       2459.824         0.3871       -43.0723      -1.941788      0.9758516
     10375.0000          0.438       2516.496         0.3861       -43.1845      -2.038799      0.9733641
     10375.5000         0.4349        2559.91          0.386       -43.2966      -2.135708      0.9708793
     10376.0000         0.4326        2597.02          0.386       -43.4086      -2.232521      0.9683969
     10376.5000         0.4306        2626.34         0.3859       -43.5208      -2.329533      0.9659094
     10377.0000         0.4286       2650.684         0.3859       -43.6328      -2.426342      0.9634271
     10377.5000         0.4266       2664.359         0.3858       -43.5925      -2.370853      0.9648499
     10378.0000         0.4252       2669.559         0.3858       -43.5451      -2.308266      0.9664547
     10378.5000         0.4276       2660.996         0.3857       -43.4977      -2.245678      0.9680595
     10379.0000           0.43       2651.914         0.3857       -43.4503      -2.183086      0.9696645
     10379.5000         0.4347       2608.746         0.3856       -43.3751      -2.092697      0.9719821
     10380.0000         0.4395       2561.535         0.3856       -43.2554      -1.957813      0.9754407
     10380.5000         0.4443       2511.813         0.3857       -43.1753      -1.862522      0.9778841
     10381.0000         0.4489       2476.234         0.3879       -43.0593      -1.731331      0.9812479
     10381.5000         0.4514       2441.789           0.39       -42.9305      -1.587345      0.9849399
     10382.0000          0.453       2422.473         0.3921        -42.802      -1.443653      0.9886243
     10382.5000         0.4521       2410.102         0.3942       -42.6735      -1.299969      0.9923085
     10383.0000         0.4512        2412.27         0.3964       -42.5449      -1.156178      0.9959955
     10383.5000         0.4503       2434.445         0.3985       -42.3524     -0.9484901              1
     10384.0000         0.4486       2456.672         0.4006       -42.0609     -0.6418037              1
     10384.5000         0.4461        2475.57         0.4035       -41.9717     -0.5374107              1
     10385.0000         0.4437       2488.332         0.4078       -42.2725     -0.8230209              1
     10385.5000         0.4413       2487.125         0.4121       -42.9373      -1.472637      0.9878811
     10386.0000         0.4388       2453.469         0.4164       -43.7589      -2.279045       0.967204
     10386.5000         0.4477           2424         0.4203       -44.0648      -2.569759      0.9597498
     10387.0000         0.4588       2397.043         0.4226       -43.9172      -2.406967      0.9639239
     10387.5000         0.4699       2371.172         0.4249       -43.8561      -2.330677      0.9658801
     10388.0000         0.4934       2347.762         0.4272       -43.8297      -2.289093      0.9669463
     10388.5000         0.5045       2323.223         0.4294       -43.8204      -2.264603      0.9675743
     10389.0000         0.4974       2302.254         0.4266       -43.9373      -2.366314      0.9649663
     10389.5000         0.4889       2299.148         0.4227       -44.0542      -2.468025      0.9623584
     10390.0000         0.4794       2312.281         0.4187       -44.1712      -2.569836      0.9597478
     10390.5000         0.4698       2325.391         0.4147        -43.789      -2.172451      0.9699371
     10391.0000         0.4646       2356.781         0.4107       -43.3991      -1.767361      0.9803241
     10391.5000         0.4608       2383.711         0.4059       -42.9588      -1.311871      0.9920033
     10392.0000         0.4569       2398.793         0.3991       -42.4957     -0.8335838              1
     10392.5000         0.4534       2410.645         0.3922       -42.5763     -0.8989944              1
     10393.0000           0.45       2422.125         0.3854       -43.0178      -1.325302      0.9916589
     10393.5000         0.4466       2434.543         0.3786       -43.4526      -1.744915      0.9808996
     10394.0000         0.4433       2449.254         0.3717       -43.8868      -2.163925      0.9701558
     10394.5000         0.4399       2485.746          0.368       -44.0728       -2.33474      0.9657759
     10395.0000         0.4365       2545.078         0.3651        -44.201       -2.44775      0.9628782
     10395.5000          0.432       2587.262         0.3622       -44.3293       -2.56086       0.959978
     10396.0000         0.4262       2621.117         0.3594       -44.4575      -2.673874      0.9570802
     10396.5000         0.4204       2660.094         0.3565       -44.5857      -2.786884      0.9541824
     10397.0000         0.4146       2736.973         0.3536       -44.7139      -2.899895      0.9512848
     10397.5000         0.4091       2783.785         0.3507       -44.8591      -3.029907      0.9479511
     10398.0000         0.4054        2811.68         0.3478        -45.094      -3.249619      0.9423175
     10398.5000          0.407       2827.348         0.3449       -45.3289       -3.46933      0.9366838
     10399.0000         0.4086       2822.617          0.342       -45.3517       -3.47694      0.9364887
     10399.5000         0.4101       2793.988         0.3391       -44.7736      -2.883652      0.9517012
     10400.0000         0.4117       2765.305         0.3363        -43.679      -1.773865      0.9801573
     10400.5000         0.4132       2715.289         0.3334       -44.0596      -2.139275      0.9707878
     10401.0000         0.4148       2669.309         0.3305       -44.2997      -2.364185      0.9650209
     10401.5000         0.4163       2636.293         0.3289       -44.1279      -2.177197      0.9698155
     10402.0000         0.4179       2611.703         0.3304       -43.9557      -1.989807      0.9746203
     10402.5000         0.4194       2589.871         0.3318       -43.7838      -1.802719      0.9794174
     10403.0000          0.421        2568.09         0.3333       -43.6119      -1.615631      0.9842146
     10403.5000         0.4226       2554.762         0.3348       -43.5075       -1.49604       0.987281
     10404.0000         0.4212       2546.582         0.3362        -43.415      -1.388355      0.9900422
     10404.5000         0.4195       2540.711         0.3377       -43.3098      -1.267963      0.9931291
