#------------------------------------------------------------------------------
# Created by    : vladimir.rabinovich
# Created on    : 09/19/2023 17:19:47
#------------------------------------------------------------------------------
~Version Information Section
VERS.           2.0     :   CWLS log ASCII Standard - VERSION 2.0
WRAP.           NO      :   One line per depth step
~Well Information Section
#MNEM       .UNIT                                         VALUE :DESCRIPTION
#------------------------------------------------------------------------------
STRT        .FT                                             380 :START DEPTH
STOP        .FT                                            8002 :STOP DEPTH
STEP        .FT                                             0.5 :STEP      
NULL        .                                           -999.25 :NULL      
COMP        .                               AMOCO PRODUCTION CO :COMPANY   
WELL        .                               OCS G07253 ST00BP00 :WELL      
FLD         .                                           WILDCAT :FIELD     
LOC         .                                                   :LOCATION  
CNTY        .                             GALVESTON LARGE BLOCK :LOCATION  
STAT        .                                             TEXAS :STATE     
CTRY        .                                     UNITED STATES :COUNTRY   
SRVC        .                                                   :SERVICE COMPANY
DATE        .                             9/13/2023 11:19:27 AM :LOG DATE  
API         .                                    42706401230000 :API NUMBER
UWI         .                                    42706401230000 :UNIQUE WELL ID
XCOORD      .                                  925879.569593371 :SURFACE X 
YCOORD      .                                  10358786.1357032 :SURFACE Y 
LAT         .                                         28.526408 :LATITUDE  
LON         .                                        -95.225632 :LONGITUDE 
ELEV        .FT                                             100 :ELEVATION VALUE
ELEV_TYPE   .                                                KB :ELEVATION REFERENCE TYPE
~Curve Information Section
#MNEM       .UNIT                                      API CODE :CURVE DESCRIPTION
#------------------------------------------------------------------------------
DEPT        .FT                                                 :DEPTH     
ASFL        .OHMM                                               :          
CILD        .MMHO                                               :          
GR          .GAPI                                               :          
GR_NORM     .GAPI                                               :GammaRay Normalized
ILD         .OHMM                                               :          
SP          .MV                                                 :          
SP_NORM     .MV                                                 :SP Normalized
VSH_GR      .V/V                                                :Volume of Shale from GR
VSH_SP      .V/V                                                :Volume of Shale from SP
~A        DEPTH           ASFL           CILD             GR        GR_NORM            ILD             SP        SP_NORM         VSH_GR         VSH_SP
# ...
       433.0000        -999.25        -999.25        23.3951       63.87604        -999.25        -999.25        -999.25      0.6569371        -999.25
       433.5000        -999.25        -999.25         22.859       63.16084        -999.25        -999.25        -999.25      0.6417199        -999.25
       434.0000        -999.25        -999.25        22.3041       62.42683        -999.25        -999.25        -999.25      0.6261029        -999.25
       434.5000        -999.25        -999.25        21.7493       61.69293        -999.25        -999.25        -999.25      0.6104879        -999.25
       435.0000        -999.25        -999.25        21.1754       60.93993        -999.25        -999.25        -999.25      0.5944666        -999.25
       435.5000        -999.25        -999.25        20.5093       60.09473        -999.25        -999.25        -999.25      0.5764835        -999.25
       436.0000          0.198        25.8428        19.8432       59.24953         1.0027      -159.3672       7.299469      0.5585006              1
       436.5000         0.2742        57.1899        19.1772       58.40442         1.0075      -159.3528       6.834366      0.5405197              1
       437.0000          0.341        118.178        18.7893       57.83742         1.0123       -159.188       3.552017      0.5284557              1
       437.5000         0.4077       233.6467        19.9213       58.79032         1.0209       -158.335      0.9578705      0.5487303              1
       438.0000         0.4744       311.3433        21.0533       59.74322         1.0313      -156.1116     -0.2658691      0.5690047              1
       438.5000         0.5412       438.5977        22.1854       60.69621         1.0416      -153.4956      -1.097015      0.5892811              1
       439.0000         0.8707       1100.387         23.143       61.47471         1.0519      -149.7908     -0.8393555      0.6058449              1
       439.5000         1.0703       1052.449        23.7793       61.93191         1.0544      -143.3533       2.151001      0.6155725              1
       440.0000         1.0711       1018.127        24.4156        62.3891         1.0536      -138.1296       3.927567         0.6253              1
       440.5000         1.0651       991.8232        25.0519       62.84631         1.0528      -135.8447        2.76532      0.6350278              1
       441.0000          1.059       965.1924        25.8051        63.4204          1.052      -134.2495      0.9133759      0.6472425              1
       441.5000          1.053       967.4385        26.7806        64.2168         1.0485      -132.3518     -0.6360779      0.6641872              1
       442.0000          1.047       971.4453        27.2659       64.52299         1.0447      -130.2561      -1.987518       0.670702              1
       442.5000         1.0367       975.3437         26.811       63.88899          1.041      -126.4462      -1.624748      0.6572126              1
       443.0000         1.0264       978.6436        26.3561       63.25499         1.0372      -115.9843       5.427139      0.6437232              1
       443.5000         1.0161       981.9434        25.9012       62.62099         1.0334      -114.0737       6.249168      0.6302338              1
       444.0000         1.0037       985.2422        25.4464       61.98708         1.0297      -112.8605       6.373795      0.6167465              1
       444.5000         0.9909       979.5078        24.9915       61.35308         1.0291      -111.6763       6.469421      0.6032571              1
       445.0000         0.9782       970.9707        24.8741       61.05658         1.0287      -110.5901       6.467049      0.5969485              1
       445.5000         0.9657       962.4336        24.8875       60.89088         1.0283      -109.5034       6.465179      0.5934229              1
       446.0000         0.9595       952.1533        24.9009       60.72517         1.0279       -108.399       6.481003      0.5898973              1
       446.5000         0.9575       941.3516        25.4549       61.10007         1.0274      -107.2947       6.496735      0.5978739              1
       447.0000         0.9589       930.5498        26.0608       61.52687          1.027      -106.3627       6.340164      0.6069547              1
       447.5000         0.9617        919.748        26.6667       61.95367         1.0322      -105.6067       6.007599      0.6160355              1
       448.0000         0.9652       912.3643        27.2727       62.38056         1.0375      -105.3362       5.189529      0.6251183              1
       448.5000         0.9676         905.96        27.9997       62.92846         1.0428      -105.0673        4.36985      0.6367757              1
       449.0000         0.9655       912.9258        28.7774       63.52705         1.0384      -104.8872        3.46138      0.6495118              1
       449.5000         0.9609       923.6172        29.3451       63.91566         1.0314      -104.7072       2.552811      0.6577799              1
       450.0000         0.9503       935.9941         29.704       64.09545         1.0245      -104.5272       1.644241      0.6616054              1
       450.5000         0.9397       948.3887         30.063       64.27535         1.0165      -104.3472       0.735672       0.665433              1
       451.0000         0.9292       960.7832         30.422       64.45525         1.0085      -103.8542      0.1400909      0.6692606              1
       451.5000         0.9172       973.1777        31.2693       65.12344         1.0005      -103.1581     -0.2523727      0.6834775              1
       452.0000         0.9051       979.0625        33.2982       66.97324         0.9925      -102.4619     -0.6447449      0.7228349              1
       452.5000         0.8971        980.749        35.3272       68.82314         0.9898      -101.2947     -0.5661163      0.7621945              1
       453.0000         0.9009       982.4355        37.3563       70.67314           0.99      -100.0112     -0.3711929      0.8015562              1
       453.5000         0.9152        984.123        34.9534       68.09114         0.9903       -99.2286     -0.6771622        0.74662              1
       454.0000         0.9313       983.7354        31.9352       64.89383         0.9906        -98.446     -0.9831314      0.6785921              1
       454.5000         0.9446       982.8916        29.5244       62.30393         0.9908       -97.6635        -1.2892      0.6234879              1
       455.0000         0.9571       982.0488        26.9142       59.51463         0.9909       -97.1658      -1.880074       0.564141              1
       455.5000         0.9703       981.6348        25.6102       58.03152         0.9886       -96.6689      -2.471748      0.5325856      0.9410315
       456.0000         0.9709       994.6201        24.3061       56.54832         0.9862       -96.1721      -3.063515      0.5010282      0.8670607
       456.5000         0.9614       1007.606        23.3069       55.37002         0.9838         -95.72       -3.00972      0.4759579       0.873785
       457.0000         0.9514       1020.591        22.4724       54.35642         0.9815       -95.3381      -2.818794      0.4543919      0.8976507
       457.5000         0.9406       1033.576        21.7337       53.43861          0.977       -94.9563      -2.627975      0.4348641      0.9215031
       458.0000         0.9298       1049.158        21.0489       52.57471         0.9702        -94.649       -2.51165      0.4164833      0.9360437
       458.5000          0.919       1065.205        20.3642       51.71091         0.9635       -94.3624      -2.416023      0.3981045      0.9479971
       459.0000         0.9081       1081.252        19.9055        51.0731         0.9567       -94.5273      -2.771904      0.3845342       0.903512
