#------------------------------------------------------------------------------
# Created by    : vladimir.rabinovich
# Created on    : 09/19/2023 17:20:11
#------------------------------------------------------------------------------
~Version Information Section
VERS.           2.0     :   CWLS log ASCII Standard - VERSION 2.0
WRAP.           NO      :   One line per depth step
~Well Information Section
#MNEM       .UNIT                                         VALUE :DESCRIPTION
#------------------------------------------------------------------------------
STRT        .FT                                             984 :START DEPTH
STOP        .FT                                            6595 :STOP DEPTH
STEP        .FT                                             0.5 :STEP      
NULL        .                                           -999.25 :NULL      
COMP        .                   MCMORAN OFFSHORE EXPLORATION CO :COMPANY   
WELL        .                               OCS G03106 ST00BP00 :WELL      
FLD         .                                           WILDCAT :FIELD     
LOC         .                                                   :LOCATION  
CNTY        .                      MATAGORDA ISLAND LARGE BLOCK :LOCATION  
STAT        .                                             TEXAS :STATE     
CTRY        .                                     UNITED STATES :COUNTRY   
SRVC        .                                                   :SERVICE COMPANY
DATE        .                             9/13/2023 11:12:09 AM :LOG DATE  
API         .                                    42703400570000 :API NUMBER
UWI         .                                    42703400570000 :UNIQUE WELL ID
XCOORD      .                                  467986.403229072 :SURFACE X 
YCOORD      .                                  10153243.7887249 :SURFACE Y 
LAT         .                                         27.931172 :LATITUDE  
LON         .                                        -96.630795 :LONGITUDE 
ELEV        .FT                                              95 :ELEVATION VALUE
ELEV_TYPE   .                                                KB :ELEVATION REFERENCE TYPE
~Curve Information Section
#MNEM       .UNIT                                      API CODE :CURVE DESCRIPTION
#------------------------------------------------------------------------------
DEPT        .FT                                                 :DEPTH     
ASFL        .OHMM                                               :          
CILD        .MMHO                                               :          
DT          .US/F                                               :          
GR          .GAPI                                               :          
GR_NORM     .GAPI                                               :GammaRay Normalized
ILD         .OHMM                                               :          
SFL         .OHMM                                               :          
SP          .MV                                                 :          
SP_NORM     .MV                                                 :SP Normalized
VSH_GR      .V/V                                                :Volume of Shale from GR
VSH_SP      .V/V                                                :Volume of Shale from SP
~A        DEPTH           ASFL           CILD             DT             GR        GR_NORM            ILD            SFL             SP        SP_NORM         VSH_GR         VSH_SP
# ...
      5079.0000         1.1401        1211.43        84.0725        -999.25        -999.25         0.6971          1.129       -49.8677       -11.6485        -999.25      0.8159894
      5079.5000         1.1628       1241.938        84.5449        -999.25        -999.25         0.6651         1.1178       -51.4892       -13.2732        -999.25      0.7814213
      5080.0000         1.1781       1272.471        88.3564        -999.25        -999.25          0.682         1.0364       -53.0251       -14.8123        -999.25      0.7486745
      5080.5000         1.1831       1292.607        91.5171        -999.25        -999.25         0.6991         0.9569        -54.066       -15.8564        -999.25      0.7264596
      5081.0000         1.1884       1273.557        93.7797        -999.25        -999.25          0.717         0.9289       -53.1411       -14.9347        -999.25      0.7460702
      5081.5000         1.1945       1232.861        95.7047        -999.25        -999.25          0.738         0.9211       -52.3542       -14.1511        -999.25      0.7627426
      5082.0000         1.0908       1188.813        97.6514        -999.25        -999.25         0.7588         0.8417       -51.9409        -13.741        -999.25      0.7714681
      5082.5000         0.9857       1136.182        95.4757        -999.25        -999.25         0.7797         0.7125       -51.6708       -13.4741        -999.25      0.7771468
      5083.0000         0.9702       1085.855        84.4823        -999.25        -999.25         0.7892         0.6243       -51.2352       -13.0417        -999.25      0.7863468
      5083.5000         0.9993       1084.832        75.8033        -999.25        -999.25         0.7716         0.6138       -49.7505       -11.5602        -999.25      0.8178681
      5084.0000         0.9242       1135.539        95.7843        -999.25        -999.25         0.7541         0.6533       -48.5821        -10.395        -999.25      0.8426596
      5084.5000         0.8581       1202.969       109.3621        -999.25        -999.25         0.7234         0.7008       -47.6377        -9.4538        -999.25      0.8626851
      5085.0000         0.8026       1264.775       131.6187        -999.25        -999.25         0.6897         0.7295       -47.0963        -8.9156        -999.25      0.8741361
      5085.5000         0.7295        1316.42       138.5474        -999.25        -999.25         0.6559         0.7376       -47.4122        -9.2347        -999.25      0.8673468
      5086.0000         0.6456       1368.016       140.6172        -999.25        -999.25         0.6222         0.7341       -47.7281        -9.5538        -999.25      0.8605574
      5086.5000         0.7295       1417.295       141.2288        -999.25        -999.25         0.5884         0.7186        -48.044         -9.873        -999.25       0.853766
      5087.0000          0.751       1465.832       141.3638        -999.25        -999.25         0.5546         0.6913       -48.3599       -10.1921        -999.25      0.8469766
      5087.5000         0.7485       1509.881       139.9072        -999.25        -999.25         0.5427         0.6644       -48.6755       -10.5109        -999.25      0.8401936
      5088.0000         0.7269       1540.414       134.0583        -999.25        -999.25         0.5319         0.6795       -48.9915       -10.8301        -999.25      0.8334021
      5088.5000         0.7053       1499.373       122.7759        -999.25        -999.25         0.5211         0.9243       -49.3074       -11.1492        -999.25      0.8266128
      5089.0000         0.6825       1458.334       109.8538        -999.25        -999.25         0.5103           1.49        -49.681        -11.526        -999.25      0.8185958
      5089.5000         0.6587       1234.342        89.9211        -999.25        -999.25         0.5274         2.3383       -50.4782       -12.3264        -999.25      0.8015659
      5090.0000         1.0276       1116.746        82.5922        -999.25        -999.25         0.5697         2.6655       -51.2755       -13.1269        -999.25       0.784534
      5090.5000         1.3108       1003.492        77.5994        -999.25        -999.25          0.612         2.3152       -52.2974        -14.152        -999.25      0.7627234
      5091.0000         1.5938       908.9824        78.3563        -999.25        -999.25         0.6543         2.0239       -53.4903       -15.3481        -999.25      0.7372745
      5091.5000         1.8767       847.4229        80.2537        -999.25        -999.25         0.7486         1.9144       -55.5549        -17.416        -999.25      0.6932766
      5092.0000         2.3631       795.8262        79.7185        -999.25        -999.25         0.8636         1.9531       -57.8967        -19.761        -999.25       0.643383
      5092.5000            2.8       749.9033        77.9152        -999.25        -999.25         0.9784         2.1123       -59.5742       -21.4417        -999.25      0.6076234
      5093.0000         2.9013       712.0947        76.5498        -999.25        -999.25         1.1096         2.1687       -60.5912       -22.4619        -999.25       0.585917
      5093.5000         2.6865       675.4697        78.2865        -999.25        -999.25         1.2468          2.149       -61.6547       -23.5286        -999.25      0.5632213
      5094.0000          1.989       641.5322        80.2465        -999.25        -999.25         1.3703         2.0615       -62.8011       -24.6782        -999.25      0.5387617
      5094.5000         2.0052       607.5957        81.8485        -999.25        -999.25         1.4299         1.9502       -63.8158       -25.6961        -999.25      0.5171043
      5095.0000         2.0975       616.4932        83.1732        -999.25        -999.25         1.4283         1.8429       -64.5441       -26.4276        -999.25      0.5015404
      5095.5000         2.2563       625.4824        84.5763        -999.25        -999.25         1.4266         1.7596       -64.0276       -25.9143        -999.25      0.5124617
      5096.0000         2.2773       634.1582        85.3176        -999.25        -999.25         1.4191          1.733       -63.5112       -25.4011        -999.25      0.5233809
      5096.5000         2.1764       642.8398        85.5201        -999.25        -999.25         1.4114         2.0241       -62.9947       -24.8879        -999.25         0.5343
      5097.0000         2.0786       651.5146         82.491        -999.25        -999.25         1.4038         2.4599       -62.4776        -24.374        -999.25       0.545234
      5097.5000          1.981       660.1963        77.2474        -999.25        -999.25         1.4369         2.9969       -61.9124        -23.812        -999.25      0.5571915
      5098.0000         1.6798       650.3125        73.7927        -999.25        -999.25         1.5603         3.5934       -61.2903       -23.1931        -999.25      0.5703596
      5098.5000         1.3656       632.4443        69.7522        -999.25        -999.25         1.6754          4.257         -61.33        -23.236        -999.25      0.5694468
      5099.0000         1.0027       614.5752        63.7203        -999.25        -999.25         1.7884         4.8412       -63.2822       -25.1914        -999.25      0.5278425
      5099.5000         0.6394        596.707        59.3778        -999.25        -999.25         1.8825         5.1817         -65.16       -27.0724        -999.25      0.4878213
      5100.0000         2.1367       577.5068        66.5072        -999.25        -999.25         1.9677         3.7074        -67.498       -29.4136        -999.25      0.4380085
      5100.5000         3.9395       522.9512        83.6096        -999.25        -999.25          2.046         2.9427       -69.1305       -31.0493        -999.25      0.4032064
      5101.0000         5.2632       484.3901        93.0262        -999.25        -999.25         2.0948         2.6941       -70.0706       -31.9926        -999.25      0.3831362
