#------------------------------------------------------------------------------
# Created by    : vladimir.rabinovich
# Created on    : 09/19/2023 17:20:57
#------------------------------------------------------------------------------
~Version Information Section
VERS.           2.0     :   CWLS log ASCII Standard - VERSION 2.0
WRAP.           NO      :   One line per depth step
~Well Information Section
#MNEM       .UNIT                                         VALUE :DESCRIPTION
#------------------------------------------------------------------------------
STRT        .FT                                             601 :START DEPTH
STOP        .FT                                            9006 :STOP DEPTH
STEP        .FT                                             0.5 :STEP      
NULL        .                                           -999.25 :NULL      
COMP        .                                        SUN OIL CO :COMPANY   
WELL        .                               OCS G01715 ST00BP00 :WELL      
FLD         .                                           WILDCAT :FIELD     
LOC         .                                                   :LOCATION  
CNTY        .                                BRAZOS LARGE BLOCK :LOCATION  
STAT        .                                             TEXAS :STATE     
CTRY        .                                     UNITED STATES :COUNTRY   
SRVC        .                                                   :SERVICE COMPANY
DATE        .                             9/13/2023 11:18:52 AM :LOG DATE  
API         .                                    42704000710000 :API NUMBER
UWI         .                                    42704000710000 :UNIQUE WELL ID
XCOORD      .                                  842225.693118258 :SURFACE X 
YCOORD      .                                  10368215.6352389 :SURFACE Y 
LAT         .                                          28.54781 :LATITUDE  
LON         .                                        -95.486614 :LONGITUDE 
ELEV        .FT                                              79 :ELEVATION VALUE
ELEV_TYPE   .                                                KB :ELEVATION REFERENCE TYPE
~Curve Information Section
#MNEM       .UNIT                                      API CODE :CURVE DESCRIPTION
#------------------------------------------------------------------------------
DEPT        .FT                                                 :DEPTH     
ASN         .OHMM                                               :          
CALI        .IN                                                 :          
CILD        .MMHO                                               :          
DT          .US/F                                               :          
ILD         .OHMM                                               :          
SP          .MV                                                 :          
SP_NORM     .MV                                                 :SP Normalized
VSH_SP      .V/V                                                :Volume of Shale from SP
~A        DEPTH            ASN           CALI           CILD             DT            ILD             SP        SP_NORM         VSH_SP
# ...
      4524.5000         0.4628        12.4018       3117.148       135.1831          0.261       -96.6808       -51.4427              0
      4525.0000         0.4599        12.4121       3229.688       133.8772         0.2686       -96.6785       -51.4404              0
      4525.5000         0.4668        12.4749       3342.324       133.0798         0.2864       -96.6538       -51.4157              0
      4526.0000         0.4856        12.5201       3454.965       136.3523         0.3092       -96.3337       -51.0956              0
      4526.5000         0.5211        12.5346       3567.504       137.6069         0.3427       -95.1836       -49.9455    0.001112179
      4527.0000         0.5718         12.557       3669.152       140.9602         0.3896       -93.2404       -48.0023     0.04076931
      4527.5000          0.651          12.58       3770.602       142.8562         0.4446       -90.2921        -45.054      0.1009388
      4528.0000         0.7987           12.6       3872.055       136.3562         0.5104       -87.9384       -42.7003      0.1489734
      4528.5000         0.8709        12.6729       3936.418       135.5664         0.5806       -86.0986       -40.8605      0.1865203
      4529.0000         0.8983        13.2672       3175.039       138.7007          0.642       -84.9717       -39.7336      0.2095183
      4529.5000         0.8903        14.3674       2003.955       141.1047         0.6753       -84.8057       -39.5676       0.212906
      4530.0000         0.8553        15.0054       2002.926       141.6953         0.6711       -84.9203      -39.68221      0.2105672
      4530.5000         0.8052         13.987       2001.896       135.5291         0.6368       -84.8364       -39.5983      0.2122795
      4531.0000          0.754        13.0925       1990.188       132.9666          0.573       -83.5024      -38.26431       0.239504
      4531.5000         0.6965        12.9055       1760.105        131.554         0.4927       -81.2985       -36.0604      0.2844816
      4532.0000         0.6364         12.816       1635.596       137.4001         0.4328       -79.5295       -34.2914      0.3205836
      4532.5000         0.5686        12.7814       1511.086       141.2629         0.3852       -80.4019       -35.1638      0.3027795
      4533.0000          0.511         12.774        1589.58       138.6895         0.3446       -89.6659       -44.4278      0.1137183
      4533.5000         0.4833         12.698       2329.668       139.8989         0.3082       -92.5118       -47.2737     0.05563868
      4534.0000         0.4693        12.5485       2591.441       143.1653         0.2881       -93.0095       -47.7714     0.04548162
      4534.5000         0.4605        12.4764       2853.215       144.9553         0.2724       -91.8564       -46.6183     0.06901426
      4535.0000         0.4646        12.4363       3114.793       144.4607         0.2644        -90.353       -45.1149     0.09969594
      4535.5000         0.4724        12.4014       3416.258       143.0232         0.2607       -89.7046       -44.4665      0.1129286
      4536.0000         0.4647         12.397       3471.102       142.2446         0.2637       -89.8151        -44.577      0.1106734
      4536.5000         0.4422        12.3925       3523.938       141.1179         0.2762       -90.6028       -45.3647     0.09459795
      4537.0000         0.4259         12.388       3647.355       140.4744         0.2904         -91.38       -46.1419     0.07873675
      4537.5000         0.4119        12.3766       3667.176       139.7419         0.2961       -91.6653       -46.4272     0.07291428
      4538.0000         0.3995        12.3608       3679.734       139.6506         0.3005        -91.629       -46.3909     0.07365511
      4538.5000         0.3919        12.3449       3704.277       139.7729         0.3032        -91.313      -46.07491     0.08010397
      4539.0000         0.3956         12.337       3786.891       139.9404         0.3071       -90.9204       -45.6823     0.08811624
      4539.5000         0.4175         12.343       3870.484       140.2053         0.3176       -90.3716       -45.1335     0.09931634
      4540.0000         0.4593         12.349       3947.406       140.7363         0.3308       -89.9598       -44.7217      0.1077204
      4540.5000          0.507        12.3691        3982.02       141.5134         0.3533       -89.5973       -44.3592      0.1151184
      4541.0000         0.5406        12.4013       3941.617       142.3923         0.3792       -89.2678       -44.0297      0.1218428
      4541.5000         0.5749        12.4426       3763.539       140.2651         0.4064       -88.9653       -43.7272      0.1280163
      4542.0000         0.6122        12.4517       3504.219       136.7324         0.4314       -89.3029       -44.0648      0.1211265
      4542.5000         0.6601        12.4282       3361.852       133.0325         0.4398        -90.978       -45.7399     0.08694084
      4543.0000         0.7375        12.4141       3219.777       131.0891         0.4205       -92.6617       -47.4236     0.05257961
      4543.5000         0.8294        12.4072       3154.336       131.7817         0.3915       -91.8917       -46.6536     0.06829382
      4544.0000         0.9809        12.4525       2947.016       125.4562         0.3629         -90.89       -45.6519     0.08873671
      4544.5000         1.0737        12.6009       2661.988       111.5938         0.3382       -91.4385       -46.2004     0.07754283
      4545.0000         1.0431        12.8129       2492.148       103.9824         0.3179       -93.7484       -48.5103     0.03040205
      4545.5000          0.811        12.6739       2322.309       104.1195          0.302       -95.5223       -50.2842              0
      4546.0000         0.5446        12.4821       2403.453       114.3145         0.2998       -96.4569       -51.2188              0
      4546.5000         0.4998        12.3942       2894.031       122.0977          0.298       -95.8342       -50.5961              0
      4547.0000          0.471        12.3734       3059.309       131.9937         0.2917       -94.8151        -49.577    0.008632582
      4547.5000         0.4665        12.4629       3112.438       138.8008         0.2847       -93.9495       -48.7114      0.0262979
      4548.0000         0.4906        12.4511       3201.332       139.3589         0.2855       -93.1094       -47.8713     0.04344286
      4548.5000         0.5072        12.3958       3308.723       138.7529         0.3124        -92.326       -47.0879     0.05943065
      4549.0000         0.5179        12.3118       3379.707       138.2957         0.3377       -91.6102       -46.3721     0.07403876
      4549.5000         0.5311        12.3926       3450.695       139.1709         0.3452       -91.0803       -45.8422     0.08485304
      4550.0000         0.5456        12.5253        3521.73       139.9375         0.3462       -90.3347       -45.0966      0.1000693
      4550.5000         0.5594        12.5014       3410.813       140.2542         0.3503       -86.1766       -40.9385      0.1849286
      4551.0000         0.5711        12.5185       3252.453       142.2659         0.3601       -77.3365       -32.0984      0.3653387
      4551.5000         0.5801         12.806        3094.09       142.3979         0.3741       -74.8196       -29.5815       0.416704
      4552.0000         0.5878        12.9273        2935.73       140.2637         0.3968       -79.8512       -34.6131      0.3140184
      4552.5000         0.5934        12.8489       2777.371       140.2852         0.4293       -83.1272       -37.8891      0.2471612
      4553.0000         0.5931        12.6158       2657.082       138.8613         0.4673       -81.8004       -36.5623      0.2742387
      4553.5000         0.5965        12.4892       2589.188       140.5442         0.4956       -71.0647       -25.8266      0.4933347
