#------------------------------------------------------------------------------
# Created by    : vladimir.rabinovich
# Created on    : 09/19/2023 17:19:47
#------------------------------------------------------------------------------
~Version Information Section
VERS.           2.0     :   CWLS log ASCII Standard - VERSION 2.0
WRAP.           NO      :   One line per depth step
~Well Information Section
#MNEM       .UNIT                                         VALUE :DESCRIPTION
#------------------------------------------------------------------------------
STRT        .FT                                            2960 :START DEPTH
STOP        .FT                                           11758 :STOP DEPTH
STEP        .FT                                             0.5 :STEP      
NULL        .                                           -999.25 :NULL      
COMP        .                             CHAMPLIN PETROLEUM CO :COMPANY   
WELL        .                               OCS G06095 ST00BP00 :WELL      
FLD         .                                           WILDCAT :FIELD     
LOC         .                                                   :LOCATION  
CNTY        .                             GALVESTON LARGE BLOCK :LOCATION  
STAT        .                                             TEXAS :STATE     
CTRY        .                                     UNITED STATES :COUNTRY   
SRVC        .                                                   :SERVICE COMPANY
DATE        .                             9/13/2023 11:19:27 AM :LOG DATE  
API         .                                    42706401150000 :API NUMBER
UWI         .                                    42706401150000 :UNIQUE WELL ID
XCOORD      .                                  1057213.14222316 :SURFACE X 
YCOORD      .                                  10507856.7651171 :SURFACE Y 
LAT         .                                        28.9424301 :LATITUDE  
LON         .                                       -94.8238502 :LONGITUDE 
ELEV        .FT                                              89 :ELEVATION VALUE
ELEV_TYPE   .                                                KB :ELEVATION REFERENCE TYPE
~Curve Information Section
#MNEM       .UNIT                                      API CODE :CURVE DESCRIPTION
#------------------------------------------------------------------------------
DEPT        .FT                                                 :DEPTH     
ASFL        .OHMM                                               :          
CILD        .MMHO                                               :          
GR          .GAPI                                               :          
GR_NORM     .GAPI                                               :GammaRay Normalized
ILD         .OHMM                                               :          
SP          .MV                                                 :          
SP_NORM     .MV                                                 :SP Normalized
VSH_GR      .V/V                                                :Volume of Shale from GR
VSH_SP      .V/V                                                :Volume of Shale from SP
~A        DEPTH           ASFL           CILD             GR        GR_NORM            ILD             SP        SP_NORM         VSH_GR         VSH_SP
# ...
      9982.5000         0.7958       1381.787        54.7886       74.80634         0.6628        29.5449      0.1190376      0.8894965              1
      9983.0000         0.7978        1381.25        54.9286       75.08273         0.6609        29.4795      0.1786766      0.8953772              1
      9983.5000         0.7998       1380.715        55.0856       75.39196          0.659        29.4146      0.2378139      0.9019566              1
      9984.0000         0.8017       1380.178        55.3101       75.83157         0.6571         29.353      0.2936535      0.9113101              1
      9984.5000         0.8037       1379.643        55.5343       76.27061         0.6552        29.2915      0.3493919      0.9206514              1
      9985.0000         0.8057       1379.105        55.7585       76.70963         0.6533          29.23      0.4051304       0.929992              1
      9985.5000         0.8077       1395.256        55.9827       77.14868         0.6514        29.1685      0.4608669      0.9393337              1
      9986.0000         0.8097       1412.369        56.3699       77.90257         0.6495         29.107      0.5166054      0.9553739              1
      9986.5000         0.8121       1429.484        56.7628       78.66747         0.6476        29.0455      0.5723438      0.9716482              1
      9987.0000          0.815         1446.6        57.1562       79.43334          0.645        29.0163      0.5957813      0.9879435              1
      9987.5000         0.8068       1463.738        57.4965       80.09663         0.6401        29.0317      0.5746193              1              1
      9988.0000         0.7633       1501.938        57.7025       80.50052         0.6351        29.0471      0.5534573              1              1
      9988.5000          0.746       1643.016        57.9085        80.9044         0.6301        29.0626       0.532196              1              1
      9989.0000         0.7288       1705.895        58.1142        81.3077         0.6252         29.078       0.511034              1              1
      9989.5000         0.7115       1763.857        58.3201       81.71136         0.6202        29.0867      0.4965706              1              1
      9990.0000         0.6953        1809.15        58.5831       82.22537         0.6152        29.0047      0.5728111              1              1
      9990.5000         0.6851       1851.535         58.856       82.75849         0.6102        28.9229      0.6488495              1              1
      9991.0000         0.6747       1868.885        58.4858       82.04936         0.6053         28.841       0.724987              1              1
      9991.5000         0.6645        1873.24        57.8589       80.84439         0.6003         28.759      0.8012238              1              1
      9992.0000         0.6544       1870.309         58.493        82.0752         0.5953        28.7123      0.8421631              1              1
      9992.5000         0.6512       1864.938        58.8417       82.75474         0.5904        28.7055      0.8432007              1              1
      9993.0000         0.6492       1845.482        59.1479       83.35216         0.5879        28.6986      0.8443375              1              1
      9993.5000         0.6483       1826.027        59.4542       83.94976         0.5861        28.6918       0.845377              1              1
      9994.0000         0.6519       1808.617        59.4686       83.98354         0.5843         28.685      0.8464146              1              1
      9994.5000         0.6556       1798.938        59.0357       83.15332         0.5825           28.7      0.8256512              1              1
      9995.0000         0.6593        1789.27        58.6022       82.32194         0.5807        28.7249      0.7949905              1              1
      9995.5000         0.6629        1779.59        58.1694       81.49188         0.5789        28.7499      0.7642269              1              1
      9996.0000         0.6699        1769.92        57.7775       80.74088         0.5771        28.7748      0.7335663              1              1
      9996.5000         0.6778        1760.24        58.0168       81.20904         0.5753        28.7997      0.7029057              1              1
      9997.0000         0.6857       1759.461        58.2563       81.67766         0.5741        28.8247      0.6721439              1              1
      9997.5000         0.6862       1760.973        58.7079       82.55593         0.5728        28.8497      0.6413803              1              1
      9998.0000         0.6829       1762.486        59.5319       84.15356         0.5716        28.8746      0.6107197              1              1
      9998.5000         0.6796       1764.002        60.3558       85.75101         0.5704        28.8842      0.5953579              1              1
      9999.0000         0.6762       1765.516        61.1797        87.3484         0.5692        28.8859      0.5878944              1              1
      9999.5000         0.6729       1767.027         61.286       87.55973          0.568        28.8876      0.5804329              1              1
     10000.0000         0.6695       1768.543        60.4263       85.90506         0.5668        28.8893      0.5729713              1              1
     10000.5000         0.6667       1770.057        59.8465        82.4044         0.5656        28.8911      0.5654087              1              1
     10001.0000         0.6643       1773.797        59.5856       81.98147         0.5632        28.8928      0.5579472              1              1
     10001.5000          0.662       1782.119        59.3247       81.55852         0.5585        28.9195      0.5254841              1              1
     10002.0000         0.6597       1790.439        59.2874        81.5024         0.5537        28.9717      0.4675217              1              1
     10002.5000         0.6574       1798.748        59.3033       81.53356          0.549        29.0239      0.4095612              1              1
     10003.0000         0.6551        1807.07        59.3193       81.56488         0.5443        29.0761      0.3516006              1              1
     10003.5000         0.6528       1816.785        59.3352       81.59605         0.5396        29.0748      0.3471375              1              1
     10004.0000         0.6505       1834.088        59.3512       81.62733         0.5349        29.0476       0.368576              1              1
     10004.5000         0.6482       1851.393        59.3671       81.65849         0.5302        29.0205      0.3899136              1              1
     10005.0000         0.6458       1874.818          59.52        81.9144         0.5265        28.9934      0.4112511              1              1
     10005.5000         0.6435       1907.393        59.8143       82.40227         0.5232        28.9662      0.4326897              1              1
     10006.0000         0.6412       1934.803        60.1469       82.95297         0.5199        28.9391      0.4540272              1              1
     10006.5000         0.6421       1939.223        60.6591       83.79829         0.5166        28.9089       0.478466              1              1
     10007.0000          0.644       1932.592        61.8962       85.83282         0.5123        28.8629      0.5187035              1              1
     10007.5000         0.6459       1925.949        62.3089       86.51492          0.508         28.817      0.5588417              1              1
     10008.0000         0.6477       1919.318        62.4062       86.67962         0.5037        28.7711      0.5989799              1              1
     10008.5000         0.6505       1912.688        62.5696       86.95275         0.4993        28.7253      0.6390171              1              1
