#------------------------------------------------------------------------------
# Created by    : vladimir.rabinovich
# Created on    : 09/19/2023 17:22:15
#------------------------------------------------------------------------------
~Version Information Section
VERS.           2.0     :   CWLS log ASCII Standard - VERSION 2.0
WRAP.           NO      :   One line per depth step
~Well Information Section
#MNEM       .UNIT                                         VALUE :DESCRIPTION
#------------------------------------------------------------------------------
STRT        .FT                                              41 :START DEPTH
STOP        .FT                                            7991 :STOP DEPTH
STEP        .FT                                             0.5 :STEP      
NULL        .                                           -999.25 :NULL      
COMP        .                           ENERGY DEVELOPMENT CORP :COMPANY   
WELL        .                               OCS G11200 ST00BP00 :WELL      
FLD         .                                           WILDCAT :FIELD     
LOC         .                                                   :LOCATION  
CNTY        .                    NORTH PADRE ISLAND LARGE BLOCK :LOCATION  
STAT        .                                             TEXAS :STATE     
CTRY        .                                     UNITED STATES :COUNTRY   
SRVC        .                                                   :SERVICE COMPANY
DATE        .                             9/13/2023 11:18:55 AM :LOG DATE  
API         .                                    42701400410000 :API NUMBER
UWI         .                                    42701400410000 :UNIQUE WELL ID
XCOORD      .                                   309944.09600436 :SURFACE X 
YCOORD      .                                  9740515.29665267 :SURFACE Y 
LAT         .                                          26.78454 :LATITUDE  
LON         .                                        -97.077486 :LONGITUDE 
ELEV        .FT                                              91 :ELEVATION VALUE
ELEV_TYPE   .                                                KB :ELEVATION REFERENCE TYPE
~Curve Information Section
#MNEM       .UNIT                                      API CODE :CURVE DESCRIPTION
#------------------------------------------------------------------------------
DEPT        .FT                                                 :DEPTH     
CALI        .IN                                                 :          
DRHO        .G/C3                                               :          
DT          .US/F                                               :          
GR          .GAPI                                               :          
GR_NORM     .GAPI                                               :GammaRay Normalized
ILD         .OHMM                                               :          
ILM         .OHMM                                               :          
NPHI        .%                                                  :          
RFOC        .OHMM                                               :          
RHOB        .G/C3                                               :          
SP          .MV                                                 :          
SP_NORM     .MV                                                 :SP Normalized
VSH_GR      .V/V                                                :Volume of Shale from GR
VSH_SP      .V/V                                                :Volume of Shale from SP
~A        DEPTH           CALI           DRHO             DT             GR        GR_NORM            ILD            ILM           NPHI           RFOC           RHOB             SP        SP_NORM         VSH_GR         VSH_SP
# ...
      4001.0000        14.4513         0.0433       118.8973        89.9396       91.01286          0.788         0.7785        39.7656         0.8098         2.2753       -55.8597      -2.847649              1              1
      4001.5000        14.1532         0.0508       118.6556        88.0092       88.03216         0.7962         0.7835        38.7749         0.8126          2.278       -55.4348      -2.422749              1              1
      4002.0000        14.0767         0.0485       118.4028        84.2411       82.21759         0.8016         0.7896        39.6836         0.8258         2.2809       -55.0238      -2.011749              1              1
      4002.5000        14.2118         0.0381        117.797        83.6423       81.29036          0.806         0.7998        40.7273         0.8378         2.2838       -54.6542      -1.642151              1              1
      4003.0000        14.3284         0.0321       117.1296        85.3507       83.92095         0.8145          0.814        41.2241         0.8349         2.2875       -54.3063       -1.29425              1              1
      4003.5000        14.4396         0.0319       116.4691        86.4742       85.64957         0.8212         0.8292         41.204         0.8429         2.2917       -54.0006     -0.9885483              1              1
      4004.0000        14.5181         0.0353       115.7565        86.3413       85.44077         0.8303         0.8421        40.7358         0.8532         2.2963       -53.9965     -0.9844475              1              1
      4004.5000        14.5042         0.0402       115.3633        85.6736       84.40726         0.8412         0.8495        39.9661          0.853         2.2994       -54.1334      -1.121349              1              1
      4005.0000        14.4584         0.0415       115.2374        84.8455        83.1264         0.8504         0.8556         39.145         0.8573         2.3015       -54.3256      -1.313549              1              1
      4005.5000        14.4274         0.0346       115.4918        84.0493       81.89474          0.854         0.8571        38.9818         0.8637         2.3018       -54.5052      -1.493149              1              1
      4006.0000        14.5053           0.03       116.1572        81.7633       78.36567          0.853         0.8513        38.6429         0.8639         2.3012       -54.3714      -1.359348       0.965227              1
      4006.5000         14.398         0.0263       116.7417        78.6383       73.54284         0.8523         0.8449        37.9727         0.8675         2.3008       -54.2123      -1.200249      0.8626136              1
      4007.0000        14.2672         0.0241       117.2388        78.8605       73.88161         0.8491         0.8392        38.8404          0.868         2.3001       -54.0034     -0.9913483      0.8698216              1
      4007.5000        14.1641         0.0224       117.5774        79.8312       75.37463         0.8373         0.8357        39.7664         0.8556         2.2989       -53.8112     -0.7991486       0.901588              1
      4008.0000        14.0971         0.0216       118.0676        78.6371       73.52937         0.8342          0.833        40.5577         0.8403          2.297       -53.6593     -0.6472511      0.8623271              1
      4008.5000        14.0401         0.0248       118.6902        78.5533       73.39625           0.84         0.8321        40.8972         0.8336         2.2945       -53.5097     -0.4976501      0.8594946              1
      4009.0000        13.9497         0.0307        119.215        79.1414       74.29929         0.8506         0.8327        41.0029         0.8362         2.2927       -53.4946     -0.4825478      0.8787082              1
      4009.5000        13.8219         0.0413       118.8726        78.4596       73.24403         0.8594         0.8356        40.7254          0.841         2.2949       -53.4795     -0.4674492      0.8562559              1
      4010.0000        13.7584         0.0541       118.0051        77.3593       71.54341         0.8691         0.8393        40.0265         0.8464         2.2952       -53.4651     -0.4530487      0.8200726              1
      4010.5000        13.7982         0.0638       117.1453        76.1989       69.75011         0.8722         0.8443        39.1904         0.8525         2.2944       -53.4507     -0.4386482      0.7819173              1
      4011.0000        13.8682         0.0661        116.499        75.1384       68.11086         0.8728         0.8493        38.9339         0.8592         2.2947       -53.2565     -0.2444496      0.7470396              1
      4011.5000        13.9394         0.0557        115.989        74.5121        67.1412         0.8736         0.8531        39.5497         0.8635         2.2971       -53.0343    -0.02225113      0.7264084              1
      4012.0000        14.0058         0.0434       115.6605        74.9116       67.75339         0.8736         0.8564         40.062         0.8639         2.3011       -52.7671      0.2449493      0.7394338              1
      4012.5000        13.8812         0.0363        115.511        75.9521       69.35405         0.8713         0.8565        40.3116         0.8582         2.3063       -52.5268      0.4852524      0.7734904              1
      4013.0000        13.7056         0.0384       115.2246        76.8625        70.7541         0.8699         0.8564        40.0224         0.8524         2.3105       -52.3162      0.6958504      0.8032787              1
      4013.5000        13.7341         0.0494       114.8291        77.7502        72.1191         0.8687         0.8555        39.4007         0.8469         2.3135       -52.2079      0.8041496      0.8323213              1
      4014.0000        13.8465         0.0569       114.5229        79.6639        75.0663         0.8658         0.8546        38.8464         0.8477         2.3147       -52.1528      0.8592491      0.8950276              1
      4014.5000        13.9835         0.0517       114.4648        82.7504       79.82201         0.8621         0.8548        38.4336         0.8486         2.3103       -52.0835      0.9285507      0.9962131              1
      4015.0000        14.0214         0.0436       114.6743        82.8481       79.96883         0.8575         0.8553        38.2092         0.8494         2.3054        -52.007       1.005051      0.9993367              1
      4015.5000        13.9013         0.0356       115.6366        81.6519       78.12033         0.8584         0.8572        38.3114         0.8554         2.3004       -51.9615       1.050552       0.960007              1
      4016.0000        13.8472         0.0304       116.6876        80.7921       76.79057          0.862         0.8608        38.5016         0.8626          2.301       -51.9292       1.082851      0.9317143              1
      4016.5000         13.829         0.0342       116.9078        80.1772       75.83848         0.8657         0.8646        38.7869          0.871         2.3042       -51.9276        1.08445       0.911457              1
      4017.0000        13.8807         0.0395       115.5663        79.1888       74.31043         0.8704         0.8686        38.8918         0.8765         2.3076       -51.9514        1.06065      0.8789454              1
      4017.5000        13.9897         0.0383       113.8738        78.0211        72.5059         0.8767         0.8727           38.6         0.8796         2.3109       -52.0078        1.00425       0.840551              1
      4018.0000        14.1469         0.0314       112.7627        77.1947       71.22765         0.8757         0.8752        38.1205         0.8812         2.3129       -52.1045      0.9075508      0.8133542              1
      4018.5000        14.3627         0.0323          112.6        78.3241       72.96539         0.8815         0.8749        38.0504         0.8801         2.3146        -52.313      0.6990509      0.8503275              1
