#------------------------------------------------------------------------------
# Created by    : vladimir.rabinovich
# Created on    : 09/19/2023 17:22:30
#------------------------------------------------------------------------------
~Version Information Section
VERS.           2.0     :   CWLS log ASCII Standard - VERSION 2.0
WRAP.           NO      :   One line per depth step
~Well Information Section
#MNEM       .UNIT                                         VALUE :DESCRIPTION
#------------------------------------------------------------------------------
STRT        .FT                                            1687 :START DEPTH
STOP        .FT                                            6155 :STOP DEPTH
STEP        .FT                                             0.5 :STEP      
NULL        .                                           -999.25 :NULL      
COMP        .                       AMERICAN COASTAL ENERGY INC :COMPANY   
WELL        .                                ST TR 00596-L NE/4 :WELL      
FLD         .                        SHERMAN OFFSHORE SOUTHWEST :FIELD     
LOC         .                                                   :LOCATION  
CNTY        .                      MATAGORDA ISLAND LARGE BLOCK :LOCATION  
STAT        .                                             TEXAS :STATE     
CTRY        .                                     UNITED STATES :COUNTRY   
SRVC        .                                                   :SERVICE COMPANY
DATE        .                             9/13/2023 11:12:01 AM :LOG DATE  
API         .                                    42703302820000 :API NUMBER
UWI         .                                    42703302820000 :UNIQUE WELL ID
XCOORD      .                                  484247.709270029 :SURFACE X 
YCOORD      .                                   10242127.767654 :SURFACE Y 
LAT         .                                        28.1765839 :LATITUDE  
LON         .                                       -96.5886238 :LONGITUDE 
ELEV        .FT                                              79 :ELEVATION VALUE
ELEV_TYPE   .                                                KB :ELEVATION REFERENCE TYPE
~Curve Information Section
#MNEM       .UNIT                                      API CODE :CURVE DESCRIPTION
#------------------------------------------------------------------------------
DEPT        .FT                                                 :DEPTH     
CILD        .MMHO                                               :          
DT          .US/F                                               :          
ILD         .OHMM                                               :          
SN          .OHMM                                               :          
SP          .MV                                                 :          
SP_NORM     .MV                                                 :SP Normalized
VSH_SP      .V/V                                                :Volume of Shale from SP
~A        DEPTH           CILD             DT            ILD             SN             SP        SP_NORM         VSH_SP
# ...
      5506.0000       4238.689       116.6396         0.2246         0.5487       -92.3588       -75.1579              0
      5506.5000       4254.599       115.8427         0.2243         0.5462       -92.3593       -75.1563              0
      5507.0000       4310.329       115.0459         0.2213         0.5487       -92.9556       -75.7504              0
      5507.5000       4358.099       114.4481         0.2182         0.5513       -93.4526       -76.2452              0
      5508.0000       4437.723       114.2486          0.211         0.5538       -94.0488       -76.8393              0
      5508.5000       4557.161       114.2481         0.2066         0.5615       -91.5668       -74.3551    0.008834212
      5509.0000       4453.609       114.2481         0.2114         0.5615       -90.2764       -73.0625      0.0265411
      5509.5000       4365.982       114.3472         0.2203         0.5615       -86.8011       -69.5851     0.07417674
      5510.0000       3695.063        114.745         0.2381         0.5564       -81.1413       -63.9231      0.1517384
      5510.5000       3322.301       116.2375         0.3022         0.5488       -64.6572       -47.4369      0.3775767
      5511.0000       2751.239       119.2237         0.3615         0.5746       -46.6835        -29.461      0.6238219
      5511.5000       2133.999       123.4046         0.4465         0.6533       -31.1924       -13.9677      0.8360589
      5512.0000       1596.362       127.1873         0.5678         0.7601        -26.327        -9.1002       0.902737
      5512.5000       1261.847       128.1824         0.7221         0.8564        -25.534         -8.305      0.9136301
      5513.0000       1046.796       128.1823          1.001         0.9049       -26.3287        -9.0975       0.902774
      5513.5000       1074.662       124.0003         0.9344         0.9049       -29.7055       -12.4722      0.8565452
      5514.0000       1221.969       119.2212         0.8538         0.8844       -37.0539       -19.8184      0.7559124
      5514.5000       1468.849       115.6368         0.7261         0.8143       -48.6731       -31.4354      0.5967754
      5515.0000       1779.444        112.451         0.6208         0.7602       -62.5762       -45.3364      0.4063507
      5515.5000       2062.177       108.4679         0.5121         0.7162       -73.2023       -55.9603      0.2608178
      5516.0000       2317.029       107.5719         0.4362         0.6872       -75.0903       -57.8461      0.2349849
      5516.5000       2695.323       108.0102         0.3683         0.6474       -72.5089       -55.2626      0.2703753
      5517.0000       2950.154       109.1639         0.3375         0.6156       -70.8212       -53.5727      0.2935247
      5517.5000       3181.108       110.5573         0.3065         0.6128        -80.255       -63.0043      0.1643247
      5518.0000       3408.095       111.0542         0.2862           0.61       -85.5187       -68.2659     0.09224795
      5518.5000       3619.125       111.6511         0.2684          0.588       -87.9025       -70.6475      0.0596233
      5519.0000       3826.188        112.248         0.2517         0.5591       -89.3925       -72.1354     0.03924111
      5519.5000       4009.357       113.2431         0.2448         0.5414       -90.5847       -73.3254     0.02293971
      5520.0000        4102.74       115.6321         0.2371         0.5389       -92.0749       -74.8134    0.002556161
      5520.5000       4198.299       117.0254         0.2307         0.5267       -92.3732       -75.1096              0
      5521.0000       4293.854       117.7223         0.2244         0.5316       -92.8702       -75.6044              0
      5521.5000       4277.905       118.4184         0.2234         0.5414       -92.8707       -75.6027              0
      5522.0000       4230.098       118.2188         0.2275         0.5515       -92.2753       -75.0052              0
      5522.5000       4166.362       118.0193         0.2317         0.5617       -91.7793        -74.507    0.006753373
      5523.0000       4094.661        118.218          0.236         0.5669       -91.5812       -74.3067    0.009497237
      5523.5000       4041.096       118.0185         0.2415         0.5643       -91.2838       -74.0072     0.01359997
      5524.0000       4001.258       117.8189          0.246         0.5721       -90.6884       -73.4096     0.02178631
      5524.5000       3969.385       117.6194         0.2471         0.5854       -90.7884       -73.5075     0.02044521
      5525.0000       3865.829       117.4201         0.2506         0.5721       -90.7887       -73.5056     0.02047123
      5525.5000       3770.238       116.0256         0.2564         0.5643        -90.392       -73.1067     0.02593566
      5526.0000       3682.612       115.0296         0.2647         0.5541       -89.4987       -72.2113     0.03820132
      5526.5000       3594.985       113.6353         0.2696          0.539       -85.6264       -68.3368     0.09127672
      5527.0000       3543.209        112.042         0.2721         0.5268       -83.2436       -65.9518       0.123948
      5527.5000       3553.513       110.2499         0.2734         0.5293       -81.8545       -64.5606      0.1430055
      5528.0000       3626.798       110.0501         0.2672          0.549       -83.7411        -66.445      0.1171918
      5528.5000       3762.183       110.6926         0.2599         0.5567       -87.6145       -70.3162     0.06416164
      5529.0000       3897.568       112.1402         0.2517         0.5567       -90.4948       -73.1944     0.02473429
      5529.5000       4001.094       113.6331         0.2472         0.5567         -92.68       -75.3774              0
      5530.0000       4040.903       114.7278         0.2427         0.5541       -93.5741       -76.2693              0
      5530.5000       4016.994       115.4239         0.2404         0.5317       -90.0991       -72.7922     0.03024386
      5531.0000       4009.015       115.8217         0.2416         0.5126        -87.319       -70.0099      0.0683575
      5531.5000       3985.105       115.8213         0.2449         0.5056       -81.3612         -64.05           0.15
      5532.0000       3921.372       115.4226         0.2506          0.501       -78.3828       -61.0694      0.1908301
      5532.5000       3754.096        115.223         0.2588         0.5079       -79.5747       -62.2591      0.1745328
      5533.0000       3499.207       115.1109         0.2785         0.5342       -80.3695       -63.0518       0.163674
      5533.5000       3196.529       115.0231         0.3039         0.5593       -74.7098       -57.3899      0.2412342
      5534.0000       2949.603       114.2262         0.3407         0.5829       -66.2694       -48.9473      0.3568863
      5534.5000       2487.623       112.8319         0.3963         0.6102       -57.3325       -40.0083      0.4793383
      5535.0000       2129.188        110.442          0.459         0.6876       -54.5524        -37.226       0.517452
      5535.5000       1770.752       104.2688         0.5245         0.8148       -54.4541       -37.1255      0.5188287
      5536.0000       1623.396         96.503         0.5856          0.918       -62.5971       -45.2664      0.4073096
      5536.5000       1623.384        95.9052         0.6302         1.0062       -70.1448       -52.8119      0.3039466
      5537.0000       1778.679        97.2986         0.5856         1.0248       -78.4869       -61.1519         0.1897
      5537.5000       2001.663       100.1855         0.5318         0.9222       -84.8429       -67.5057      0.1026617
      5538.0000       2467.609       107.0543         0.4284         0.8037       -87.8225       -70.4831     0.06187533
      5538.5000       2953.451       108.4482           0.33         0.6876       -89.0147       -71.6732     0.04557257
      5539.0000       3299.912       109.0451          0.297         0.6159       -90.5048       -73.1611     0.02519038
