#------------------------------------------------------------------------------
# Created by    : vladimir.rabinovich
# Created on    : 09/19/2023 17:21:04
#------------------------------------------------------------------------------
~Version Information Section
VERS.           2.0     :   CWLS log ASCII Standard - VERSION 2.0
WRAP.           NO      :   One line per depth step
~Well Information Section
#MNEM       .UNIT                                         VALUE :DESCRIPTION
#------------------------------------------------------------------------------
STRT        .FT                                            4500 :START DEPTH
STOP        .FT                                           11014 :STOP DEPTH
STEP        .FT                                             0.5 :STEP      
NULL        .                                           -999.25 :NULL      
COMP        .                              FIELDWOOD ENERGY LLC :COMPANY   
WELL        .                               OCS G06156 ST00BP00 :WELL      
FLD         .                            HIGH ISLAND BLOCK 0116 :FIELD     
LOC         .                                                   :LOCATION  
CNTY        .                           HIGH ISLAND LARGE BLOCK :LOCATION  
STAT        .                                             TEXAS :STATE     
CTRY        .                                     UNITED STATES :COUNTRY   
SRVC        .                                                   :SERVICE COMPANY
DATE        .                             9/13/2023 11:19:57 AM :LOG DATE  
API         .                                    42708404240000 :API NUMBER
UWI         .                                    42708404240000 :UNIQUE WELL ID
XCOORD      .                                  1333979.30181128 :SURFACE X 
YCOORD      .                                  10635798.2403082 :SURFACE Y 
LAT         .                                         29.303317 :LATITUDE  
LON         .                                        -93.961735 :LONGITUDE 
ELEV        .FT                                             101 :ELEVATION VALUE
ELEV_TYPE   .                                                KB :ELEVATION REFERENCE TYPE
~Curve Information Section
#MNEM       .UNIT                                      API CODE :CURVE DESCRIPTION
#------------------------------------------------------------------------------
DEPT        .FT                                                 :DEPTH     
AT10        .OHMM                                               :          
AT20        .OHMM                                               :          
AT30        .OHMM                                               :          
AT60        .OHMM                                               :          
AT90        .OHMM                                               :          
CALI        .IN                                                 :          
DCAL        .IN                                                 :          
DPHI        .DEC                                                :          
DRHO        .G/C3                                               :          
DT2R        .US/F                                               :          
DT4P        .US/F                                               :          
GR          .GAPI                                               :          
GR_NORM     .GAPI                                               :GammaRay Normalized
NPOR        .DEC                                                :          
SP          .MV                                                 :          
SP_NORM     .MV                                                 :SP Normalized
TENS        .LBF                                                :          
VSH_GR      .V/V                                                :Volume of Shale from GR
VSH_SP      .V/V                                                :Volume of Shale from SP
~A        DEPTH           AT10           AT20           AT30           AT60           AT90           CALI           DCAL           DPHI           DRHO           DT2R           DT4P             GR        GR_NORM           NPOR             SP        SP_NORM           TENS         VSH_GR         VSH_SP
# ...
     10143.0000         2.1411         1.6581          1.989         1.5745         1.4637        -999.25         0.4591         0.1611        -0.0253       185.8159        92.4573        46.4932       61.10802         0.2473       -54.3834      -11.49066       3746.504       0.598043      0.8358478
     10143.5000           2.24         1.8244          2.283         2.1804         2.4309        -999.25         0.3394         0.1084        -0.0202       180.6172        88.7617        45.1881       59.46688         0.2258       -55.8879      -13.69666       3736.523       0.563125      0.8043334
     10144.0000         2.4086          2.251          2.937         3.2571         3.8947        -999.25         0.1997         0.0814        -0.0212       173.4187        87.0635        42.5844       56.19278         0.2126       -58.4464      -17.43974       3716.598      0.4934633      0.7508609
     10144.5000         3.4801         3.6524         7.6679         7.2378           6.24        -999.25         0.1198         0.0904        -0.0353        164.637        86.6633        40.3807       53.42166          0.191       -61.1529      -21.39866       3706.586      0.4345034      0.6943049
     10145.0000         3.8241           6.41         8.4831         8.5154         9.6584        -999.25         0.1198          0.121        -0.0463       159.0383        89.0605        38.9784        51.6583          0.188       -64.1611      -25.79756       3706.586      0.3969851      0.6314635
     10145.5000          3.907        20.9656         9.4043           9.72        10.8864        -999.25         0.0998         0.1736        -0.0693       158.6414        93.4561        37.5751       49.89367         0.1904       -67.0194      -29.97785       3706.586      0.3594398       0.571745
     10146.0000         3.7621        20.2425         8.2028         7.6999         9.4664        -999.25         0.0798         0.2204        -0.0814       161.0408        96.2543        36.7731       48.88517         0.1952       -68.8256      -32.62383       3726.547      0.3379824      0.5339453
     10146.5000         3.4427        13.7846         4.1221         6.3394         9.3478        -999.25         0.0798         0.2485        -0.0874       165.4326        97.3538        36.3721       48.38092         0.2036         -70.03      -34.39218       3726.547      0.3272536      0.5086831
     10147.0000         3.1979         7.2445         3.5542         5.1725         7.8912        -999.25         0.0599         0.2527        -0.0784       169.0317        98.5515        36.9744        49.1383         0.2102       -70.7823      -35.50123       3726.547      0.3433681      0.4928396
     10147.5000         3.0537         4.0095         3.4233         4.7561           6.22        -999.25         0.0599         0.2419        -0.0693       172.2266        99.6503        37.7749       50.14491         0.2084       -71.8354      -37.04894       3726.547      0.3647854      0.4707294
     10148.0000         2.9099         3.4193         3.3786         4.4521         4.9049        -999.25         0.0599         0.2275        -0.0563       176.6208          99.95        38.9782       51.65804         0.2114       -71.6858       -36.8427       3726.547      0.3969796      0.4736756
     10148.5000         2.5909         3.1909         3.3039         3.9234         3.8679        -999.25         0.0599         0.2132        -0.0453       180.2185       100.3491        39.9798       52.91754          0.221       -70.6318      -35.31756       3726.547      0.4237775      0.4954635
     10149.0000         2.3739         3.0437         3.0286         3.0617         3.1799        -999.25         0.0798          0.203        -0.0383       181.0188       101.3481        41.5822       54.93253         0.2264         -70.03      -34.45187       3726.547      0.4666495      0.5078304
     10149.5000         2.2924          2.864         2.6928         2.8181         2.9589        -999.25         0.0798         0.2012        -0.0343       179.4209       102.1481         43.085       56.82227         0.2329       -70.3318      -34.90394       3706.586      0.5068568      0.5013723
     10150.0000         2.5018         2.8097         3.0126         3.3317          3.158        -999.25         0.0998         0.2138        -0.0383       178.2217       103.1469        43.1863       56.94965         0.2335       -71.5354      -36.67113       3706.586       0.509567      0.4761266
     10150.5000         2.8519         3.5988         3.6854           3.84         4.3237        -999.25         0.0998         0.2311        -0.0453       178.6213       103.6465        42.4846       56.06728         0.2269       -73.1903      -39.09647       3706.586      0.4907932      0.4414791
     10151.0000         3.0401         3.4924         3.5723         3.3432         4.9395        -999.25         0.1198         0.2395        -0.0473       180.2178       102.7467        41.7841       55.18641         0.2228       -73.7913      -39.98486       3706.586      0.4720513      0.4287877
     10151.5000         2.6227         2.7582         2.9932         2.6619          3.585        -999.25         0.1397         0.2293        -0.0463       184.2136       101.4486        41.9843       55.43816         0.2216       -73.1898      -39.11961       3706.586      0.4774077      0.4411484
     10152.0000         2.1577          2.147         2.1091         2.1111         2.4264        -999.25         0.1437         0.2101        -0.0453       185.0149       100.6493        43.4882       57.32929         0.2202       -72.2869      -37.81483       3704.707      0.5176445      0.4597882
     10152.5000         1.8056          1.975         1.7931         1.8805         1.9815        -999.25         0.1247         0.1933        -0.0433       181.8167       100.3496        45.3902       59.72102         0.2418       -70.9324      -35.85146       3704.164      0.5685323      0.4878364
     10153.0000         1.7839         2.0999         1.9821         1.8173         2.0476        -999.25         0.1057         0.1879        -0.0413       176.6238       100.5494        45.6923        60.1009         0.2477       -70.4814      -35.20568       3713.652       0.576615      0.4970617
     10153.5000         2.1547         2.5079         2.3553         2.1885         2.6788        -999.25         0.1067          0.207        -0.0433       174.2258       100.8488         43.187       56.95053         0.2405        -70.932      -35.87474       3723.137      0.5095857      0.4875037
     10154.0000         2.8284         3.5134         3.3672         3.2752         3.7816        -999.25         0.0877         0.2303        -0.0443       173.8262        100.949         41.283       54.55629         0.2279       -71.3842      -36.54614       3722.641      0.4586444      0.4779122
     10154.5000         3.3826         4.1422         4.0086         4.3926          4.779        -999.25         0.0887         0.2441        -0.0453       174.6252        100.949        41.3822       54.68103         0.2147       -70.9326       -35.8995       3722.148      0.4612985        0.48715
     10155.0000         3.4389         4.2859         4.3287          4.538         4.3828        -999.25         0.0698         0.2452        -0.0443       176.2219       100.7491        42.8853       56.57115         0.2099        -72.136      -37.66639       3711.672      0.5015138      0.4619087
     10155.5000         3.6165         4.4862         4.5682         4.7194          4.851        -999.25         0.0509         0.2476        -0.0443       178.6211       100.5494        43.9874       57.95702         0.2105       -72.7391      -38.55785        3721.16      0.5310005      0.4491736
     10156.0000         3.8542          4.897         4.9066         4.9711         5.8371        -999.25         0.0519         0.2541        -0.0473       180.6194       100.2491        44.3887       58.46165         0.2068       -71.5344      -36.81293       3740.563      0.5417372      0.4741009
