#------------------------------------------------------------------------------
# Created by    : vladimir.rabinovich
# Created on    : 09/19/2023 17:19:36
#------------------------------------------------------------------------------
~Version Information Section
VERS.           2.0     :   CWLS log ASCII Standard - VERSION 2.0
WRAP.           NO      :   One line per depth step
~Well Information Section
#MNEM       .UNIT                                         VALUE :DESCRIPTION
#------------------------------------------------------------------------------
STRT        .FT                                            4496 :START DEPTH
STOP        .FT                                            7801 :STOP DEPTH
STEP        .FT                                             0.5 :STEP      
NULL        .                                           -999.25 :NULL      
COMP        .                             HELIS WM G CO LLC THE :COMPANY   
WELL        .                               OCS G12508 ST00BP00 :WELL      
FLD         .                              GALVESTON BLOCK 0395 :FIELD     
LOC         .                                                   :LOCATION  
CNTY        .                             GALVESTON LARGE BLOCK :LOCATION  
STAT        .                                             TEXAS :STATE     
CTRY        .                                     UNITED STATES :COUNTRY   
SRVC        .                                                   :SERVICE COMPANY
DATE        .                             9/13/2023 11:19:03 AM :LOG DATE  
API         .                                    42706404300000 :API NUMBER
UWI         .                                    42706404300000 :UNIQUE WELL ID
XCOORD      .                                  908236.382466376 :SURFACE X 
YCOORD      .                                  10386259.9403327 :SURFACE Y 
LAT         .                                         28.601028 :LATITUDE  
LON         .                                        -95.282181 :LONGITUDE 
ELEV        .FT                                             103 :ELEVATION VALUE
ELEV_TYPE   .                                                KB :ELEVATION REFERENCE TYPE
~Curve Information Section
#MNEM       .UNIT                                      API CODE :CURVE DESCRIPTION
#------------------------------------------------------------------------------
DEPT        .FT                                                 :DEPTH     
AHT10       .OHMM                                               :          
AHT20       .OHMM                                               :          
AHT30       .OHMM                                               :          
AHT60       .OHMM                                               :          
AHT90       .OHMM                                               :          
CPCHM       .MMHO                                               :          
DCAL        .IN                                                 :          
DPHZ        .FRAC                                               :          
GR          .GAPI                                               :          
GR_NORM     .GAPI                                               :GammaRay Normalized
GRAM        .GAPI                                               :          
HDRA        .G/CC                                               :          
NPOR        .FRAC                                               :          
RACHM       .OHMM                                               :          
ROPS        .F/HR                                               :          
RPCHM       .OHMM                                               :          
RWA         .OHMM                                               :          
SP          .MV                                                 :          
SP_NORM     .MV                                                 :SP Normalized
TENS        .LB/F                                               :          
VSH_GR      .V/V                                                :Volume of Shale from GR
VSH_SP      .V/V                                                :Volume of Shale from SP
~A        DEPTH          AHT10          AHT20          AHT30          AHT60          AHT90          CPCHM           DCAL           DPHZ             GR        GR_NORM           GRAM           HDRA           NPOR          RACHM           ROPS          RPCHM            RWA             SP        SP_NORM           TENS         VSH_GR         VSH_SP
# ...
      6032.0000         0.2837         0.2266         0.2116         0.2095         0.2189       3060.089        -0.3629         0.3433         41.277       44.12843         42.874        -0.0196         0.3874          0.302         80.079          0.257         0.0354        -76.875      -63.29995           2871       0.236775     0.09571501
      6032.5000         0.2788         0.2243         0.2112         0.2133         0.2208       3177.697         -0.375         0.3396        36.7878       37.69086          43.32         -0.017         0.3683           0.29         80.079          0.273         0.0349        -76.375      -62.60591           2903     0.09980555      0.1056299
      6033.0000         0.3017         0.2414         0.2258         0.2316         0.2402       3823.952         -0.399         0.2984        36.1909       36.83212         41.842        -0.0038         0.3726          0.272         80.079          0.257         0.0288       -74.8125      -60.42437           2929     0.08153436      0.1367947
      6033.5000         0.3933         0.3015         0.2826         0.2911         0.2974        3875.55         -0.423         0.2149        34.1536       33.90886         39.566         0.0166         0.3232          0.252        117.768          0.229         0.0176       -72.9375      -57.80532           2906     0.01933743      0.1742098
      6034.0000         0.6483         0.4354          0.404         0.4171         0.4264       3908.655        -0.4471         0.1409        34.2965       34.11048         37.047         0.0319         0.2001          0.237        117.768          0.221         0.0102        -70.125      -53.87378           2867     0.02362718      0.2303746
      6034.5000         1.0434         0.5962         0.5255         0.5304         0.5432       4319.664        -0.1826         0.1383        33.8149       33.41701         36.564         0.0317         0.1245          0.233        117.768          0.211         0.0125       -67.6875      -50.46724           2842    0.008872499      0.2790394
      6035.0000         0.9593         0.5904         0.5201         0.5302          0.535       4557.279        -0.1345         0.2075        35.0786       35.22507         37.006         0.0165         0.1674           0.23        117.768          0.211         0.0294       -67.1875      -49.77319           2831     0.04734185      0.2889544
      6035.5000         0.6535         0.5005         0.4538         0.4501         0.4397       4814.532         0.0699         0.2757        37.0029       37.97997         36.539         0.0009         0.2977          0.231        105.102          0.235         0.0444            -67      -49.51665           2823      0.1059568      0.2926193
      6036.0000         0.5437         0.4349         0.4032         0.4045         0.3951       4409.667         0.1059         0.3111        38.9238       40.72999         36.564        -0.0096         0.4199          0.233        105.102           0.29         0.0518       -67.1875      -49.78511           2814      0.1644679      0.2887842
      6036.5000         0.4772         0.4068         0.3758         0.3759         0.3658       3666.845         0.8513         0.3128        38.7132       40.42495         36.352        -0.0148          0.373          0.235        105.102          0.256         0.0485       -67.6875      -50.49106           2815      0.1579776      0.2786991
      6037.0000         0.4514         0.3939         0.3662         0.3661         0.3537       3888.167         0.9234         0.3141        38.9681       40.78709         36.394        -0.0179         0.3605          0.232        105.102          0.197         0.0473       -69.0625      -52.42202           2879      0.1656828       0.251114
      6037.5000         0.4783         0.3992         0.3757         0.3778          0.363       4361.549         2.0054         0.3179        35.8322        36.2892         36.401        -0.0165         0.3654          0.258        123.934          0.246         0.0498       -69.1875      -52.60298           2869     0.06998298      0.2485289
      6038.0000         0.5398         0.4184         0.3975         0.3994         0.3816       4243.575         0.5147         0.3283        38.3595       39.90839         40.335        -0.0158          0.358          0.265        123.934          0.252         0.0561        -67.125      -49.72143           2879      0.1469871      0.2896938
      6038.5000         0.5993         0.4393         0.4232         0.4228         0.4045       4174.335        -0.1586         0.3239         40.045       42.32101         44.662        -0.0162         0.3651           0.27        123.934          0.262         0.0578         -65.25      -47.10239           2876      0.1983194      0.3271088
      6039.0000         0.6486          0.462         0.4486         0.4427          0.427       3951.716        -0.1586         0.2935        45.4977       50.13317         44.948        -0.0172          0.381            0.3        123.934          0.307         0.0494            -63      -43.95834           2880      0.3645355      0.3720237
      6039.5000         0.7009         0.4761         0.4633         0.4498         0.4389       3433.705        -0.1345          0.249        51.1707       58.26108         46.178         -0.018         0.4088          0.294        109.816          0.269         0.0356            -61       -41.1643           2876      0.5374698      0.4119385
      6040.0000         0.6414         0.4495         0.4345         0.4155         0.4125        3492.16        -0.2547         0.2442        51.1646       58.24915         40.124        -0.0251         0.4212          0.267        109.816          0.258         0.0321       -60.6875      -40.73276           2878      0.5372159      0.4181035
      6040.5000          0.509         0.3924         0.3784         0.3575         0.3573       3823.952         -0.399         0.2531        50.5388       57.34898         37.443        -0.0372         0.4346          0.269        109.816           0.28           0.03        -67.125      -49.75122           2872      0.5180634      0.2892683
      6041.0000         0.4192         0.3357         0.3203         0.3031         0.3077       3727.348        -0.3629         0.2334        44.8659       49.21482         37.625        -0.0351         0.3856          0.276        109.816          0.356         0.0217       -71.9375      -56.49467           2878      0.3449962      0.1929333
      6041.5000         0.4045          0.339         0.3214         0.3007         0.2988       3541.609        -0.0624           0.15        40.2856       42.64667         36.916        -0.0143            0.3          0.276         63.753          0.307         0.0082        -71.625      -56.06313           2838      0.2052483      0.1990982
      6042.0000         0.4511         0.3577         0.3357         0.3097         0.3102       3224.094        -0.0624         0.1035        38.3592       39.88237         37.893         0.0058         0.1822          0.254         63.753          0.228         0.0038       -72.1875      -56.85659           2852      0.1464333      0.1877631
      6042.5000         0.4729          0.361         0.3296         0.3036          0.297       4104.641        -0.0864         0.1417        37.7274       38.97361         39.066         0.0054          0.251          0.256         63.753           0.24         0.0072       -70.9375      -55.11255           2868      0.1270981      0.2126779
      6043.0000         0.4435         0.3402          0.311          0.287         0.2764       4295.952         0.0578          0.233        44.7029        48.9684         41.055        -0.0071         0.3201          0.261         63.753           0.25         0.0194          -71.5      -55.90599           2876      0.3397531      0.2013429
      6043.5000         0.4333         0.3269         0.3012         0.2792         0.2682       4220.361        -0.2788         0.3023        45.3595        49.9063         40.301        -0.0194         0.4161           0.26         92.667          0.246          0.033       -72.1875      -56.87445           2876      0.3597085      0.1875078
