#------------------------------------------------------------------------------
# Created by    : vladimir.rabinovich
# Created on    : 09/19/2023 17:20:32
#------------------------------------------------------------------------------
~Version Information Section
VERS.           2.0     :   CWLS log ASCII Standard - VERSION 2.0
WRAP.           NO      :   One line per depth step
~Well Information Section
#MNEM       .UNIT                                         VALUE :DESCRIPTION
#------------------------------------------------------------------------------
STRT        .FT                                             530 :START DEPTH
STOP        .FT                                           15895 :STOP DEPTH
STEP        .FT                                             0.5 :STEP      
NULL        .                                           -999.25 :NULL      
COMP        .                                      SHELL OIL CO :COMPANY   
WELL        .                                OCS 00708 ST00BP00 :WELL      
FLD         .                                FEDERAL BLOCK 0288 :FIELD     
LOC         .                                                   :LOCATION  
CNTY        .                             GALVESTON LARGE BLOCK :LOCATION  
STAT        .                                             TEXAS :STATE     
CTRY        .                                     UNITED STATES :COUNTRY   
SRVC        .                                                   :SERVICE COMPANY
DATE        .                             9/13/2023 11:19:24 AM :LOG DATE  
API         .                                    42706000930000 :API NUMBER
UWI         .                                    42706000930000 :UNIQUE WELL ID
XCOORD      .                                  1077631.85251343 :SURFACE X 
YCOORD      .                                  10490946.9562601 :SURFACE Y 
LAT         .                                         28.896779 :LATITUDE  
LON         .                                        -94.759235 :LONGITUDE 
ELEV        .FT                                              76 :ELEVATION VALUE
ELEV_TYPE   .                                                KB :ELEVATION REFERENCE TYPE
~Curve Information Section
#MNEM       .UNIT                                      API CODE :CURVE DESCRIPTION
#------------------------------------------------------------------------------
DEPT        .FT                                                 :DEPTH     
ASN         .OHMM                                               :          
CILD        .MMHO                                               :          
SP          .MV                                                 :          
SP_NORM     .MV                                                 :SP Normalized
VSH_SP      .V/V                                                :Volume of Shale from SP
~A        DEPTH            ASN           CILD             SP        SP_NORM         VSH_SP
# ...
      4622.0000         0.5461        2932.75      -101.4824       -39.1931      0.3179803
      4622.5000         0.5274           3176      -104.0547      -41.76369      0.2720769
      4623.0000         0.5087       3770.375      -105.7188      -43.42607      0.2423915
      4623.5000           0.49        3891.75      -107.2227      -44.92826      0.2155668
      4624.0000         0.4713       3957.344      -108.3887      -46.09254      0.1947761
      4624.5000         0.4568       3994.625      -109.4053      -47.10742      0.1766533
      4625.0000         0.4425        4057.25      -109.1475       -46.8479      0.1812874
      4625.5000         0.4281       4107.719      -107.4844      -45.18309      0.2110163
      4626.0000         0.4196        4155.75      -106.0756      -43.77257      0.2362041
      4626.5000         0.4135       4016.875      -105.9015      -43.59675      0.2393437
      4627.0000         0.4305       4000.383      -105.9878      -43.68134      0.2378332
      4627.5000         0.4559       3994.125      -106.5332      -44.22503      0.2281245
      4628.0000         0.4823       3863.125      -107.0781      -44.76821      0.2184248
      4628.5000         0.5088           3515      -107.6235      -45.31189      0.2087163
      4629.0000         0.5353       3240.125      -108.1611      -45.84778      0.1991468
      4629.5000         0.5621       3259.203      -108.6807      -46.36566      0.1898989
      4630.0000         0.5913       3291.625      -109.2007      -46.88394      0.1806439
      4630.5000         0.5813         3573.5      -109.7202      -47.40173      0.1713978
      4631.0000         0.5515       3750.188      -110.2402      -47.92001      0.1621427
      4631.5000         0.5339       3811.375      -110.6729      -48.35099      0.1544465
      4632.0000          0.524       3865.719      -110.8694      -48.54578      0.1509682
      4632.5000         0.5142       3919.781      -111.0659      -48.74057      0.1474899
      4633.0000         0.5044       3984.125      -111.2625      -48.93544      0.1440099
      4633.5000         0.4946       4369.688      -111.4294      -49.10063      0.1410602
      4634.0000         0.4847       4477.875      -111.4056      -49.07512      0.1415158
      4634.5000         0.4749       4495.961      -111.3818      -49.04959      0.1419715
      4635.0000         0.4651       4490.688      -111.4011      -49.06718      0.1416575
      4635.5000          0.461         4441.5      -111.6763      -49.34067      0.1367738
      4636.0000          0.461           4208      -111.9514      -49.61405      0.1318919
      4636.5000         0.4742       3904.125       -112.248      -49.90894      0.1266261
      4637.0000         0.4932       3781.125      -112.6292      -50.28842      0.1198496
      4637.5000         0.5194       3711.469        -113.01       -50.6675      0.1130803
      4638.0000         0.5456        3683.75      -113.3909      -51.04668      0.1063092
      4638.5000         0.5775        3655.75      -113.4656      -51.11967      0.1050059
      4639.0000          0.655       3627.625      -113.3054      -50.95775      0.1078973
      4639.5000         0.6958       3623.906      -113.2238      -50.87444       0.109385
      4640.0000         0.7332        3696.25       -113.142      -50.79092      0.1108764
      4640.5000         0.7416        3868.75      -113.0603      -50.70751      0.1123659
      4641.0000         0.6819       4225.258      -112.9786      -50.62409      0.1138556
      4641.5000         0.6244       4211.398       -112.895      -50.53877      0.1153791
      4642.0000          0.599       4197.539       -112.807      -50.44905      0.1169812
      4642.5000         0.5736           4145      -112.7195      -50.35984      0.1185743
      4643.0000         0.5687           4088      -112.6368      -50.27542      0.1200817
      4643.5000         0.5764        4037.25      -112.3406       -49.9775      0.1254017
      4644.0000          0.587       3971.281      -111.8379      -49.47309      0.1344091
      4644.5000         0.6122       3919.688      -109.7695      -47.40298      0.1713754
      4645.0000         0.6413        3373.25      -107.7012      -45.33296        0.20834
      4645.5000         0.6703        3030.75      -105.5859      -43.21594      0.2461439
      4646.0000         0.6995           2688      -103.2812      -40.90952      0.2873299
      4646.5000         0.7096         2345.5       -96.9922      -34.61881      0.3996641
      4647.0000          0.698       2051.125       -93.2871      -30.91199      0.4658572
      4647.5000         0.6816       1954.625       -89.8184      -27.44157      0.5278291
      4648.0000         0.6627       1998.328       -85.6309      -23.25236      0.6026364
      4648.5000         0.6437         2022.5       -83.1992      -20.81895      0.6460901
      4649.0000         0.6247       2277.625        -81.999      -19.61703       0.667553
      4649.5000         0.6066           2424       -81.1885      -18.80481      0.6820569
      4650.0000         0.5982       2514.727        -80.374       -17.9886      0.6966322
      4650.5000         0.5899       2526.352       -79.4414      -17.05428      0.7133164
      4651.0000         0.5816       2537.977       -78.5078      -16.11896      0.7300186
      4651.5000         0.5732       2549.609       -77.7607      -15.37014      0.7433903
      4652.0000         0.5649       2561.234       -77.3062      -14.91393       0.751537
      4652.5000         0.5568       2576.469       -76.4712      -14.07722      0.7664782
      4653.0000         0.5534           2593       -77.6641       -15.2684      0.7452071
      4653.5000           0.55       2609.516       -80.6953      -18.29788      0.6911092
      4654.0000         0.5466       2638.344       -82.4824      -20.08327      0.6592274
      4654.5000         0.5571       2639.938        -84.167      -21.76615      0.6291758
      4655.0000         0.5815       2606.938       -86.7832      -24.38064      0.5824886
      4655.5000         0.6063       2578.531       -89.8086      -27.40432      0.5284943
      4656.0000         0.6312       2550.094       -92.8945       -30.4885      0.4734196
      4656.5000          0.658       2521.688       -95.9805      -33.57279      0.4183431
      4657.0000         0.6854       2484.531       -96.9019      -34.49247      0.4019201
      4657.5000         0.6984       2447.484        -97.686      -35.27485       0.387949
      4658.0000         0.6888         2429.5       -98.2305      -35.81764      0.3782565
      4658.5000         0.6792       2411.516       -97.6963      -35.28172      0.3878264
      4659.0000         0.6723       2396.773       -97.0562       -34.6399      0.3992874
      4659.5000         0.6799       2387.297        -96.416      -33.99799      0.4107502
      4660.0000         0.6875        2377.82       -95.7754      -33.35567      0.4222202
      4660.5000         0.6901       2365.781       -96.3203      -33.89885      0.4125205
      4661.0000         0.6832         2607.5       -97.3457      -34.92255      0.3942402
      4661.5000         0.6762       2867.313       -99.8867      -37.46183      0.3488959
      4662.0000         0.6693        2999.75       -101.749      -39.32241      0.3156712
      4662.5000         0.6623       3051.344      -103.2334      -40.80509      0.2891948
      4663.0000         0.6554       3091.156      -104.2339      -41.80388      0.2713593
      4663.5000         0.6484       3106.211      -104.3394      -41.90766       0.269506
      4664.0000         0.6398       3121.617      -103.6914      -41.25794      0.2811082
      4664.5000         0.6311       3019.625      -100.6055      -38.17033      0.3362442
      4665.0000         0.6223        2841.25       -97.1406      -34.70372      0.3981479
      4665.5000         0.6135       2579.875       -92.9883      -30.54969      0.4723269
