#------------------------------------------------------------------------------
# Created by    : vladimir.rabinovich
# Created on    : 09/19/2023 17:20:37
#------------------------------------------------------------------------------
~Version Information Section
VERS.           2.0     :   CWLS log ASCII Standard - VERSION 2.0
WRAP.           NO      :   One line per depth step
~Well Information Section
#MNEM       .UNIT                                         VALUE :DESCRIPTION
#------------------------------------------------------------------------------
STRT        .FT                                             495 :START DEPTH
STOP        .FT                                            7007 :STOP DEPTH
STEP        .FT                                             0.5 :STEP      
NULL        .                                           -999.25 :NULL      
COMP        .                                      SHELL OIL CO :COMPANY   
WELL        .                                OCS 00718 ST00BP00 :WELL      
FLD         .                                           WILDCAT :FIELD     
LOC         .                                                   :LOCATION  
CNTY        .                             GALVESTON LARGE BLOCK :LOCATION  
STAT        .                                             TEXAS :STATE     
CTRY        .                                     UNITED STATES :COUNTRY   
SRVC        .                                                   :SERVICE COMPANY
DATE        .                             9/13/2023 11:19:25 AM :LOG DATE  
API         .                                    42706000330000 :API NUMBER
UWI         .                                    42706000330000 :UNIQUE WELL ID
XCOORD      .                                  1012682.17104467 :SURFACE X 
YCOORD      .                                  10442833.5651685 :SURFACE Y 
LAT         .                                         28.761679 :LATITUDE  
LON         .                                        -94.959691 :LONGITUDE 
ELEV        .FT                                              75 :ELEVATION VALUE
ELEV_TYPE   .                                                KB :ELEVATION REFERENCE TYPE
~Curve Information Section
#MNEM       .UNIT                                      API CODE :CURVE DESCRIPTION
#------------------------------------------------------------------------------
DEPT        .FT                                                 :DEPTH     
ASN         .OHMM                                               :          
CILD        .MMHO                                               :          
DT          .US/F                                               :          
ILD         .OHMM                                               :          
LAT         .OHMM                                               :          
LN          .OHMM                                               :          
SP          .MV                                                 :          
SP_NORM     .MV                                                 :SP Normalized
VSH_SP      .V/V                                                :Volume of Shale from SP
~A        DEPTH            ASN           CILD             DT            ILD            LAT             LN             SP        SP_NORM         VSH_SP
# ...
      6113.0000         0.6374       1657.242         81.655         0.6044        -999.25        -999.25       -40.3909     -0.4533511      0.9930254
      6113.5000          0.621       1718.291        82.3831          0.599        -999.25        -999.25        -40.553     -0.6413507       0.990133
      6114.0000         0.6123       1776.365        83.3229         0.5944        -999.25        -999.25        -40.645     -0.7480479      0.9884916
      6114.5000         0.6138       1793.588        84.0565         0.5919        -999.25        -999.25       -40.6226     -0.7220693      0.9888912
      6115.0000         0.6185       1793.475        83.1768         0.5886        -999.25        -999.25       -40.5106     -0.5921764      0.9908896
      6115.5000         0.6148        1783.24        82.0618         0.5836        -999.25        -999.25       -40.1343     -0.1557565      0.9976038
      6116.0000         0.6152       1757.045        80.4529           0.58        -999.25        -999.25       -39.6046      0.4585716              1
      6116.5000         0.6211       1734.174        79.3798         0.5789        -999.25        -999.25       -39.1877      0.9420776              1
      6117.0000         0.6292       1720.434        78.2756         0.5834        -999.25        -999.25       -39.2438      0.8770117              1
      6117.5000         0.6416       1706.693        78.7306         0.5957        -999.25        -999.25       -39.6608      0.3933906              1
      6118.0000         0.6558       1692.762        81.0941         0.6124        -999.25        -999.25       -40.1212      -0.140564      0.9978375
      6118.5000         0.6707       1678.828          83.75          0.627        -999.25        -999.25       -40.7842      -0.909485      0.9860079
      6119.0000          0.694       1668.887        86.6461         0.6397        -999.25        -999.25       -41.5745      -1.826048       0.971907
      6119.5000         0.7018       1675.965        89.2998         0.6446        -999.25        -999.25       -42.0621      -2.391547      0.9632069
      6120.0000         0.6863       1683.051        86.8546          0.635        -999.25        -999.25       -42.2648      -2.626633      0.9595903
      6120.5000         0.6671       1690.129        86.3923         0.6268        -999.25        -999.25       -43.2696      -3.791962      0.9416621
      6121.0000         0.6519       1700.246        89.6602         0.6231        -999.25        -999.25       -44.3584       -5.05471      0.9222353
      6121.5000         0.6521       1711.676        91.2062         0.6191        -999.25        -999.25       -44.5855      -5.318093      0.9181832
      6122.0000         0.6564       1709.029        90.2878         0.6136        -999.25        -999.25       -43.3093      -3.838004      0.9409538
      6122.5000         0.6506       1697.473        87.6908          0.612        -999.25        -999.25        -42.434      -2.822862      0.9565713
      6123.0000         0.6427       1682.561        83.4554         0.6167        -999.25        -999.25       -42.3335      -2.706308      0.9583645
      6123.5000         0.6465       1653.975        81.0375         0.6266        -999.25        -999.25       -42.5903      -3.004137      0.9537825
      6124.0000         0.6762       1627.688        78.9277         0.6396        -999.25        -999.25       -42.6322      -3.052727       0.953035
      6124.5000         0.7225       1600.883        78.3822         0.6561        -999.25        -999.25        -42.457      -2.849539       0.956161
      6125.0000         0.7531       1576.941         77.696         0.6702        -999.25        -999.25       -42.1507      -2.494303      0.9616261
      6125.5000         0.7456       1558.592        76.9403         0.6742        -999.25        -999.25       -41.7839      -2.068903      0.9681707
      6126.0000         0.7421       1545.934        76.4854          0.681        -999.25        -999.25       -41.3906      -1.612765      0.9751883
      6126.5000         0.7454        1530.57        76.2994         0.6904        -999.25        -999.25       -41.0088       -1.16997      0.9820005
      6127.0000         0.7533       1510.145        76.7874         0.6982        -999.25        -999.25       -40.7306     -0.8473213      0.9869643
      6127.5000         0.7621       1514.688        78.1663         0.6985        -999.25        -999.25       -40.6333     -0.7344791      0.9887003
      6128.0000         0.7739       1519.748        79.6846         0.7008        -999.25        -999.25       -40.9194      -1.066285      0.9835956
      6128.5000         0.7748       1510.979         80.693         0.7004        -999.25        -999.25       -41.3139      -1.523813      0.9765567
      6129.0000         0.7581       1495.965        81.7344         0.6888        -999.25        -999.25       -41.8515      -2.147303      0.9669645
      6129.5000         0.7322       1473.805        81.8011         0.6767        -999.25        -999.25        -42.556      -2.964355      0.9543945
      6130.0000         0.7088       1440.732        79.2268         0.6808        -999.25        -999.25        -43.399      -3.942034      0.9393533
      6130.5000         0.7303        1378.24        75.0934         0.7051        -999.25        -999.25       -44.0587      -4.707132      0.9275826
      6131.0000         0.7734        1335.43        71.5651         0.7347        -999.25        -999.25       -43.8452      -4.459521       0.931392
      6131.5000         0.8347       1310.609        69.8779         0.7678        -999.25        -999.25       -43.4694      -4.023681      0.9380972
      6132.0000         0.8825       1285.789         71.173         0.8117        -999.25        -999.25       -43.1697      -3.676102      0.9434446
      6132.5000         0.9075       1264.891        73.0336         0.8499        -999.25        -999.25       -43.0537      -3.541569      0.9455143
      6133.0000         0.9188       1242.482        74.7411         0.8626        -999.25        -999.25       -42.7927      -3.238873      0.9501712
      6133.5000         0.9195       1221.336        76.1608         0.8589        -999.25        -999.25       -42.4655      -2.859396      0.9560093
      6134.0000          0.909        1201.52        77.4729         0.8451        -999.25        -999.25       -42.1606      -2.505783      0.9614495
      6134.5000         0.8927       1244.061        78.9266         0.8147        -999.25        -999.25        -41.705      -1.977399      0.9695785
      6135.0000         0.8731       1325.984        80.0585         0.7747        -999.25        -999.25       -41.0386      -1.204531      0.9814687
      6135.5000         0.8489       1370.486        80.9366         0.7336        -999.25        -999.25       -40.5345     -0.6198937      0.9904632
      6136.0000         0.8223       1438.297        81.0347            0.7        -999.25        -999.25        -40.255     -0.2957409      0.9954501
      6136.5000         0.7966       1493.033        80.6007          0.681        -999.25        -999.25        -40.272     -0.3154549      0.9951469
      6137.0000         0.7708        1517.01        80.0743         0.6757        -999.25        -999.25       -40.3318     -0.3848078      0.9940799
      6137.5000         0.7434       1528.281        79.6691         0.6759        -999.25        -999.25       -40.1371     -0.1590038      0.9975538
      6138.0000         0.7149       1537.209        79.2609         0.6818        -999.25        -999.25       -39.9441     0.06483144              1
      6138.5000         0.7139       1546.125        77.6587         0.6881        -999.25        -999.25       -39.6957      0.3529141              1
      6139.0000         0.7255       1542.541         76.501         0.7021        -999.25        -999.25       -39.4749      0.6089925              1
