#------------------------------------------------------------------------------
# Created by    : vladimir.rabinovich
# Created on    : 09/19/2023 17:21:34
#------------------------------------------------------------------------------
~Version Information Section
VERS.           2.0     :   CWLS log ASCII Standard - VERSION 2.0
WRAP.           NO      :   One line per depth step
~Well Information Section
#MNEM       .UNIT                                         VALUE :DESCRIPTION
#------------------------------------------------------------------------------
STRT        .FT                                            4495 :START DEPTH
STOP        .FT                                            9058 :STOP DEPTH
STEP        .FT                                             0.5 :STEP      
NULL        .                                           -999.25 :NULL      
COMP        .                          SEAGULL ENERGY E & P INC :COMPANY   
WELL        .                               OCS G11322 ST00BP00 :WELL      
FLD         .                                           WILDCAT :FIELD     
LOC         .                                                   :LOCATION  
CNTY        .                             GALVESTON LARGE BLOCK :LOCATION  
STAT        .                                             TEXAS :STATE     
CTRY        .                                     UNITED STATES :COUNTRY   
SRVC        .                                                   :SERVICE COMPANY
DATE        .                             9/13/2023 11:19:34 AM :LOG DATE  
API         .                                    42706402570000 :API NUMBER
UWI         .                                    42706402570000 :UNIQUE WELL ID
XCOORD      .                                  1032943.49501878 :SURFACE X 
YCOORD      .                                  10418025.6284813 :SURFACE Y 
LAT         .                                         28.694364 :LATITUDE  
LON         .                                        -94.895236 :LONGITUDE 
ELEV        .FT                                              97 :ELEVATION VALUE
ELEV_TYPE   .                                                KB :ELEVATION REFERENCE TYPE
~Curve Information Section
#MNEM       .UNIT                                      API CODE :CURVE DESCRIPTION
#------------------------------------------------------------------------------
DEPT        .FT                                                 :DEPTH     
CALI        .IN                                                 :          
DCAL        .IN                                                 :          
DPHI        .%                                                  :          
DRHO        .G/C3                                               :          
GR          .GAPI                                               :          
GR_1        .GAPI                                               :          
GR_NORM     .GAPI                                               :GammaRay Normalized
ILD         .OHMM                                               :          
ILM         .OHMM                                               :          
NPHI        .%                                                  :          
SGRD        .OHMM                                               :          
SP          .MV                                                 :          
SP_NORM     .MV                                                 :SP Normalized
VSH_GR      .V/V                                                :Volume of Shale from GR
VSH_SP      .V/V                                                :Volume of Shale from SP
~A        DEPTH           CALI           DCAL           DPHI           DRHO             GR           GR_1        GR_NORM            ILD            ILM           NPHI           SGRD             SP        SP_NORM         VSH_GR         VSH_SP
# ...
      8133.0000        -999.25         0.0269        20.2522        -0.0644        -999.25        57.5941       60.20821         0.3176         0.3706        40.5199         0.6569       -77.8602      -35.63797       0.578898      0.4060338
      8133.5000        -999.25         0.0732         20.158         -0.058        -999.25        58.2218       60.99753         0.3181         0.3616        39.5501         0.6738       -76.2821      -34.05987      0.5956921      0.4323355
      8134.0000        -999.25          0.134        21.3138        -0.0502        -999.25        60.5297       63.89967         0.3229         0.3556        38.8971         0.6552       -71.8772      -29.65497      0.6574399      0.5057505
      8134.5000        -999.25         0.1824         22.335        -0.0426        -999.25        64.8029       69.27315         0.3286         0.3576        39.2333           0.63       -67.3036      -25.08137      0.7717691      0.5819771
      8135.0000        -999.25         0.1966        23.1219        -0.0362        -999.25         68.254       73.61283         0.3314         0.3636        39.8256         0.6147       -64.0421      -21.81987      0.8641028      0.6363354
      8135.5000        -999.25         0.2212        23.1149        -0.0315        -999.25        67.5691       72.75158          0.332         0.3701        40.4148           0.61       -62.6761      -20.45388      0.8457783      0.6591021
      8136.0000        -999.25         0.2344        21.9847        -0.0313        -999.25        62.9745       66.97397         0.3228         0.3769        40.7573         0.6161       -66.9559      -24.73368      0.7228504      0.5877721
      8136.5000        -999.25         0.2265        21.6314        -0.0351        -999.25        56.7043       59.08929         0.3029         0.3688        40.3557         0.6492        -75.576      -33.35377      0.5550914      0.4441038
      8137.0000        -999.25         0.2235        23.6021        -0.0427        -999.25        52.0939        53.2918         0.2797         0.3423        39.7151         0.6802       -84.4597      -42.23748      0.4317404      0.2960421
      8137.5000        -999.25         0.2182        26.0928        -0.0499        -999.25        49.4224       49.93244         0.2576         0.3198        39.1018         0.6845       -88.6328      -46.41057      0.3602646      0.2264905
      8138.0000        -999.25         0.1897        28.2098        -0.0558        -999.25          47.71       47.77912         0.2412         0.3015        38.5134         0.6468       -90.5903      -48.36808      0.3144494      0.1938654
      8138.5000        -999.25         0.1591        29.7245        -0.0622        -999.25        47.1884       47.12322          0.233         0.2875        38.0615         0.6132       -90.9368      -48.71457      0.3004941      0.1880905
      8139.0000        -999.25         0.1327        30.0358        -0.0666        -999.25         47.068       46.97182         0.2268         0.2764        38.2479         0.6051       -90.7938      -48.57158      0.2972729      0.1904738
      8139.5000        -999.25         0.1431        30.0781        -0.0685        -999.25        47.6362       47.68633         0.2213         0.2683        38.4644          0.624       -90.0317      -47.80947       0.312475      0.2031754
      8140.0000        -999.25         0.1614         30.107        -0.0681        -999.25        50.1575       50.85681         0.2191         0.2624        38.5791         0.6465       -88.4958      -46.27357      0.3799322      0.2287738
      8140.5000        -999.25          0.181        30.2584        -0.0689        -999.25           52.9       54.30546         0.2228         0.2595        38.2834         0.6563       -85.2659      -43.04367      0.4533076      0.2826054
      8141.0000        -999.25         0.1872        30.0288        -0.0675        -999.25        56.1036       58.33393         0.2283          0.263         38.067         0.6116       -80.5764      -38.35418      0.5390197      0.3607637
      8141.5000        -999.25         0.1927          29.34        -0.0598        -999.25        58.8304       61.76283         0.2362         0.2694         37.887         0.5694       -74.6593      -32.43708      0.6119751      0.4593821
      8142.0000        -999.25         0.2108        28.1413        -0.0499        -999.25        60.5191       63.88634         0.2414         0.2779        38.2215         0.5346       -71.5531      -29.33088      0.6571561      0.5111521
      8142.5000        -999.25         0.2303        26.7123        -0.0462        -999.25        62.4252       66.28323         0.2392         0.2825        38.6527         0.5096       -71.5162      -29.29397      0.7081537      0.5117671
      8143.0000        -999.25         0.2023        26.3504        -0.0446        -999.25        61.1435       64.67152          0.236         0.2802        38.7975         0.5402       -76.6826      -34.46038       0.673862      0.4256604
      8143.5000        -999.25          0.176        27.3817         -0.043        -999.25        58.8146       61.74297         0.2406         0.2777        38.7578         0.5782       -81.0085      -38.78627      0.6115525      0.3535621
      8144.0000        -999.25         0.1532        28.5274        -0.0452        -999.25        56.5515       58.89715         0.2487         0.2779        38.3818         0.5878       -82.9489      -40.72667      0.5510032      0.3212221
      8144.5000        -999.25         0.1402        29.3189         -0.051        -999.25        54.5005       56.31805         0.2569         0.2831         37.928         0.5733       -78.2001      -35.97788      0.4961288      0.4003687
      8145.0000        -999.25         0.1583        29.3306        -0.0528        -999.25        53.9683       55.64883          0.264         0.2906        37.6167         0.5684       -74.3589      -32.13668      0.4818899      0.4643887
      8145.5000        -999.25         0.1857        28.2005         -0.051        -999.25        56.1194        58.3538         0.2695          0.299        37.2634         0.5741       -71.8225      -29.60028      0.5394425      0.5066621
      8146.0000        -999.25         0.2067        26.6189        -0.0475        -999.25        58.9068        61.8589         0.2709         0.3069        36.6718         0.5941       -71.4996      -29.27738      0.6140191      0.5120437
      8146.5000        -999.25         0.2259        25.4078        -0.0446        -999.25        60.9432       64.41964         0.2723         0.3149        36.1462         0.6191       -75.3864      -33.16417       0.668503      0.4472638
      8147.0000        -999.25         0.2023        25.2475        -0.0441        -999.25         58.501       61.34861         0.2731         0.3235        36.4648         0.6227       -80.2445      -38.02227       0.603162      0.3662954
      8147.5000        -999.25         0.1767         26.566        -0.0427        -999.25         55.769       57.91317         0.2719         0.3205        36.9333         0.6231        -83.859      -41.63678      0.5300675      0.3060537
      8148.0000        -999.25         0.1914        28.1693        -0.0412        -999.25        53.2162       54.70308         0.2671          0.312        37.2984         0.6276       -86.4541      -44.23188      0.4617676      0.2628021
      8148.5000        -999.25         0.1949        29.5797        -0.0435        -999.25        51.7975       52.91909         0.2548         0.3022        37.5284         0.6425       -87.3116      -45.08937      0.4238104      0.2485104
      8149.0000        -999.25         0.1901        30.4265        -0.0455        -999.25        51.6562        52.7414         0.2425         0.2944        37.3805         0.6448        -86.433      -44.21077      0.4200298      0.2631538
      8149.5000        -999.25         0.1825        30.5549        -0.0446        -999.25        51.5999        52.6706         0.2326         0.2868        37.1268         0.6378       -84.6626      -42.44037      0.4185235      0.2926604
