#------------------------------------------------------------------------------
# Created by    : vladimir.rabinovich
# Created on    : 09/19/2023 17:21:39
#------------------------------------------------------------------------------
~Version Information Section
VERS.           2.0     :   CWLS log ASCII Standard - VERSION 2.0
WRAP.           NO      :   One line per depth step
~Well Information Section
#MNEM       .UNIT                                         VALUE :DESCRIPTION
#------------------------------------------------------------------------------
STRT        .FT                                             930 :START DEPTH
STOP        .FT                                           10010 :STOP DEPTH
STEP        .FT                                             0.5 :STEP      
NULL        .                                           -999.25 :NULL      
COMP        .                 FAIRWAYS SPEC SALES & SERVICE INC :COMPANY   
WELL        .                               OCS G02357 ST00BP00 :WELL      
FLD         .                            HIGH ISLAND BLOCK 0154 :FIELD     
LOC         .                                                   :LOCATION  
CNTY        .                           HIGH ISLAND LARGE BLOCK :LOCATION  
STAT        .                                             TEXAS :STATE     
CTRY        .                                     UNITED STATES :COUNTRY   
SRVC        .                                                   :SERVICE COMPANY
DATE        .                             9/13/2023 11:20:04 AM :LOG DATE  
API         .                                    42708400540000 :API NUMBER
UWI         .                                    42708400540000 :UNIQUE WELL ID
XCOORD      .                                  1183911.52517142 :SURFACE X 
YCOORD      .                                  10615048.6542629 :SURFACE Y 
LAT         .                                         29.242029 :LATITUDE  
LON         .                                        -94.431816 :LONGITUDE 
ELEV        .FT                                              73 :ELEVATION VALUE
ELEV_TYPE   .                                                KB :ELEVATION REFERENCE TYPE
~Curve Information Section
#MNEM       .UNIT                                      API CODE :CURVE DESCRIPTION
#------------------------------------------------------------------------------
DEPT        .FT                                                 :DEPTH     
CALI        .IN                                                 :          
DRHO        .G/C3                                               :          
DT          .US/F                                               :          
GR          .GAPI                                               :          
GR_1        .GAPI                                               :          
GR_NORM     .GAPI                                               :GammaRay Normalized
ILD         .OHMM                                               :          
NPHI        .%                                                  :          
RHOB        .G/C3                                               :          
SFL         .OHMM                                               :          
SP          .MV                                                 :          
SP_NORM     .MV                                                 :SP Normalized
VSH_GR      .V/V                                                :Volume of Shale from GR
VSH_SP      .V/V                                                :Volume of Shale from SP
~A        DEPTH           CALI           DRHO             DT             GR           GR_1        GR_NORM            ILD           NPHI           RHOB            SFL             SP        SP_NORM         VSH_GR         VSH_SP
# ...
      9210.0000          12.42        -0.0734        -999.25        70.1367        -999.25       73.46071         0.8742        37.1806         2.3585         0.8928        59.0153      -1.736694      0.8608661      0.9768441
      9210.5000        12.4081        -0.0747        -999.25        68.5297        -999.25       71.47676         0.8929         35.903          2.361         0.9262        59.5452      -1.218998      0.8186545      0.9837467
      9211.0000        12.3885        -0.0663        -999.25        67.2513        -999.25       69.89848         0.9064        35.2471          2.384         0.9685        60.7468    -0.02959824      0.7850741      0.9996054
      9211.5000        12.3697        -0.0544        -999.25        67.2336        -999.25       69.87663         0.9165        35.1161         2.4031          1.008        61.7216      0.9330025      0.7846092              1
      9212.0000        12.3503        -0.0492        -999.25        68.5099        -999.25       71.45232         0.9194          35.94         2.4209         1.0099        61.7768      0.9760017      0.8181344              1
      9212.5000        12.3284        -0.0478        -999.25        69.9517        -999.25       73.23232          0.921        37.7491         2.4275         0.9769        61.1306      0.3176003      0.8560067              1
      9213.0000        12.3035        -0.0428        -999.25        71.4155        -999.25       75.03947         0.9243        38.0363         2.4377         0.9267        60.1828     -0.6423988      0.8944567      0.9914347
      9213.5000          12.27        -0.0353        -999.25        72.7128        -999.25       76.64108         0.9113        37.6588         2.4292         0.8897        59.2816      -1.555798      0.9285337       0.979256
      9214.0000        12.2305        -0.0283        -999.25        73.3435        -999.25       77.41972         0.8894        37.0273          2.427          0.854        58.4686      -2.380997      0.9451005      0.9682534
      9214.5000        12.1827         -0.028        -999.25        72.8616        -999.25       76.82479         0.8597         36.749         2.4142         0.7902        57.8659      -2.995903      0.9324424      0.9600546
      9215.0000        12.1325        -0.0304        -999.25        72.9066        -999.25       76.88034         0.8331        37.2753         2.4011         0.8072        58.2479      -2.626102      0.9336243      0.9649853
      9215.5000        12.0784        -0.0466        -999.25        73.3324        -999.25       77.40601         0.8064        38.7646         2.3861         0.8629         59.756      -1.130199      0.9448088      0.9849307
      9216.0000        12.0239        -0.0471        -999.25        73.6793        -999.25       77.83429         0.7725        40.1089         2.3933           0.87        61.3182      0.4197998      0.9539211              1
      9216.5000        11.9678         -0.043        -999.25        72.2006        -999.25       76.00874         0.7313        41.3569         2.3994         0.7934        62.4916       1.580997      0.9150795              1
      9217.0000        11.9121         -0.037        -999.25        71.4797        -999.25       75.11873         0.6923        42.2722         2.3994         0.7545        62.9979       2.075096      0.8961431              1
      9217.5000         11.858        -0.0422        -999.25        71.5803        -999.25       75.24293         0.6592          41.61         2.3736         0.7749        62.9606         2.0256      0.8987857              1
      9218.0000         11.804        -0.0526        -999.25        72.4623        -999.25       76.33182         0.6335        40.8928         2.3535         0.7718        62.2109       1.263699      0.9219536              1
      9218.5000        11.7509        -0.0473        -999.25         73.578        -999.25       77.70923         0.6189        40.2821         2.3462          0.736        60.9577    -0.00170517      0.9512602      0.9999773
      9219.0000         11.695        -0.0385        -999.25        74.1816        -999.25       78.45442          0.612        40.4923         2.3445          0.696        60.0516      -0.920002      0.9671153      0.9877333
      9219.5000        11.6267        -0.0381        -999.25        73.4398        -999.25        77.5386         0.6115        41.1763         2.3509         0.6957        59.9956     -0.9882011      0.9476299       0.986824
      9220.0000        11.5609         -0.045        -999.25        72.8782        -999.25       76.84527         0.6162        41.5201         2.3464         0.7195        60.3741     -0.6219063      0.9328781      0.9917079
      9220.5000        11.5008        -0.0402        -999.25        72.9775        -999.25       76.96787         0.6287        41.5516         2.3487         0.7476        60.7652     -0.2430038      0.9354867        0.99676
      9221.0000          11.44        -0.0323        -999.25        73.5139        -999.25       77.63009         0.6478        40.9587         2.3606         0.7758        60.8532     -0.1672058      0.9495764      0.9977706
      9221.5000        11.3709        -0.0274        -999.25        74.2002        -999.25       78.47738         0.6646        41.2532         2.3825          0.794        60.6273      -0.405304      0.9676038      0.9945959
      9222.0000         11.302        -0.0293        -999.25        73.1047        -999.25       77.12491         0.6772        41.4187         2.3887         0.7793        60.2557     -0.7891083      0.9388278      0.9894785
      9222.5000        11.2339        -0.0319        -999.25        73.2534        -999.25       77.30849         0.6814        40.8165         2.3813           0.75        59.7922      -1.264809      0.9427339      0.9831359
      9223.0000        11.1643         -0.025        -999.25         74.078        -999.25       78.32652         0.6844         39.835         2.3889         0.7881        59.1994      -1.869804      0.9643939      0.9750693
      9223.5000         11.098        -0.0157        -999.25        75.6715        -999.25        80.2938         0.6878        39.0785         2.4091         0.8401        58.5213      -2.560104              1      0.9658653
      9224.0000        11.0349        -0.0109        -999.25         77.012        -999.25       81.94873         0.6856        39.2665         2.4169          0.878         57.918       -3.17561              1      0.9576585
      9224.5000        10.9712        -0.0099        -999.25        78.2092        -999.25       83.42676         0.6807         40.328         2.4201         0.7981        57.6562      -3.449608              1      0.9540052
      9225.0000        10.9041        -0.0147        -999.25        78.9869        -999.25       84.38689         0.6739        41.2799         2.3971         0.7261        57.8126      -3.305408              1      0.9559279
      9225.5000        10.8366        -0.0259        -999.25        78.7313        -999.25       84.07133          0.668        42.2052         2.3753         0.6938        57.7154      -3.414806              1      0.9544693
      9226.0000        10.7587        -0.0309        -999.25        77.5131        -999.25       82.56738         0.6625        42.9358          2.373         0.7046        57.2472       -3.89521              1      0.9480639
      9226.5000        10.6813        -0.0327        -999.25        76.4998        -999.25       81.31639         0.6548        42.7936         2.3707         0.6907        57.6201      -3.534512              1      0.9528732
      9227.0000        10.6025        -0.0306        -999.25        76.1072        -999.25        80.8317         0.6483        42.2303         2.3647            0.7         59.555      -1.611809              1      0.9785092
      9227.5000         10.529        -0.0232        -999.25        76.4392        -999.25       81.24158         0.6412         41.864         2.3801         0.7578        64.3174        3.13839              1              1
