#------------------------------------------------------------------------------
# Created by    : vladimir.rabinovich
# Created on    : 09/19/2023 17:20:12
#------------------------------------------------------------------------------
~Version Information Section
VERS.           2.0     :   CWLS log ASCII Standard - VERSION 2.0
WRAP.           NO      :   One line per depth step
~Well Information Section
#MNEM       .UNIT                                         VALUE :DESCRIPTION
#------------------------------------------------------------------------------
STRT        .FT                                             970 :START DEPTH
STOP        .FT                                            6500 :STOP DEPTH
STEP        .FT                                             0.5 :STEP      
NULL        .                                           -999.25 :NULL      
COMP        .                                CONTINENTAL OIL CO :COMPANY   
WELL        .                               OCS G03106 ST00BP00 :WELL      
FLD         .                       MATAGORDA ISLAND BLOCK 0687 :FIELD     
LOC         .                                                   :LOCATION  
CNTY        .                      MATAGORDA ISLAND LARGE BLOCK :LOCATION  
STAT        .                                             TEXAS :STATE     
CTRY        .                                     UNITED STATES :COUNTRY   
SRVC        .                                                   :SERVICE COMPANY
DATE        .                             9/13/2023 11:12:09 AM :LOG DATE  
API         .                                    42703400330000 :API NUMBER
UWI         .                                    42703400330000 :UNIQUE WELL ID
XCOORD      .                                  468864.661343862 :SURFACE X 
YCOORD      .                                  10154488.9405743 :SURFACE Y 
LAT         .                                         27.934663 :LATITUDE  
LON         .                                        -96.628194 :LONGITUDE 
ELEV        .FT                                              96 :ELEVATION VALUE
ELEV_TYPE   .                                                KB :ELEVATION REFERENCE TYPE
~Curve Information Section
#MNEM       .UNIT                                      API CODE :CURVE DESCRIPTION
#------------------------------------------------------------------------------
DEPT        .FT                                                 :DEPTH     
ASFL        .OHMM                                               :          
CALI        .IN                                                 :          
CILD        .MMHO                                               :          
DRHO        .G/C3                                               :          
DT          .US/F                                               :          
DTL         .US/F                                               :          
GR          .GAPI                                               :          
GR_1        .GAPI                                               :          
GR_NORM     .GAPI                                               :GammaRay Normalized
ILD         .OHMM                                               :          
ILM         .OHMM                                               :          
NPHI        .%                                                  :          
RHOB        .G/C3                                               :          
SFL         .OHMM                                               :          
SP          .MV                                                 :          
SP_NORM     .MV                                                 :SP Normalized
VSH_GR      .V/V                                                :Volume of Shale from GR
VSH_SP      .V/V                                                :Volume of Shale from SP
~A        DEPTH           ASFL           CALI           CILD           DRHO             DT            DTL             GR           GR_1        GR_NORM            ILD            ILM           NPHI           RHOB            SFL             SP        SP_NORM         VSH_GR         VSH_SP
# ...
      3196.0000         0.9859         15.001       1141.641         0.0227       111.5171        -999.25        -999.25         43.157       61.37669         0.8308         0.9421        29.6751         2.3056         1.0759       -57.7595       -19.6906      0.6037595      0.6538778
      3196.5000         1.0042        14.8508       1128.771         0.0268       104.8546        -999.25        -999.25         40.301       57.39683         0.8428         0.9692        29.1783         2.3401           1.09       -59.7253       -21.6494      0.5190815      0.6176037
      3197.0000         1.0161        14.7854       1132.051         0.0328       103.4438        -999.25        -999.25        37.5361       53.54392         0.8547         0.9751        28.9664         2.3675           1.08       -62.5118       -24.4289      0.4371047      0.5661315
      3197.5000          1.028         14.823       1186.986         0.0419       105.5488        -999.25        -999.25        35.3319        50.4716         0.8667         0.9672        29.9873         2.3557         1.0618       -67.3627       -29.2727      0.3717361      0.4764315
      3198.0000         1.0311        15.0108       1238.338         0.0556       115.8846        -999.25        -999.25        32.3978       46.38314         0.8787         0.9489         31.571         2.3148         1.0345       -75.0516       -36.9546      0.2847477       0.334174
      3198.5000         1.0315        15.0693       1292.859         0.0732       117.3879        -999.25        -999.25        29.8358        42.8127         0.8612         0.9219        35.6032         2.2071         0.9831       -80.7399       -42.6359      0.2087809      0.2289648
      3199.0000         1.0319        14.9093        1341.02         0.0924        113.864        -999.25        -999.25        28.1767       40.49923         0.8093         0.9042        41.9324         2.1044         0.9391       -84.7375       -46.6265      0.1595581      0.1550648
      3199.5000         1.0373         14.667       1387.131         0.1109       107.7573        -999.25        -999.25        26.7162       38.46225         0.7573         0.8832        45.1843         2.0019         0.9235       -87.3071        -49.189       0.116218      0.1076111
      3200.0000         1.0592        14.1726       1433.221         0.1109       100.2327        -999.25        -999.25        25.5157       36.78722          0.714         0.8583        41.9382         1.9945         0.9275       -89.0117       -50.8866     0.08057906     0.07617407
      3200.5000         1.0812        13.5819       1983.578          0.048        96.2319        -999.25        -999.25        25.3262        36.5195         0.6727         0.8211        34.4707         2.0632         1.1748       -90.0016       -51.8695     0.07488299     0.05797224
      3201.0000         1.0979        14.0091       2091.965         0.0841        95.2964        -999.25        -999.25        25.2374       36.39213         0.6314          0.772        27.9785         2.1488         1.5355       -90.9573       -52.8182     0.07217293     0.04040372
      3201.5000         1.1111        14.9957       2150.723         0.1731       102.5597        -999.25        -999.25        25.0124       36.07512         0.5901          0.697        25.9602         2.2135         1.6571       -91.9502       -53.8041     0.06542815      0.0221463
      3202.0000         1.1244        15.6608       2235.934         0.2125       121.0477        -999.25        -999.25        24.6578       35.57771         0.5487         0.5706        31.5623         2.1874         1.5836       -92.9031       -54.7499     0.05484487    0.004631466
      3202.5000         1.0636        16.0936       2272.031         0.1691        126.223        -999.25        -999.25        24.8036       35.77693         0.5074         0.5336        41.2075         2.1338         0.9049       -93.5277       -55.3675     0.05908357              0
      3203.0000         0.9592        16.0053       2332.586         0.1266       128.2017        -999.25        -999.25        25.4263       36.64006         0.4734         0.5198         45.605         2.0772         0.7674       -92.8862        -54.719     0.07744801    0.005203671
      3203.5000         0.8973        15.8171       2470.266         0.0943       127.9454        -999.25        -999.25        26.9065       38.69695         0.4516         0.5076        45.9573         2.0643         0.7402       -91.2803       -53.1061      0.1212117     0.03507226
      3204.0000         0.8425        15.5791       2763.746         0.0628       126.4156        -999.25        -999.25        28.6978       41.18695         0.4299         0.4964        43.3779         2.0789          0.732        -89.613       -51.4318      0.1741904     0.06607776
      3204.5000         0.8142        15.2296       2810.969         0.0787       122.3569        -999.25        -999.25          29.88       42.82886         0.4081          0.486        40.0815         2.1112         0.7596       -89.3063        -51.118      0.2091246     0.07188889
      3205.0000         0.7897        15.4418       2846.941         0.1121       119.4939        -999.25        -999.25        29.9536       42.92756         0.3864         0.4762        39.4985         2.1359         0.7944       -89.5763        -51.381      0.2112247     0.06701851
      3205.5000         0.7682        15.8735       2873.664         0.1427       117.7233        -999.25        -999.25        29.0177       41.62089         0.3646         0.4641        41.6267         2.1465         0.8148        -90.274       -52.0717      0.1834231     0.05422776
      3206.0000         0.7593         16.317        3009.52         0.1716       117.6769        -999.25        -999.25        28.0864       40.32062         0.3428         0.4511        45.4784         2.1326         0.7883       -90.7979       -52.5886      0.1557579     0.04465555
      3206.5000         0.7504        16.5046       3065.703         0.1633       122.0605        -999.25        -999.25        28.5957       41.02588         0.3261         0.4295        48.3664         2.0321         0.7346       -91.2971       -53.0807      0.1707634     0.03554259
      3207.0000         0.7446        16.5098       2981.633         0.1272       125.9543        -999.25        -999.25        29.9313       42.88147         0.3299         0.4093        50.5178         1.9992          0.691       -90.2493       -52.0259      0.2102441     0.05507589
      3207.5000         0.7436        16.2306       2890.203          0.078       127.3341        -999.25        -999.25        31.4188       44.94854         0.3337         0.3942        52.3003          1.995         0.6541       -89.3041       -51.0737      0.2542242     0.07270926
      3208.0000         0.7479        15.6668       2799.504         0.0366       123.7305        -999.25        -999.25        32.0724       45.85468         0.3376         0.4075        50.5033         2.0169         0.6315       -88.5189       -50.2815      0.2735038      0.0873796
      3208.5000         0.7949        15.1947       2549.844         0.0082       115.5981        -999.25        -999.25        29.1131       41.73114         0.3414         0.4459        42.3254         2.0961         0.6289       -88.8313       -50.5869      0.1857689      0.0817241
      3209.0000         0.8419        14.9448       2434.512         0.0011         99.079        -999.25        -999.25        25.6028       36.84039         0.3455          0.503        32.5172         2.2021         0.7522       -89.4335        -51.182     0.08171033     0.07070372
      3209.5000         0.9934        15.3755       2347.309         0.0121        96.2258        -999.25        -999.25        23.0918       33.34095         0.3638         0.5627         23.105         2.2533          1.084       -90.8193       -52.5608    0.007254337      0.0451704
