#------------------------------------------------------------------------------
# Created by    : vladimir.rabinovich
# Created on    : 09/19/2023 17:22:54
#------------------------------------------------------------------------------
~Version Information Section
VERS.           2.0     :   CWLS log ASCII Standard - VERSION 2.0
WRAP.           NO      :   One line per depth step
~Well Information Section
#MNEM       .UNIT                                         VALUE :DESCRIPTION
#------------------------------------------------------------------------------
STRT        .FT                                             606 :START DEPTH
STOP        .FT                                           12703 :STOP DEPTH
STEP        .FT                                             0.5 :STEP      
NULL        .                                           -999.25 :NULL      
COMP        .                                       PURE OIL CO :COMPANY   
WELL        .                                OCS 00099 ST00BP00 :WELL      
FLD         .                                           WILDCAT :FIELD     
LOC         .                                                   :LOCATION  
CNTY        .                             GALVESTON LARGE BLOCK :LOCATION  
STAT        .                                             TEXAS :STATE     
CTRY        .                                     UNITED STATES :COUNTRY   
SRVC        .                                                   :SERVICE COMPANY
DATE        .                             9/13/2023 11:19:42 AM :LOG DATE  
API         .                                    42706000130000 :API NUMBER
UWI         .                                    42706000130000 :UNIQUE WELL ID
XCOORD      .                                  1105531.03723184 :SURFACE X 
YCOORD      .                                  10576678.2721464 :SURFACE Y 
LAT         .                                         29.133654 :LATITUDE  
LON         .                                        -94.675857 :LONGITUDE 
ELEV        .FT                                              66 :ELEVATION VALUE
ELEV_TYPE   .                                                KB :ELEVATION REFERENCE TYPE
~Curve Information Section
#MNEM       .UNIT                                      API CODE :CURVE DESCRIPTION
#------------------------------------------------------------------------------
DEPT        .FT                                                 :DEPTH     
LAT         .OHMM                                               :          
LN          .OHMM                                               :          
SN          .OHMM                                               :          
SP          .MV                                                 :          
SP_NORM     .MV                                                 :SP Normalized
VSH_SP      .V/V                                                :Volume of Shale from SP
~A        DEPTH            LAT             LN             SN             SP        SP_NORM         VSH_SP
       606.0000         0.0001              0           0.05       -20.5289       6.300369              1
       606.5000         0.0065              0         0.3438       -20.4702       7.251167              1
       607.0000         0.0129              0         0.6362         -20.62       7.993464              1
       607.5000         0.0193         0.0105         0.9282       -22.0107       7.494862              1
       608.0000         0.0246         0.0185         1.1995       -24.6991       5.698559              1
       608.5000          0.029         0.0642         1.4508       -30.0923       1.197456              1
       609.0000         0.0335         0.1672         1.6452       -35.3499      -3.168045      0.9870735
       609.5000         0.0379         0.5699         1.8302       -38.4449      -5.370949      0.8176193
       610.0000         0.0424         1.5536         1.9732       -40.8667       -6.90065        0.69995
       610.5000         0.0411          1.948         2.1162       -42.7708      -7.912655      0.6221035
       611.0000         0.0384          2.149         2.2139       -44.1884      -8.438156      0.5816803
       611.5000         0.0354          2.299         2.3091       -45.3907       -8.74836      0.5578185
       612.0000         0.0248         2.4362         2.3512        -46.336      -8.801559      0.5537262
       612.5000         0.0143         2.5475         2.3744       -47.0673      -8.640762      0.5660952
       613.0000         0.0002         2.6562         2.3975       -47.7986      -8.479965      0.5784642
       613.5000              0          2.744         2.4207       -48.4138      -8.203068       0.599764
       614.0000              0         2.7647         2.4438       -48.9519      -7.849072      0.6269945
       614.5000              0         2.7572          2.467         -49.49      -7.495075       0.654225
       615.0000              0          2.729         2.4961       -50.0281      -7.141075      0.6814557
       615.5000              0         2.6934         2.5268       -50.5521       -6.77298      0.7097708
       616.0000              0         2.6579         2.5575       -51.0736      -6.402382      0.7382783
       616.5000              0         2.6223         2.5882       -51.5952      -6.031883      0.7667782
       617.0000              0         2.6115         2.6189       -52.1168      -5.661385      0.7952781
       617.5000              0         2.6151         2.6416       -52.5445      -5.196987       0.831001
       618.0000              0         2.6442         2.6628       -52.9374      -4.697792      0.8694006
       618.5000              0         2.6863         2.6841       -53.3304      -4.198692      0.9077929
       619.0000              0         2.7284         2.7053       -53.7234      -3.699596      0.9461849
       619.5000              0         2.7705         2.7265       -54.1164        -3.2005      0.9845769
       620.0000              0         2.8126         2.7477       -54.3857      -2.920986              1
       620.5000              0         2.8525         2.7619       -54.5745      -2.738079              1
       621.0000              0         2.8901         2.7731       -54.7632      -2.555069              1
       621.5000              0         2.9277         2.7843       -54.9519      -2.372063              1
       622.0000              0         2.9654         2.7955       -55.1406      -2.189053              1
       622.5000              0          3.003         2.8067       -55.3293      -2.006046              1
       623.0000              0         3.0406         2.8128       -55.5342      -1.839241              1
       623.5000              0         3.0782          2.815       -55.7566      -1.689934              1
       624.0000              0         3.0889         2.8173       -55.9789      -1.540527              1
       624.5000         0.0229          3.098         2.8195       -56.2013       -1.39122              1
       625.0000         0.5641         3.1071         2.8218       -56.4236       -1.24181              1
       625.5000         1.3147         3.1162         2.8241       -56.8699      -1.316402              1
       626.0000         1.6901         3.1118         2.8279       -57.3309      -1.405693              1
       626.5000         2.1482         3.1073         2.8336        -57.792       -1.49509              1
       627.0000         2.4547         3.1028         2.8392        -58.282      -1.613384              1
       627.5000         2.6764         3.0984         2.8448       -58.8908      -1.850475              1
       628.0000         2.8032         3.0939         2.8505       -59.4997      -2.087666              1
       628.5000         2.9299         3.0894         2.8561       -60.1085       -2.32476              1
       629.0000          3.032         3.0907          2.861        -60.798      -2.642551              1
       629.5000         3.1022         3.1049         2.8621       -61.5293      -3.002148      0.9998348
       630.0000         3.0866         3.1191         2.8631       -62.3176      -3.418739      0.9677893
       630.5000          3.071         3.1333         2.8641       -63.1309      -3.860332      0.9338206
       631.0000         3.0554         3.1642         2.8652       -62.4503      -2.808022              1
       631.5000         3.0398         3.2008         2.8662       -61.6453      -1.631317              1
       632.0000         3.0244         3.2373         2.8672       -60.7719     -0.3862076              1
       632.5000         3.0121         3.2669         2.8563       -59.8984      0.8589973              1
       633.0000         2.9997         3.2852         2.8434       -59.0249       2.104206              1
       633.5000         3.0616         3.2912         2.8304       -58.7228       2.778011              1
       634.0000         3.1307         3.2787         2.8175       -58.9317       2.940819              1
       634.5000         3.1712         3.2663         2.8045       -59.1405       3.103729              1
       635.0000         3.2118         3.2485         2.7869       -59.3494       3.266537              1
       635.5000         3.2523         3.2244         2.7677       -59.5753       3.412342              1
       636.0000         3.2928         3.2002         2.7484       -59.8293       3.530048              1
       636.5000         3.3333          3.175         2.7292       -60.0834       3.331234              1
       637.0000         3.3739         3.1418           2.71       -60.3373       3.077335              1
       637.5000         3.4144         3.1086         2.6908       -60.5914       2.823235              1
       638.0000          3.455         3.0754         2.6707       -60.7494       2.665234              1
       638.5000         3.4956         3.0375         2.6486        -60.889       2.525635              1
       639.0000         3.5361         2.9964         2.6265       -61.0286       2.386036              1
       639.5000         3.5767         2.9553         2.6044       -61.1683       2.246334              1
       640.0000         3.6975         2.9142         2.5823       -61.2582       2.156433              1
       640.5000         3.8227         2.8803         2.5602       -61.3256       2.089035              1
       641.0000         3.9478         2.8496         2.5476       -61.3931       2.021534              1
       641.5000         4.0624         2.8188         2.5351       -61.4605       1.954136              1
       642.0000          4.007         2.8054          2.525       -61.6274       1.787235              1
       642.5000         3.9517         2.8211         2.5714       -61.9924       1.422234              1
       643.0000         3.8963         2.8367         2.6178       -62.3573       1.057335              1
       643.5000         3.8212         2.8738         2.6642       -62.7642      0.6504364              1
