#------------------------------------------------------------------------------
# Created by    : vladimir.rabinovich
# Created on    : 09/19/2023 17:20:38
#------------------------------------------------------------------------------
~Version Information Section
VERS.           2.0     :   CWLS log ASCII Standard - VERSION 2.0
WRAP.           NO      :   One line per depth step
~Well Information Section
#MNEM       .UNIT                                         VALUE :DESCRIPTION
#------------------------------------------------------------------------------
STRT        .FT                                             540 :START DEPTH
STOP        .FT                                            8409 :STOP DEPTH
STEP        .FT                                             0.5 :STEP      
NULL        .                                           -999.25 :NULL      
COMP        .                                      SHELL OIL CO :COMPANY   
WELL        .                                OCS 00706 ST00BP00 :WELL      
FLD         .                                           WILDCAT :FIELD     
LOC         .                                                   :LOCATION  
CNTY        .                             GALVESTON LARGE BLOCK :LOCATION  
STAT        .                                             TEXAS :STATE     
CTRY        .                                     UNITED STATES :COUNTRY   
SRVC        .                                                   :SERVICE COMPANY
DATE        .                             9/13/2023 11:19:25 AM :LOG DATE  
API         .                                    42706000280000 :API NUMBER
UWI         .                                    42706000280000 :UNIQUE WELL ID
XCOORD      .                                  1100625.96198943 :SURFACE X 
YCOORD      .                                  10499283.7203345 :SURFACE Y 
LAT         .                                         28.920625 :LATITUDE  
LON         .                                        -94.687754 :LONGITUDE 
ELEV        .FT                                              78 :ELEVATION VALUE
ELEV_TYPE   .                                                KB :ELEVATION REFERENCE TYPE
~Curve Information Section
#MNEM       .UNIT                                      API CODE :CURVE DESCRIPTION
#------------------------------------------------------------------------------
DEPT        .FT                                                 :DEPTH     
ASN         .OHMM                                               :          
DT          .US/F                                               :          
ILD         .OHMM                                               :          
LAT         .OHMM                                               :          
LN          .OHMM                                               :          
SP          .MV                                                 :          
SP_NORM     .MV                                                 :SP Normalized
VSH_SP      .V/V                                                :Volume of Shale from SP
~A        DEPTH            ASN             DT            ILD            LAT             LN             SP        SP_NORM         VSH_SP
# ...
      6823.5000         1.2086        102.256         0.7681        -999.25        -999.25       -42.4435      -3.419109      0.9506304
      6824.0000         1.2118       108.0258         0.7717        -999.25        -999.25       -42.6689      -3.644508      0.9460304
      6824.5000         1.2066       109.3193         0.7751        -999.25        -999.25       -43.2302      -4.205811      0.9345753
      6825.0000         1.2066        104.284         0.7781        -999.25        -999.25       -42.9065      -3.882111      0.9411814
      6825.5000          1.209       103.7502          0.781        -999.25        -999.25       -42.5828      -3.558411      0.9477875
      6826.0000         1.2114       103.1986          0.784        -999.25        -999.25       -42.2587       -3.23431      0.9544019
      6826.5000         1.2137       100.8494         0.7869        -999.25        -999.25       -41.9879      -2.963509      0.9599284
      6827.0000         1.2161       103.1472         0.7899        -999.25        -999.25       -41.9207      -2.896309      0.9612998
      6827.5000         1.2226       104.9123         0.7928        -999.25        -999.25       -41.8536      -2.829208      0.9626692
      6828.0000         1.2329       104.1307         0.7931        -999.25        -999.25       -41.8535      -2.829109      0.9626712
      6828.5000         1.2432       104.9593         0.7932        -999.25        -999.25       -41.9456      -2.921207      0.9607917
      6829.0000         1.2535       106.2705         0.7932        -999.25        -999.25       -42.0376       -3.01321      0.9589141
      6829.5000         1.2582       106.0581         0.7933        -999.25        -999.25       -42.1297      -3.105309      0.9570345
      6830.0000         1.2505       105.6326         0.7934        -999.25        -999.25       -42.2217      -3.197308       0.955157
      6830.5000         1.2428       103.1092         0.7935        -999.25        -999.25       -42.2618      -3.237408      0.9543386
      6831.0000         1.2352       101.7893         0.7936        -999.25        -999.25       -41.9856      -2.961208      0.9599754
      6831.5000         1.2275       100.7032         0.7937        -999.25        -999.25       -41.7094      -2.685009      0.9656121
      6832.0000          1.218         99.086         0.7946        -999.25        -999.25       -41.4335      -2.409107      0.9712427
      6832.5000         1.2273       100.6789         0.7974        -999.25        -999.25       -41.1572      -2.132809      0.9768814
      6833.0000         1.2451       102.8334         0.8001        -999.25        -999.25       -40.8813      -1.856911       0.982512
      6833.5000         1.2552       104.8771         0.8029        -999.25        -999.25       -40.6051      -1.580708      0.9881488
      6834.0000         1.2649        109.007         0.8119        -999.25        -999.25       -40.3289      -1.304508      0.9937856
      6834.5000         1.2715       110.2485         0.8342        -999.25        -999.25       -40.0529      -1.028507      0.9994182
      6835.0000          1.278       107.4516         0.8566        -999.25        -999.25       -39.7767     -0.7523079              1
      6835.5000         1.2868       104.6548         0.8789        -999.25        -999.25       -40.1634      -1.139008      0.9971631
      6836.0000         1.2993       103.0863         0.9012        -999.25        -999.25        -40.675      -1.650608      0.9867223
      6836.5000         1.3119        104.299          0.922        -999.25        -999.25       -41.1866      -2.162209      0.9762815
      6837.0000         1.3274       101.1845         0.9371        -999.25        -999.25       -41.6982      -2.673809      0.9658406
      6837.5000         1.3439       100.3412         0.9523        -999.25        -999.25       -42.2104      -3.186008      0.9553876
      6838.0000         1.3605       104.1654         0.9675        -999.25        -999.25       -41.9859       -2.96151      0.9599692
      6838.5000         1.3771       104.6318         0.9826        -999.25        -999.25       -41.7047      -2.680309       0.965708
      6839.0000         1.4001       106.1066         0.9896        -999.25        -999.25        -41.465      -2.440609      0.9705998
      6839.5000         1.4232       106.2264         0.9738        -999.25        -999.25       -42.2411      -3.216709       0.954761
      6840.0000          1.438       101.1686         0.9579        -999.25        -999.25       -42.8067       -3.78231      0.9432182
      6840.5000         1.4498        97.4025         0.9421        -999.25        -999.25       -42.5777       -3.55331      0.9478917
      6841.0000         1.4395        101.891         0.9263        -999.25        -999.25       -42.3488      -3.324409       0.952563
      6841.5000         1.4186       111.0808         0.9159        -999.25        -999.25       -42.0876       -3.06321      0.9578937
      6842.0000         1.3978       109.7243         0.9095        -999.25        -999.25       -41.8114       -2.78701      0.9635304
      6842.5000          1.377        97.2662         0.9031        -999.25        -999.25       -41.5352      -2.510807      0.9691672
      6843.0000         1.3571        96.3287         0.8968        -999.25        -999.25        -41.259      -2.234608      0.9748039
      6843.5000         1.3492        95.5599         0.8904        -999.25        -999.25       -40.9828      -1.958408      0.9804406
      6844.0000         1.3414        97.8105          0.884        -999.25        -999.25       -40.6552       -1.63081      0.9871264
      6844.5000         1.3438        101.261         0.8776        -999.25        -999.25       -40.3171      -1.292709      0.9940264
      6845.0000         1.3643       101.0971         0.8712        -999.25        -999.25       -40.4821       -1.45771       0.990659
      6845.5000         1.3847        100.376         0.8562        -999.25        -999.25       -40.7284       -1.70401      0.9856324
      6846.0000         1.3978       101.2945         0.8405        -999.25        -999.25        -41.067       -2.04261      0.9787222
      6846.5000         1.4005       104.5429         0.8182        -999.25        -999.25       -41.4055      -2.381107      0.9718142
      6847.0000         1.3796       100.7963         0.7927        -999.25        -999.25        -41.744      -2.719608       0.964906
      6847.5000         1.3588        96.7204         0.7673        -999.25        -999.25       -42.1522      -3.127808      0.9565753
      6848.0000         1.3428        98.1836         0.7418        -999.25        -999.25       -42.7427      -3.718307      0.9445243
      6848.5000         1.3298       103.6656         0.7187        -999.25        -999.25       -43.6758      -4.651409      0.9254814
      6849.0000          1.326        99.8587         0.6994        -999.25        -999.25       -47.3259       -8.30151      0.8509896
      6849.5000         1.3322        86.5873         0.6959        -999.25        -999.25       -56.5986      -17.57421      0.6617509
      6850.0000         1.3384        92.6653         0.7064        -999.25        -999.25       -59.5084      -20.48401      0.6023672
      6850.5000         1.3368       103.9854         0.7169        -999.25        -999.25       -59.0677      -20.04331       0.611361
      6851.0000         1.2937        96.0813         0.7274        -999.25        -999.25       -53.6464      -14.62201      0.7219998
      6851.5000         1.2604        93.5793         0.7379        -999.25        -999.25       -50.1082      -11.08381       0.794208
      6852.0000         1.2411        81.4777         0.7484        -999.25        -999.25       -46.2904       -7.26601      0.8721222
      6852.5000         1.2217        90.2594         0.7589        -999.25        -999.25       -43.9398      -4.915409      0.9200937
