#------------------------------------------------------------------------------
# Created by    : vladimir.rabinovich
# Created on    : 09/19/2023 17:22:47
#------------------------------------------------------------------------------
~Version Information Section
VERS.           2.0     :   CWLS log ASCII Standard - VERSION 2.0
WRAP.           NO      :   One line per depth step
~Well Information Section
#MNEM       .UNIT                                         VALUE :DESCRIPTION
#------------------------------------------------------------------------------
STRT        .FT                                            4658 :START DEPTH
STOP        .FT                                           10852 :STOP DEPTH
STEP        .FT                                             0.5 :STEP      
NULL        .                                           -999.25 :NULL      
COMP        .                             WALTER OIL & GAS CORP :COMPANY   
WELL        .                               OCS G04721 ST00BP00 :WELL      
FLD         .                              GALVESTON BLOCK 0350 :FIELD     
LOC         .                                                   :LOCATION  
CNTY        .                             GALVESTON LARGE BLOCK :LOCATION  
STAT        .                                             TEXAS :STATE     
CTRY        .                                     UNITED STATES :COUNTRY   
SRVC        .                                                   :SERVICE COMPANY
DATE        .                             9/13/2023 11:19:36 AM :LOG DATE  
API         .                                    42706401870000 :API NUMBER
UWI         .                                    42706401870000 :UNIQUE WELL ID
XCOORD      .                                  1032064.33467067 :SURFACE X 
YCOORD      .                                   10428906.138822 :SURFACE Y 
LAT         .                                        28.7242451 :LATITUDE  
LON         .                                       -94.8985179 :LONGITUDE 
ELEV        .FT                                              92 :ELEVATION VALUE
ELEV_TYPE   .                                                KB :ELEVATION REFERENCE TYPE
~Curve Information Section
#MNEM       .UNIT                                      API CODE :CURVE DESCRIPTION
#------------------------------------------------------------------------------
DEPT        .FT                                                 :DEPTH     
DT          .US/F                                               :          
GR          .GAPI                                               :          
GR_1        .GAPI                                               :          
GR_NORM     .GAPI                                               :GammaRay Normalized
ILD         .OHMM                                               :          
ILM         .OHMM                                               :          
NPHI        .%                                                  :          
RFOC        .OHMM                                               :          
RHOB        .G/C3                                               :          
SP          .MV                                                 :          
SP_NORM     .MV                                                 :SP Normalized
VSH_GR      .V/V                                                :Volume of Shale from GR
VSH_SP      .V/V                                                :Volume of Shale from SP
~A        DEPTH             DT             GR           GR_1        GR_NORM            ILD            ILM           NPHI           RFOC           RHOB             SP        SP_NORM         VSH_GR         VSH_SP
# ...
      5114.0000        -999.25        71.3235        -999.25       73.83864         1.0168         1.0113         38.268         1.0331         2.3046         -51.65       -3.62403      0.8689072      0.9442457
      5114.5000        -999.25        70.5906        -999.25       72.97202         1.0147         1.0112        38.5667         1.0437         2.3051       -51.7296      -3.716894      0.8504686       0.942817
      5115.0000        -999.25        68.9513        -999.25       71.03402         1.0117         1.0091        38.8851         1.0687         2.3204       -51.9703       -3.99771      0.8092344      0.9384968
      5115.5000        -999.25        68.4445        -999.25       70.43466         1.0086         1.0071        39.3513         1.0735         2.3373       -52.2538      -4.328461      0.7964821      0.9334083
      5116.0000        -999.25        68.5937        -999.25       70.61071         1.0046         1.0003         39.361         1.0707         2.3514        -51.892       -3.90636      0.8002279      0.9399021
      5116.5000        -999.25        69.1774        -999.25       71.30035         1.0004         0.9914        39.3768         1.0886         2.3695       -51.4951       -3.44331      0.8149012       0.947026
      5117.0000        -999.25        70.1891        -999.25       72.49591          0.998         0.9887        39.9428           1.09         2.3665       -51.1793      -3.074877      0.8403385      0.9526942
      5117.5000        -999.25        71.7616        -999.25       74.35435          0.996         0.9888        41.1918         1.0678          2.357       -50.7898      -2.620461      0.8798799      0.9596852
      5118.0000        -999.25        72.8662        -999.25       75.65974         0.9949         0.9935        40.5651         1.0295         2.3094       -50.3693       -2.12988       0.907654      0.9672326
      5118.5000        -999.25        73.1266        -999.25       75.96722         0.9974         0.9984        39.8905         0.9867         2.2926       -50.2881      -2.035147      0.9141963        0.96869
      5119.0000        -999.25         72.536        -999.25       75.26881         0.9999         1.0005        39.6573         0.9772         2.2818       -50.2728      -2.017296      0.8993363      0.9689647
      5119.5000        -999.25        72.2247        -999.25       74.90054         1.0049         1.0027        39.6097         0.9784         2.2812       -50.1478      -1.871462      0.8915008      0.9712083
      5120.0000        -999.25        74.0922        -999.25       77.10767         1.0107         1.0053        39.5922          0.996         2.2852       -50.0671      -1.777313      0.9384611      0.9726567
      5120.5000        -999.25        73.7677        -999.25       76.72381          1.017         1.0093        39.0266         1.0135         2.2877       -50.3495      -2.106777      0.9302938      0.9675881
      5121.0000        -999.25        73.4877        -999.25       76.39253         1.0241         1.0117        38.9269         1.0326         2.2914       -50.5737      -2.368345      0.9232454      0.9635639
      5121.5000        -999.25        72.4814        -999.25       75.20274         1.0203         1.0105        39.0193         1.0801         2.2978       -50.7233       -2.54288      0.8979307      0.9608788
      5122.0000        -999.25        70.0825        -999.25       72.36686         1.0145         1.0125        39.2593         1.1407         2.2878       -50.6127      -2.413847      0.8375928      0.9628639
      5122.5000        -999.25        69.1284        -999.25       71.23878         1.0088         1.0143        39.3633         1.1281         2.2709       -50.4829       -2.26241       0.813591      0.9651937
      5123.0000        -999.25        70.2338        -999.25        72.5451         1.0032         1.0095        39.1157         1.0749         2.2565       -50.2936       -2.04156      0.8413851      0.9685914
      5123.5000        -999.25        73.5026        -999.25       76.40862         0.9899         1.0048        38.9594         1.0142         2.2422       -50.1081      -1.825146      0.9235876      0.9719208
      5124.0000        -999.25        76.3352        -999.25       79.75653         0.9745         0.9899        38.9716         0.9917         2.2344        -49.958      -1.650029      0.9948198      0.9746149
      5124.5000        -999.25        78.6498        -999.25       82.49216         0.9561         0.9715        39.2601         0.9999         2.2361       -49.8275      -1.497778              1      0.9769573
      5125.0000        -999.25         79.011        -999.25       82.91881         0.9396         0.9492        39.5133         1.0029         2.2421       -49.7845      -1.447612              1       0.977729
      5125.5000        -999.25        78.5309        -999.25       82.35101         0.9293          0.931        39.7044         0.9938         2.2507       -49.7413       -1.39721              1      0.9785045
      5126.0000        -999.25        76.3912        -999.25       79.82151         0.9216         0.9181        39.6177         0.9677         2.2575       -49.6976       -1.34623      0.9962023      0.9792888
      5126.5000        -999.25        76.7385        -999.25       80.23173         0.9204         0.9163        39.2435         0.9537         2.2614       -49.6913      -1.338878              1      0.9794019
      5127.0000        -999.25        77.3516        -999.25       80.95612         0.9193         0.9143        38.6788         0.9526         2.2655       -50.1274      -1.847661              1      0.9715744
      5127.5000        -999.25        77.1851        -999.25       80.75901         0.9178          0.912        38.8103         0.9634          2.268       -50.5119      -2.296247              1      0.9646731
      5128.0000        -999.25        77.7629        -999.25       81.44169         0.9162         0.9115        39.2379          0.964          2.269       -50.7291      -2.549644              1      0.9607747
      5128.5000        -999.25         77.963        -999.25        81.6779         0.9147         0.9129        40.0269         0.9639         2.2732       -50.5652       -2.35843              1      0.9637164
      5129.0000        -999.25        77.4581        -999.25        81.0808          0.914         0.9144        42.5257         0.9619         2.2779        -50.234       -1.97203              1      0.9696611
      5129.5000        -999.25        76.4863        -999.25       79.93179         0.9136         0.9142        44.4729         0.9599         2.2741       -50.0991      -1.814643      0.9985488      0.9720824
      5130.0000        -999.25        74.3154        -999.25       77.36541         0.9132         0.9138        44.6962         0.9624         2.2597        -50.164      -1.890364      0.9439449      0.9709175
      5130.5000        -999.25        74.5167        -999.25       77.60305         0.9118         0.9134        44.0151         0.9667         2.2518       -50.2206      -1.956396      0.9490011      0.9699016
      5131.0000        -999.25        75.6636        -999.25       78.95841         0.9103         0.9113        43.5116          0.971          2.254       -50.2474       -1.98766      0.9778386      0.9694206
      5131.5000        -999.25        77.8568        -999.25       81.55054         0.9088         0.9093         43.129         0.9662         2.2573       -50.2742      -2.018929              1      0.9689395
      5132.0000        -999.25        79.9175        -999.25       83.98606         0.9051         0.9073        42.9025         0.9579         2.2596       -50.2786       -2.02406              1      0.9688606
      5132.5000        -999.25        79.8196        -999.25       83.87003         0.9011         0.9026        43.0381         0.9415         2.2512       -50.2738      -2.018462              1      0.9689468
