#------------------------------------------------------------------------------
# Created by    : vladimir.rabinovich
# Created on    : 09/19/2023 17:20:32
#------------------------------------------------------------------------------
~Version Information Section
VERS.           2.0     :   CWLS log ASCII Standard - VERSION 2.0
WRAP.           NO      :   One line per depth step
~Well Information Section
#MNEM       .UNIT                                         VALUE :DESCRIPTION
#------------------------------------------------------------------------------
STRT        .FT                                             222 :START DEPTH
STOP        .FT                                            9192 :STOP DEPTH
STEP        .FT                                             0.5 :STEP      
NULL        .                                           -999.25 :NULL      
COMP        .                                      PAN AMERICAN :COMPANY   
WELL        .                                     ST TR 00060-L :WELL      
FLD         .                                           WILDCAT :FIELD     
LOC         .                                                   :LOCATION  
CNTY        .                             GALVESTON LARGE BLOCK :LOCATION  
STAT        .                                             TEXAS :STATE     
CTRY        .                                     UNITED STATES :COUNTRY   
SRVC        .                                                   :SERVICE COMPANY
DATE        .                             9/13/2023 11:19:24 AM :LOG DATE  
API         .                                    42706000830000 :API NUMBER
UWI         .                                    42706000830000 :UNIQUE WELL ID
XCOORD      .                                  1150669.84230747 :SURFACE X 
YCOORD      .                                  10684730.4394491 :SURFACE Y 
LAT         .                                        29.4325033 :LATITUDE  
LON         .                                       -94.5389235 :LONGITUDE 
ELEV        .FT                                              11 :ELEVATION VALUE
ELEV_TYPE   .                                                KB :ELEVATION REFERENCE TYPE
~Curve Information Section
#MNEM       .UNIT                                      API CODE :CURVE DESCRIPTION
#------------------------------------------------------------------------------
DEPT        .FT                                                 :DEPTH     
ASN         .OHMM                                               :          
CILD        .MMHO                                               :          
ILD         .OHMM                                               :          
SP          .MV                                                 :          
SP_NORM     .MV                                                 :SP Normalized
VSH_SP      .V/V                                                :Volume of Shale from SP
~A        DEPTH            ASN           CILD            ILD             SP        SP_NORM         VSH_SP
# ...
      8544.0000         0.7517        -999.25         0.7926       -55.2957      -12.15844       0.781207
      8544.5000         0.7406        -999.25         0.7688        -55.216      -12.07874      0.7827697
      8545.0000         0.7295        -999.25         0.7451       -53.4565      -10.31924      0.8172697
      8545.5000         0.7295        -999.25         0.7213       -51.6969      -8.559643      0.8517717
      8546.0000         0.7338        -999.25         0.6976       -50.1494      -7.012142      0.8821149
      8546.5000          0.738        -999.25         0.6738       -49.8516      -6.714344      0.8879541
      8547.0000         0.7422        -999.25         0.6501       -51.0793      -7.942043      0.8638815
      8547.5000         0.7488        -999.25         0.6263       -52.3096      -9.172344       0.839758
      8548.0000         0.7793        -999.25         0.6026       -53.5398      -10.40254      0.8156365
      8548.5000         0.8098        -999.25         0.6039       -54.8092      -11.67194      0.7907462
      8549.0000         0.8403        -999.25         0.6112       -56.1252      -12.98794      0.7649423
      8549.5000          0.839        -999.25         0.6184       -57.4412      -14.30394      0.7391384
      8550.0000         0.8273        -999.25         0.6257       -58.7572      -15.61994      0.7133345
      8550.5000         0.8156        -999.25          0.633       -60.0732      -16.93594      0.6875305
      8551.0000          0.804        -999.25         0.6402        -61.062      -17.92474      0.6681423
      8551.5000         0.7923        -999.25         0.6475       -60.8261      -17.68884      0.6727678
      8552.0000         0.7807        -999.25          0.655       -60.2852      -17.14794      0.6833737
      8552.5000         0.7832        -999.25         0.6633       -59.7442      -16.60695      0.6939815
      8553.0000         0.7858        -999.25         0.6717       -59.2032      -16.06594      0.7045893
      8553.5000         0.7847        -999.25         0.6801       -58.6622      -15.52494      0.7151971
      8554.0000         0.7736        -999.25         0.6884       -58.1206      -14.98335      0.7258168
      8554.5000         0.7624        -999.25         0.6968       -57.7803      -14.64304      0.7324893
      8555.0000         0.7512        -999.25          0.693       -57.6195      -14.48224      0.7356423
      8555.5000           0.74        -999.25         0.6783       -57.4584      -14.32114      0.7388011
      8556.0000         0.7289        -999.25         0.6636       -57.2975      -14.16024       0.741956
      8556.5000         0.7177        -999.25         0.6459       -57.1367      -13.99944       0.745109
      8557.0000         0.7046        -999.25         0.6224       -56.9759      -13.83864      0.7482619
      8557.5000         0.6865        -999.25         0.5989       -56.7568      -13.61954      0.7525579
      8558.0000         0.8341        -999.25         0.5754       -56.4634      -13.32615      0.7583109
      8558.5000         0.9116        -999.25         0.5519       -56.1696      -13.03234      0.7640716
      8559.0000         0.9552        -999.25         0.5283       -58.2083      -15.07104      0.7240971
      8559.5000         0.9353        -999.25          0.501       -61.8058      -18.66854       0.653558
      8560.0000         0.9154        -999.25         0.4704       -65.7611      -22.62384      0.5760031
      8560.5000         0.8955        -999.25         0.4399       -69.9762      -26.83894      0.4933541
      8561.0000         0.8757        -999.25         0.4093       -72.2748      -29.13755      0.4482834
      8561.5000         0.8558        -999.25         0.3787        -75.745      -32.60775      0.3802403
      8562.0000         0.8359        -999.25          0.406        -74.157      -31.01974      0.4113776
      8562.5000         0.7999        -999.25         0.5597       -70.2922      -27.15494       0.487158
      8563.0000         0.7587        -999.25         0.7137        -68.219      -25.08175      0.5278089
      8563.5000         0.7317        -999.25         0.8674       -66.1458      -23.00854        0.56846
      8564.0000         0.7723        -999.25         0.9469       -64.0726      -20.93534      0.6091109
      8564.5000         0.8128        -999.25         1.0125       -63.4404      -20.30314       0.621507
      8565.0000         0.8534        -999.25         0.9922       -63.1089      -19.97164      0.6280071
      8565.5000         0.8939        -999.25         0.9719       -63.3885      -20.25124      0.6225246
      8566.0000         0.9345        -999.25         0.9517       -63.6683      -20.53104      0.6170384
      8566.5000         0.9129        -999.25         0.9313        -62.068      -18.93074      0.6484168
      8567.0000         0.8708        -999.25         0.9136       -59.6933      -16.55604      0.6949795
      8567.5000         0.8288        -999.25         0.9117       -56.1497      -13.01244      0.7644619
      8568.0000         0.7907        -999.25         0.9099       -53.1428      -10.00554      0.8234207
      8568.5000         0.7667        -999.25          0.908       -50.9372      -7.799942      0.8666678
      8569.0000         0.7426        -999.25         0.9062       -49.3167      -6.179443      0.8984423
      8569.5000         0.7426        -999.25         0.9044       -48.8481      -5.710842      0.9076306
      8570.0000         0.7609        -999.25         0.9032       -48.3788      -5.241543      0.9168325
      8570.5000         0.7827        -999.25         0.9194       -47.9101      -4.772842      0.9260227
      8571.0000         0.8044        -999.25         0.9356       -47.4408      -4.303543      0.9352247
      8571.5000         0.8262        -999.25         0.9518       -47.2156      -4.078342      0.9396403
      8572.0000          0.848        -999.25         0.9681       -47.1196      -3.982342      0.9415227
      8572.5000         0.8623        -999.25         0.9843       -47.0237      -3.886444      0.9434031
      8573.0000         0.8646        -999.25         1.0005       -46.9277      -3.790443      0.9452854
      8573.5000         0.8606        -999.25         1.0167       -46.8318      -3.694542      0.9471658
      8574.0000         0.8566        -999.25         1.0267       -46.7781      -3.640842      0.9482188
      8574.5000         0.8525        -999.25          1.021       -46.8055      -3.668243      0.9476815
      8575.0000         0.8485        -999.25         1.0152       -46.8329      -3.695644      0.9471442
      8575.5000         0.8444        -999.25         1.0095       -46.8602      -3.722942       0.946609
      8576.0000         0.8451        -999.25         1.0037       -46.8877      -3.750443      0.9460698
      8576.5000         0.8479        -999.25          0.998        -46.915      -3.777744      0.9455344
      8577.0000         0.8507        -999.25         0.9922       -47.1198      -3.982544      0.9415187
      8577.5000         0.8536        -999.25         0.9824        -47.434      -4.296741       0.935358
      8578.0000         0.8536        -999.25         0.9695        -47.749      -4.611744      0.9291815
      8578.5000         0.8439        -999.25         0.9566       -48.0632      -4.925945      0.9230207
      8579.0000         0.8341        -999.25         0.9438       -48.3782      -5.240944      0.9168442
      8579.5000         0.8244        -999.25         0.9309       -48.6924      -5.555145      0.9106835
      8580.0000         0.8147        -999.25          0.918       -49.0208      -5.883545      0.9042442
      8580.5000         0.8049        -999.25         0.9051       -49.3909      -6.253643      0.8969874
      8581.0000         0.7952        -999.25         0.8927       -49.7603      -6.623043      0.8897443
      8581.5000         0.7872        -999.25         0.8961       -50.0648      -6.927544      0.8837736
