#------------------------------------------------------------------------------
# Created by    : vladimir.rabinovich
# Created on    : 09/19/2023 17:22:54
#------------------------------------------------------------------------------
~Version Information Section
VERS.           2.0     :   CWLS log ASCII Standard - VERSION 2.0
WRAP.           NO      :   One line per depth step
~Well Information Section
#MNEM       .UNIT                                         VALUE :DESCRIPTION
#------------------------------------------------------------------------------
STRT        .FT                                             410 :START DEPTH
STOP        .FT                                            7624 :STOP DEPTH
STEP        .FT                                             0.5 :STEP      
NULL        .                                           -999.25 :NULL      
COMP        .                                      SHELL OIL CO :COMPANY   
WELL        .                                     ST TR 00249-L :WELL      
FLD         .                                           WILDCAT :FIELD     
LOC         .                                                   :LOCATION  
CNTY        .                             GALVESTON LARGE BLOCK :LOCATION  
STAT        .                                             TEXAS :STATE     
CTRY        .                                     UNITED STATES :COUNTRY   
SRVC        .                                                   :SERVICE COMPANY
DATE        .                             9/13/2023 11:19:42 AM :LOG DATE  
API         .                                    42706000200000 :API NUMBER
UWI         .                                    42706000200000 :UNIQUE WELL ID
XCOORD      .                                  981084.037319939 :SURFACE X 
YCOORD      .                                  10535303.7769946 :SURFACE Y 
LAT         .                                         29.014458 :LATITUDE  
LON         .                                       -95.0633058 :LONGITUDE 
ELEV        .FT                                              11 :ELEVATION VALUE
ELEV_TYPE   .                                                KB :ELEVATION REFERENCE TYPE
~Curve Information Section
#MNEM       .UNIT                                      API CODE :CURVE DESCRIPTION
#------------------------------------------------------------------------------
DEPT        .FT                                                 :DEPTH     
LAT         .OHMM                                               :          
SN          .OHMM                                               :          
SP          .MV                                                 :          
SP_NORM     .MV                                                 :SP Normalized
VSH_SP      .V/V                                                :Volume of Shale from SP
~A        DEPTH            LAT             SN             SP        SP_NORM         VSH_SP
# ...
      5206.0000          0.559         0.7558       -69.7046      -4.222961      0.9496412
      5206.5000         0.5626         0.7527        -69.462      -3.987457       0.953321
      5207.0000          0.568         0.7497         -69.21      -3.742554      0.9571476
      5207.5000         0.5747         0.7466       -68.9579      -3.497559      0.9609756
      5208.0000         0.5814         0.7436       -68.7061      -3.252853      0.9647992
      5208.5000          0.588         0.7405        -68.454      -3.007858      0.9686272
      5209.0000         0.5947         0.7375        -68.098      -2.658951      0.9740789
      5209.5000         0.6014         0.7344       -67.7386      -2.306648      0.9795836
      5210.0000         0.6081          0.736       -67.3842      -1.959351      0.9850101
      5210.5000         0.6192         0.7408        -67.052      -1.634247      0.9900899
      5211.0000         0.6321         0.7457       -66.7196      -1.308937      0.9951729
      5211.5000          0.645         0.7506       -66.4495      -1.045944      0.9992821
      5212.0000         0.6578         0.7554       -66.2255     -0.8290405              1
      5212.5000         0.6707         0.7603       -66.0016     -0.6122437              1
      5213.0000         0.6836         0.7651       -66.0148     -0.6325378              1
      5213.5000         0.6964           0.77       -66.0358     -0.6606293              1
      5214.0000         0.7031          0.782       -66.0569     -0.6888351              1
      5214.5000         0.7087         0.7973       -66.0779     -0.7169342              1
      5215.0000         0.7144         0.8125       -66.1853     -0.8314285              1
      5215.5000           0.72         0.8342       -66.4713      -1.124527      0.9980543
      5216.0000         0.7257         0.8569        -66.757      -1.417328      0.9934793
      5216.5000         0.7313         0.8799        -67.043      -1.710426      0.9888996
      5217.0000          0.737         0.9076       -67.3286       -2.00312      0.9843262
      5217.5000         0.7351         0.9353       -67.6144      -2.296021      0.9797497
      5218.0000         0.7332         0.9596       -67.8184      -2.507118      0.9764513
      5218.5000         0.7312          0.973        -67.975      -2.670815      0.9738935
      5219.0000         0.7292         0.9864       -68.1316      -2.834511      0.9713358
      5219.5000         0.7273         0.9995       -68.2885      -2.998512      0.9687732
      5220.0000         0.7249         0.9747       -68.4451      -3.162209      0.9662155
      5220.5000         0.7217         0.9498       -68.5997      -3.323906       0.963689
      5221.0000         0.7185          0.925       -68.7533      -3.484612      0.9611779
      5221.5000         0.7153         0.9001       -68.9066      -3.645004      0.9586718
      5222.0000         0.7121         0.8753       -69.1912      -3.936707       0.954114
      5222.5000         0.7089         0.8505       -70.3416        -5.0942      0.9360281
      5223.0000         0.6959         0.8301       -71.4919      -6.251595      0.9179438
      5223.5000         0.6774         0.8119       -72.2834      -7.050201      0.9054656
      5224.0000         0.6589         0.7999       -73.0061      -7.779999      0.8940625
      5224.5000         0.6405         0.7961        -73.512      -8.292992       0.886047
      5225.0000          0.622         0.7923       -72.9154      -7.703491      0.8952579
      5225.5000         0.6035         0.7896       -72.3184      -7.113586      0.9044752
      5226.0000         0.5861         0.7919       -71.4482      -6.250488      0.9179611
      5226.5000         0.5706         0.7943       -70.5032      -5.312584      0.9326159
      5227.0000         0.5551         0.7967       -69.5571      -4.373581      0.9472878
      5227.5000         0.5397         0.8011       -68.6478      -3.471382      0.9613847
      5228.0000         0.5242         0.8073       -68.4242      -3.254883      0.9647675
      5228.5000         0.5093         0.8135       -68.2002      -3.037979      0.9681566
      5229.0000         0.5048         0.8197       -68.0724      -2.917282      0.9700425
      5229.5000         0.5004         0.8491       -68.0632      -2.915176      0.9700754
      5230.0000         0.5007         0.8811       -68.0542      -2.913277      0.9701051
      5230.5000         0.5188         0.9998       -68.0931      -2.959274      0.9693863
      5231.0000          0.622         1.1568       -68.1609      -3.034164      0.9682162
      5231.5000         0.7813         1.3296       -69.3298      -4.210175       0.949841
      5232.0000         0.9343         1.5272       -70.7643      -5.651764      0.9273162
      5232.5000         1.0873         1.6858       -73.0061      -7.900665      0.8921771
      5233.0000          1.238         1.8015       -77.2756      -12.17726      0.8253553
      5233.5000         1.3741         1.9172       -83.1184      -18.02716      0.7339506
      5234.0000         1.4729         2.0151       -89.8481      -24.76395      0.6286882
      5234.5000         1.5144         2.1014       -96.6349      -31.55786      0.5225334
      5235.0000          1.423         2.1221      -102.8228      -37.75285      0.4257367
      5235.5000         1.3111         2.0998      -108.7245      -43.66166      0.3334116
      5236.0000         1.1992         2.1069       -105.353      -40.29725      0.3859805
      5236.5000         1.0873         2.2356       -99.7725      -34.72385      0.4730649
      5237.0000         1.0541         3.1706       -97.6793      -32.63775      0.5056602
      5237.5000         1.1449         3.5077      -111.3312      -46.29675      0.2922384
      5238.0000         1.2357         3.6122      -119.3895      -54.36214      0.1662165
      5238.5000         1.3263         3.7166      -122.9991      -57.97884      0.1097056
      5239.0000         1.4165         3.7674      -126.6394      -61.62624     0.05271506
      5239.5000         1.5062         3.4026      -130.0923      -65.08624              0
      5240.0000         1.5506         2.9059      -129.7419      -64.74294    0.004016638
      5240.5000         1.4707         2.5229      -122.8855      -57.89363       0.111037
      5241.0000         1.3907         2.3346      -112.7908      -47.80604      0.2686557
      5241.5000         1.2724         2.1464        -87.838      -22.86033      0.6584324
      5242.0000         1.1538         1.9405       -81.7462      -16.77563      0.7535058
      5242.5000         1.0834         1.7211        -76.926      -11.96253      0.8287104
      5243.0000         1.1447         1.5517       -72.5964      -7.640022      0.8962497
      5243.5000         1.1043         1.4156       -71.2942      -6.344925      0.9164855
      5244.0000         1.0493         1.2796       -70.0613      -5.119125      0.9356387
      5244.5000         0.9943         1.2062       -69.2408      -4.305717      0.9483482
      5245.0000         0.9394         1.1441       -70.5415      -5.613518      0.9279138
      5245.5000         0.8732         1.0819       -72.4993      -7.578415      0.8972123
      5246.0000         0.7981         1.0232       -74.4591      -9.545311      0.8664795
      5246.5000         0.7231         0.9647       -75.6909      -10.78422      0.8471216
      5247.0000          0.648         0.9172       -74.2167      -9.317108      0.8700452
      5247.5000         0.5729         0.8823       -71.2603      -6.367813      0.9161279
      5248.0000         0.5228         0.8472       -73.9763      -9.090912      0.8735795
      5248.5000         0.4789         0.8123       -76.6923        -11.814      0.8310312
      5249.0000          0.435         0.7772       -78.8718      -14.00061      0.7968655
      5249.5000         0.3911         0.7579       -80.3827       -15.5186      0.7731469
