#------------------------------------------------------------------------------
# Created by    : vladimir.rabinovich
# Created on    : 09/19/2023 17:20:57
#------------------------------------------------------------------------------
~Version Information Section
VERS.           2.0     :   CWLS log ASCII Standard - VERSION 2.0
WRAP.           NO      :   One line per depth step
~Well Information Section
#MNEM       .UNIT                                         VALUE :DESCRIPTION
#------------------------------------------------------------------------------
STRT        .FT                                             601 :START DEPTH
STOP        .FT                                            9006 :STOP DEPTH
STEP        .FT                                             0.5 :STEP      
NULL        .                                           -999.25 :NULL      
COMP        .                                        SUN OIL CO :COMPANY   
WELL        .                               OCS G01715 ST00BP00 :WELL      
FLD         .                                           WILDCAT :FIELD     
LOC         .                                                   :LOCATION  
CNTY        .                                BRAZOS LARGE BLOCK :LOCATION  
STAT        .                                             TEXAS :STATE     
CTRY        .                                     UNITED STATES :COUNTRY   
SRVC        .                                                   :SERVICE COMPANY
DATE        .                             9/13/2023 11:18:52 AM :LOG DATE  
API         .                                    42704000710000 :API NUMBER
UWI         .                                    42704000710000 :UNIQUE WELL ID
XCOORD      .                                  842225.693118258 :SURFACE X 
YCOORD      .                                  10368215.6352389 :SURFACE Y 
LAT         .                                          28.54781 :LATITUDE  
LON         .                                        -95.486614 :LONGITUDE 
ELEV        .FT                                              79 :ELEVATION VALUE
ELEV_TYPE   .                                                KB :ELEVATION REFERENCE TYPE
~Curve Information Section
#MNEM       .UNIT                                      API CODE :CURVE DESCRIPTION
#------------------------------------------------------------------------------
DEPT        .FT                                                 :DEPTH     
ASN         .OHMM                                               :          
CALI        .IN                                                 :          
CILD        .MMHO                                               :          
DT          .US/F                                               :          
ILD         .OHMM                                               :          
SP          .MV                                                 :          
SP_NORM     .MV                                                 :SP Normalized
VSH_SP      .V/V                                                :Volume of Shale from SP
~A        DEPTH            ASN           CALI           CILD             DT            ILD             SP        SP_NORM         VSH_SP
# ...
      2843.0000          0.891        15.2513       2275.078       151.8433         0.4292       -68.2358      -39.02261     0.02506139
      2843.5000         0.8676        15.2562       2302.602       160.0098         0.4361       -67.9698      -38.74742      0.0321174
      2844.0000         0.8308        15.2529       2348.457       162.0645         0.4508       -67.3948      -38.16323     0.04709664
      2844.5000         0.7871        15.2467        2402.84       161.8821         0.4687       -65.8175      -36.57674     0.08777579
      2845.0000         0.7498        15.2387       2429.172       161.5027         0.4899       -63.0673      -33.81736      0.1585292
      2845.5000         0.7164        15.2422       2443.301       171.6731         0.5066       -60.3912      -31.13207      0.2273827
      2846.0000         0.6919        15.2426       2453.008       178.8875         0.5125       -56.0906      -26.82229      0.3378901
      2846.5000         0.6753         15.076       2441.109       177.4597         0.5107       -49.4974       -20.2199      0.5071821
      2847.0000         0.6725        14.4415       2399.648       171.7896         0.5046       -40.7891      -11.50241      0.7307073
      2847.5000         0.6996        13.8047       2355.867       165.3604         0.4962       -37.9248      -8.628929      0.8043864
      2848.0000         0.7612        12.8206       2265.109         151.49         0.4845       -39.9246      -10.61954      0.7533451
      2848.5000         0.8501        12.6296       2198.891       147.0486         0.4726       -46.7241      -17.40985      0.5792345
      2849.0000         0.9048        13.5999       2162.184       147.7432         0.4703       -61.5715      -32.24807      0.1987674
      2849.5000           0.95        14.6561       2093.281       148.7866          0.468       -66.8472      -37.51458     0.06372862
      2850.0000         0.8667         15.057       2024.357       154.5037         0.4734        -65.882       -36.5402     0.08871274
      2850.5000         0.8261        15.2133       2051.879       161.9136         0.4837       -62.3607      -33.00971      0.1792382
      2851.0000         0.7835        15.2648       2119.996       168.8223          0.497       -59.3883      -30.02813       0.255689
      2851.5000          0.755        15.2431       2188.137       165.0298         0.5221       -55.4883      -26.11894      0.3559246
      2852.0000         0.7388        15.1046       2256.277       157.7551         0.5846       -51.4135      -22.03496      0.4606422
      2852.5000         0.7274         14.707        2269.23       150.3503         0.6196       -46.9973      -17.60957      0.5741137
      2853.0000         0.7216        13.8527       2224.266        144.699         0.6424       -43.5684      -14.17148      0.6622697
      2853.5000         0.7209        13.4179       2178.668       138.6868         0.6539       -41.8412       -12.4351      0.7067924
      2854.0000         0.7225        13.7433       2131.059       131.3472         0.6578       -42.1326      -12.71731      0.6995562
      2854.5000         0.7039        13.4011       1699.764       124.3958         0.6526       -43.4641      -14.03963      0.6656507
      2855.0000         0.6859        12.8181       1600.371       122.4362         0.6481       -43.3921      -13.95844      0.6677324
      2855.5000         0.6759        12.4556       1533.678       121.1906         0.6446       -43.8079      -14.36505      0.6573064
      2856.0000         0.6693        12.3576        1488.25       122.5896         0.6404       -44.3248      -14.87276      0.6442881
      2856.5000         0.6681        12.3447       1458.586       124.8129         0.6353       -44.4369      -14.97568      0.6416492
      2857.0000         0.6684        12.3322        1457.07       125.9388         0.6302       -43.7476      -14.27719      0.6595591
      2857.5000         0.6705        12.2746       1455.555       127.0992         0.6251       -42.8663      -13.38671      0.6823921
      2858.0000         0.6734        12.2593       1464.959       129.1716         0.6211       -42.1786      -12.68982      0.7002609
      2858.5000         0.6761         12.244       1474.814       130.8118          0.618       -43.4178      -13.91984      0.6687221
      2859.0000         0.6765        12.2775        1491.77       131.4304         0.6071        -44.582      -15.07485      0.6391064
      2859.5000          0.675        12.3472       1519.096       130.2273           0.59       -45.4019      -15.88556      0.6183189
      2860.0000         0.6707         12.271       1557.617        128.574         0.5719        -45.955      -16.42948      0.6043723
      2860.5000         0.6653        12.1517       1609.717       126.0391           0.55       -46.2567      -16.72199       0.596872
      2861.0000         0.6584        12.3263       1690.246            124         0.5267        -46.191      -16.64711      0.5987921
      2861.5000         0.6828        12.7423       1823.291       122.6516         0.5043       -47.7393      -18.18622      0.5593277
      2862.0000         0.7125        13.2169       1887.361       125.3301         0.4811       -51.3018      -21.73953      0.4682171
      2862.5000         0.7445        13.6377       1921.775       130.9414         0.4638       -55.2673      -25.69585      0.3667731
      2863.0000         0.7788        13.9439       1961.342        139.188         0.4558       -60.4617      -30.88106      0.2338189
      2863.5000         0.8121        14.2087       1982.068       144.0076         0.4546       -64.2014      -34.61158      0.1381647
      2864.0000          0.819        14.3638        1992.26       148.3186         0.4516       -66.9966      -37.39759     0.06672854
      2864.5000         0.7977         14.714       1996.264         147.74         0.4489        -66.976       -37.3678     0.06749226
      2865.0000         0.7775        15.1763       1997.246       143.9712         0.4503       -66.1748      -36.55742     0.08827141
      2865.5000         0.7621        15.2696       1997.148       147.8477         0.4561       -65.5055      -35.87893      0.1056684
      2866.0000         0.7439        15.2644       2083.543       144.2656         0.4649       -64.2039      -34.56815      0.1392782
      2866.5000         0.7165         15.248        2215.07        142.251         0.4873       -62.5435      -32.89856      0.1820882
      2867.0000         0.6575        15.2459       2346.594       142.6384         0.5172       -58.8127      -29.15857      0.2779854
      2867.5000          0.622        15.2387        2446.82       144.0176         0.5387       -53.4606      -23.79729      0.4154541
      2868.0000          0.613        15.1641       2379.805        142.031         0.5453       -49.6602       -19.9877      0.5131359
      2868.5000         0.6118        14.6501        2312.77       136.6953         0.5328       -46.5518      -16.87012       0.593074
      2869.0000         0.6326        13.6439        2245.73       131.2568         0.5138       -44.5757      -14.88483      0.6439788
      2869.5000         0.6751        12.9827       2178.691       124.4772         0.4945       -46.4971      -16.79704      0.5949476
      2870.0000         0.7593         13.134        2111.68       122.9091          0.469       -51.9355      -22.22626      0.4557369
      2870.5000         0.8887        13.2756       2097.918        127.244           0.45       -64.1407      -34.42227      0.1430187
      2871.0000         0.9427        13.6264       2193.629       132.6272         0.4389       -73.3929      -43.66528              0
      2871.5000          0.963        14.3643       2289.391        150.731         0.4387       -76.1025       -46.3657              0
      2872.0000         0.9674        14.8769       2385.105       168.9875         0.4398       -77.2648      -47.51881              0
