#------------------------------------------------------------------------------
# Created by    : vladimir.rabinovich
# Created on    : 09/19/2023 17:22:16
#------------------------------------------------------------------------------
~Version Information Section
VERS.           2.0     :   CWLS log ASCII Standard - VERSION 2.0
WRAP.           NO      :   One line per depth step
~Well Information Section
#MNEM       .UNIT                                         VALUE :DESCRIPTION
#------------------------------------------------------------------------------
STRT        .FT                                              10 :START DEPTH
STOP        .FT                                            7932 :STOP DEPTH
STEP        .FT                                             0.5 :STEP      
NULL        .                                           -999.25 :NULL      
COMP        .                                       ALLIED CORP :COMPANY   
WELL        .                               OCS G04069 ST00BP00 :WELL      
FLD         .                                           WILDCAT :FIELD     
LOC         .                                                   :LOCATION  
CNTY        .                             GALVESTON LARGE BLOCK :LOCATION  
STAT        .                                             TEXAS :STATE     
CTRY        .                                     UNITED STATES :COUNTRY   
SRVC        .                                                   :SERVICE COMPANY
DATE        .                             9/13/2023 11:18:53 AM :LOG DATE  
API         .                                    42706400790000 :API NUMBER
UWI         .                                    42706400790000 :UNIQUE WELL ID
XCOORD      .                                  993545.470392299 :SURFACE X 
YCOORD      .                                  10396443.6120929 :SURFACE Y 
LAT         .                                         28.633244 :LATITUDE  
LON         .                                        -95.016955 :LONGITUDE 
ELEV        .FT                                              82 :ELEVATION VALUE
ELEV_TYPE   .                                                KB :ELEVATION REFERENCE TYPE
~Curve Information Section
#MNEM       .UNIT                                      API CODE :CURVE DESCRIPTION
#------------------------------------------------------------------------------
DEPT        .FT                                                 :DEPTH     
CALI        .IN                                                 :          
CILD        .MMHO                                               :          
DPHI        .B                                                  :          
DRHO        .G/C3                                               :          
DT          .US/F                                               :          
GR          .GAPI                                               :          
GR_1        .GAPI                                               :          
GR_NORM     .GAPI                                               :GammaRay Normalized
ILD         .OHMM                                               :          
ILM         .OHMM                                               :          
NPHI        .%                                                  :          
SFL         .OHMM                                               :          
SP          .MV                                                 :          
SP_NORM     .MV                                                 :SP Normalized
VSH_GR      .V/V                                                :Volume of Shale from GR
VSH_SP      .V/V                                                :Volume of Shale from SP
~A        DEPTH           CALI           CILD           DPHI           DRHO             DT             GR           GR_1        GR_NORM            ILD            ILM           NPHI            SFL             SP        SP_NORM         VSH_GR         VSH_SP
# ...
      2346.0000        -999.25       826.4053        -999.25        -999.25       148.0254        60.0624        -999.25       66.22162         1.2264         1.0757        -999.25         1.2071      -110.3829      -13.00063       0.706843      0.8142767
      2346.5000        -999.25       816.5049        -999.25        -999.25       151.7434          59.96        -999.25       66.08659         1.2152          1.058        -999.25         1.1926      -110.6195      -13.24545      0.7039701      0.8107793
      2347.0000        -999.25       830.8613        -999.25        -999.25       152.8774        60.5114        -999.25       66.76883         1.1996         1.0357        -999.25         1.1783      -110.3271      -12.96127      0.7184857      0.8148391
      2347.5000        -999.25       845.2119        -999.25        -999.25       152.9048        62.8029        -999.25       69.62617         1.1842         1.0145        -999.25         1.1684      -109.0217      -11.66408      0.7792803      0.8333703
      2348.0000        -999.25       857.5146        -999.25        -999.25       151.7444        65.9574        -999.25       73.56229         1.1626         0.9944        -999.25         1.1598       -107.723      -10.37359      0.8630274      0.8518059
      2348.5000        -999.25       866.4482        -999.25        -999.25       150.9658        67.6469        -999.25       75.66713         1.1383         0.9765        -999.25         1.1513      -107.2584      -9.917206      0.9078113      0.8583257
      2349.0000        -999.25       875.3818        -999.25        -999.25       150.4697        68.2107        -999.25       76.36487         1.1145         0.9663        -999.25         1.1467      -107.4989      -10.16592      0.9226568      0.8547726
      2349.5000        -999.25       886.9023        -999.25        -999.25       150.7754        67.7964        -999.25       75.83998         1.0926         0.9562        -999.25           1.15      -108.2278      -10.90303       0.911489      0.8442424
      2350.0000        -999.25       899.4482        -999.25        -999.25       151.6624        64.0911        -999.25       71.20133         1.0727         0.9496        -999.25         1.1532      -107.5831      -10.26654      0.8127943      0.8533351
      2350.5000        -999.25       911.5635        -999.25        -999.25       152.6958        61.9923        -999.25        68.5708         1.0531          0.943        -999.25         1.1712       -105.848      -8.539658      0.7568256      0.8780049
      2351.0000        -999.25       917.7031        -999.25        -999.25       153.3613        61.5137        -999.25       67.96553         1.0414         0.9362        -999.25          1.195      -105.1365      -7.836372      0.7439474      0.8880518
      2351.5000        -999.25       923.8408        -999.25        -999.25       152.8684         60.987        -999.25       67.30014         1.0339         0.9294        -999.25         1.2091      -104.8352      -7.543282      0.7297902      0.8922389
      2352.0000        -999.25       929.9814        -999.25        -999.25       151.9712        59.3795        -999.25       65.28374         1.0264         0.9139        -999.25         1.1995      -105.3217      -8.038002      0.6868882      0.8851714
      2352.5000        -999.25        935.041        -999.25        -999.25       153.0371        56.8737        -999.25       62.14447         1.0241         0.9066        -999.25         1.1837      -106.2548      -8.979309      0.6200952      0.8717241
      2353.0000        -999.25        938.752        -999.25        -999.25       154.8916        56.5554        -999.25       61.73958         1.0224         0.9128        -999.25         1.1506      -107.4008      -10.13353      0.6114805      0.8552353
      2353.5000        -999.25       942.4629        -999.25        -999.25       156.3872        58.8655        -999.25       64.62018         1.0207         0.9219        -999.25         1.1371      -107.0551      -9.796036      0.6727697      0.8600566
      2354.0000        -999.25       946.1611        -999.25        -999.25       157.4707         62.972        -999.25       69.74628         1.0259         0.9359        -999.25         1.1971      -106.4052       -9.15435      0.7818359      0.8692236
      2354.5000        -999.25        942.124        -999.25        -999.25       156.9126        63.7033        -999.25       70.65339         1.0355         0.9498        -999.25           1.23      -106.4542      -9.211563       0.801136      0.8684062
      2355.0000        -999.25       938.0889        -999.25        -999.25       155.8113        62.2752        -999.25       68.86124         1.0463         0.9585        -999.25          1.256       -107.017      -9.782578      0.7630052      0.8602489
      2355.5000        -999.25       934.0508        -999.25        -999.25       154.6665        60.4841        -999.25       66.61536         1.0685         0.9617        -999.25         1.2459      -107.0928      -9.866585      0.7152203      0.8590488
      2356.0000        -999.25       920.4932        -999.25        -999.25       154.3704        58.5474        -999.25       64.18745         1.0913         0.9646        -999.25         1.2149      -106.1957      -8.977707      0.6635628       0.871747
      2356.5000        -999.25       906.0264        -999.25        -999.25       154.9099        57.4543        -999.25       62.81406          1.117         0.9675        -999.25         1.1925      -105.2697      -8.059921      0.6343416      0.8848583
      2357.0000        -999.25       891.5586        -999.25        -999.25       156.8796        56.6644        -999.25       61.81966         1.1432           0.98        -999.25         1.1771      -104.7944      -7.592834      0.6131842      0.8915309
      2357.5000        -999.25       882.8623        -999.25        -999.25       158.9009        57.4374        -999.25       62.77889         1.1677         0.9928        -999.25         1.1903      -105.3934       -8.20005      0.6335934      0.8828564
      2358.0000        -999.25       874.2793        -999.25        -999.25       160.1785        59.5065        -999.25       65.35825         1.1898         1.0035        -999.25         1.2249      -106.6444      -9.459259      0.6884733      0.8648677
      2358.5000        -999.25       865.7002        -999.25        -999.25       160.1072        60.7043        -999.25       66.84846         1.2123         1.0103        -999.25         1.2427      -108.5403      -11.36337      0.7201801      0.8376661
      2359.0000        -999.25       858.9619        -999.25        -999.25       158.6375        60.9785        -999.25        67.1842         1.2214         1.0142        -999.25         1.2524      -108.3866      -11.21788      0.7273235      0.8397446
      2359.5000        -999.25       852.4922        -999.25        -999.25       156.8062        60.7103        -999.25       66.84193         1.2279         1.0162        -999.25          1.247      -107.8096       -10.6491       0.720041        0.84787
      2360.0000        -999.25       846.0244        -999.25        -999.25          156.3         60.013        -999.25       65.96329         1.2351         1.0222        -999.25         1.2384      -107.2196      -10.06731      0.7013465      0.8561813
      2360.5000        -999.25       839.5459        -999.25        -999.25       157.3992        61.2619        -999.25        67.5174         1.2506           1.03        -999.25         1.2398      -107.3645      -10.22043      0.7344127      0.8539939
      2361.0000        -999.25        823.501        -999.25        -999.25       158.6812        64.9293        -999.25       72.09461         1.2662         1.0532        -999.25         1.2527       -107.772      -10.63614      0.8318003      0.8480552
      2361.5000        -999.25       807.8115        -999.25        -999.25        159.512        63.3027        -999.25       70.05434         1.2812          1.053        -999.25         1.2658      -108.7859      -11.65825      0.7883902      0.8334536
