#------------------------------------------------------------------------------
# Created by    : vladimir.rabinovich
# Created on    : 09/19/2023 17:20:45
#------------------------------------------------------------------------------
~Version Information Section
VERS.           2.0     :   CWLS log ASCII Standard - VERSION 2.0
WRAP.           NO      :   One line per depth step
~Well Information Section
#MNEM       .UNIT                                         VALUE :DESCRIPTION
#------------------------------------------------------------------------------
STRT        .FT                                            2010 :START DEPTH
STOP        .FT                                            7000 :STOP DEPTH
STEP        .FT                                             0.5 :STEP      
NULL        .                                           -999.25 :NULL      
COMP        .                                    TEXAS GULF INC :COMPANY   
WELL        .                                ST OF TEX TR 693-L :WELL      
FLD         .                                           WILDCAT :FIELD     
LOC         .                                                   :LOCATION  
CNTY        .                      MATAGORDA ISLAND LARGE BLOCK :LOCATION  
STAT        .                                             TEXAS :STATE     
CTRY        .                                     UNITED STATES :COUNTRY   
SRVC        .                                                   :SERVICE COMPANY
DATE        .                             9/13/2023 11:12:01 AM :LOG DATE  
API         .                                    42703300330000 :API NUMBER
UWI         .                                    42703300330000 :UNIQUE WELL ID
XCOORD      .                                  377893.250269135 :SURFACE X 
YCOORD      .                                  10151490.3803449 :SURFACE Y 
LAT         .                                        27.9187241 :LATITUDE  
LON         .                                       -96.9091122 :LONGITUDE 
ELEV        .FT                                              70 :ELEVATION VALUE
ELEV_TYPE   .                                                KB :ELEVATION REFERENCE TYPE
~Curve Information Section
#MNEM       .UNIT                                      API CODE :CURVE DESCRIPTION
#------------------------------------------------------------------------------
DEPT        .FT                                                 :DEPTH     
ASN         .OHMM                                               :          
CILD        .MMHO                                               :          
ILD         .OHMM                                               :          
SP          .MV                                                 :          
SP_NORM     .MV                                                 :SP Normalized
VSH_SP      .V/V                                                :Volume of Shale from SP
~A        DEPTH            ASN           CILD            ILD             SP        SP_NORM         VSH_SP
# ...
      3340.0000         1.0321       2948.863         0.4497      -112.5686        -63.512     0.05366152
      3340.5000         1.6268       2749.613          0.493      -111.1593       -62.1027     0.07534309
      3341.0000         1.7083       2550.359         0.5364        -109.75       -60.6934      0.0970246
      3341.5000         1.7704       2351.109         0.5797      -108.3408       -59.2842      0.1187046
      3342.0000         1.7922       2151.859         0.6231      -106.9315       -57.8749      0.1403861
      3342.5000         1.7339       1952.607         0.6555      -105.5222       -56.4656      0.1620677
      3343.0000         1.6751       1753.355         0.6854      -103.0386        -53.982      0.2002769
      3343.5000          1.629       1601.547         0.7154      -100.4835       -51.4269      0.2395862
      3344.0000         1.6086       1529.211         0.7454       -98.8431       -49.7865      0.2648231
      3344.5000         1.5882       1477.627         0.7753       -97.1567       -48.1001      0.2907677
      3345.0000         1.5685       1430.807         0.8071       -95.4703       -46.4137      0.3167123
      3345.5000         1.5762       1324.521         0.8405       -93.7839       -44.7273      0.3426569
      3346.0000         1.5926       1211.775         0.8739       -91.1083       -42.0517        0.38382
      3346.5000         1.5479       1108.008         0.9072       -88.2922       -39.2356      0.4271446
      3347.0000         1.5094       1054.154         0.9406       -85.4762       -36.4196      0.4704677
      3347.5000         1.4731       1074.934         0.9752       -82.4551       -33.3985      0.5169462
      3348.0000         1.4516       1188.377         0.9981       -79.1171       -30.0605         0.5683
      3348.5000         1.4301       1707.533         0.9457       -74.7227       -25.6661      0.6359062
      3349.0000         1.3932       1757.646         0.8934       -70.4526        -21.396         0.7016
      3349.5000         1.3465       1807.734         0.8358       -78.3018       -29.2452      0.5808431
      3350.0000         1.2253       1851.385         0.7767        -81.088       -32.0314      0.5379785
      3350.5000         1.0943       1898.455         0.7176       -83.8755       -34.8189      0.4950938
      3351.0000         1.0572       1954.777         0.6585       -85.3264       -36.2698      0.4727723
      3351.5000         1.0685       2011.076         0.5994       -85.6514       -36.5948      0.4677723
      3352.0000         1.0794       2067.398         0.5529       -83.4518       -34.3952      0.5016123
      3352.5000         1.0417       2121.176         0.5315       -78.4236        -29.367      0.5789692
      3353.0000         0.9975       2172.512         0.5102       -74.6979       -25.6413      0.6362877
      3353.5000         0.9533       2223.871         0.4888       -74.5164       -25.4598        0.63908
      3354.0000         0.9142       2287.902         0.4675       -76.6974       -27.6408      0.6055261
      3354.5000         0.8837       2396.559         0.4462       -78.8772       -29.8206      0.5719908
      3355.0000         0.8532       2499.773         0.4248       -77.4568       -28.4002      0.5938431
      3355.5000         0.8227       2574.008         0.4103       -74.1411       -25.0845      0.6448538
      3356.0000         0.7923       2648.289         0.3978       -71.9092       -22.8526      0.6791908
      3356.5000         0.7694       2724.867         0.3853       -73.0748       -24.0182      0.6612585
      3357.0000         0.7469       2803.242         0.3748       -76.6788       -27.6222      0.6058123
      3357.5000         0.7331       2765.578         0.4023       -79.7981       -30.7415      0.5578231
      3358.0000         0.7896       2443.301         0.4284       -82.8005       -33.7439      0.5116323
      3358.5000         0.8455       2249.836          0.454       -85.0375       -35.9809      0.4772169
      3359.0000         0.9014       2085.207         0.4797       -79.1071       -30.0505      0.5684538
      3359.5000         0.9328       1998.404         0.4671       -75.8611       -26.8045      0.6183923
      3360.0000         0.8988       2338.141         0.4333       -72.6735       -23.6169      0.6674323
      3360.5000         0.8633       3138.938         0.3996       -70.6304       -21.5738      0.6988646
      3361.0000         0.8277       3348.664         0.3739       -75.1899       -26.1333      0.6287184
      3361.5000         0.8049       3832.574         0.3483       -88.2985       -39.2419      0.4270477
      3362.0000          0.801       3973.406         0.3227       -96.5453       -47.4887      0.3001738
      3362.5000         0.7968       4010.406         0.2971      -100.3357       -51.2791        0.24186
      3363.0000         0.7887       4016.316         0.2714      -103.3381       -54.2815      0.1956692
      3363.5000         0.7785       4081.867         0.2458      -105.7142       -56.6576      0.1591138
      3364.0000         0.7676       4034.648         0.2393       -98.1062       -49.0496        0.27616
      3364.5000         0.7567       3985.684         0.2782       -89.0988       -40.0422      0.4147354
      3365.0000         0.7458       3885.555         0.3171       -82.3829       -33.3263      0.5180569
      3365.5000         0.7658       3732.402         0.3559       -75.6672       -26.6106      0.6213754
      3366.0000         0.7765       3579.246         0.3948       -68.9464       -19.8898      0.7247723
      3366.5000         0.7873       3294.387         0.4207       -64.5284       -15.4718      0.7927415
      3367.0000          0.798       2851.184         0.4466       -61.6727       -12.6161      0.8366754
      3367.5000         0.8087       2411.871         0.4725       -58.8156         -9.759      0.8806308
      3368.0000         0.8195       1888.451         0.4985       -56.0511        -6.9945      0.9231615
      3368.5000         0.8389       2032.129         0.5244       -58.1682        -9.1116      0.8905908
      3369.0000         0.8632       2175.805         0.5503       -61.1458       -12.0892      0.8447815
      3369.5000         0.8874       2239.113         0.5495       -64.1693       -15.1127      0.7982662
      3370.0000         0.9117       2294.137         0.5462       -67.2004       -18.1438      0.7516338
      3370.5000         0.9359       2349.164         0.5429       -70.2314       -21.1748      0.7050031
      3371.0000         0.9619       2404.191         0.5339       -87.4067       -38.3501      0.4407677
      3371.5000         0.9882       2433.785         0.5227       -88.8589       -39.8023      0.4184262
      3372.0000          1.005       2459.004         0.5116       -90.5491       -41.4925      0.3924231
      3372.5000         0.9997       2484.211         0.5005       -92.3473       -43.2907      0.3647585
      3373.0000         0.9943       2447.766         0.4893       -96.1576        -47.101      0.3061384
      3373.5000         1.0231       2409.477         0.4782       -99.3949       -50.3383      0.2563339
      3374.0000         1.0638       2371.164         0.4671      -102.0195       -52.9629      0.2159554
      3374.5000         1.1046       2290.797         0.4559      -102.5632       -53.5066      0.2075908
      3375.0000         1.1601       2206.086         0.4592      -101.7537       -52.6971      0.2200446
      3375.5000         1.2249       2121.375         0.4692       -100.944       -51.8874      0.2325015
      3376.0000         1.2787       2046.047         0.4791      -100.1337       -51.0771      0.2449677
      3376.5000          1.305           1978          0.489       -99.3241       -50.2675       0.257423
      3377.0000         1.3314       1911.799          0.499       -98.5144       -49.4578        0.26988
      3377.5000         1.3577       1865.803         0.5089       -98.6852       -49.6286      0.2672523
