#------------------------------------------------------------------------------
# Created by    : vladimir.rabinovich
# Created on    : 09/19/2023 17:22:48
#------------------------------------------------------------------------------
~Version Information Section
VERS.           2.0     :   CWLS log ASCII Standard - VERSION 2.0
WRAP.           NO      :   One line per depth step
~Well Information Section
#MNEM       .UNIT                                         VALUE :DESCRIPTION
#------------------------------------------------------------------------------
STRT        .FT                                             306 :START DEPTH
STOP        .FT                                           13139 :STOP DEPTH
STEP        .FT                                             0.5 :STEP      
NULL        .                                           -999.25 :NULL      
COMP        .                                    CITIES SERVICE :COMPANY   
WELL        .                                          SL 77337 :WELL      
FLD         .                                           WILDCAT :FIELD     
LOC         .                                                   :LOCATION  
CNTY        .                                BRAZOS LARGE BLOCK :LOCATION  
STAT        .                                             TEXAS :STATE     
CTRY        .                                     UNITED STATES :COUNTRY   
SRVC        .                                                   :SERVICE COMPANY
DATE        .                             9/13/2023 11:18:52 AM :LOG DATE  
API         .                                    42704301950000 :API NUMBER
UWI         .                                    42704301950000 :UNIQUE WELL ID
XCOORD      .                                   673900.18951543 :SURFACE X 
YCOORD      .                                   10333530.060148 :SURFACE Y 
LAT         .                                        28.4418955 :LATITUDE  
LON         .                                       -96.0077528 :LONGITUDE 
ELEV        .FT                                              82 :ELEVATION VALUE
ELEV_TYPE   .                                                KB :ELEVATION REFERENCE TYPE
~Curve Information Section
#MNEM       .UNIT                                      API CODE :CURVE DESCRIPTION
#------------------------------------------------------------------------------
DEPT        .FT                                                 :DEPTH     
DT          .US/F                                               :          
SP          .MV                                                 :          
SP_NORM     .MV                                                 :SP Normalized
VSH_SP      .V/V                                                :Volume of Shale from SP
~A        DEPTH             DT             SP        SP_NORM         VSH_SP
# ...
      3698.0000       129.7854       -53.4506      -2.245937      0.9570366
      3698.5000       130.8796       -52.7284       -1.51503      0.9822403
      3699.0000       131.8567       -52.0212      -0.799118              1
      3699.5000       130.9185        -51.321    -0.09020996              1
      3700.0000       128.3369       -50.6801      0.5593987              1
      3700.5000       125.4321        -50.018       1.230206              1
      3701.0000       122.2505       -49.5475       1.709412              1
      3701.5000       119.6553       -49.6224       1.643223              1
      3702.0000       117.1536       -49.5256        1.74873              1
      3702.5000       114.9276       -49.0663        2.21674              1
      3703.0000       113.1559       -48.3976        2.89415              1
      3703.5000       111.9044       -48.5949       2.705559              1
      3704.0000       110.9012       -49.3187       1.990467              1
      3704.5000       110.1688       -49.8545       1.463375              1
      3705.0000       109.9182       -50.4734      0.8531837              1
      3705.5000       109.8472       -51.0165      0.3187943              1
      3706.0000       109.9027        -51.497     -0.1530037              1
      3706.5000       110.0715       -52.0178     -0.6650925              1
      3707.0000       110.8046       -52.4877      -1.126286      0.9956453
      3707.5000       112.8326       -52.9272      -1.557076      0.9807905
      3708.0000       115.2745       -53.3805      -2.001667      0.9654598
      3708.5000       116.9452       -54.1815      -2.793957      0.9381394
      3709.0000       118.2991       -55.0568      -3.660549      0.9082569
      3709.5000       117.2085       -56.0878      -4.682838      0.8730056
      3710.0000       114.7267       -57.5046      -6.090931      0.8244507
      3710.5000       110.9661       -58.9214       -7.49902      0.7758959
      3711.0000       107.7782       -60.4432      -9.012115      0.7237201
      3711.5000       106.1768        -62.369      -10.92921      0.6576136
      3712.0000       105.7177       -65.3539       -13.9054      0.5549864
      3712.5000       105.9686       -67.8173      -16.36009      0.4703418
      3713.0000       107.2991       -69.7867      -18.32078      0.4027318
      3713.5000       110.4246       -71.2905      -19.81587      0.3511769
      3714.0000       117.8511       -72.5691      -21.08576      0.3073875
      3714.5000       121.7507       -73.6639      -22.17186       0.269936
      3715.0000       122.4763       -74.8982      -23.39745      0.2276743
      3715.5000        123.011       -75.5615      -24.05204      0.2051022
      3716.0000       123.3486       -75.6888      -24.17063      0.2010128
      3716.5000       123.7478       -75.5879      -24.06102      0.2047924
      3717.0000       124.3884       -75.7399      -24.20431      0.1998513
      3717.5000       125.5258       -76.2881       -24.7438      0.1812481
      3718.0000       126.5817       -76.6854       -25.1324      0.1678484
      3718.5000       126.4521       -76.9543      -25.39259      0.1588764
      3719.0000       126.1432         -77.29      -25.71958      0.1476008
      3719.5000       126.5791       -77.6721      -26.09296      0.1347254
      3720.0000       127.3586       -77.9174      -26.32956      0.1265671
      3720.5000        127.823       -78.0798      -26.48325      0.1212671
      3721.0000       127.4797       -78.0154      -26.41015       0.123788
      3721.5000       126.7491       -77.9353      -26.32134      0.1268504
      3722.0000        126.368       -78.0474      -26.42473      0.1232852
      3722.5000       127.0217        -78.173      -26.54161      0.1192547
      3723.0000       128.2881       -78.3271      -26.68701       0.114241
      3723.5000        129.252       -78.6276       -26.9788      0.1041792
      3724.0000       129.9763       -79.0078      -27.35029     0.09136937
      3724.5000       130.6941       -79.0052      -27.33899     0.09175912
      3725.0000       131.3877       -78.9471      -27.27217     0.09406307
      3725.5000       132.7175       -78.9728      -27.28917     0.09347706
      3726.0000       133.8286       -79.0717      -27.37936     0.09036689
      3726.5000       134.6921       -78.6802      -26.97915      0.1041673
      3727.0000       135.3772       -77.2109      -25.50114      0.1551331
      3727.5000        135.543       -75.1226      -23.40413      0.2274438
      3728.0000       135.5791        -72.918      -21.19082      0.3037647
      3728.5000       136.1575        -70.172      -18.43611      0.3987548
      3729.0000       140.7891        -66.403      -14.65841      0.5290205
      3729.5000       150.2219        -63.028       -11.2747      0.6457001
      3730.0000       157.9277       -60.7534      -8.991386       0.724435
      3730.5000       159.6653       -59.0896      -7.318878      0.7821077
      3731.0000       159.8044       -57.5959      -5.816475      0.8339146
      3731.5000       158.0464       -55.9402      -4.152065      0.8913081
      3732.0000       155.6082       -54.6685      -2.871655      0.9354602
      3732.5000       153.7703       -53.6381      -1.832546      0.9712915
      3733.0000       152.4995       -52.9041      -1.089836      0.9969022
      3733.5000       151.2163        -52.421     -0.5980301              1
      3734.0000       149.6829        -51.683      0.1486816              1
      3734.5000       145.8574       -50.8902      0.9501877              1
      3735.0000         138.97       -50.1299       1.719196              1
      3735.5000        130.937       -49.5259       2.331905              1
      3736.0000       123.6854       -49.6491       2.217411              1
      3736.5000        119.498       -50.3124        1.56282              1
      3737.0000        116.924       -50.6434       1.240532              1
      3737.5000       115.9645       -50.6934       1.199238              1
      3738.0000         117.02       -50.7445       1.156849              1
      3738.5000       118.9678       -50.7399       1.170158              1
      3739.0000       120.8243       -50.7737       1.145065              1
      3739.5000       122.1569       -50.9683      0.9591751              1
      3740.0000       124.1357       -51.3397      0.5964851              1
      3740.5000       125.9487        -51.813      0.1318932              1
      3741.0000       128.0386       -52.4358     -0.4822006              1
      3741.5000       131.6357       -52.9839      -1.021591      0.9992555
      3742.0000        135.032       -52.7047     -0.7336845              1
      3742.5000       138.6729       -51.9744    0.005325317              1
      3743.0000       141.9619       -51.2475      0.7409325              1
      3743.5000       144.9216       -50.9105       1.086643              1
      3744.0000       147.8586       -50.7979       1.207951              1
      3744.5000       149.9709       -50.8504       1.164162              1
      3745.0000       151.4041       -50.7637       1.259571              1
      3745.5000       152.0322       -50.2996        1.73238              1
      3746.0000       152.1807       -49.8148       2.225883              1
      3746.5000       152.4507       -49.2921       2.757294              1
      3747.0000       152.7488       -49.2558       2.802303              1
      3747.5000       153.0601       -50.1274       1.939411              1
      3748.0000       153.3647       -51.1915      0.8840179              1
      3748.5000       153.4812       -52.2194       -0.13517              1
      3749.0000       153.5278       -52.8553     -0.7623634              1
      3749.5000       153.5366       -53.4749      -1.373253      0.9871292
      3750.0000       153.5286        -54.028      -1.917645      0.9683571
      3750.5000       153.5532       -54.5516      -2.432537      0.9506022
