#------------------------------------------------------------------------------
# Created by    : vladimir.rabinovich
# Created on    : 09/19/2023 17:22:41
#------------------------------------------------------------------------------
~Version Information Section
VERS.           2.0     :   CWLS log ASCII Standard - VERSION 2.0
WRAP.           NO      :   One line per depth step
~Well Information Section
#MNEM       .UNIT                                         VALUE :DESCRIPTION
#------------------------------------------------------------------------------
STRT        .FT                                            2948 :START DEPTH
STOP        .FT                                            8770 :STOP DEPTH
STEP        .FT                                             0.5 :STEP      
NULL        .                                           -999.25 :NULL      
COMP        .                 BROOKLYN UNION EXPLORATION CO INC :COMPANY   
WELL        .                               OCS G07238 ST00BP00 :WELL      
FLD         .                                           WILDCAT :FIELD     
LOC         .                                                   :LOCATION  
CNTY        .                             GALVESTON LARGE BLOCK :LOCATION  
STAT        .                                             TEXAS :STATE     
CTRY        .                                     UNITED STATES :COUNTRY   
SRVC        .                                                   :SERVICE COMPANY
DATE        .                             9/13/2023 11:19:34 AM :LOG DATE  
API         .                                    42706402470000 :API NUMBER
UWI         .                                    42706402470000 :UNIQUE WELL ID
XCOORD      .                                  1057740.92261072 :SURFACE X 
YCOORD      .                                   10547901.298013 :SURFACE Y 
LAT         .                                         29.052568 :LATITUDE  
LON         .                                        -94.824133 :LONGITUDE 
ELEV        .FT                                              85 :ELEVATION VALUE
ELEV_TYPE   .                                                KB :ELEVATION REFERENCE TYPE
~Curve Information Section
#MNEM       .UNIT                                      API CODE :CURVE DESCRIPTION
#------------------------------------------------------------------------------
DEPT        .FT                                                 :DEPTH     
DCAL        .IN                                                 :          
DT          .US/F                                               :          
GR          .GAPI                                               :          
GR_NORM     .GAPI                                               :GammaRay Normalized
ILD         .OHMM                                               :          
ILM         .OHMM                                               :          
SFL         .OHMM                                               :          
SP          .MV                                                 :          
SP_NORM     .MV                                                 :SP Normalized
VSH_GR      .V/V                                                :Volume of Shale from GR
VSH_SP      .V/V                                                :Volume of Shale from SP
~A        DEPTH           DCAL             DT             GR        GR_NORM            ILD            ILM            SFL             SP        SP_NORM         VSH_GR         VSH_SP
# ...
      8753.0000        13.1032       119.6429        25.7151       65.55637         0.4299         0.3792         0.3927       -46.5435     -0.2158165      0.6926888       0.996076
      8753.5000        13.0892       119.6952        26.7545       68.29579          0.439         0.3892         0.3987       -46.6033     -0.2756157      0.7509743      0.9949888
      8754.0000        13.0698       119.7642        29.6246       73.98782         0.4458          0.396         0.4037       -46.5304     -0.2027168      0.8720812      0.9963142
      8754.5000        13.0514       119.8459        31.6101       78.25314         0.4495         0.3995         0.4069       -46.3879    -0.06021881      0.9628328      0.9989051
      8755.0000        13.0333       119.8885        32.0167       79.53288          0.449         0.3979         0.4042       -46.2194       0.108284      0.9900612              1
      8755.5000        13.0255       119.8901        32.0407       79.57158         0.4433         0.3947         0.3978       -46.0007      0.3269806      0.9908847              1
      8756.0000        13.0228       119.8672        32.0226       79.54238         0.4392         0.3922         0.3919       -45.7744      0.5532837      0.9902634              1
      8756.5000        13.0251       119.8444        32.0109       79.52351         0.4361          0.392         0.3865       -45.5331      0.7945824       0.989862              1
      8757.0000        13.0306       119.8336        31.9967       79.50063         0.4358         0.3928         0.3862       -45.2257       1.101982       0.989375              1
      8757.5000        13.0389       119.8635        31.9626       79.44562         0.4387         0.3961         0.3899       -45.0123       1.315384      0.9882047              1
      8758.0000        13.0516       119.8945        31.9338       79.39918         0.4462         0.4024         0.3993       -45.0223       1.305382      0.9872165              1
      8758.5000        13.0634       119.9191        31.9099       79.36063         0.4647         0.4121         0.4116       -45.0773       1.250381      0.9863963              1
      8759.0000        13.0615       119.9241        31.8702       79.29659         0.4937         0.4261         0.4256       -45.0884       1.239281      0.9850339              1
      8759.5000        13.0596       119.9312        31.8186       79.21338         0.5217         0.4464         0.4407        -44.768       1.559681      0.9832634              1
      8760.0000        13.0564       119.9387        31.7602       79.11919         0.5485         0.4709         0.4578       -44.4389       1.888783      0.9812595              1
      8760.5000        13.0531       119.9534        31.7055       79.03098         0.5735          0.494         0.4751       -44.0938       2.233883      0.9793825              1
      8761.0000        13.0492       119.9951        31.6761       78.98354         0.5944         0.5137         0.4928       -43.8192       2.508484      0.9783733              1
      8761.5000        13.0452       119.9736        31.6653       78.96611         0.6088         0.5199         0.5075       -43.6048       2.722881      0.9780024              1
      8762.0000        13.0293       119.9712        31.6815       78.99224          0.617         0.5187         0.5137       -43.5389       2.788784      0.9785583              1
      8762.5000        12.9856       119.9677        31.7095       79.03741         0.6202         0.5148         0.5093       -43.4997       2.827984      0.9795195              1
      8763.0000        12.9393       119.9448         31.747        79.0979         0.6206         0.5079          0.482       -43.5088       2.818882      0.9808064              1
      8763.5000        12.9049       119.9358        31.7488       79.10079         0.6203         0.4935          0.456       -43.5482       2.779484      0.9808679              1
      8764.0000        12.9054       119.9352        31.7446       79.09402         0.6197         0.4858         0.4428        -43.606       2.721684      0.9807237              1
      8764.5000        12.9304       119.9673        31.7613       79.12096         0.6191         0.4832         0.4382       -43.7242       2.603481       0.981297              1
      8765.0000        12.9581       120.0057        31.7787       79.14902          0.618         0.4816         0.4382        -43.827       2.500683       0.981894              1
      8765.5000        12.9605       120.0065        31.7966       79.17789         0.6168         0.4806         0.4391       -43.9087       2.418983      0.9825082              1
      8766.0000        12.9576       120.0024        31.8145       79.20675         0.6154         0.4813           0.44        -43.895       2.432682      0.9831223              1
      8766.5000        12.9512       119.9995        31.8518       79.26692         0.6137         0.4812         0.4402       -43.8522       2.475483      0.9844026              1
      8767.0000        12.9531       119.9967        31.8892       79.32724         0.6121         0.4809         0.4409       -43.7867       2.540981      0.9856859              1
      8767.5000        12.9552       119.9615        31.9074        79.3566         0.6113         0.4816         0.4421       -43.5878       2.739883      0.9863106              1
      8768.0000        12.9567       119.9186        31.9257       79.38612         0.6108          0.482         0.4436       -43.3555       2.972183      0.9869387              1
      8768.5000        12.9691       119.9081        31.9456       79.41821         0.6102         0.4823         0.4454       -43.1457       3.181984      0.9876214              1
      8769.0000        12.9764       119.9045        31.9655       79.45029         0.6101         0.4819         0.4479       -43.0387       3.288982       0.988304              1
      8769.5000        12.9785       119.9146        31.9764       79.46788           0.61         0.4815         0.4501       -43.0014       3.326283      0.9886783              1
      8770.0000        12.9801       119.9288        31.9835       79.47932           0.61         0.4814         0.4521       -43.2343       3.093384      0.9889218              1
