#------------------------------------------------------------------------------
# Created by    : vladimir.rabinovich
# Created on    : 09/19/2023 17:19:20
#------------------------------------------------------------------------------
~Version Information Section
VERS.           2.0     :   CWLS log ASCII Standard - VERSION 2.0
WRAP.           NO      :   One line per depth step
~Well Information Section
#MNEM       .UNIT                                         VALUE :DESCRIPTION
#------------------------------------------------------------------------------
STRT        .FT                                            4783 :START DEPTH
STOP        .FT                                            9473 :STOP DEPTH
STEP        .FT                                             0.5 :STEP      
NULL        .                                           -999.25 :NULL      
COMP        .                                   FOREST OIL CORP :COMPANY   
WELL        .                               OCS G20658 ST00BP00 :WELL      
FLD         .                            HIGH ISLAND BLOCK 0052 :FIELD     
LOC         .                                                   :LOCATION  
CNTY        .                           HIGH ISLAND LARGE BLOCK :LOCATION  
STAT        .                                             TEXAS :STATE     
CTRY        .                                     UNITED STATES :COUNTRY   
SRVC        .                                                   :SERVICE COMPANY
DATE        .                             9/13/2023 11:19:51 AM :LOG DATE  
API         .                                    42708405710000 :API NUMBER
UWI         .                                    42708405710000 :UNIQUE WELL ID
XCOORD      .                                  1254974.65209524 :SURFACE X 
YCOORD      .                                  10682885.5467737 :SURFACE Y 
LAT         .                                         29.430813 :LATITUDE  
LON         .                                        -94.211177 :LONGITUDE 
ELEV        .FT                                             108 :ELEVATION VALUE
ELEV_TYPE   .                                                KB :ELEVATION REFERENCE TYPE
~Curve Information Section
#MNEM       .UNIT                                      API CODE :CURVE DESCRIPTION
#------------------------------------------------------------------------------
DEPT        .FT                                                 :DEPTH     
A28H_COND   .MMHO                                               :          
A28H_UNC    .OHMM                                               :          
AHT10       .OHMM                                               :          
AHT20       .OHMM                                               :          
AHT30       .OHMM                                               :          
AHT60       .OHMM                                               :          
AHT90       .OHMM                                               :          
DCAL        .IN                                                 :          
DPHZ        .V/V                                                :          
DRHO        .G/CC                                               :          
DTCO        .US/F                                               :          
DTSM        .US/F                                               :          
GR          .GAPI                                               :          
GR_ARC_FIL  .GAPI                                               :          
GR_NORM     .GAPI                                               :GammaRay Normalized
GR1         .GAPI                                               :          
GRM1        .GAPI                                               :          
NPOR        .V/V                                                :          
P28H_UNC    .OHMM                                               :          
ROP5        .F/HR                                               :          
ROP5_RM     .F/HR                                               :          
SP          .MV                                                 :          
TENS        .LB                                                 :          
VSH_GR      .V/V                                                :Volume of Shale from GR
~A        DEPTH      A28H_COND       A28H_UNC          AHT10          AHT20          AHT30          AHT60          AHT90           DCAL           DPHZ           DRHO           DTCO           DTSM             GR     GR_ARC_FIL        GR_NORM            GR1           GRM1           NPOR       P28H_UNC           ROP5        ROP5_RM             SP           TENS         VSH_GR
# ...
      8622.0000        -999.25        -999.25         0.6292         0.6311         0.6328         0.6327         0.6225         3.9561         0.1968         -0.013        123.533        326.112        70.3789        -999.25       82.18024           65.5         89.048         0.3921        -999.25         37.527        -999.25         2.9741           3080              1
      8622.5000        -999.25        -999.25         0.6451         0.6465          0.647         0.6472         0.6375         3.7979         0.1956         -0.011       123.3263       324.7156        74.0344        -999.25       84.36047           65.1        -999.25         0.3743        -999.25         37.733        -999.25         3.4849           3062              1
      8623.0000        -999.25        -999.25         0.6423         0.6496         0.6508         0.6511         0.6408         3.7593         0.1932         -0.005       123.5165       323.7151        71.4785        -999.25       84.36047             63          85.09         0.3766        -999.25          40.24        -999.25         4.0374           3044              1
      8623.5000        -999.25        -999.25         0.6429         0.6433         0.6463         0.6483          0.637         3.6204         0.1956          0.003       123.5082       323.9055        68.6962        -999.25       84.36047           58.2          85.09         0.3832        -999.25         40.426        -999.25         4.0899           3044              1
      8624.0000        -999.25        -999.25         0.6349         0.6363         0.6398         0.6417         0.6324          3.659         0.1986          0.006       123.6987       325.4877        65.5668        -999.25             80           59.4         73.711         0.3897        -999.25         40.667        -999.25         3.9966           3026              1
      8624.5000        -999.25        -999.25         0.6511         0.6532          0.656         0.6561         0.6467         3.8056         0.2058           0.01       124.0882       327.2703        66.8351        -999.25       62.07875           58.9         68.663         0.3968        -999.25         41.994        -999.25         4.0491           3008      0.6186968
      8625.0000        -999.25        -999.25         0.6689         0.6724         0.6783         0.6798         0.6698         4.0063         0.2064          0.011       124.4782       329.0548        67.6133        -999.25        67.1275           58.7         72.702         0.3933        -999.25         42.952        -999.25         4.1641           3008      0.7261171
      8625.5000        -999.25        -999.25         0.6544         0.6598          0.666         0.6654         0.6569         4.1645         0.2082          0.011       124.8685       329.6492        69.2249        -999.25       59.55375           60.5         66.643         0.3814        -999.25         43.509        -999.25         3.9041           3008      0.5649734
      8626.0000        -999.25        -999.25         0.6159         0.6195         0.6259         0.6265           0.62         4.1568         0.2094           0.01       124.8609       330.8388        70.6508        -999.25       65.86501           65.1         71.692         0.3838        -999.25         43.857        -999.25         3.5399           3026      0.6992554
      8626.5000        -999.25        -999.25         0.5911          0.594         0.5981         0.5971         0.5918         4.1722           0.21          0.014       125.2518       331.8304        72.7922        -999.25       70.91376           67.9         75.731         0.3885        -999.25         44.127        -999.25         3.1965           3026      0.8066757
      8627.0000        -999.25        -999.25         0.5798         0.5837         0.5867         0.5854         0.5832         4.2339         0.2118           0.02        125.045       332.4243        73.6159        -999.25       69.65125           67.5         74.721         0.3939        -999.25         46.893        -999.25         3.3115           3026      0.7798139
      8627.5000        -999.25        -999.25         0.5719         0.5745         0.5771         0.5791         0.5777         4.1143          0.213          0.027       125.0374       332.4205        71.7592        -999.25       69.65125           59.1         74.721         0.4051        -999.25          46.89        -999.25          3.489           3026      0.7798139
      8628.0000        -999.25        -999.25         0.5678         0.5727          0.576         0.5746         0.5698         4.1298          0.216          0.033       125.0336       332.0176        70.1615        -999.25       69.65125           60.3         74.721         0.3992        -999.25          45.66        -999.25          3.479           3044      0.7798139
      8628.5000        -999.25        -999.25         0.5793         0.5823         0.5827         0.5817         0.5762         4.0989         0.2136          0.035       125.0261       331.4146        67.7619        -999.25        67.1275           62.8         72.702         0.3802        -999.25          45.99        -999.25         3.4482           3044      0.7261171
      8629.0000        -999.25        -999.25         0.5837         0.5875          0.589         0.5866         0.5795         4.1452          0.213          0.033       124.8188       331.2105        67.7317        -999.25       68.38875           64.8         73.711         0.3855        -999.25         45.969        -999.25         3.0632           3044      0.7529521
      8629.5000        -999.25        -999.25         0.5863         0.5891         0.5905         0.5923         0.5827         4.0449         0.2106          0.031       124.8111       331.2061        66.6784        -999.25       72.17625           66.1         76.741         0.3974        -999.25         44.754        -999.25         3.0532           3044      0.8335372
      8630.0000        -999.25        -999.25         0.5952         0.5982         0.5995         0.5977         0.5917         4.1645         0.2082          0.031       124.8034       332.0014        67.1395        -999.25       68.38875           65.5         73.711         0.3992        -999.25         45.734        -999.25          3.064           3044      0.7529521
      8630.5000        -999.25        -999.25         0.6027         0.6054         0.6075         0.6024         0.5981         4.2069         0.2076         0.0318            125          333.4        67.0187        -999.25        67.1275           64.7         72.702         0.4016        -999.25         44.183        -999.25         3.0331           3026      0.7261171
      8631.0000        -999.25        -999.25         0.5893         0.5953         0.5994         0.5986         0.5926          4.095         0.2076         0.0325          125.6          335.2        68.2524        -999.25       65.86501           64.7         71.692         0.4117        -999.25         43.896        -999.25         2.7939           3008      0.6992554
      8631.5000        -999.25        -999.25         0.5906         0.5932         0.5949         0.5964         0.5907         4.0487         0.2118         0.0283            126          337.4        68.3136        -999.25        73.4375           64.7          77.75         0.4188        -999.25         43.208        -999.25         2.8047           3008      0.8603724
      8632.0000        -999.25        -999.25         0.5843         0.5872          0.591         0.5921         0.5853          4.369         0.2166          0.023          126.2            340        67.6331        -999.25       68.38875           63.5         73.711         0.4135        -999.25          42.15        -999.25         3.1906           3026      0.7529521
      8632.5000        -999.25        -999.25         0.5839         0.5826         0.5835         0.5845         0.5776         4.4269         0.2196          0.023          126.4       342.3762         67.724        -999.25       69.65125           61.8         74.721         0.3968        -999.25         42.331        -999.25         3.8264           3026      0.7798139
