#------------------------------------------------------------------------------
# Created by    : vladimir.rabinovich
# Created on    : 09/19/2023 17:20:35
#------------------------------------------------------------------------------
~Version Information Section
VERS.           2.0     :   CWLS log ASCII Standard - VERSION 2.0
WRAP.           NO      :   One line per depth step
~Well Information Section
#MNEM       .UNIT                                         VALUE :DESCRIPTION
#------------------------------------------------------------------------------
STRT        .FT                                             501 :START DEPTH
STOP        .FT                                            8659 :STOP DEPTH
STEP        .FT                                             0.5 :STEP      
NULL        .                                           -999.25 :NULL      
COMP        .                                      SHELL OIL CO :COMPANY   
WELL        .                                OCS 00705 ST00BP00 :WELL      
FLD         .                                           WILDCAT :FIELD     
LOC         .                                                   :LOCATION  
CNTY        .                             GALVESTON LARGE BLOCK :LOCATION  
STAT        .                                             TEXAS :STATE     
CTRY        .                                     UNITED STATES :COUNTRY   
SRVC        .                                                   :SERVICE COMPANY
DATE        .                             9/13/2023 11:19:25 AM :LOG DATE  
API         .                                    42706000440000 :API NUMBER
UWI         .                                    42706000440000 :UNIQUE WELL ID
XCOORD      .                                  1104214.94625617 :SURFACE X 
YCOORD      .                                  10500066.5450575 :SURFACE Y 
LAT         .                                         28.922918 :LATITUDE  
LON         .                                        -94.676571 :LONGITUDE 
ELEV        .FT                                              41 :ELEVATION VALUE
ELEV_TYPE   .                                                KB :ELEVATION REFERENCE TYPE
~Curve Information Section
#MNEM       .UNIT                                      API CODE :CURVE DESCRIPTION
#------------------------------------------------------------------------------
DEPT        .FT                                                 :DEPTH     
ASN         .OHMM                                               :          
CILD        .MMHO                                               :          
DT          .US/F                                               :          
ILD         .OHMM                                               :          
LAT         .OHMM                                               :          
SP          .MV                                                 :          
SP_NORM     .MV                                                 :SP Normalized
VSH_SP      .V/V                                                :Volume of Shale from SP
~A        DEPTH            ASN           CILD             DT            ILD            LAT             SP        SP_NORM         VSH_SP
# ...
      7020.5000         1.2997       747.9922        97.0072         1.6004        -999.25       -54.2303      -1.924805      0.9762871
      7021.0000         1.3004       739.5723        94.6116         1.6065        -999.25        -55.197       -2.89357       0.951447
      7021.5000          1.302       731.1523         92.216         1.6053        -999.25       -56.1648      -3.863438      0.9265785
      7022.0000         1.3058       722.7432        89.4251         1.5802        -999.25       -58.0714      -5.772106      0.8776383
      7022.5000         1.3096       716.6211        89.1086         1.5551        -999.25       -60.1214      -7.824173      0.8250212
      7023.0000         1.3134       713.5039        89.7143           1.53        -999.25       -61.3359      -9.040741      0.7938272
      7023.5000         1.3172       716.9512        89.5684         1.5574        -999.25       -62.5503      -10.25721      0.7626356
      7024.0000         1.3094       730.3242        88.9701          1.533        -999.25       -64.1158      -11.82478      0.7224417
      7024.5000         1.2937       758.9727        89.7848         1.4877        -999.25       -65.9402      -13.65124      0.6756092
      7025.0000         1.2746       804.1484        91.9587         1.4373        -999.25       -67.4824      -15.19551      0.6360126
      7025.5000         1.2352       958.1924        94.7943         1.3811        -999.25       -68.9275      -16.64267      0.5989058
      7026.0000         1.1958       1138.893        95.8316         1.3066        -999.25       -69.3986      -17.11584      0.5867733
      7026.5000         1.1526       1319.596        95.4992          1.173        -999.25       -69.8696      -17.58891      0.5746434
      7027.0000         1.1063       1500.475        93.5578         1.0335        -999.25       -70.3408      -18.06218      0.5625083
      7027.5000           1.06       1666.148        93.4845          0.915        -999.25       -70.8119      -18.53534      0.5503758
      7028.0000         1.0138       1699.783        93.1084          0.818        -999.25       -71.5702      -19.29571      0.5308792
      7028.5000         0.9675       1796.576        91.3293         0.7683        -999.25       -72.4369      -20.16448      0.5086031
      7029.0000         0.9213       1689.898         88.233         0.7259        -999.25       -73.3035      -21.03315      0.4863296
      7029.5000         0.9123       1657.381        87.2888         0.7448        -999.25       -86.8579      -34.58962      0.1387277
      7030.0000          1.011        1624.73        86.6547         0.7737        -999.25       -94.4801      -42.21389              0
      7030.5000         1.1927       1590.199        83.2186         0.7955        -999.25       -93.0535      -40.78935              0
      7031.0000         1.2478       1556.252        78.9526         0.8105        -999.25       -90.2701      -38.00802     0.05107635
      7031.5000         1.2919       1524.137         76.776         0.8255        -999.25        -89.379      -37.11898      0.0738722
      7032.0000         1.3373       1488.711        80.5127         0.8353        -999.25       -88.4868      -36.22886     0.09669602
      7032.5000         1.3871       1514.072        86.4123         0.8214        -999.25       -87.5957      -35.33982      0.1194917
      7033.0000         1.4244       1599.816         92.312         0.8076        -999.25       -86.7035      -34.44968      0.1423158
      7033.5000         1.4246       1661.943         95.074         0.7938        -999.25       -85.7745      -33.52275      0.1660833
      7034.0000         1.4249       1856.064        93.7661         0.7775        -999.25       -84.7068      -32.45712      0.1934071
      7034.5000         1.4186       1907.367         94.481         0.7597        -999.25       -88.5201      -36.27249     0.09557714
      7035.0000         1.3536       1965.379        95.7983          0.742        -999.25       -91.6154      -39.36986     0.01615749
      7035.5000         1.2658       1985.664        95.6522         0.7242        -999.25         -91.71      -39.46652     0.01367892
      7036.0000         1.0926       1983.539        93.9525         0.7068        -999.25       -91.8044      -39.56299     0.01120543
      7036.5000          0.886       1970.289        92.3788         0.7016        -999.25       -91.8988      -39.65946    0.008731744
      7037.0000         0.8254       1957.037        92.4418         0.6964        -999.25       -91.9933      -39.75603    0.006255712
      7037.5000         0.8336       1936.217        93.1804         0.6912        -999.25       -92.0774      -39.84219    0.004046318
      7038.0000         0.8417        1897.75        94.6659         0.7165        -999.25       -92.1353      -39.90216    0.002508702
      7038.5000         0.8623       1820.014        96.0062         0.7569        -999.25       -92.1932      -39.96213    0.000971085
      7039.0000         0.8833       1724.027        96.2285         0.7973        -999.25       -92.2511      -40.02209              0
      7039.5000         0.9044       1627.951        95.8404         0.8696        -999.25       -91.3745      -39.14756     0.02185743
      7040.0000         0.9254       1531.965        95.0327         0.9521        -999.25       -85.8179      -33.59303      0.1642812
      7040.5000         0.9465       1435.977        93.8117         1.0322        -999.25       -79.5247       -27.3019      0.3255924
      7041.0000         1.0015       1339.902        92.5907         1.0844        -999.25       -75.1802      -22.95947      0.4369368
      7041.5000         1.0624       1243.914         91.483         1.1367        -999.25       -73.5024      -21.28373      0.4799043
      7042.0000         1.1293       1147.838        90.0515         1.1889        -999.25       -72.4347       -20.2181      0.5072283
      7042.5000         1.2004       1051.852        91.0722         1.2347        -999.25       -71.3657      -19.15117      0.5345855
      7043.0000           1.24       955.7764        93.1689         1.2763        -999.25       -69.2803      -17.06783      0.5880044
      7043.5000         1.2742       870.6592        95.2656         1.3179        -999.25       -66.4092       -14.1988      0.6615692
      7044.0000         1.3085       851.8955        99.0231         1.3476        -999.25        -64.198      -11.98967      0.7182137
      7044.5000         1.3304       833.1318       101.5048         1.3719        -999.25       -62.1936      -9.987335      0.7695555
      7045.0000         1.3511       824.4268       101.0134         1.3815        -999.25       -60.5403      -8.336102      0.8118948
      7045.5000         1.3258       820.7764       102.9007         1.3637        -999.25       -56.5981      -4.395969      0.9129239
      7046.0000         1.2806        833.333       100.7214         1.3407        -999.25       -55.4247       -3.22464      0.9429579
      7046.5000         1.2375       845.9023       100.0672         1.3135        -999.25       -54.8253      -2.627304      0.9582742
      7047.0000         1.1945         858.46       101.0396         1.2862        -999.25       -54.3992      -2.203274      0.9691468
      7047.5000          1.165       888.9082       102.9707         1.2634        -999.25        -54.008       -1.81414      0.9791246
      7048.0000         1.1365       930.4834       102.5342          1.244        -999.25        -53.986      -1.794209      0.9796357
      7048.5000         1.1081       951.4609       100.1349         1.2344        -999.25       -54.2159      -2.026176      0.9736878
      7049.0000         1.0926       975.5469        97.4901         1.2413        -999.25       -54.9959      -2.808243      0.9536348
      7049.5000         1.1401        1006.99        94.5036          1.267        -999.25       -55.7759      -3.590313      0.9335817
