#------------------------------------------------------------------------------
# Created by    : vladimir.rabinovich
# Created on    : 09/19/2023 17:22:41
#------------------------------------------------------------------------------
~Version Information Section
VERS.           2.0     :   CWLS log ASCII Standard - VERSION 2.0
WRAP.           NO      :   One line per depth step
~Well Information Section
#MNEM       .UNIT                                         VALUE :DESCRIPTION
#------------------------------------------------------------------------------
STRT        .FT                                            2948 :START DEPTH
STOP        .FT                                            8770 :STOP DEPTH
STEP        .FT                                             0.5 :STEP      
NULL        .                                           -999.25 :NULL      
COMP        .                 BROOKLYN UNION EXPLORATION CO INC :COMPANY   
WELL        .                               OCS G07238 ST00BP00 :WELL      
FLD         .                                           WILDCAT :FIELD     
LOC         .                                                   :LOCATION  
CNTY        .                             GALVESTON LARGE BLOCK :LOCATION  
STAT        .                                             TEXAS :STATE     
CTRY        .                                     UNITED STATES :COUNTRY   
SRVC        .                                                   :SERVICE COMPANY
DATE        .                             9/13/2023 11:19:34 AM :LOG DATE  
API         .                                    42706402470000 :API NUMBER
UWI         .                                    42706402470000 :UNIQUE WELL ID
XCOORD      .                                  1057740.92261072 :SURFACE X 
YCOORD      .                                   10547901.298013 :SURFACE Y 
LAT         .                                         29.052568 :LATITUDE  
LON         .                                        -94.824133 :LONGITUDE 
ELEV        .FT                                              85 :ELEVATION VALUE
ELEV_TYPE   .                                                KB :ELEVATION REFERENCE TYPE
~Curve Information Section
#MNEM       .UNIT                                      API CODE :CURVE DESCRIPTION
#------------------------------------------------------------------------------
DEPT        .FT                                                 :DEPTH     
DCAL        .IN                                                 :          
DT          .US/F                                               :          
GR          .GAPI                                               :          
GR_NORM     .GAPI                                               :GammaRay Normalized
ILD         .OHMM                                               :          
ILM         .OHMM                                               :          
SFL         .OHMM                                               :          
SP          .MV                                                 :          
SP_NORM     .MV                                                 :SP Normalized
VSH_GR      .V/V                                                :Volume of Shale from GR
VSH_SP      .V/V                                                :Volume of Shale from SP
~A        DEPTH           DCAL             DT             GR        GR_NORM            ILD            ILM            SFL             SP        SP_NORM         VSH_GR         VSH_SP
# ...
      3780.5000          6.416       132.9658        28.4441       36.00209         0.2542         0.3522         0.9259      -110.0255      -63.08981     0.06387427              0
      3781.0000          6.378       131.9563        27.7386       35.09332         0.2497         0.3511         0.9086      -109.9784      -63.04699      0.0445387              0
      3781.5000          6.357       131.1174        27.7198       35.06764         0.2434         0.3456         0.8846      -110.1344      -63.20726     0.04399239              0
      3782.0000         6.3586       130.6372         28.354       35.88174         0.2393         0.3383         0.8611      -110.2903      -63.36744     0.06131355              0
      3782.5000         6.2603       130.6763        29.5508       37.41933          0.236         0.3266         0.8346      -110.3313      -63.41271     0.09402831              0
      3783.0000          6.139       130.7898        30.4568       38.58297         0.2327         0.3169           0.81      -110.3315      -63.41719      0.1187865              0
      3783.5000         6.0506       130.6824        31.1824       39.51459         0.2315         0.3152         0.7948      -110.1855      -63.27546      0.1386083              0
      3784.0000         6.0381        129.946        31.5672       40.00795         0.2337         0.3205         0.8003      -109.8915      -62.98574      0.1491053              0
      3784.5000         6.0729        129.302        30.9679       39.23575         0.2374         0.3302         0.8261       -109.527      -62.62551      0.1326756              0
      3785.0000         6.0812       128.6924        30.2489       38.30962         0.2429         0.3439         0.8466      -109.1375      -62.24028      0.1129706              0
      3785.5000         6.0482       128.1401        29.3554       37.15907         0.2512         0.3558         0.8553       -108.469      -61.57607     0.08849083              0
      3786.0000         5.9809       128.2297        30.1421       38.16927         0.2634         0.3594         0.8104      -107.4933      -60.60464      0.1099845              0
      3786.5000         5.8733       129.1956        31.9357       40.47437         0.2787         0.3627          0.716      -105.8379      -58.95351      0.1590291     0.01744149
      3787.0000         5.7391       130.3364        32.9924       41.83179          0.301          0.372         0.6191      -103.5122      -56.63209      0.1879105     0.05613187
      3787.5000         5.6247       131.4617         33.767       42.82644         0.3272         0.3941         0.5418      -100.1705      -53.29466      0.2090732      0.1117556
      3788.0000         5.5525       128.6833        34.3524       43.57777         0.3538         0.4221         0.5124       -97.0944      -50.22284       0.225059      0.1629527
      3788.5000         5.4592       125.0988        35.8105       45.45141         0.3789         0.4538         0.5531       -94.0479      -47.18061      0.2649237      0.2136565
      3789.0000         5.3683       121.9348        38.2683       48.61066         0.4082         0.4829          0.606        -91.179      -44.31599      0.3321417      0.2614002
      3789.5000         5.1391       119.9731        40.1971       51.08963         0.4486         0.5047         0.6497       -88.7014      -41.84266      0.3848857      0.3026223
      3790.0000         4.8561       118.6221        41.8272       53.18445         0.4868         0.5272         0.6761       -86.8226      -39.96814      0.4294564      0.3338644
      3790.5000         4.5823       118.7347        42.9493       54.62598         0.5143          0.544         0.6884       -85.4166      -38.56641      0.4601272      0.3572264
      3791.0000         4.3683        121.381             42       53.40368         0.5408         0.5612         0.6632       -83.9169      -37.07099      0.4341207      0.3821502
      3791.5000         4.3269       124.0396        38.6917       49.14768          0.543         0.5735         0.6289       -83.1709      -36.32926      0.3435676      0.3945124
      3792.0000         4.2912       126.7019        35.5353       45.08703         0.5135         0.5768         0.7011       -83.9698      -37.13244      0.2571708       0.381126
      3792.5000         4.2654       129.0637        33.4318       42.38041         0.4733         0.5623         0.8015       -87.5448      -40.71171      0.1995833      0.3214715
      3793.0000         4.2584       130.2292        31.6147       40.04211         0.4251          0.515         0.9034       -91.4851      -44.65628      0.1498321      0.2557286
      3793.5000          4.265       131.3613        29.6397       37.50075         0.3833         0.4532         0.9865       -94.8872      -48.06266     0.09576059      0.1989557
      3794.0000         4.2684       131.5654        29.1857       36.91541         0.3483         0.3986         1.0227       -98.6744      -51.85413      0.0833065      0.1357644
      3794.5000         4.2668       130.7703        29.6458        37.5056         0.3202         0.3815         1.0034      -100.5625      -53.74651     0.09586374      0.1042248
      3795.0000         4.2652       129.7688        29.7167       37.59528         0.2911         0.3665         0.9454      -101.6815      -54.86979     0.09777191     0.08550351
      3795.5000         4.2029       129.0127        29.4786       37.28759         0.2662         0.3499         0.8528       -102.205      -55.39756     0.09122524     0.07670733
      3796.0000         4.1413       128.5054        30.4069       38.47989         0.2486         0.3299         0.7775        -102.37      -55.56684      0.1165935     0.07388604
      3796.5000         4.1619       128.1924        31.4857       39.86575         0.2356         0.3145          0.716      -102.2968      -55.49791      0.1460797      0.0750349
      3797.0000         4.1826       129.3855        32.6862        41.4081         0.2271         0.3023         0.6628      -102.2767      -55.48209      0.1788957     0.07529856
      3797.5000         4.2307       131.6558         33.238       42.11622         0.2213         0.2962         0.6375      -102.4373      -55.64696      0.1939621     0.07255065
      3798.0000         4.2832       134.1614        32.2894       40.89481         0.2182          0.291         0.6272      -102.7379      -55.95183      0.1679748     0.06746947
      3798.5000         4.3173       135.8105         31.192       39.48206          0.217         0.2824         0.7062      -103.1261      -56.34431      0.1379162     0.06092822
      3799.0000         4.2919       135.4717        30.1841       38.18439         0.2171         0.2796          0.776       -103.541      -56.76348      0.1103063     0.05394192
      3799.5000         4.2648       133.3137        29.5002        37.3034         0.2173         0.2822         0.8441      -103.7456      -56.97235     0.09156174     0.05046075
      3800.0000         4.2675       130.6831        29.6811       37.53454          0.219         0.2848         0.8956      -103.6497      -56.88073     0.09647962     0.05198784
      3800.5000         4.2741       128.6904        30.3434       38.38477         0.2275         0.2866          0.802      -103.4336      -56.66891      0.1145696     0.05551821
      3801.0000         4.2715        127.559        32.0012       40.51522         0.2384         0.2889         0.6343       -102.833      -56.07258      0.1598983     0.06545696
      3801.5000          4.206       126.4907        35.3352       44.80128         0.2585         0.2989         0.5364      -101.0669      -54.31076       0.251091     0.09482066
      3802.0000         4.1117       127.6031        41.2677       52.42902         0.2903         0.3263         0.4889       -99.0234      -52.27153      0.4133834      0.1288078
      3802.5000         4.0737       129.3584        45.4514        57.8078         0.3373         0.3645         0.4522       -94.7778      -48.03021      0.5278255      0.1994965
