#------------------------------------------------------------------------------
# Created by    : vladimir.rabinovich
# Created on    : 09/19/2023 17:22:34
#------------------------------------------------------------------------------
~Version Information Section
VERS.           2.0     :   CWLS log ASCII Standard - VERSION 2.0
WRAP.           NO      :   One line per depth step
~Well Information Section
#MNEM       .UNIT                                         VALUE :DESCRIPTION
#------------------------------------------------------------------------------
STRT        .FT                                            2432 :START DEPTH
STOP        .FT                                            8088 :STOP DEPTH
STEP        .FT                                             0.5 :STEP      
NULL        .                                           -999.25 :NULL      
COMP        .                                  XTO OFFSHORE INC :COMPANY   
WELL        .                               OCS G23162 ST00BP00 :WELL      
FLD         .                                 BRAZOS BLOCK 0398 :FIELD     
LOC         .                                                   :LOCATION  
CNTY        .                                BRAZOS LARGE BLOCK :LOCATION  
STAT        .                                             TEXAS :STATE     
CTRY        .                                     UNITED STATES :COUNTRY   
SRVC        .                                                   :SERVICE COMPANY
DATE        .                             9/13/2023 11:09:58 AM :LOG DATE  
API         .                                    42704403400000 :API NUMBER
UWI         .                                    42704403400000 :UNIQUE WELL ID
XCOORD      .                                  869002.191083907 :SURFACE X 
YCOORD      .                                  10369331.9113669 :SURFACE Y 
LAT         .                                        28.5523806 :LATITUDE  
LON         .                                       -95.4033279 :LONGITUDE 
ELEV        .FT                                             100 :ELEVATION VALUE
ELEV_TYPE   .                                                KB :ELEVATION REFERENCE TYPE
~Curve Information Section
#MNEM       .UNIT                                      API CODE :CURVE DESCRIPTION
#------------------------------------------------------------------------------
DEPT        .FT                                                 :DEPTH     
CO12        .MMHO                                               :          
DCAL        .IN                                                 :          
DPHI        .FRAC                                               :          
DRHO        .G/CC                                               :          
GR          .GAPI                                               :          
GR_NORM     .GAPI                                               :GammaRay Normalized
HO01        .OHMM                                               :          
HO02        .OHMM                                               :          
HO03        .OHMM                                               :          
HO06        .OHMM                                               :          
HO09        .OHMM                                               :          
HO12        .OHMM                                               :          
NPHI        .FRAC                                               :          
RWA         .OHMM                                               :          
SP          .MV                                                 :          
SP_NORM     .MV                                                 :SP Normalized
TENS        .LB/F                                               :          
VSH_GR      .V/V                                                :Volume of Shale from GR
VSH_SP      .V/V                                                :Volume of Shale from SP
~A        DEPTH           CO12           DCAL           DPHI           DRHO             GR        GR_NORM           HO01           HO02           HO03           HO06           HO09           HO12           NPHI            RWA             SP        SP_NORM           TENS         VSH_GR         VSH_SP
# ...
      2499.5000        -999.25        -999.25        -999.25        -1.2038        56.3932       73.17096        -999.25        -999.25        -999.25        -999.25        -999.25        -999.25        -999.25        -999.25        -999.25        -999.25        -999.25      0.8547013        -999.25
      2500.0000        -999.25        -999.25        -999.25        -1.1596         58.334       75.23564        -999.25        -999.25        -999.25        -999.25        -999.25        -999.25        -999.25        -999.25        -999.25        -999.25        -999.25      0.8986307        -999.25
      2500.5000        -999.25        -999.25        -999.25        -1.1163         57.434        74.2782        -999.25        -999.25        -999.25        -999.25        -999.25        -999.25        -999.25        -999.25        -999.25        -999.25        -999.25      0.8782595        -999.25
      2501.0000        -999.25        -999.25        -999.25        -1.0927        54.9467       71.63213        -999.25        -999.25        -999.25        -999.25        -999.25        -999.25        -999.25        -999.25        -999.25        -999.25        -999.25      0.8219602        -999.25
      2501.5000        -999.25        -999.25        -999.25        -1.0847        54.5202       71.17841        -999.25        -999.25        -999.25        -999.25        -999.25        -999.25        -999.25        -999.25        -999.25        -999.25        -999.25      0.8123065        -999.25
      2502.0000        -999.25        -999.25        -999.25        -1.0843        55.5059       72.22703        -999.25        -999.25        -999.25        -999.25        -999.25        -999.25        -999.25        -999.25        -999.25        -999.25        -999.25      0.8346176        -999.25
      2502.5000        -999.25        -999.25        -999.25        -1.0921        55.2973       72.00511        -999.25        -999.25        -999.25        -999.25        -999.25        -999.25        -999.25        -999.25        -999.25        -999.25        -999.25       0.829896        -999.25
      2503.0000        -999.25        -999.25        -999.25         -1.224        52.9333       69.49022        -999.25        -999.25        -999.25        -999.25        -999.25        -999.25        -999.25        -999.25        -999.25        -999.25        -999.25      0.7763876        -999.25
      2503.5000        -999.25        -999.25        -999.25        -1.4574        49.8922         66.255        -999.25        -999.25        -999.25        -999.25        -999.25        -999.25        -999.25        -999.25        -999.25        -999.25        -999.25      0.7075533        -999.25
      2504.0000        -999.25        -999.25        -999.25        -1.7191        48.8704       65.16798        -999.25        -999.25        -999.25        -999.25        -999.25        -999.25        -999.25        -999.25        -999.25        -999.25        -999.25      0.6844252        -999.25
      2504.5000        -999.25        -999.25        -999.25        -1.7276        48.9488       65.25139        -999.25        -999.25        -999.25        -999.25        -999.25        -999.25        -999.25        -999.25        -999.25        -999.25        -999.25      0.6861998        -999.25
      2505.0000        -999.25        -999.25        -999.25        -1.3753         49.862       66.22287        -999.25        -999.25        -999.25        -999.25        -999.25        -999.25        -999.25        -999.25        -999.25        -999.25        -999.25      0.7068695        -999.25
      2505.5000        -999.25        -999.25        -999.25        -0.7987        50.6386       67.04905        -999.25        -999.25        -999.25        -999.25        -999.25        -999.25        -999.25        -999.25        -999.25        -999.25        -999.25      0.7244478        -999.25
      2506.0000        -999.25        -999.25        -999.25        -0.2646         51.578       68.04841        -999.25        -999.25        -999.25        -999.25        -999.25        -999.25        -999.25        -999.25        -999.25        -999.25        -999.25      0.7457108        -999.25
      2506.5000        -999.25        -999.25        -999.25         0.0246        54.8015       71.47766        -999.25        -999.25        -999.25        -999.25        -999.25        -999.25        -999.25        -999.25        -999.25        -999.25        -999.25      0.8186737        -999.25
      2507.0000        -999.25        -999.25        -999.25         0.1116        60.5722       77.61671        -999.25        -999.25        -999.25        -999.25        -999.25        -999.25        -999.25        -999.25        -999.25        -999.25        -999.25      0.9492916        -999.25
      2507.5000        -999.25        -999.25        -999.25         0.0951          66.61       84.03989        -999.25        -999.25        -999.25        -999.25        -999.25        -999.25        -999.25        -999.25        -999.25        -999.25        -999.25              1        -999.25
      2508.0000       1844.977         5.4405         0.4913         0.0712        68.3787        85.9215         0.0827         0.3938         0.3989         0.0865         0.0338          0.542         0.6296       607.0656        67.1979      -2.569542       2556.177              1      0.9683588
      2508.5000       1634.805         7.7078         0.5482         0.0592        65.0534       82.38394         0.1388         0.4375         0.4766         0.0921         0.0629         0.6318          0.637       496.9902         67.085      -2.682442       2565.219              1      0.9620866
      2509.0000       1500.135          8.584         0.5929         0.0587        60.7496       77.80543         0.2256         0.4805         0.5342         0.1296         0.1158         0.6772         0.6617       265.9981        66.8892      -2.878242       2571.774       0.953307      0.9512088
      2509.5000       1366.848         8.2228         0.6232         0.0544        58.5314       75.44564         0.3226         0.5125         0.5601         0.1894         0.1981          0.694         0.7142         42.062        66.7863       -2.98114       2568.835      0.9030988      0.9454922
      2510.0000       1267.317         8.1075         0.6269         0.0484        59.8204       76.81692         0.4197         0.5378         0.6223         0.2752         0.3261         0.8453         0.6424         0.3309        66.7331       -3.03434       2562.054      0.9322748      0.9425367
      2510.5000       1189.709         7.6694         0.6055         0.0445         61.888       79.01649         0.4624         0.5462         0.6125         0.3713         0.4485         0.8489         0.6191         0.4165        66.7796      -2.987839       2558.437      0.9790742      0.9451201
      2511.0000       1107.673         7.4081         0.5705         0.0438        63.6479       80.88873         0.4716         0.5504         0.6106         0.6827          0.523         0.8277          0.629         0.4562        66.9157      -2.851738       2558.211              1      0.9526812
      2511.5000       1047.826         8.8531         0.5448         0.0404        62.4223       79.58489         0.5026         0.5665         0.6144         0.6685          0.614         1.0674         0.7133         0.4503        66.9755      -2.791939       2559.793      0.9911679      0.9560034
      2512.0000       1063.979         8.5149         0.5309         0.0381        59.3714       76.33926         0.5145         0.5186         0.4837         0.6031         0.8096         1.0015         0.6924         0.3858        66.9323      -2.835144       2561.375      0.9221118      0.9536031
      2512.5000       1183.585          9.491         0.5282         0.0368        56.9811       73.79639         0.5239         0.5926          0.637         0.6679         0.7001         0.7958         0.6912         0.3616        66.8228      -2.944641       2563.862      0.8680083        0.94752
