#------------------------------------------------------------------------------
# Created by    : vladimir.rabinovich
# Created on    : 09/19/2023 17:22:39
#------------------------------------------------------------------------------
~Version Information Section
VERS.           2.0     :   CWLS log ASCII Standard - VERSION 2.0
WRAP.           NO      :   One line per depth step
~Well Information Section
#MNEM       .UNIT                                         VALUE :DESCRIPTION
#------------------------------------------------------------------------------
STRT        .FT                                            3493 :START DEPTH
STOP        .FT                                            8566 :STOP DEPTH
STEP        .FT                                             0.5 :STEP      
NULL        .                                           -999.25 :NULL      
COMP        .                          SEAGULL ENERGY E & P INC :COMPANY   
WELL        .                               OCS G09038 ST00BP00 :WELL      
FLD         .                                           WILDCAT :FIELD     
LOC         .                                                   :LOCATION  
CNTY        .                             GALVESTON LARGE BLOCK :LOCATION  
STAT        .                                             TEXAS :STATE     
CTRY        .                                     UNITED STATES :COUNTRY   
SRVC        .                                                   :SERVICE COMPANY
DATE        .                             9/13/2023 11:19:36 AM :LOG DATE  
API         .                                    42706402070000 :API NUMBER
UWI         .                                    42706402070000 :UNIQUE WELL ID
XCOORD      .                                  986976.405819811 :SURFACE X 
YCOORD      .                                  10491452.3738699 :SURFACE Y 
LAT         .                                         28.894171 :LATITUDE  
LON         .                                        -95.042508 :LONGITUDE 
ELEV        .FT                                              93 :ELEVATION VALUE
ELEV_TYPE   .                                                KB :ELEVATION REFERENCE TYPE
~Curve Information Section
#MNEM       .UNIT                                      API CODE :CURVE DESCRIPTION
#------------------------------------------------------------------------------
DEPT        .FT                                                 :DEPTH     
DCAL        .IN                                                 :          
DPHI        .%                                                  :          
DRHO        .G/C3                                               :          
GR          .GAPI                                               :          
GR_NORM     .GAPI                                               :GammaRay Normalized
ILD         .OHMM                                               :          
ILM         .OHMM                                               :          
NPHI        .%                                                  :          
SGRD        .OHMM                                               :          
SP          .MV                                                 :          
SP_NORM     .MV                                                 :SP Normalized
VSH_GR      .V/V                                                :Volume of Shale from GR
VSH_SP      .V/V                                                :Volume of Shale from SP
~A        DEPTH           DCAL           DPHI           DRHO             GR        GR_NORM            ILD            ILM           NPHI           SGRD             SP        SP_NORM         VSH_GR         VSH_SP
# ...
      4842.0000         4.4038        40.0569         0.1067        32.1661       38.10419         0.2856         0.3511        48.3634         1.0612      -126.4583      -71.40372      0.1085999     0.02186689
      4842.5000          4.016         44.983          0.086        32.7723       38.85259         0.2968         0.3588        44.7991         1.0376      -124.1031      -69.05037      0.1245232     0.05410453
      4843.0000         3.3774        42.1528          0.067        33.3644       43.55923         0.2995         0.3652        41.8413         1.0329      -120.1676      -65.11673      0.2246646        0.10799
      4843.5000         2.5865        39.0067         0.0521        32.9858       43.13781         0.2819         0.3679        38.7353         1.0822      -116.1027      -61.05368      0.2156981      0.1636482
      4844.0000         2.0891        36.4926         0.0393         30.855       40.76596         0.2618         0.3467        36.5444         1.1271      -114.5895      -59.54234      0.1652332      0.1843515
      4844.5000         1.7467        33.7321         0.0364        28.7876       38.46468         0.2445         0.3159        35.2874         1.1481      -115.3318       -60.2865      0.1162697      0.1741575
      4845.0000         1.7206        32.6133         0.0432        27.9606       37.54413         0.2298         0.2897         34.925         1.1246      -116.4888      -61.44535     0.09668358      0.1582828
      4845.5000         1.8208        33.2975         0.0519        27.7215       37.27797         0.2183         0.2693        35.3422         1.0978      -117.5847      -62.54311      0.0910207      0.1432451
      4846.0000         1.9338        34.8779         0.0482        27.5157       37.04889         0.2102         0.2569        36.2626         1.0734      -118.5162      -63.47646     0.08614658      0.1304594
      4846.5000         1.9861        35.5624         0.0418        27.4063       36.92712         0.2037         0.2483         37.275         1.1132      -119.2885      -64.25063     0.08355567      0.1198544
      4847.0000         2.0139        35.6211         0.0359         27.506        37.0381         0.2013         0.2439        38.3237         1.1266      -119.8401      -64.80408     0.08591705      0.1122729
      4847.5000         1.9904        35.8167         0.0307        27.7335       37.29133         0.2001          0.243        39.4072         1.1236      -120.3685      -65.33434     0.09130494      0.1050091
      4848.0000         1.9101        35.9951         0.0283        27.7871         37.351         0.2043         0.2466        40.4804         1.0957      -121.0308      -65.99849     0.09257443     0.09591111
      4848.5000         1.7964        36.2359          0.034        25.0252       34.27665         0.2179         0.2508        41.4987          1.042      -121.9723      -66.94185     0.02716275     0.08298837
      4849.0000         1.6704        36.4666          0.037        25.0253       34.27676         0.2354         0.2618        41.6989         1.0297      -123.4032       -68.3746     0.02716511      0.0633616
      4849.5000         1.5265         36.638         0.0317         24.928       34.16845         0.2583         0.2868        40.1133          1.106      -125.2814      -70.25467     0.02486071     0.03760727
      4850.0000          1.357        36.4243         0.0234        23.7038       32.80577         0.2853         0.3227        37.3558         1.2936      -127.2478      -72.22292              0     0.01064499
      4850.5000         1.1271        33.6921         0.0175        22.9448       31.96091         0.3322         0.3676         34.229         1.5267        -129.01      -73.98697              0              0
      4851.0000         0.9407        29.0879         0.0137         22.413       31.36894         0.3883         0.4114        32.5098         1.5775      -129.9646      -74.94344              0              0
      4851.5000         0.8596        25.0637         0.0123        21.1694       29.98466         0.4343         0.4608         31.674         1.5451      -130.6982      -75.67888              0              0
      4852.0000         0.8401        23.3148         0.0082        20.6632        29.4212         0.4863         0.5009        31.2778         1.5168       -131.092      -76.07454              0              0
      4852.5000         0.8382        22.3459         0.0045        22.1072       31.02855         0.5037         0.5206         31.185         1.5498      -131.1204      -76.10481              0              0
      4853.0000         0.8634        23.5225         0.0013        24.2991       33.46841         0.4785         0.5166        31.2557          1.489      -129.1719      -74.15816    0.009966181              0
      4853.5000         0.9091        24.9361         0.0004        26.8273       36.28262         0.4527         0.5045        31.8498         1.3805      -125.0272      -70.01531     0.06984296     0.04088613
      4854.0000         0.9737        25.5424         0.0049        29.7764       39.56534         0.4289         0.4854        32.9919         1.2321      -120.9199      -65.90987       0.139688     0.09712512
      4854.5000         1.0654        26.3482         0.0138        34.3122       44.61425         0.4082         0.4615        34.4085         1.0933      -112.3315      -57.32332      0.2471118       0.214749
      4855.0000         1.1728        27.7425         0.0233        37.2314       47.86369         0.3913         0.4367        36.6468         1.0112      -106.2838      -51.27748      0.3162488      0.2975687
      4855.5000         1.3408        30.2182         0.0364        38.5622       49.34504         0.3782          0.425        39.9813         0.9621      -103.8068      -48.80234      0.3477669      0.3314748
      4856.0000         1.7541        33.7811         0.0598        39.5131       50.40352         0.3728          0.433        43.2238         1.0048      -103.9138       -48.9112      0.3702876      0.3299836
      4856.5000           2.44        39.6965         0.0789        39.5678        47.2421         0.3761         0.4451        48.4005         1.0374       -105.493      -50.49225      0.3030233      0.3083254
      4857.0000         3.0402        45.2233         0.0889        39.0143       46.55877          0.384         0.4636        52.6398         1.0643      -107.1058      -52.10691      0.2884845      0.2862068
      4857.5000         3.5606        47.6025         0.1015        38.2838       45.65691         0.3934         0.4821         54.666         1.0825      -108.5604      -53.56337       0.269296      0.2662553
      4858.0000          3.813        48.7476         0.1173        37.5123       44.70444         0.4028         0.4997        56.3867         1.0984      -110.0151      -55.01992      0.2490307      0.2463025
      4858.5000         3.8416        48.1661         0.1301        36.6448       43.63346         0.4075         0.5069        55.3557         1.1112      -111.4846      -56.49128      0.2262438      0.2261469
      4859.0000         4.0016        45.6445         0.1336        35.6909        42.4558         0.3883         0.5023        54.6219         1.1135      -112.9231      -57.93164      0.2011873      0.2064159
      4859.5000         4.2668        42.3338          0.131        34.7905        41.3442         0.3662         0.4912        54.1891         1.1087      -114.2744      -59.28479      0.1775362      0.1878796
      4860.0000         4.6343        39.8167         0.1348        33.9635       40.32321         0.3452         0.4755         54.165         1.0937      -115.6294      -60.64165       0.155813      0.1692924
      4860.5000         5.0374        38.7587         0.1351        33.2219       39.40766         0.3249         0.4568        54.8625         1.0739      -116.9669      -61.98101      0.1363331      0.1509451
