#------------------------------------------------------------------------------
# Created by    : vladimir.rabinovich
# Created on    : 09/19/2023 17:20:30
#------------------------------------------------------------------------------
~Version Information Section
VERS.           2.0     :   CWLS log ASCII Standard - VERSION 2.0
WRAP.           NO      :   One line per depth step
~Well Information Section
#MNEM       .UNIT                                         VALUE :DESCRIPTION
#------------------------------------------------------------------------------
STRT        .FT                                             609 :START DEPTH
STOP        .FT                                           12866 :STOP DEPTH
STEP        .FT                                             0.5 :STEP      
NULL        .                                           -999.25 :NULL      
COMP        .                                        SUN OIL CO :COMPANY   
WELL        .                               OCS G01769 ST00BP00 :WELL      
FLD         .                                           WILDCAT :FIELD     
LOC         .                                                   :LOCATION  
CNTY        .                             GALVESTON LARGE BLOCK :LOCATION  
STAT        .                                             TEXAS :STATE     
CTRY        .                                     UNITED STATES :COUNTRY   
SRVC        .                                                   :SERVICE COMPANY
DATE        .                             9/13/2023 11:19:24 AM :LOG DATE  
API         .                                    42706001410000 :API NUMBER
UWI         .                                    42706001410000 :UNIQUE WELL ID
XCOORD      .                                  1110717.91749569 :SURFACE X 
YCOORD      .                                  10538856.4752018 :SURFACE Y 
LAT         .                                         29.029845 :LATITUDE  
LON         .                                        -94.657945 :LONGITUDE 
ELEV        .FT                                              65 :ELEVATION VALUE
ELEV_TYPE   .                                                KB :ELEVATION REFERENCE TYPE
~Curve Information Section
#MNEM       .UNIT                                      API CODE :CURVE DESCRIPTION
#------------------------------------------------------------------------------
DEPT        .FT                                                 :DEPTH     
ASN         .OHMM                                               :          
CALI        .IN                                                 :          
CILD        .MMHO                                               :          
DT          .US/F                                               :          
ILD         .OHMM                                               :          
SP          .MV                                                 :          
SP_NORM     .MV                                                 :SP Normalized
VSH_SP      .V/V                                                :Volume of Shale from SP
~A        DEPTH            ASN           CALI           CILD             DT            ILD             SP        SP_NORM         VSH_SP
# ...
     11229.0000          0.655         9.8177       1640.162       111.2665         0.6271       -57.6846      -4.339535      0.9241015
     11229.5000         0.6573         9.6274       1629.934       113.2959         0.6251       -57.5681        -4.2285       0.926625
     11230.0000         0.6601         9.6086       1619.729       114.5868         0.6231       -57.4519      -4.117767      0.9291416
     11230.5000         0.6629         9.4508         1609.5       113.0374         0.6211       -57.4026      -4.073933      0.9301379
     11231.0000         0.6656         9.2428       1599.271       113.3507         0.6226       -57.4041      -4.080894      0.9299797
     11231.5000         0.6684         9.0821       1590.797       112.7737         0.6278       -57.4055      -4.087761      0.9298236
     11232.0000         0.6712         9.0187       1582.998       110.5901         0.6329        -57.407       -4.09473      0.9296652
     11232.5000          0.674         9.0475       1575.186       109.6537         0.6381       -57.4084      -4.101597      0.9295092
     11233.0000         0.6838         9.1266       1567.385       110.8337         0.6432       -57.4099      -4.108562      0.9293509
     11233.5000         0.6941         9.4279       1564.572       115.4696         0.6484       -57.4413      -4.145424      0.9285131
     11234.0000         0.6976         9.7649       1566.869       117.4294         0.6535        -57.498      -4.207592      0.9271002
     11234.5000         0.6833        10.1127       1569.586       118.3409         0.6522       -57.5547      -4.269756      0.9256874
     11235.0000         0.6702         10.306       1572.303       118.8676         0.6482       -57.6115      -4.332024      0.9242722
     11235.5000         0.6589        10.2274        1575.02       119.0824         0.6442       -57.6682      -4.394192      0.9228593
     11236.0000         0.6562         10.209       1577.736       119.1904         0.6402       -57.7249      -4.456352      0.9214466
     11236.5000         0.6589        10.1964       1580.453       118.9727          0.634       -57.7727      -4.509621      0.9202359
     11237.0000         0.6616         10.147        1586.59       117.8051         0.6271       -57.7607      -4.503086      0.9203844
     11237.5000         0.6643         9.9118       1599.615       116.2979         0.6201       -57.7487      -4.496552      0.9205329
     11238.0000         0.6671         9.6492       1614.211       114.5892         0.6132       -57.7366      -4.489914      0.9206838
     11238.5000         0.6698         9.4051       1637.021       112.9005         0.6054       -57.7247      -4.483482        0.92083
     11239.0000         0.6667         9.5852       1696.627       111.8087         0.5973       -57.7126      -4.476849      0.9209807
     11239.5000         0.6524         9.5217       1772.764       110.9581         0.5892       -57.6104      -4.380116      0.9231792
     11240.0000         0.6337         9.3302       1831.486       109.9241         0.5811       -57.2913      -4.066483      0.9303072
     11240.5000         0.6211         9.4852       1857.143       109.5255          0.573       -56.9728      -3.753445      0.9374217
     11241.0000         0.6142         9.6119       1868.525       109.2594         0.5729       -56.6542      -3.440311      0.9445384
     11241.5000         0.6125         9.5833        1834.92       107.5857         0.5849       -56.2798      -3.071377      0.9529232
     11242.0000         0.6204         9.6639       1801.316       106.1357         0.5969       -55.8703      -2.667343      0.9621058
     11242.5000         0.6282         9.8602       1756.674       107.3419         0.6198       -55.4602      -2.262711       0.971302
     11243.0000         0.6361         9.9846       1703.299       111.4406         0.6456       -55.7793      -2.587273      0.9639256
     11243.5000         0.6439         9.9244       1656.793       114.1987         0.6715       -56.1537       -2.96714      0.9552923
     11244.0000         0.6517         9.7371       1598.904       110.5851         0.6973       -56.5282      -3.347103      0.9466568
     11244.5000         0.6646         9.4726       1509.031        109.105         0.7232       -56.9026      -3.726971      0.9380234
     11245.0000         0.6799          9.482       1452.223       109.6873         0.7274       -57.0802      -3.910034      0.9338629
     11245.5000         0.6952          9.683       1417.539       109.5007         0.7305       -57.1288        -3.9641      0.9326341
     11246.0000         0.7105         9.6259       1411.385       112.0648         0.7336       -57.1774      -4.018166      0.9314053
     11246.5000         0.7187         9.7133       1412.697       112.4093         0.7367        -57.226      -4.072235      0.9301765
     11247.0000         0.7264         9.9252       1414.006       111.8584         0.7398       -57.2746      -4.126301      0.9289477
     11247.5000         0.7341        10.0646       1415.318       113.1045         0.7304       -57.2083      -4.065464      0.9303303
     11248.0000         0.7418        10.0481       1430.932       114.3804         0.7205       -57.0628       -3.92543      0.9335129
     11248.5000         0.7422        10.0037       1455.852        113.005         0.7106       -56.9174      -3.785496      0.9366933
     11249.0000          0.739         9.9723        1487.74       113.8381         0.7006        -56.772      -3.645561      0.9398736
     11249.5000         0.7358        10.0768       1527.477       114.6005         0.6907       -56.6263      -3.505325      0.9430608
     11250.0000         0.7326        10.0554       1549.404       115.5741         0.6808       -56.4809      -3.365391      0.9462411
     11250.5000         0.7138         9.9822       1569.861       116.3246         0.6712       -56.3354      -3.225357      0.9494237
     11251.0000         0.6792         9.8726       1585.732       116.2789         0.6631       -56.1959      -3.091324      0.9524699
     11251.5000         0.6542         9.8815       1601.455       115.6263          0.655       -56.1127      -3.013592      0.9542366
     11252.0000         0.6516        10.0934       1617.496       115.4087         0.6469       -56.0294      -2.935753      0.9560056
     11252.5000          0.649         10.207       1646.588       115.3914         0.6387       -55.9462      -2.858021      0.9577723
     11253.0000         0.6465        10.1869       1675.826       115.5256         0.6306       -55.8629      -2.780186      0.9595413
     11253.5000         0.6416        10.0859       1706.242       116.1437         0.6225       -55.7798      -2.702553      0.9613056
     11254.0000         0.6367        10.0403       1728.416       116.0591         0.6144       -55.6966      -2.624821      0.9630722
     11254.5000         0.6318        10.0081       1743.477       116.7878         0.6062       -55.6133      -2.546982      0.9648413
     11255.0000         0.6286         9.9902       1755.814       118.7749         0.5995       -55.5302      -2.469349      0.9666057
     11255.5000         0.6266         9.9003        1767.27       119.4589         0.5942       -55.4468      -2.391415      0.9683769
     11256.0000         0.6247         9.8417       1778.725       118.4392          0.589       -55.4188      -2.368881      0.9688891
     11256.5000         0.6227         9.8502       1794.791       116.4943         0.5837       -55.4044      -2.359943      0.9690922
     11257.0000         0.6207         9.6388       1817.309       111.4904         0.5784         -55.39      -2.351009      0.9692953
     11257.5000         0.6187         9.4753       1841.887       104.6758         0.5732       -55.3757      -2.342178       0.969496
     11258.0000         0.6167         9.3344       1868.918        99.3634         0.5679       -55.3613      -2.333244       0.969699
