#------------------------------------------------------------------------------
# Created by    : vladimir.rabinovich
# Created on    : 09/19/2023 17:21:35
#------------------------------------------------------------------------------
~Version Information Section
VERS.           2.0     :   CWLS log ASCII Standard - VERSION 2.0
WRAP.           NO      :   One line per depth step
~Well Information Section
#MNEM       .UNIT                                         VALUE :DESCRIPTION
#------------------------------------------------------------------------------
STRT        .FT                                            3376 :START DEPTH
STOP        .FT                                            7813 :STOP DEPTH
STEP        .FT                                             0.5 :STEP      
NULL        .                                           -999.25 :NULL      
COMP        .                                MARINER ENERGY INC :COMPANY   
WELL        .                               OCS G27491 ST00BP00 :WELL      
FLD         .                                           WILDCAT :FIELD     
LOC         .                                                   :LOCATION  
CNTY        .                             GALVESTON LARGE BLOCK :LOCATION  
STAT        .                                             TEXAS :STATE     
CTRY        .                                     UNITED STATES :COUNTRY   
SRVC        .                                                   :SERVICE COMPANY
DATE        .                             9/13/2023 11:19:33 AM :LOG DATE  
API         .                                    42706404580000 :API NUMBER
UWI         .                                    42706404580000 :UNIQUE WELL ID
XCOORD      .                                  1038987.60828679 :SURFACE X 
YCOORD      .                                  10490484.8642062 :SURFACE Y 
LAT         .                                         28.893877 :LATITUDE  
LON         .                                         -94.87996 :LONGITUDE 
ELEV        .FT                                             110 :ELEVATION VALUE
ELEV_TYPE   .                                                KB :ELEVATION REFERENCE TYPE
~Curve Information Section
#MNEM       .UNIT                                      API CODE :CURVE DESCRIPTION
#------------------------------------------------------------------------------
DEPT        .FT                                                 :DEPTH     
CALI        .IN                                                 :          
DPSS        .%                                                  :          
DRHO        .G/CM3                                              :          
GR          .GAPI                                               :          
GR_NORM     .GAPI                                               :GammaRay Normalized
M2R1        .OHMM                                               :          
M2R2        .OHMM                                               :          
M2R3        .OHMM                                               :          
M2R6        .OHMM                                               :          
M2R9        .OHMM                                               :          
M2RX        .OHMM                                               :          
NPSS        .%                                                  :Neutron Porosity Sandstone
SP          .MV                                                 :          
SP_NORM     .MV                                                 :SP Normalized
TENS        .LB                                                 :          
VSH_GR      .V/V                                                :Volume of Shale from GR
VSH_SP      .V/V                                                :Volume of Shale from SP
~A        DEPTH           CALI           DPSS           DRHO             GR        GR_NORM           M2R1           M2R2           M2R3           M2R6           M2R9           M2RX           NPSS             SP        SP_NORM           TENS         VSH_GR         VSH_SP
# ...
      6076.0000         10.955        18.5433          0.068           76.4         74.181         0.8653          0.832         0.8079            0.8         0.7859          0.772          36.24          -42.8       1.511379        52.6531      0.8761915              1
      6076.5000         10.755        17.3728           0.08           73.6       70.56835         0.9073         0.8569         0.8239         0.8402         0.8159            0.8          34.92          -42.8       1.511379        53.6735      0.7993267              1
      6077.0000         10.675        16.7935          0.052           72.4       69.02007         0.9297         0.8569         0.8239          0.832         0.8079         0.7929          33.96            -44      0.3113785        54.6939      0.7663845              1
      6077.5000         10.555        16.6811           0.04             72       68.50398         0.9372         0.8485         0.8079         0.8159            0.8         0.7859          34.56          -46.4      -2.088623        55.7143      0.7554039      0.9651896
      6078.0000         10.555        16.6857          0.032             72       68.50398         0.9372          0.832         0.8079         0.8079         0.7929         0.7789          35.16          -48.8      -4.488621        56.7347      0.7554039      0.9251897
      6078.5000         10.555        16.3385          0.028           70.6       66.69765          0.976         0.8739         0.8402         0.8402         0.8239         0.8079          34.92          -50.4      -6.088623        57.7551      0.7169714       0.898523
      6079.0000         10.595        16.2254          0.028           69.2       64.89132              1            0.9         0.8739         0.8653         0.8569         0.8402          34.32          -51.2      -6.888622        58.7755      0.6785387      0.8851897
      6079.5000         10.635         16.347          0.028             70       65.92352              1         0.9147         0.8739         0.8653         0.8485          0.832          34.68          -51.2      -6.888622        59.7959      0.7005003      0.8851897
      6080.0000         10.635        16.8216          0.024           73.6       70.56835         0.9603         0.8825         0.8569         0.8569          0.832         0.8159          34.92          -48.8      -4.488621        60.8163      0.7993267      0.9251897
      6080.5000         10.675        17.4118          0.032           78.2       76.50341         0.9222         0.8485          0.832         0.8159            0.8         0.7859          34.92          -46.4      -2.088623        61.2245      0.9256045      0.9651896
      6081.0000         10.715        17.8824          0.044           82.2       81.66434         0.8569         0.8159            0.8         0.7789          0.772         0.7584          35.76          -44.8     -0.4886208        61.2245              1      0.9918563
      6081.5000         10.755        18.3529          0.056             83       82.69652         0.8159         0.7859          0.772          0.745          0.745         0.7319          36.72          -43.6        0.71138        61.2245              1              1
      6082.0000         10.835        18.3529          0.064           81.2       80.37411         0.7929          0.772         0.7517         0.7126         0.7189         0.7063          37.92          -43.2       1.111378        61.2245              1              1
      6082.5000         10.915        18.3529          0.056           79.6       78.30974         0.7929         0.7517         0.7254         0.7063         0.7126            0.7          37.32          -43.6        0.71138        61.2245       0.964037              1
      6083.0000         10.955        18.2353          0.036           76.4         74.181         0.7929         0.7517         0.7319         0.7063         0.7126            0.7          36.48          -45.6       -1.28862        61.2245      0.8761915       0.978523
      6083.5000         10.955        18.1176          0.028           72.8       69.53616          0.832         0.7517          0.745         0.7063         0.7126            0.7          35.64          -49.2      -4.888622        61.2245      0.7773651       0.918523
      6084.0000         10.955        17.6471          0.036           65.4       59.98845            0.9            0.8         0.7859         0.7652          0.745         0.7319          34.44          -52.4      -8.088623        61.2245      0.5742223      0.8651896
      6084.5000         11.035        16.7059          0.044           59.4       52.24706         0.9603         0.8569         0.8402         0.8159         0.7929         0.7789          32.28          -55.6      -11.28862        61.2245       0.409512      0.8118563
      6085.0000         11.115        16.8235           0.06             60        53.0212              1         0.9073         0.8912         0.8653         0.8402         0.8239          30.84          -55.2      -10.88862        61.2245       0.425983       0.818523
      6085.5000         11.235        18.1176           0.08           62.6        56.3758         0.9681         0.9222            0.9         0.8912         0.8912         0.8739          31.44          -51.6       -7.28862        61.2245      0.4973575       0.878523
      6086.0000         11.275        19.4118          0.076           65.8       60.50455         0.9147         0.9147         0.8825         0.8825         0.8653         0.8485          33.36            -48      -3.688622        61.2245      0.5852031       0.938523
      6086.5000         11.235        19.0588          0.072             67       62.05282         0.8739         0.8739         0.8739         0.8739         0.8569         0.8402          35.28            -46      -1.688622        61.2245       0.618145      0.9718563
      6087.0000         11.275        18.4706          0.064           68.4       63.85915         0.8739         0.8739         0.9147         0.8912            0.9         0.8825          36.72          -44.8     -0.4886208        61.2245      0.6565776      0.9918563
      6087.5000         11.315        18.1176          0.068           69.4       65.14938         0.8912         0.9147         0.9525         0.9297         0.9372         0.9222          35.64          -44.4    -0.08862305        61.2245      0.6840295      0.9985229
      6088.0000         11.475        17.8824           0.08           67.8       63.08501         0.9147         0.9603         0.9919         0.9681         0.9681         0.9525           34.2            -44      0.3113785        61.2245      0.6401065              1
      6088.5000         11.795             18          0.076             66       60.76258         0.9222         0.9681         0.9603         0.9603         0.9919          0.976          34.08          -43.6        0.71138        61.2245      0.5906932              1
      6089.0000        11.9142        18.3529          0.056             67       62.05282         0.8739            0.9            0.9         0.9073         0.9448         0.9297          36.36          -43.6        0.71138        61.2245       0.618145              1
      6089.5000        11.9926        19.2941          0.056           68.6       64.11719         0.7859          0.832         0.8402         0.8569         0.8739         0.8569          38.88          -42.8       1.511379        61.2245      0.6620678              1
      6090.0000        11.9142             20          0.064           70.2       66.18156          0.745         0.7859         0.7789            0.8         0.8159            0.8          42.12            -42       2.311378        61.2245      0.7059906              1
      6090.5000        11.8738        20.4706          0.072           72.2       68.76202          0.745          0.772         0.7789         0.7859            0.8         0.7859        43.2007          -41.6        2.71138        61.2245      0.7608939              1
