#------------------------------------------------------------------------------
# Created by    : vladimir.rabinovich
# Created on    : 09/19/2023 17:22:45
#------------------------------------------------------------------------------
~Version Information Section
VERS.           2.0     :   CWLS log ASCII Standard - VERSION 2.0
WRAP.           NO      :   One line per depth step
~Well Information Section
#MNEM       .UNIT                                         VALUE :DESCRIPTION
#------------------------------------------------------------------------------
STRT        .FT                                             270 :START DEPTH
STOP        .FT                                            9392 :STOP DEPTH
STEP        .FT                                             0.5 :STEP      
NULL        .                                           -999.25 :NULL      
COMP        .                                     TALOS ERT LLC :COMPANY   
WELL        .                               OCS G12363 ST00BP00 :WELL      
FLD         .                                 BRAZOS BLOCK 0453 :FIELD     
LOC         .                                                   :LOCATION  
CNTY        .                                BRAZOS LARGE BLOCK :LOCATION  
STAT        .                                             TEXAS :STATE     
CTRY        .                                     UNITED STATES :COUNTRY   
SRVC        .                                                   :SERVICE COMPANY
DATE        .                             9/13/2023 11:19:08 AM :LOG DATE  
API         .                                    42704401340000 :API NUMBER
UWI         .                                    42704401340000 :UNIQUE WELL ID
XCOORD      .                                  788791.944469438 :SURFACE X 
YCOORD      .                                  10354739.7167093 :SURFACE Y 
LAT         .                                         28.507622 :LATITUDE  
LON         .                                        -95.652007 :LONGITUDE 
ELEV        .FT                                             100 :ELEVATION VALUE
ELEV_TYPE   .                                                KB :ELEVATION REFERENCE TYPE
~Curve Information Section
#MNEM       .UNIT                                      API CODE :CURVE DESCRIPTION
#------------------------------------------------------------------------------
DEPT        .FT                                                 :DEPTH     
DPHI        .%                                                  :          
DT          .US/F                                               :          
GR          .GAPI                                               :          
GR_NORM     .GAPI                                               :GammaRay Normalized
ILD         .OHMM                                               :          
ILM         .OHMM                                               :          
LL          .OHMM                                               :          
NPHI        .%                                                  :          
SP          .MV                                                 :          
SP_NORM     .MV                                                 :SP Normalized
VSH_GR      .V/V                                                :Volume of Shale from GR
VSH_SP      .V/V                                                :Volume of Shale from SP
~A        DEPTH           DPHI             DT             GR        GR_NORM            ILD            ILM             LL           NPHI             SP        SP_NORM         VSH_GR         VSH_SP
# ...
      6358.5000        25.8772       125.7129        78.2738       84.38788         0.8255         0.8029         0.8868        52.9438       -33.5586          1.224              1              1
      6359.0000        26.2167       125.4824        79.8619       86.38584         0.8243         0.7894         0.8886        50.7444        -33.453         1.3296              1              1
      6359.5000        26.4828       125.2941        80.2417       86.86439         0.8228         0.7792         0.8917        47.9603       -33.5185         1.2641              1              1
      6360.0000        26.6355       125.6749        79.8179       86.33241         0.8198         0.7778         0.8941        46.7173       -33.6671         1.1155              1              1
      6360.5000        26.6897       127.1611        78.8423       85.10658         0.8152         0.7784         0.8962        45.2943       -33.8253         0.9573              1              1
      6361.0000        26.7534       128.4648        79.9012       86.43907         0.8109         0.7808         0.8939        43.7916        -33.797         0.9856              1              1
      6361.5000        26.8752       129.3137        82.0131        89.0957         0.8089         0.7827         0.8783        47.2015       -33.7549         1.0277              1              1
      6362.0000        27.1382       129.7749        83.1633       90.54301         0.8069         0.7835         0.8714        50.2425       -33.6311         1.1515              1              1
      6362.5000        28.0187       129.7297        81.9468       89.01424         0.8054         0.7837         0.8782        51.2212       -33.5057         1.2769              1              1
      6363.0000        28.2911       129.8479        80.6824       87.42522         0.8051          0.783          0.891        48.9553       -33.3782         1.4044              1              1
      6363.5000        27.5419       129.9841        80.7014       87.45007         0.8047         0.7828         0.8975        47.2008        -33.348         1.4346              1              1
      6364.0000        26.6865       130.6675        82.0155       89.10349         0.8059         0.7852         0.8997        47.9957       -33.3663         1.4163              1              1
      6364.5000        25.9956       131.3428        83.7119       91.23763         0.8078         0.7875         0.8953        47.1144       -33.5208         1.2618              1              1
      6365.0000        25.6564       131.0132         82.717       89.98751         0.8113         0.7926          0.901        48.5567       -33.6363         1.1463              1              1
      6365.5000        25.5792       129.4504        79.6879       86.17942         0.8165         0.7979         0.9108        50.4196       -33.6636          1.119              1              1
      6366.0000        25.3372       127.3508        77.5441       83.48459         0.8216         0.8033         0.9161        52.0715       -33.6444         1.1382              1              1
      6366.5000        24.8095       125.2018        78.1549       84.25361         0.8265         0.8107         0.9171        52.6309       -33.6105         1.1721              1              1
      6367.0000        24.2895       124.6091        79.4033        85.8244         0.8313         0.8317         0.9082        51.4382       -33.6689         1.1137              1              1
      6367.5000        24.0435       126.3552        80.5389       87.25336          0.836         0.8334         0.9015        50.3104       -33.8669         0.9157              1              1
      6368.0000        24.0231       127.9966        81.6218       88.61604         0.8369         0.8265          0.898        49.4254       -34.0621         0.7205              1              1
      6368.5000         24.277       129.3003         82.049       89.15418         0.8362         0.8118          0.904        48.6054        -34.256         0.5266              1              1
      6369.0000        24.4634       129.6072         80.962       87.78825          0.833         0.8074         0.9127        48.8741       -34.2685         0.5141              1              1
      6369.5000        24.5615       127.9719        80.0183       86.60252         0.8286         0.8079         0.9176        50.3458       -34.2199         0.5627              1              1
      6370.0000        24.5863       126.4976        80.1508        86.7701         0.8222         0.8042         0.9159        51.3592        -33.916         0.8666              1              1
      6370.5000        24.5994       128.5361        80.5181       87.23291         0.8144         0.7973         0.9066        50.8566       -33.5316          1.251              1              1
      6371.0000        24.6339       131.1289        80.3195       86.98413         0.8073         0.7885         0.8986        50.2639        -33.217         1.5656              1              1
      6371.5000        25.0151       133.4629        79.4952       85.94854         0.8011          0.787         0.8948        49.3973       -33.1375         1.6451              1              1
      6372.0000        25.4826       135.5588        78.0077       84.07899         0.7977         0.7925         0.8944        48.2068       -33.2962         1.4864              1              1
      6372.5000        25.6111       134.9907        75.7192       81.20219         0.8005         0.7986         0.8902        47.5618       -33.5162         1.2664              1              1
      6373.0000        25.9056       134.5054         74.255       79.36193         0.8034         0.8055         0.8746        50.1362       -33.7576          1.025      0.9864241              1
      6373.5000        26.2093        133.071        74.8215       80.07526         0.8092          0.813         0.8732        52.1822       -33.9985         0.7841              1              1
      6374.0000        26.6279        131.511        77.0009       82.81676         0.8153         0.8198         0.8872        53.1476       -34.0396          0.743              1              1
      6374.5000        26.4185       129.3298        77.9279       83.98341         0.8262         0.8263         0.8993        50.6351       -34.0375         0.7451              1              1
      6375.0000        26.0709       129.8232        78.0786       84.17387          0.837         0.8298         0.9037         44.571       -34.0716          0.711              1              1
      6375.5000        25.7465       130.3889        78.2623       84.40582         0.8389         0.8353         0.9046        43.0979       -34.0422         0.7404              1              1
      6376.0000         25.576       130.7249        77.6741       83.66711          0.838         0.8431         0.9044        42.8173       -33.9489         0.8337              1              1
      6376.5000         25.473       129.6797        76.4183       82.08892         0.8453         0.8541         0.9027        41.1005       -34.0325         0.7501              1              1
      6377.0000        25.4848       127.4741        75.0767       80.40283         0.8563         0.8655         0.9048        39.1476        -34.204         0.5786              1              1
      6377.5000        25.3808       124.9998        75.3624       80.76305         0.8729         0.8747         0.9085        39.2612       -34.3353         0.4473              1              1
      6378.0000         25.042       122.1902        76.2257       81.84959         0.8874         0.8825         0.9178        41.0784       -34.3941         0.3885              1              1
      6378.5000        24.3253       119.6202        76.1674       81.77723         0.8951         0.8741         0.9245        42.8203       -34.2902         0.4924              1              1
