#------------------------------------------------------------------------------
# Created by    : vladimir.rabinovich
# Created on    : 09/19/2023 17:19:50
#------------------------------------------------------------------------------
~Version Information Section
VERS.           2.0     :   CWLS log ASCII Standard - VERSION 2.0
WRAP.           NO      :   One line per depth step
~Well Information Section
#MNEM       .UNIT                                         VALUE :DESCRIPTION
#------------------------------------------------------------------------------
STRT        .FT                                             880 :START DEPTH
STOP        .FT                                            8374 :STOP DEPTH
STEP        .FT                                             0.5 :STEP      
NULL        .                                           -999.25 :NULL      
COMP        .                                        EXXON CORP :COMPANY   
WELL        .                               OCS G04552 ST00BP00 :WELL      
FLD         .                                 BRAZOS BLOCK 0451 :FIELD     
LOC         .                                                   :LOCATION  
CNTY        .                                BRAZOS LARGE BLOCK :LOCATION  
STAT        .                                             TEXAS :STATE     
CTRY        .                                     UNITED STATES :COUNTRY   
SRVC        .                                                   :SERVICE COMPANY
DATE        .                             9/13/2023 11:19:08 AM :LOG DATE  
API         .                                    42704401130000 :API NUMBER
UWI         .                                    42704401130000 :UNIQUE WELL ID
XCOORD      .                                  760277.642000753 :SURFACE X 
YCOORD      .                                  10343629.6463693 :SURFACE Y 
LAT         .                                         28.475327 :LATITUDE  
LON         .                                        -95.739931 :LONGITUDE 
ELEV        .FT                                              95 :ELEVATION VALUE
ELEV_TYPE   .                                                KB :ELEVATION REFERENCE TYPE
~Curve Information Section
#MNEM       .UNIT                                      API CODE :CURVE DESCRIPTION
#------------------------------------------------------------------------------
DEPT        .FT                                                 :DEPTH     
ASFL        .OHMM                                               :          
CALI        .IN                                                 :          
CILD        .MMHO                                               :          
DT          .US/F                                               :          
GR          .GAPI                                               :          
GR_NORM     .GAPI                                               :GammaRay Normalized
ILD         .OHMM                                               :          
ILM         .OHMM                                               :          
RHOB        .G/C3                                               :          
SP          .MV                                                 :          
SP_NORM     .MV                                                 :SP Normalized
VSH_GR      .V/V                                                :Volume of Shale from GR
VSH_SP      .V/V                                                :Volume of Shale from SP
~A        DEPTH           ASFL           CALI           CILD             DT             GR        GR_NORM            ILD            ILM           RHOB             SP        SP_NORM         VSH_GR         VSH_SP
# ...
      4927.0000         1.1168        10.9515       1258.488       117.3625        45.5464       70.99563         0.9043         0.8733         2.2063       -40.5605        -2.8415      0.8084176        0.94317
      4927.5000          1.052        10.9572       1306.928       120.2218        46.4616       72.67074         0.8742         0.8362         2.1898       -40.7321        -3.0125      0.8440583        0.93975
      4928.0000         1.0124        10.9646       1363.766       118.2222        46.8662       73.41127         0.8272         0.8037         2.1711       -40.9876        -3.2673      0.8598143       0.934654
      4928.5000          0.987        10.9724       1421.662        113.599        46.3008       72.37642         0.7789         0.7985         2.1364       -41.5511        -3.8301      0.8377962       0.923398
      4929.0000         0.9673        10.9751        1505.16       110.9225        45.6044       71.10197         0.7306         0.8132         2.0984       -46.2927        -8.5711      0.8106803       0.828578
      4929.5000         1.8672        10.9697       1588.658       105.4171        44.8846        69.7845         0.6822         0.8487         2.1247       -55.9435       -18.2212      0.7826489       0.635576
      4930.0000         2.1444        10.9643       1653.094        98.5198        42.6131       65.62696         0.6462         0.8591         2.1814       -63.2144       -25.4914      0.6941907       0.490172
      4930.5000         2.1771        10.9502        1706.16        92.1522        37.4952       56.25944         0.6146         0.7897         2.2042       -65.6119       -27.8883      0.4948817       0.442234
      4931.0000         1.6721         10.935       1759.176        87.9102        31.8845       45.99029          0.583         0.7063         2.2152       -69.2347       -31.5104      0.2763892       0.369792
      4931.5000         1.4952        10.9234       1812.242        87.4166        31.3683       45.04531         0.5514         0.6346         2.2367       -78.3108       -40.5858      0.2562832       0.188284
      4932.0000          1.464         10.917       1864.555        88.2875        30.8978       44.18416         0.5253         0.5884         2.2369       -84.6741       -46.9485      0.2379608     0.06102997
      4932.5000         1.4476        10.9107       1928.889        89.5358        30.5152       43.48404         0.5001         0.5665         2.2104       -85.7361       -48.0098      0.2230648       0.039804
      4933.0000         1.4359        10.9157       2030.094         90.939        30.1323       42.78304         0.4874          0.557         2.1993       -86.4048       -48.6779      0.2081499     0.02644203
      4933.5000         1.4245        10.9253       2082.855        92.0623         29.746       42.07598         0.4812         0.5628         2.2105       -86.9192       -49.1916      0.1931061     0.01616798
      4934.0000         1.4119         10.935       2057.656        92.7599        29.2793       41.22178         0.5036         0.5831         2.2189       -87.3994       -49.6711      0.1749314    0.006577988
      4934.5000         1.3982        10.9456       2011.531        92.4397        28.8125       40.36758          0.526         0.6201         2.2315       -86.8732       -49.1443       0.156757     0.01711403
      4935.0000         1.4331        10.9563       1940.811        90.5029        28.2352       39.31094         0.5569          0.681           2.26       -86.1395       -48.4099      0.1342752     0.03180199
      4935.5000          1.685        10.9621       1853.488        85.5999        27.4499        37.8736         0.6046          0.758         2.3011       -84.7195       -46.9892      0.1036935     0.06021599
      4936.0000         1.9512        10.9602       1682.568        80.1544        26.4811       36.10021         0.6524         0.8332         2.3667       -83.3811       -45.6502     0.06596196       0.086996
      4936.5000         2.4332        10.9583       1476.439        76.8906        27.2778       37.55841         0.7024          0.902         2.4429       -82.8539       -45.1223     0.09698754     0.09755401
      4937.0000         2.9825        10.9556       1366.785        75.8336        28.0751       39.01772         0.7601         0.9565         2.4743       -82.3263        -44.594      0.1280366        0.10812
      4937.5000         2.8356        10.9526       1275.188        77.8103        28.8712       40.47501         0.8177         0.9914         2.4416       -81.5839        -43.851      0.1590429        0.12298
      4938.0000         2.6513        10.9496       1191.639        80.4493        29.6647       41.92719          0.874         1.0187         2.3654       -80.8319       -43.0983      0.1899401       0.138034
      4938.5000         2.4425        10.9505       1097.074        83.1938        30.0863       42.69884         0.9292         1.0567         2.3155       -79.0848       -41.3505      0.2063584        0.17299
      4939.0000         2.4176        10.9529       1020.317        83.4237        30.1385        42.7944         0.9844          1.103         2.3616       -77.2229        -39.488      0.2083915        0.21024
      4939.5000         2.6354        10.9554       953.0654        82.8564        30.1443       42.80501         1.0389         1.1835         2.4078       -75.5439       -37.8083      0.2086172       0.243834
      4940.0000          2.796        10.9557       904.1738        83.8929        30.0468       42.62673         1.0924         1.2975         2.4186       -74.0892       -36.3529      0.2048241       0.272942
      4940.5000         2.9288        10.9553       855.1309        85.9772        29.9494       42.44828         1.1483         1.4084         2.3714       -71.7596       -34.0227      0.2010272       0.319546
      4941.0000         3.0557        10.9549       804.6797        88.4063        30.7361       43.88836         1.2113         1.5189         2.3193       -69.9622       -32.2246      0.2316671       0.355508
      4941.5000         3.2654        10.9545       744.8291        90.6803        32.7014       47.48547         1.2486         1.5929         2.2719       -67.3074       -29.5692      0.3082016       0.408616
      4942.0000         3.6743        10.9541       754.9336        92.8895        32.7993       47.66467         1.2385         1.5623         2.2771       -65.3774       -27.6385      0.3120142        0.44723
      4942.5000         2.8674        10.9529       776.8389        94.9287        32.8973       47.84385         1.2162         1.4687         2.2833       -55.6813       -17.9417      0.3158265       0.641166
      4943.0000         2.5773        10.9493       798.7695        96.9166        33.0743       48.16782         1.1939         1.3419         2.1402       -50.5685       -12.8283      0.3227196       0.743434
      4943.5000         2.0987        10.9457       820.7012        97.8126        33.3069       48.59372         1.1715         1.2033         2.0963        -48.123       -10.3821      0.3317813       0.792358
      4944.0000         1.1259        10.9443         837.79        94.4564        33.5394       49.01926         1.1558         1.2157         2.0838       -46.1414        -8.3998      0.3408353       0.832004
      4944.5000         1.0546         10.944       850.1768         92.056        33.8295       49.55023         1.1404         1.3023         2.1245       -46.1175        -8.3753      0.3521326       0.832494
      4945.0000         1.4023        10.9437       862.5635        90.7316        34.4138       50.61952         1.1252         1.4201         2.1546       -47.7335        -9.9906      0.3748834       0.800188
      4945.5000         1.7673        10.9435       874.9365        89.9882        35.5452       52.69035         1.1194         1.5141         2.1891       -49.3508       -11.6072      0.4189435       0.767856
