#------------------------------------------------------------------------------
# Created by    : vladimir.rabinovich
# Created on    : 09/19/2023 17:20:38
#------------------------------------------------------------------------------
~Version Information Section
VERS.           2.0     :   CWLS log ASCII Standard - VERSION 2.0
WRAP.           NO      :   One line per depth step
~Well Information Section
#MNEM       .UNIT                                         VALUE :DESCRIPTION
#------------------------------------------------------------------------------
STRT        .FT                                             540 :START DEPTH
STOP        .FT                                            8409 :STOP DEPTH
STEP        .FT                                             0.5 :STEP      
NULL        .                                           -999.25 :NULL      
COMP        .                                      SHELL OIL CO :COMPANY   
WELL        .                                OCS 00706 ST00BP00 :WELL      
FLD         .                                           WILDCAT :FIELD     
LOC         .                                                   :LOCATION  
CNTY        .                             GALVESTON LARGE BLOCK :LOCATION  
STAT        .                                             TEXAS :STATE     
CTRY        .                                     UNITED STATES :COUNTRY   
SRVC        .                                                   :SERVICE COMPANY
DATE        .                             9/13/2023 11:19:25 AM :LOG DATE  
API         .                                    42706000280000 :API NUMBER
UWI         .                                    42706000280000 :UNIQUE WELL ID
XCOORD      .                                  1100625.96198943 :SURFACE X 
YCOORD      .                                  10499283.7203345 :SURFACE Y 
LAT         .                                         28.920625 :LATITUDE  
LON         .                                        -94.687754 :LONGITUDE 
ELEV        .FT                                              78 :ELEVATION VALUE
ELEV_TYPE   .                                                KB :ELEVATION REFERENCE TYPE
~Curve Information Section
#MNEM       .UNIT                                      API CODE :CURVE DESCRIPTION
#------------------------------------------------------------------------------
DEPT        .FT                                                 :DEPTH     
ASN         .OHMM                                               :          
DT          .US/F                                               :          
ILD         .OHMM                                               :          
LAT         .OHMM                                               :          
LN          .OHMM                                               :          
SP          .MV                                                 :          
SP_NORM     .MV                                                 :SP Normalized
VSH_SP      .V/V                                                :Volume of Shale from SP
~A        DEPTH            ASN             DT            ILD            LAT             LN             SP        SP_NORM         VSH_SP
# ...
      5761.5000         0.8549       112.9417         0.6875        -999.25        -999.25       -50.6108      -11.58641      0.8205693
      5762.0000         0.8661       117.4492         0.6731        -999.25        -999.25       -53.9769      -14.95251      0.7635168
      5762.5000         0.8508       115.2611         0.6579        -999.25        -999.25       -56.6619      -17.63751      0.7180083
      5763.0000         0.8314       110.2628         0.6427        -999.25        -999.25       -57.7635      -18.73911      0.6993371
      5763.5000         0.8139       110.9372         0.6275        -999.25        -999.25        -58.239      -19.21461      0.6912779
      5764.0000         0.7965       115.0006         0.6123        -999.25        -999.25       -58.6972      -19.67281      0.6835117
      5764.5000         0.7791       117.1717         0.5942        -999.25        -999.25        -59.121      -20.09661      0.6763287
      5765.0000         0.7616       116.6089          0.576        -999.25        -999.25       -59.5453      -20.52091      0.6691371
      5765.5000         0.7438       114.3546         0.5579        -999.25        -999.25       -60.3109      -21.28651      0.6561608
      5766.0000          0.739       115.0317         0.5398        -999.25        -999.25       -63.7736      -24.74921       0.597471
      5766.5000         0.7432       110.6608         0.5173        -999.25        -999.25       -67.4126      -28.38821      0.5357931
      5767.0000         0.7475        105.619          0.487        -999.25        -999.25       -71.0206      -31.99621      0.4746405
      5767.5000         0.7428        111.499         0.4676        -999.25        -999.25       -74.6332      -35.60881        0.41341
      5768.0000         0.7201       118.0868         0.4527        -999.25        -999.25       -76.5769      -37.55251       0.380466
      5768.5000         0.6997       122.6936         0.4403        -999.25        -999.25       -72.8579      -33.83351      0.4434998
      5769.0000         0.6795       120.8446         0.4279        -999.25        -999.25       -69.4508      -30.42641      0.5012473
      5769.5000         0.6519       111.4963         0.4156        -999.25        -999.25       -68.3646      -29.34021      0.5196574
      5770.0000         0.7208       100.6552         0.4032        -999.25        -999.25       -67.7061      -28.68171      0.5308185
      5770.5000         0.7888        95.5255         0.3916        -999.25        -999.25       -72.7825      -33.75811      0.4447778
      5771.0000         0.8871       104.5114           0.38        -999.25        -999.25       -79.0977      -40.07331      0.3377405
      5771.5000         0.9035       112.8857         0.3685        -999.25        -999.25       -85.4172      -46.39281      0.2306304
      5772.0000         0.9198       108.3061         0.3569        -999.25        -999.25       -96.7583      -57.73391     0.03840831
      5772.5000         0.9395       107.8135         0.3493        -999.25        -999.25       -96.4177      -57.39331     0.04418118
      5773.0000         0.9152       113.8669         0.3857        -999.25        -999.25       -95.3416      -56.31721     0.06242022
      5773.5000         0.8756       118.3157         0.4221        -999.25        -999.25       -94.4501      -55.42571     0.07753029
      5774.0000         0.8366       117.5154         0.4584        -999.25        -999.25       -95.3248      -56.30041     0.06270496
      5774.5000         0.8014       111.2703         0.4928        -999.25        -999.25       -92.5579      -53.53351      0.1096016
      5775.0000         0.7687       112.1531         0.5245        -999.25        -999.25        -87.299      -48.27461      0.1987354
      5775.5000          0.742       115.2308         0.5561        -999.25        -999.25       -70.9408      -31.91641       0.475993
      5776.0000         0.7253       112.4096         0.5878        -999.25        -999.25        -58.204      -19.17961       0.691871
      5776.5000          0.755       112.2375         0.6146        -999.25        -999.25       -56.7129      -17.68851       0.717144
      5777.0000         0.7736       113.5298         0.6375        -999.25        -999.25       -55.8918      -16.86741      0.7310609
      5777.5000         0.7866       110.4547         0.6597        -999.25        -999.25       -55.5754      -16.55101      0.7364236
      5778.0000         0.7967       114.8723         0.6356        -999.25        -999.25       -49.3493      -10.32491      0.8419507
      5778.5000         0.8022       118.3248         0.6116        -999.25        -999.25       -53.1981      -14.17371      0.7767168
      5779.0000          0.792       113.4778         0.5825        -999.25        -999.25       -56.1881      -17.16371      0.7260389
      5779.5000         0.7788       117.9038         0.5525        -999.25        -999.25        -57.312      -18.28761      0.7069897
      5780.0000         0.7668        119.749         0.5649        -999.25        -999.25       -62.7773      -23.75291      0.6143575
      5780.5000         0.7548       119.1621         0.5864        -999.25        -999.25       -65.7595      -26.73511      0.5638117
      5781.0000         0.7428       116.2262         0.6081        -999.25        -999.25       -57.1977      -18.17331       0.708927
      5781.5000         0.7302        113.961         0.6299        -999.25        -999.25       -56.9581      -17.93371       0.712988
      5782.0000         0.7441          115.9         0.6516        -999.25        -999.25       -56.9747      -17.95031      0.7127066
      5782.5000         0.7567       116.3589         0.6734        -999.25        -999.25       -51.6758      -12.65141      0.8025185
      5783.0000         0.7648       117.2758         0.6951        -999.25        -999.25       -42.9709       -3.94651      0.9500592
      5783.5000         0.7728       116.3607         0.7155        -999.25        -999.25       -40.4269      -1.402508      0.9931778
      5784.0000         0.7839       116.4573         0.7277        -999.25        -999.25       -39.1754     -0.1510086              1
      5784.5000         0.7943       117.2787         0.7398        -999.25        -999.25         -38.34       0.684391              1
      5785.0000         0.8011       115.6905          0.752        -999.25        -999.25       -38.4043      0.6200905              1
      5785.5000         0.8079       111.0085         0.7642        -999.25        -999.25       -38.6287      0.3956909              1
      5786.0000         0.8147       110.9388         0.7694        -999.25        -999.25       -38.8822      0.1421928              1
      5786.5000         0.8261       118.7963         0.7704        -999.25        -999.25       -39.1357     -0.1113091              1
      5787.0000         0.8374       126.6082         0.7715        -999.25        -999.25       -39.3892     -0.3648071              1
      5787.5000         0.8483       130.3212         0.7725        -999.25        -999.25       -39.6428     -0.6184082              1
      5788.0000         0.8533       121.4125         0.7735        -999.25        -999.25       -39.8962     -0.8718071              1
      5788.5000         0.8447       112.4323         0.7712        -999.25        -999.25       -40.1162      -1.091808      0.9984439
      5789.0000         0.8364       111.1911          0.765        -999.25        -999.25       -39.9073     -0.8829079              1
      5789.5000         0.8284       117.3263         0.7587        -999.25        -999.25       -39.6985     -0.6741104              1
      5790.0000         0.8203       119.3418         0.7525        -999.25        -999.25       -39.4987      -0.474308              1
      5790.5000         0.8123       120.2128         0.7463        -999.25        -999.25       -39.3457     -0.3213081              1
