#------------------------------------------------------------------------------
# Created by    : vladimir.rabinovich
# Created on    : 09/19/2023 17:20:58
#------------------------------------------------------------------------------
~Version Information Section
VERS.           2.0     :   CWLS log ASCII Standard - VERSION 2.0
WRAP.           NO      :   One line per depth step
~Well Information Section
#MNEM       .UNIT                                         VALUE :DESCRIPTION
#------------------------------------------------------------------------------
STRT        .FT                                             521 :START DEPTH
STOP        .FT                                           11050 :STOP DEPTH
STEP        .FT                                             0.5 :STEP      
NULL        .                                           -999.25 :NULL      
COMP        .                                      SHELL OIL CO :COMPANY   
WELL        .                                     ST TR 00335-L :WELL      
FLD         .                                           WILDCAT :FIELD     
LOC         .                                                   :LOCATION  
CNTY        .                                BRAZOS LARGE BLOCK :LOCATION  
STAT        .                                             TEXAS :STATE     
CTRY        .                                     UNITED STATES :COUNTRY   
SRVC        .                                                   :SERVICE COMPANY
DATE        .                             9/13/2023 11:18:52 AM :LOG DATE  
API         .                                    42704000130000 :API NUMBER
UWI         .                                    42704000130000 :UNIQUE WELL ID
XCOORD      .                                  903482.990868916 :SURFACE X 
YCOORD      .                                   10450808.276789 :SURFACE Y 
LAT         .                                        28.7782296 :LATITUDE  
LON         .                                       -95.3008656 :LONGITUDE 
ELEV        .FT                                              81 :ELEVATION VALUE
ELEV_TYPE   .                                                DF :ELEVATION REFERENCE TYPE
~Curve Information Section
#MNEM       .UNIT                                      API CODE :CURVE DESCRIPTION
#------------------------------------------------------------------------------
DEPT        .FT                                                 :DEPTH     
ASN         .OHMM                                               :          
CILD        .MMHO                                               :          
ILD         .OHMM                                               :          
SP          .MV                                                 :          
SP_NORM     .MV                                                 :SP Normalized
VSH_SP      .V/V                                                :Volume of Shale from SP
~A        DEPTH            ASN           CILD            ILD             SP        SP_NORM         VSH_SP
# ...
      9603.0000         0.4369       3067.121         0.2954       -47.1638      0.3951607              1
      9603.5000         0.4341        3086.82         0.2878        -46.785      0.7694778              1
      9604.0000         0.4312       3110.496         0.2802       -46.4062       1.143795              1
      9604.5000         0.4281       3141.359         0.2725       -46.0731       1.472412              1
      9605.0000         0.4246        3205.73         0.2648       -45.9309       1.610126              1
      9605.5000         0.4211       3270.531         0.2571       -45.7888       1.747746              1
      9606.0000         0.4176       3314.855         0.2494       -45.7239       1.808163              1
      9606.5000         0.4142       3528.496         0.2419       -45.6263       1.901279              1
      9607.0000         0.4108       3575.703         0.2373       -45.3413       2.181797              1
      9607.5000         0.4087       3583.465         0.2326       -45.0067       2.511917              1
      9608.0000         0.4067       3591.012         0.2279       -44.6448       2.869331              1
      9608.5000         0.4047       3574.645          0.225        -45.023       2.486649              1
      9609.0000         0.4035       3507.246         0.2234       -45.4012       2.103966              1
      9609.5000         0.4045       3471.719         0.2218       -45.8174       1.683281              1
      9610.0000         0.4147       3381.391         0.2232       -46.2737         1.2225              1
      9610.5000         0.4356       2987.332         0.2264       -46.7269      0.7648201              1
      9611.0000         0.4544       2968.656         0.2349       -47.0034      0.4838333              1
      9611.5000         0.4611       2957.004         0.2495       -47.2805      0.2022514              1
      9612.0000         0.4671       2953.117         0.2642       -47.0754      0.4028664              1
      9612.5000         0.4735       2942.949         0.2691       -46.8055      0.6682854              1
      9613.0000         0.4646       2919.355         0.2727       -46.5659      0.9034042              1
      9613.5000         0.4558       2848.449         0.2763       -46.3584       1.106422              1
      9614.0000         0.4638       2792.777          0.275       -46.3741       1.086235              1
      9614.5000         0.4749       2739.609         0.2733       -46.9925      0.4633522              1
      9615.0000          0.497       2686.535         0.2742       -48.0284     -0.5770302              1
      9615.5000         0.5181       2633.465         0.2864       -49.3644      -1.917511      0.9713278
      9616.0000         0.5372       2580.293         0.2986       -50.6254      -3.182995      0.9317814
      9616.5000         0.5518       2527.223         0.3129       -51.8427      -4.404778      0.8936007
      9617.0000         0.5637       2402.809         0.3299       -52.7322      -5.298763      0.8656636
      9617.5000         0.5677       2353.578         0.3469       -52.6572      -5.228245      0.8678674
      9618.0000         0.5519       2313.918          0.364       -51.9734      -4.548927       0.889096
      9618.5000         0.5046       2293.871         0.3776       -50.7802       -3.36021      0.9262434
      9619.0000         0.4827        2280.23          0.388       -49.6572      -2.241692      0.9611971
      9619.5000         0.4638        2291.18         0.3773       -48.3939     -0.9828758              1
      9620.0000         0.4544       2420.211         0.3667       -48.1942     -0.7876587              1
      9620.5000          0.445       2480.301          0.356       -48.6903      -1.288242      0.9909924
      9621.0000          0.439       3209.191         0.3454       -49.1744      -1.776825      0.9757242
      9621.5000         0.4339       3247.793         0.3289       -48.6238      -1.230705      0.9927905
      9622.0000         0.4299       3273.367         0.3124       -47.7162     -0.3275909              1
      9622.5000         0.4271       3294.402         0.2959       -47.1002      0.2839279              1
      9623.0000         0.4243       3307.094         0.2793       -46.5163      0.8633423              1
      9623.5000         0.4214       3312.277         0.2682        -46.097        1.27816              1
      9624.0000         0.4187        3312.68         0.2591         -45.72       1.650677              1
      9624.5000          0.416       3309.398           0.25       -45.4351       1.931095              1
      9625.0000         0.4133       3276.879         0.2428       -45.2147       2.147015              1
      9625.5000         0.4107        3243.66         0.2425       -45.1345       2.222733              1
      9626.0000         0.4091       3198.277         0.2422       -45.3567       1.996048              1
      9626.5000         0.4091       3170.973         0.2424        -45.603       1.745262              1
      9627.0000         0.4103       3118.813         0.2483       -45.8426       1.501179              1
      9627.5000         0.4164       3064.969         0.2542       -46.0589       1.280399              1
      9628.0000         0.4239       3011.129         0.2601       -46.2752       1.059616              1
      9628.5000         0.4316       2957.285          0.266       -46.5054      0.8249321              1
      9629.0000         0.4401       2903.445         0.2689       -46.7659      0.5599518              1
      9629.5000         0.4485       2801.527         0.2708       -48.0744     -0.7530365              1
      9630.0000         0.4582       2735.281         0.2727       -48.9856      -1.668716      0.9791026
      9630.5000         0.4691       2707.449         0.2756       -49.6028      -2.290398      0.9596751
      9631.0000         0.4798       2686.535         0.2822       -49.9785      -2.670582      0.9477943
      9631.5000          0.487       2675.719         0.2889        -50.249      -2.945564      0.9392011
      9632.0000         0.4934       2689.324         0.2943        -49.921      -2.622047       0.949311
      9632.5000          0.483       2744.512         0.2982       -49.0062      -1.711731      0.9777584
      9633.0000         0.4726       2819.508         0.3021        -48.145     -0.8550148              1
      9633.5000         0.4641       2921.617          0.298       -48.0269     -0.7413979              1
      9634.0000         0.4557       2973.871         0.2903       -47.9224     -0.6413803              1
      9634.5000         0.4499       3004.734         0.2826       -47.8282     -0.5516624              1
      9635.0000         0.4653       3028.098         0.2775       -47.7343     -0.4622421              1
      9635.5000         0.4807       3047.711         0.2744       -47.6404     -0.3728294              1
      9636.0000         0.4982       3058.672         0.2713       -47.5098     -0.2467117              1
      9636.5000          0.517       2996.418         0.2898       -47.2333      0.0253067              1
      9637.0000         0.5362       2862.965         0.3127       -46.9568      0.2973251              1
      9637.5000         0.5588       2729.516         0.3315       -48.1107     -0.8610573              1
      9638.0000         0.5824       2596.254         0.3495       -49.6427      -2.397541      0.9563268
      9638.5000         0.5994       2462.801         0.3674       -51.2134      -3.972729      0.9071022
      9639.0000         0.6098       2280.125         0.3857       -52.0315      -4.795311      0.8813965
      9639.5000         0.6186       2194.168         0.4047        -52.806      -5.574291      0.8570534
      9640.0000         0.6225       2159.652         0.4238       -53.5381      -6.310875      0.8340352
      9640.5000         0.6153       2143.098         0.4305       -54.1843      -6.961555      0.8137014
