#------------------------------------------------------------------------------
# Created by    : vladimir.rabinovich
# Created on    : 09/19/2023 17:19:22
#------------------------------------------------------------------------------
~Version Information Section
VERS.           2.0     :   CWLS log ASCII Standard - VERSION 2.0
WRAP.           NO      :   One line per depth step
~Well Information Section
#MNEM       .UNIT                                         VALUE :DESCRIPTION
#------------------------------------------------------------------------------
STRT        .FT                                            2350 :START DEPTH
STOP        .FT                                            7008 :STOP DEPTH
STEP        .FT                                             0.5 :STEP      
NULL        .                                           -999.25 :NULL      
COMP        .                                  W&T OFFSHORE INC :COMPANY   
WELL        .                               OCS G04565 ST00BP00 :WELL      
FLD         .                              GALVESTON BLOCK 0303 :FIELD     
LOC         .                                                   :LOCATION  
CNTY        .                             GALVESTON LARGE BLOCK :LOCATION  
STAT        .                                             TEXAS :STATE     
CTRY        .                                     UNITED STATES :COUNTRY   
SRVC        .                                                   :SERVICE COMPANY
DATE        .                             9/13/2023 11:19:03 AM :LOG DATE  
API         .                                    42706403950000 :API NUMBER
UWI         .                                    42706403950000 :UNIQUE WELL ID
XCOORD      .                                  979190.041446607 :SURFACE X 
YCOORD      .                                   10483081.623763 :SURFACE Y 
LAT         .                                        28.8707847 :LATITUDE  
LON         .                                       -95.0663777 :LONGITUDE 
ELEV        .FT                                              91 :ELEVATION VALUE
ELEV_TYPE   .                                                KB :ELEVATION REFERENCE TYPE
~Curve Information Section
#MNEM       .UNIT                                      API CODE :CURVE DESCRIPTION
#------------------------------------------------------------------------------
DEPT        .FT                                                 :DEPTH     
AF20        .OHMM                                               :          
AFCO        .MMHO                                               :          
AO90        .OHMM                                               :          
AT10        .OHMM                                               :          
AT20        .OHMM                                               :          
AT30        .OHMM                                               :          
AT60        .OHMM                                               :          
AT90        .OHMM                                               :          
DCAL        .IN                                                 :          
DPHI        .%                                                  :          
DRHO        .G/C3                                               :          
GR          .GAPI                                               :          
GR_NORM     .GAPI                                               :GammaRay Normalized
GRN         .GAPI                                               :          
NPOR        .%                                                  :          
RWA         .OHMM                                               :          
SP          .MV                                                 :          
SP_NORM     .MV                                                 :SP Normalized
TENR        .LBF                                                :          
TPHI        .%                                                  :          
VSH_GR      .V/V                                                :Volume of Shale from GR
VSH_SP      .V/V                                                :Volume of Shale from SP
~A        DEPTH           AF20           AFCO           AO90           AT10           AT20           AT30           AT60           AT90           DCAL           DPHI           DRHO             GR        GR_NORM            GRN           NPOR            RWA             SP        SP_NORM           TENR           TPHI         VSH_GR         VSH_SP
# ...
      5794.0000           0.67       1492.535           0.67              1           0.73           0.68           0.61           0.62          4.625             50          -0.01           28.8       27.78724         23.953        43.6661           0.24       -70.7999      -58.34455           2680        26.8999              0     0.02759075
      5794.5000           0.55       2040.814           0.49           0.79           0.56            0.5           0.46           0.47          4.925           47.7          -0.01           30.8       29.70213         21.609        43.6371           0.16       -71.8999      -59.44658           2680           30.4              0    0.009223684
      5795.0000           0.46       2631.578           0.38           0.63           0.45           0.39           0.36           0.37          1.725        41.2999              0           31.2       30.08511         22.594          40.65           0.09          -73.1      -60.64869           2680           34.2              0              0
      5795.5000           0.41       3448.273           0.29           0.53           0.38           0.32            0.3           0.31          1.725        38.4999              0           30.5        29.4149         21.266         39.714           0.06          -73.6      -61.15071           2680        38.4999              0              0
      5796.0000           0.36           4000           0.25           0.47           0.33           0.29           0.26           0.28          2.025           42.4          -0.01           28.7        27.6915         21.344        40.3435           0.06       -73.8999      -61.45263           2720           37.1              0              0
      5796.5000           0.34        4347.82           0.23           0.45           0.32           0.27           0.25           0.26          1.725           43.1              0           33.2             32         20.828        41.7839           0.06       -73.7999      -61.35464           2720           35.2              0              0
      5797.0000           0.31           4000           0.25           0.44           0.31           0.26           0.24           0.25          2.025        41.3999              0           38.9       37.45745         19.828        40.9805           0.06          -73.7      -61.25676           2720           34.3     0.09483946              0
      5797.5000            0.3       4166.664           0.24           0.42           0.29           0.25           0.24           0.24          0.325        37.7999              0           38.7       37.26596         20.422        38.7841           0.05          -73.6      -61.15878           2720        36.0999      0.0907652              0
      5798.0000           0.29       4761.898           0.21           0.39           0.28           0.24           0.23           0.24          1.125        38.5999              0           38.5       37.07447         21.266        40.2462           0.04       -73.3999       -60.9607           2775           35.9     0.08669094              0
      5798.5000           0.28       4761.898           0.21           0.38           0.27           0.24           0.23           0.24          2.325           37.7              0           35.6       34.29788         21.938        43.5554           0.04          -73.2      -60.76282           2775        35.7999     0.02761443              0
      5799.0000           0.28       4761.898           0.21           0.38           0.27           0.24           0.23           0.24          2.225        36.9999              0           35.1       33.81915         20.594        44.2206           0.04          -73.5      -61.06484           2775           34.9     0.01742878              0
      5799.5000           0.28       4761.898           0.21           0.39           0.27           0.24           0.23           0.24          2.325        35.7999              0           34.1       32.86171         20.594        42.5334           0.04          -73.6      -61.16685           2775           37.1              0              0
      5800.0000           0.28       4761.898           0.21            0.4           0.28           0.25           0.24           0.24          1.425           36.3          -0.01           34.5       33.24468         21.594        40.3951           0.04          -73.7      -61.26887           2725        34.7999    0.005206007              0
      5800.5000           0.28       4761.898           0.21            0.4           0.28           0.25           0.24           0.24          1.625           34.9          -0.01           37.9           36.5         24.266        38.8676           0.04       -73.8999      -61.47079           2725           37.7     0.07446817              0
      5801.0000           0.28       4761.898           0.21           0.41           0.28           0.25           0.24           0.24          1.425        32.5999              0           38.2       36.78724         26.344        37.2234           0.03       -74.2999      -61.87281           2725        37.7999     0.08057956              0
      5801.5000           0.28       4761.898           0.21           0.41           0.29           0.26           0.25           0.25          1.525           32.3          -0.01           34.7       33.43617         26.344        36.6359           0.03          -74.5      -62.07493           2725        40.0999    0.009280265              0
      5802.0000           0.29        4347.82           0.23           0.42           0.29           0.26           0.25           0.25          1.825           31.8          -0.02             29       27.97873         25.781        37.0202           0.03          -74.2      -61.77694           2705           37.2              0              0
      5802.5000           0.29        4347.82           0.23           0.41           0.29           0.26           0.25           0.25          1.125           32.4          -0.01           27.8       26.82979         25.781        36.6597           0.03          -73.7      -61.27896           2705        36.9999              0              0
      5803.0000           0.29       4761.898           0.21           0.39           0.28           0.25           0.24           0.25          1.225        32.9999          -0.01             31       29.89362         27.453        36.8403           0.03          -73.5      -61.08098           2705        36.4999              0              0
      5803.5000           0.29           5000            0.2           0.38           0.28           0.25           0.24           0.24          1.825           35.2          -0.01           35.3       34.01064         29.016        39.4692           0.03            -73        -60.583           2705           38.3     0.02150304              0
      5804.0000           0.29           5000            0.2           0.38           0.28           0.25           0.24           0.24          2.525           36.4           0.01           36.4       35.06384         28.906        42.0729           0.04          -73.1      -60.68502           2785           36.4     0.04391139              0
      5804.5000           0.29           5000            0.2            0.4           0.29           0.26           0.24           0.25          2.725        41.3999           0.01           36.2       34.87234         27.906        44.4129           0.05       -72.8999      -60.48694           2785           36.9     0.03983713              0
      5805.0000            0.3       4761.898           0.21           0.42            0.3           0.26           0.25           0.25          2.725           42.1              0           39.1       37.64894          28.25        45.5881           0.05       -72.8999      -60.48896           2785           37.9     0.09891356              0
      5805.5000            0.3        4347.82           0.23           0.44           0.31           0.27           0.26           0.26          3.025        40.5999           0.01           38.8       37.36171         28.344        43.5822           0.05       -72.8999      -60.49097           2785           39.7     0.09280233              0
