#------------------------------------------------------------------------------
# Created by    : vladimir.rabinovich
# Created on    : 09/19/2023 17:22:53
#------------------------------------------------------------------------------
~Version Information Section
VERS.           2.0     :   CWLS log ASCII Standard - VERSION 2.0
WRAP.           NO      :   One line per depth step
~Well Information Section
#MNEM       .UNIT                                         VALUE :DESCRIPTION
#------------------------------------------------------------------------------
STRT        .FT                                             411 :START DEPTH
STOP        .FT                                           10036 :STOP DEPTH
STEP        .FT                                             0.5 :STEP      
NULL        .                                           -999.25 :NULL      
COMP        .                          HUMBLE OIL & REFINING CO :COMPANY   
WELL        .                                     ST TR 00278-L :WELL      
FLD         .                                           WILDCAT :FIELD     
LOC         .                                                   :LOCATION  
CNTY        .                             GALVESTON LARGE BLOCK :LOCATION  
STAT        .                                             TEXAS :STATE     
CTRY        .                                     UNITED STATES :COUNTRY   
SRVC        .                                                   :SERVICE COMPANY
DATE        .                             9/13/2023 11:19:42 AM :LOG DATE  
API         .                                    42706000220000 :API NUMBER
UWI         .                                    42706000220000 :UNIQUE WELL ID
XCOORD      .                                  941560.719964966 :SURFACE X 
YCOORD      .                                  10497824.1170516 :SURFACE Y 
LAT         .                                        28.9094621 :LATITUDE  
LON         .                                       -95.1847519 :LONGITUDE 
ELEV        .FT                                              10 :ELEVATION VALUE
ELEV_TYPE   .                                                KB :ELEVATION REFERENCE TYPE
~Curve Information Section
#MNEM       .UNIT                                      API CODE :CURVE DESCRIPTION
#------------------------------------------------------------------------------
DEPT        .FT                                                 :DEPTH     
LAT         .OHMM                                               :          
LN          .OHMM                                               :          
SN          .OHMM                                               :          
SP          .MV                                                 :          
SP_NORM     .MV                                                 :SP Normalized
VSH_SP      .V/V                                                :Volume of Shale from SP
~A        DEPTH            LAT             LN             SN             SP        SP_NORM         VSH_SP
# ...
      9987.0000         0.7218         0.3945         0.3873        70.4033      -2.401756      0.9842499
      9987.5000         0.7463         0.3944         0.3866        71.4718      -3.456894      0.9723945
      9988.0000         0.7709         0.3945         0.3859        72.3573      -4.329033      0.9625952
      9988.5000         0.7954         0.3964         0.3852        73.2427      -5.201065       0.952797
      9989.0000         0.8088         0.3983         0.3844        74.1271      -6.072105        0.94301
      9989.5000         0.7856         0.4002         0.3837        73.2784      -5.210045      0.9526961
      9990.0000         0.7624         0.4021          0.383        72.3826       -4.30088      0.9629114
      9990.5000         0.7392          0.404         0.3823        71.4879      -3.392822      0.9731144
      9991.0000         0.7159         0.4059         0.3816        70.5933      -2.484856      0.9833162
      9991.5000         0.6933         0.4078         0.3808        69.6272      -1.505394      0.9943214
      9992.0000         0.6711         0.4097         0.3801        68.6139     -0.4787292              1
      9992.5000         0.6488         0.4116         0.3794        67.6007      0.5478287              1
      9993.0000         0.6265         0.4135         0.3792        66.5874       1.574493              1
      9993.5000         0.6043          0.416         0.3797        65.5764       2.598854              1
      9994.0000         0.5974          0.419         0.3801        64.5631       3.625519              1
      9994.5000         0.5947         0.4221         0.3806        63.5499       4.652081              1
      9995.0000          0.592         0.4251          0.381        62.3409       5.874447              1
      9995.5000         0.5893         0.4282         0.3815        60.9224       7.306305              1
      9996.0000         0.5866         0.4312         0.3819        59.5015       8.740566              1
      9996.5000         0.5839         0.4343         0.3824        58.4306       9.824833              1
      9997.0000         0.5812         0.4373         0.3828        57.6879       10.58089              1
      9997.5000         0.5785         0.4404         0.3833        58.7184       9.563759              1
      9998.0000         0.5762         0.4412         0.3837        60.1187       8.173988              1
      9998.5000         0.5743         0.4394         0.3842        62.0669       6.225788              1
      9999.0000         0.5723         0.4375         0.3846        64.0151       4.277588              1
      9999.5000         0.5704         0.4357         0.3861        65.9634       2.329285              1
     10000.0000         0.5685         0.4338          0.388         67.907      0.3856888              1
     10000.5000         0.5665         0.4319           0.39        69.0814     -0.7887115              1
     10001.0000         0.5646         0.4301          0.392        70.2397      -1.947014      0.9893594
     10001.5000         0.5626         0.4282          0.394        70.8005      -2.507813      0.9830583
     10002.0000         0.5607         0.4293          0.396        70.0291      -1.736412      0.9917257
     10002.5000         0.5588         0.4329          0.398        69.2588     -0.9661102              1
     10003.0000         0.5568         0.4365            0.4        68.6198     -0.3271103              1
     10003.5000         0.5553         0.4401         0.4019        68.0946      0.1980896              1
     10004.0000         0.5544         0.4437         0.4039        67.7595      0.5331879              1
     10004.5000         0.5536         0.4473         0.4059         68.485     -0.1923141              1
     10005.0000         0.5528         0.4509         0.4067        69.2092     -0.9165115              1
     10005.5000         0.5519         0.4545         0.4075         70.394      -2.101311      0.9876257
     10006.0000         0.5511         0.4581         0.4083        71.6193      -3.326614      0.9738582
     10006.5000         0.5502         0.4617         0.4091        72.8444      -4.551712      0.9600931
     10007.0000         0.5494          0.463         0.4099        73.8679      -5.575211      0.9485931
     10007.5000         0.5485          0.463         0.4107        74.6256      -6.332916      0.9400796
     10008.0000         0.5577          0.463         0.4115         75.016      -6.723312      0.9356931
     10008.5000         0.5681          0.463         0.4122        73.8414      -5.548714      0.9488909
     10009.0000         0.5785          0.463          0.413         72.667      -4.374313      0.9620864
     10009.5000         0.5888          0.463         0.4099         71.025      -2.732315      0.9805358
     10010.0000         0.5992          0.463         0.4064        67.9254      0.3672867              1
     10010.5000         0.6096          0.463         0.4029        65.3899       2.902786              1
     10011.0000         0.6199         0.4624         0.3993        63.9529       4.339787              1
     10011.5000         0.6303         0.4613         0.3958        62.5182       5.774487              1
     10012.0000         0.6407         0.4603         0.3922        61.3075       6.985188              1
     10012.5000         0.6511         0.4593         0.3887        60.9379       7.354786              1
     10013.0000         0.6556         0.4583         0.3852        60.5682       7.724487              1
     10013.5000         0.6562         0.4573         0.3837        60.9764       7.316288              1
     10014.0000         0.6568         0.4563         0.3826        61.5579       6.734787              1
     10014.5000         0.6574         0.4567         0.3814        62.1394       6.153286              1
     10015.0000          0.658         0.4582         0.3803        62.7209       5.571785              1
     10015.5000         0.6586         0.4597         0.3792        64.0312        4.26149              1
     10016.0000         0.6592         0.4612         0.3781        65.5649       2.727783              1
     10016.5000         0.6598         0.4627         0.3821        67.0986       1.194084              1
     10017.0000         0.6604         0.4642         0.3921        68.6624     -0.3697128              1
     10017.5000          0.661         0.4657          0.402        70.3273      -2.034615      0.9883751
     10018.0000         0.6616         0.4672          0.412        71.5697      -3.277016      0.9744155
     10018.5000         0.6622         0.4687          0.422        72.1661      -3.873413      0.9677145
     10019.0000         0.6588         0.4703          0.432        72.7626      -4.469917      0.9610122
     10019.5000          0.653         0.4723          0.442        73.4465      -5.153816      0.9533279
     10020.0000         0.6473         0.4742          0.452        74.2007      -5.908012      0.9448538
     10020.5000         0.6415         0.4762          0.462        74.9537      -6.661011      0.9363931
     10021.0000         0.6357         0.4782         0.4697        75.7068      -7.414116      0.9279313
     10021.5000           0.63         0.4802         0.4679        76.4611      -8.168411      0.9194561
     10022.0000         0.6242         0.4821         0.4661        77.2002      -8.907516      0.9111515
     10022.5000         0.6185         0.4841         0.4643        76.2665      -7.973816      0.9216425
     10023.0000         0.6127         0.4833         0.4625         73.328      -5.035316      0.9546593
     10023.5000          0.607         0.4822         0.4607        71.3728      -3.080116      0.9766279
     10024.0000         0.6072         0.4811         0.4588        70.2329      -1.940216      0.9894358
     10024.5000         0.6095           0.48          0.457        69.0906     -0.7979126              1
