#------------------------------------------------------------------------------
# Created by    : vladimir.rabinovich
# Created on    : 09/19/2023 17:20:45
#------------------------------------------------------------------------------
~Version Information Section
VERS.           2.0     :   CWLS log ASCII Standard - VERSION 2.0
WRAP.           NO      :   One line per depth step
~Well Information Section
#MNEM       .UNIT                                         VALUE :DESCRIPTION
#------------------------------------------------------------------------------
STRT        .FT                                            2110 :START DEPTH
STOP        .FT                                            6746 :STOP DEPTH
STEP        .FT                                             0.5 :STEP      
NULL        .                                           -999.25 :NULL      
COMP        .                       HOUSTON OIL & MINERALS CORP :COMPANY   
WELL        .                                ST TR 00694-L NE/4 :WELL      
FLD         .                                           WILDCAT :FIELD     
LOC         .                                                   :LOCATION  
CNTY        .                      MATAGORDA ISLAND LARGE BLOCK :LOCATION  
STAT        .                                             TEXAS :STATE     
CTRY        .                                     UNITED STATES :COUNTRY   
SRVC        .                                                   :SERVICE COMPANY
DATE        .                             9/13/2023 11:12:01 AM :LOG DATE  
API         .                                    42703302070000 :API NUMBER
UWI         .                                    42703302070000 :UNIQUE WELL ID
XCOORD      .                                  400461.464340365 :SURFACE X 
YCOORD      .                                  10145980.2526086 :SURFACE Y 
LAT         .                                        27.9055609 :LATITUDE  
LON         .                                       -96.8388291 :LONGITUDE 
ELEV        .FT                                              25 :ELEVATION VALUE
ELEV_TYPE   .                                                KB :ELEVATION REFERENCE TYPE
~Curve Information Section
#MNEM       .UNIT                                      API CODE :CURVE DESCRIPTION
#------------------------------------------------------------------------------
DEPT        .FT                                                 :DEPTH     
ASN         .OHMM                                               :          
CILD        .MMHO                                               :          
ILD         .OHMM                                               :          
SP          .MV                                                 :          
SP_NORM     .MV                                                 :SP Normalized
VSH_SP      .V/V                                                :Volume of Shale from SP
~A        DEPTH            ASN           CILD            ILD             SP        SP_NORM         VSH_SP
# ...
      6100.0000         0.9716       1445.896         0.6367       -91.5759         -53.84      0.1771429
      6100.5000         1.0015       1428.551         0.6391       -91.7228       -53.9869      0.1748111
      6101.0000         1.0117       1414.225         0.6265       -91.5526       -53.8167      0.1775127
      6101.5000         1.0125       1399.883         0.6139       -91.2212       -53.4853       0.182773
      6102.0000         1.0087        1406.24         0.6013       -90.8894       -53.1535      0.1880397
      6102.5000         1.0023       1418.953         0.5887       -90.5438       -52.8079      0.1935254
      6103.0000         0.9959       1436.162          0.576       -90.1309        -52.395      0.2000794
      6103.5000         0.9794       1453.371         0.5628       -89.7181       -51.9823      0.2066302
      6104.0000         0.9473       1470.553         0.5492       -89.3051       -51.5692      0.2131873
      6104.5000          0.855       1499.682         0.5355        -88.892       -51.1561      0.2197444
      6105.0000         0.8227       1532.186         0.5219       -88.5319        -50.796      0.2254603
      6105.5000         0.7966        1568.91         0.5082       -89.0673       -51.3314      0.2169619
      6106.0000         0.7816       1605.959         0.4996       -90.1193       -52.3834      0.2002635
      6106.5000         0.7666        1682.34         0.4916       -90.9945       -53.2586      0.1863715
      6107.0000         0.7523       1773.223         0.4836       -91.8368       -54.1009      0.1730016
      6107.5000         0.7436       1838.529         0.4756       -92.6785       -54.9426      0.1596413
      6108.0000         0.7349       1873.691         0.4676       -93.0902       -55.3544      0.1531048
      6108.5000         0.7279       1889.408         0.4602       -93.4304       -55.6945      0.1477063
      6109.0000         0.7252       1902.594         0.4537       -93.7706       -56.0347      0.1423064
      6109.5000         0.7224       1912.986         0.4471       -94.1108        -56.375      0.1369048
      6110.0000         0.7197       1922.844         0.4406        -94.451       -56.7151      0.1315064
      6110.5000          0.717       1931.131          0.434        -94.788       -57.0522      0.1261556
      6111.0000         0.7164       1938.326         0.4275       -94.8983       -57.1624      0.1244064
      6111.5000         0.7173       1945.527          0.423       -95.0085       -57.2726      0.1226572
      6112.0000         0.7182       1941.922          0.423       -95.1189        -57.383      0.1209048
      6112.5000         0.7258       1934.502          0.423       -95.2292       -57.4934      0.1191524
      6113.0000         0.7336        1927.09          0.423       -95.2926       -57.5568       0.118146
      6113.5000         0.7449       1915.482          0.423       -95.2684       -57.5326      0.1185302
      6114.0000         0.7574       1893.779          0.423       -95.2443       -57.5084      0.1189143
      6114.5000           0.77       1872.051          0.423       -95.2201       -57.4842      0.1192984
      6115.0000         0.7826       1829.293         0.4286       -95.1959         -57.46      0.1196826
      6115.5000         0.8188       1773.818         0.4381       -95.1576       -57.4217      0.1202905
      6116.0000         0.8452        1695.75         0.4476       -95.0787       -57.3428      0.1215429
      6116.5000         0.8511       1680.367         0.4571       -94.9999        -57.264      0.1227937
      6117.0000         0.8569       1680.816         0.4665        -94.921       -57.1851       0.124046
      6117.5000         0.8628       1681.266          0.476       -94.8422       -57.1063      0.1252968
      6118.0000         0.8687       1674.742         0.4891       -94.7633       -57.0274      0.1265492
      6118.5000         0.9582       1659.434         0.5026       -94.6747       -56.9388      0.1279555
      6119.0000         1.0538       1644.125         0.4996       -94.5278        -56.792      0.1302857
      6119.5000         1.1494       1628.457         0.4965       -94.3809        -56.645       0.132619
      6120.0000          1.245       1561.164         0.4952        -94.234       -56.4981      0.1349508
      6120.5000         1.2409       1510.879          0.496        -94.084       -56.3481      0.1373318
      6121.0000         1.2069       1534.879         0.4968       -93.8798       -56.1439       0.140573
      6121.5000         1.1729       1549.891         0.4976       -93.6754       -55.9395      0.1438175
      6122.0000         1.1389         1564.9         0.4984       -93.4712       -55.7353      0.1470588
      6122.5000         1.1049        1579.91         0.5031       -93.2671       -55.5312      0.1502984
      6123.0000         1.0709       1504.051         0.5109       -92.8453       -55.1094      0.1569936
      6123.5000         1.0369       1420.916         0.5188       -92.2471       -54.5112      0.1664889
      6124.0000         1.1048       1337.879         0.5266       -91.6482       -53.9123      0.1759952
      6124.5000         1.2137       1254.744         0.5751       -91.0499        -53.314      0.1854921
      6125.0000         1.3226       1171.311          0.668       -88.5953       -50.8594      0.2244539
      6125.5000         1.4315       1109.432         0.7484       -84.9648       -47.2289      0.2820809
      6126.0000         1.5207        742.623         0.8267       -80.0793       -42.3434      0.3596286
      6126.5000         1.4891       682.7793         0.8706       -75.1938        -37.458      0.4371746
      6127.0000         1.4479       682.4189         0.8917       -70.3083       -32.5724      0.5147238
      6127.5000         1.4096       702.9424         0.9129       -65.4279       -27.6921      0.5921889
      6128.0000         1.3843       729.0898         0.9213       -60.5424       -22.8065      0.6697381
      6128.5000         1.3729       755.2617         0.9291       -51.8172       -14.0813      0.8082333
      6129.0000         1.3577       781.4092          0.937       -49.9048       -12.1689      0.8385889
      6129.5000         1.2781       807.8799         0.9448       -49.0732       -11.3373      0.8517889
      6130.0000         1.2472       834.3994         0.9527       -48.3442       -10.6083      0.8633603
      6130.5000         1.2281       860.9443         0.9605       -47.6152        -9.8793      0.8749318
      6131.0000         1.2241       883.2432         0.9684       -47.1166        -9.3807      0.8828461
      6131.5000         1.2187       901.9414         0.9762       -46.6765        -8.9406      0.8898317
      6132.0000         1.2083       920.1299         0.9841       -46.4272        -8.6913      0.8937889
      6132.5000         1.1978       932.1982         0.9853        -46.345        -8.6091      0.8950936
      6133.0000         1.1873       940.2188         0.9848       -46.2795        -8.5436      0.8961333
      6133.5000         1.1724       935.6182         0.9844       -46.3934        -8.6575      0.8943254
      6134.0000         1.1542       931.0127         0.9839       -46.5073        -8.7715      0.8925159
      6134.5000         1.1828       915.6475         0.9834       -46.8521        -9.1162      0.8870444
      6135.0000         1.2109       897.6699          0.983       -47.3201        -9.5842      0.8796159
      6135.5000         1.2433       879.7168         0.9825       -47.9813       -10.2454      0.8691207
      6136.0000          1.277       858.7344         0.9821       -48.8851       -11.1493       0.854773
      6136.5000         1.3015       823.4736         0.9814       -49.7816       -12.0457      0.8405445
      6137.0000         1.3213       797.1777         0.9773       -50.6705       -12.9347      0.8264334
      6137.5000         1.3064       786.3506         0.9732       -51.5582       -13.8223      0.8123444
