#------------------------------------------------------------------------------
# Created by    : vladimir.rabinovich
# Created on    : 09/19/2023 17:20:03
#------------------------------------------------------------------------------
~Version Information Section
VERS.           2.0     :   CWLS log ASCII Standard - VERSION 2.0
WRAP.           NO      :   One line per depth step
~Well Information Section
#MNEM       .UNIT                                         VALUE :DESCRIPTION
#------------------------------------------------------------------------------
STRT        .FT                                             945 :START DEPTH
STOP        .FT                                           12004 :STOP DEPTH
STEP        .FT                                             0.5 :STEP      
NULL        .                                           -999.25 :NULL      
COMP        .                                    EXXON CO U S A :COMPANY   
WELL        .                                     ST TR 00819-L :WELL      
FLD         .                                           WILDCAT :FIELD     
LOC         .                                                   :LOCATION  
CNTY        .                        MUSTANG ISLAND LARGE BLOCK :LOCATION  
STAT        .                                             TEXAS :STATE     
CTRY        .                                     UNITED STATES :COUNTRY   
SRVC        .                                                   :SERVICE COMPANY
DATE        .                             9/13/2023 11:18:55 AM :LOG DATE  
API         .                                    42702301310000 :API NUMBER
UWI         .                                    42702301310000 :UNIQUE WELL ID
XCOORD      .                                  274042.524369281 :SURFACE X 
YCOORD      .                                  9990401.22532542 :SURFACE Y 
LAT         .                                        27.4671591 :LATITUDE  
LON         .                                       -97.2129423 :LONGITUDE 
ELEV        .FT                                              93 :ELEVATION VALUE
ELEV_TYPE   .                                                KB :ELEVATION REFERENCE TYPE
~Curve Information Section
#MNEM       .UNIT                                      API CODE :CURVE DESCRIPTION
#------------------------------------------------------------------------------
DEPT        .FT                                                 :DEPTH     
ASFL        .OHMM                                               :          
CILD        .MMHO                                               :          
GR          .GAPI                                               :          
GR_NORM     .GAPI                                               :GammaRay Normalized
ILD         .OHMM                                               :          
SP          .MV                                                 :          
SP_NORM     .MV                                                 :SP Normalized
VSH_GR      .V/V                                                :Volume of Shale from GR
VSH_SP      .V/V                                                :Volume of Shale from SP
~A        DEPTH           ASFL           CILD             GR        GR_NORM            ILD             SP        SP_NORM         VSH_GR         VSH_SP
# ...
      6828.0000         1.1064       1469.844        -999.25        -999.25         0.6932       -43.9598      -14.15039        -999.25      0.7692915
      6828.5000         1.1407       1534.225        -999.25        -999.25         0.6583       -47.4486      -17.63841        -999.25      0.7080981
      6829.0000         1.1646       1598.803        -999.25        -999.25         0.6233       -54.2583      -24.44733        -999.25      0.5886433
      6829.5000         1.1885        1664.67        -999.25        -999.25         0.5873       -57.6508      -27.83905        -999.25      0.5291395
      6830.0000         1.0721       1750.643        -999.25        -999.25          0.549       -59.9116      -30.09907        -999.25        0.48949
      6830.5000          0.979       1825.076        -999.25        -999.25         0.5107       -62.9063      -33.09299        -999.25       0.436965
      6831.0000          0.927       1769.064        -999.25        -999.25         0.5023        -66.158      -36.34391        -999.25      0.3799314
      6831.5000         0.8847       1599.199        -999.25        -999.25         0.5325       -66.9017      -37.08684        -999.25      0.3668976
      6832.0000         0.9005       1490.744        -999.25        -999.25         0.5627       -53.9174      -24.10176        -999.25       0.594706
      6832.5000         0.9456       1395.857        -999.25        -999.25          0.593       -44.6714      -14.85498        -999.25      0.7569302
      6833.0000          1.007        1326.92        -999.25        -999.25         0.6449       -40.7773       -10.9601        -999.25      0.8252614
      6833.5000         1.0435       1251.744        -999.25        -999.25         0.6967       -40.5457      -10.72772        -999.25      0.8293382
      6834.0000         1.0822       1154.479        -999.25        -999.25         0.7486       -40.9453      -11.12655        -999.25      0.8223413
      6834.5000         1.1282       1036.217        -999.25        -999.25         0.8007       -41.5093      -11.68977        -999.25      0.8124602
      6835.0000         1.1831       964.2109        -999.25        -999.25         0.8527       -42.1684      -12.34809        -999.25      0.8009107
      6835.5000         1.2339       892.6006        -999.25        -999.25          0.905       -42.8275      -13.00641        -999.25      0.7893612
      6836.0000         1.2641       833.0234        -999.25        -999.25         0.9588       -43.4872      -13.66533        -999.25      0.7778012
      6836.5000         1.2943       791.9932        -999.25        -999.25         1.0127        -43.952      -14.12935        -999.25      0.7696605
      6837.0000          1.335       772.6055        -999.25        -999.25         1.0695       -42.9467      -13.12328        -999.25       0.787311
      6837.5000         1.3773       753.4336        -999.25        -999.25         1.1311       -41.0417      -11.21749        -999.25      0.8207457
      6838.0000         1.3914       745.6523        -999.25        -999.25         1.1852        -39.322      -9.497017        -999.25      0.8509295
      6838.5000         1.3809       750.7588        -999.25        -999.25         1.2272       -37.6788      -7.853039        -999.25      0.8797712
      6839.0000         1.3669        756.708        -999.25        -999.25         1.2356       -36.0357      -6.209164        -999.25      0.9086112
      6839.5000         1.3525       766.3154        -999.25        -999.25         1.2345       -38.6573      -8.829983        -999.25      0.8626319
      6840.0000          1.338       775.9229        -999.25        -999.25         1.2333       -40.3696       -10.5415        -999.25      0.8326052
      6840.5000         1.3221       785.5303        -999.25        -999.25         1.2257       -42.2166      -12.38773        -999.25      0.8002154
      6841.0000         1.5935       795.0391        -999.25        -999.25         1.2156       -43.3445      -13.51485        -999.25      0.7804412
      6841.5000          1.748       803.6807        -999.25        -999.25         1.2055       -41.2418      -11.41137        -999.25      0.8173444
      6842.0000         1.7988       804.0527        -999.25        -999.25         1.1942       -38.9847       -9.15349        -999.25      0.8569563
      6842.5000         1.7483       795.1758        -999.25        -999.25         1.1791       -37.7295      -7.897512        -999.25       0.878991
      6843.0000         1.7086       782.4355        -999.25        -999.25         1.1641       -36.9289      -7.096136        -999.25      0.8930503
      6843.5000         1.6754       767.7646        -999.25        -999.25         1.1572       -36.1284      -6.294855        -999.25      0.9071078
      6844.0000         1.6034       753.1055        -999.25        -999.25         1.1635       -35.6422      -5.807878        -999.25      0.9156513
      6844.5000         1.4454        738.582        -999.25        -999.25         1.1698       -35.1981      -5.363001        -999.25      0.9234561
      6845.0000         1.3339       725.7803        -999.25        -999.25         1.1761       -34.7533      -4.917421        -999.25      0.9312733
      6845.5000           1.29       713.5488        -999.25        -999.25         1.1819       -34.3141      -4.477442        -999.25      0.9389923
      6846.0000         1.2449       707.5371        -999.25        -999.25         1.1873       -33.9126      -4.075165        -999.25      0.9460497
      6846.5000         1.2546       701.5332        -999.25        -999.25         1.1927       -33.8366      -3.998386        -999.25      0.9473968
      6847.0000         1.2965       700.7959        -999.25        -999.25         1.1858       -34.3672      -4.528206        -999.25      0.9381016
      6847.5000         1.3239       702.6562        -999.25        -999.25         1.1655       -34.9485       -5.10873        -999.25       0.927917
      6848.0000         1.3034        708.373        -999.25        -999.25         1.1451       -36.5842      -6.743652        -999.25      0.8992342
      6848.5000         1.2259       726.5732        -999.25        -999.25         1.1225       -38.0544      -8.213074        -999.25      0.8734549
      6849.0000          1.185       761.8086        -999.25        -999.25         1.0905       -39.0974      -9.255295        -999.25      0.8551702
      6849.5000         1.1654       808.8066        -999.25        -999.25         1.0586       -38.8549      -9.012016        -999.25      0.8594383
      6850.0000         1.1461       849.5146        -999.25        -999.25         1.0275       -38.6128      -8.769138        -999.25      0.8636993
      6850.5000         1.1289       883.1416        -999.25        -999.25          1.003       -38.2366      -8.392159        -999.25       0.870313
      6851.0000         1.1097       915.5293        -999.25        -999.25         0.9786       -37.6288      -7.783579        -999.25      0.8809898
      6851.5000          1.084       941.7275        -999.25        -999.25         0.9692       -37.0203      -7.174303        -999.25      0.8916789
      6852.0000         1.0628       955.2471        -999.25        -999.25         0.9624       -36.4119      -6.565123        -999.25      0.9023663
      6852.5000          1.043       939.2266        -999.25        -999.25         0.9557       -35.7645      -5.916945        -999.25      0.9137378
      6853.0000         1.0336       923.2061        -999.25        -999.25         0.9558       -35.0967      -5.248365        -999.25      0.9254673
      6853.5000         1.0607       907.1846        -999.25        -999.25         0.9559       -34.4284      -4.579287        -999.25      0.9372055
      6854.0000         1.0777       890.3721        -999.25        -999.25         0.9561       -34.0297      -4.179811        -999.25      0.9442138
