#------------------------------------------------------------------------------
# Created by    : vladimir.rabinovich
# Created on    : 09/19/2023 17:21:26
#------------------------------------------------------------------------------
~Version Information Section
VERS.           2.0     :   CWLS log ASCII Standard - VERSION 2.0
WRAP.           NO      :   One line per depth step
~Well Information Section
#MNEM       .UNIT                                         VALUE :DESCRIPTION
#------------------------------------------------------------------------------
STRT        .FT                                            3102 :START DEPTH
STOP        .FT                                            8740 :STOP DEPTH
STEP        .FT                                             0.5 :STEP      
NULL        .                                           -999.25 :NULL      
COMP        .                          SEAGULL ENERGY E & P INC :COMPANY   
WELL        .                               OCS G13314 ST00BP00 :WELL      
FLD         .                              GALVESTON BLOCK 0330 :FIELD     
LOC         .                                                   :LOCATION  
CNTY        .                             GALVESTON LARGE BLOCK :LOCATION  
STAT        .                                             TEXAS :STATE     
CTRY        .                                     UNITED STATES :COUNTRY   
SRVC        .                                                   :SERVICE COMPANY
DATE        .                             9/13/2023 11:19:54 AM :LOG DATE  
API         .                                    42706403240000 :API NUMBER
UWI         .                                    42706403240000 :UNIQUE WELL ID
XCOORD      .                                  980373.867630971 :SURFACE X 
YCOORD      .                                  10452895.3513713 :SURFACE Y 
LAT         .                                         28.787844 :LATITUDE  
LON         .                                        -95.061044 :LONGITUDE 
ELEV        .FT                                              95 :ELEVATION VALUE
ELEV_TYPE   .                                                KB :ELEVATION REFERENCE TYPE
~Curve Information Section
#MNEM       .UNIT                                      API CODE :CURVE DESCRIPTION
#------------------------------------------------------------------------------
DEPT        .FT                                                 :DEPTH     
CALI        .IN                                                 :          
DRHO        .G/C3                                               :          
DT          .US/F                                               :          
GR          .GAPI                                               :          
GR_1        .GAPI                                               :          
GR_NORM     .GAPI                                               :GammaRay Normalized
ILD         .OHMM                                               :          
ILM         .OHMM                                               :          
NPHI        .%                                                  :          
RFOC        .OHMM                                               :          
RHOB        .G/C3                                               :          
SP          .MV                                                 :          
SP_NORM     .MV                                                 :SP Normalized
VSH_GR      .V/V                                                :Volume of Shale from GR
VSH_SP      .V/V                                                :Volume of Shale from SP
~A        DEPTH           CALI           DRHO             DT             GR           GR_1        GR_NORM            ILD            ILM           NPHI           RFOC           RHOB             SP        SP_NORM         VSH_GR         VSH_SP
# ...
      7981.0000        -999.25        -999.25       114.1527        64.5306        36.9512       76.22977         0.7882         0.8863        45.2836         1.0686        -999.25       -35.7074      -2.660786      0.9197825      0.9667402
      7981.5000        -999.25        -999.25       112.5011        64.5531         38.019       76.24808         0.7968         0.9016         46.646         1.1051        -999.25       -35.6879      -2.605736      0.9201719      0.9674283
      7982.0000        -999.25        -999.25       110.0729        64.7332        38.0839       76.39453         0.8066         0.9081        47.6348         1.1854        -999.25       -35.6252      -2.507481      0.9232879      0.9686565
      7982.5000        -999.25        -999.25       107.9438        64.8486        37.1783       76.48839         0.8112         0.9013        48.1083         1.2563        -999.25       -35.5713      -2.418034      0.9252849      0.9697746
      7983.0000        -999.25        -999.25       106.2836        64.2781        36.5004       76.02443         0.8119         0.8836         48.374         1.2564        -999.25       -35.4647      -2.275883      0.9154134      0.9715515
      7983.5000        -999.25        -999.25       108.5522        63.8453        36.8872       75.67246         0.8079          0.878        48.5577         1.1727        -999.25       -35.3677       -2.14333      0.9079247      0.9732084
      7984.0000        -999.25        -999.25       110.6014         63.496         36.922        75.3884         0.7967         0.8629        48.6625         1.0882        -999.25       -35.1894      -1.929482      0.9018808      0.9758815
      7984.5000        -999.25        -999.25       112.8152         64.202         36.087       75.96255         0.7839           0.85        48.6597         1.0517        -999.25       -34.9907      -1.695229      0.9140968      0.9788097
      7985.0000        -999.25        -999.25       115.0814        65.6539        35.8403       77.14329         0.7708         0.8417        48.4552         1.0454        -999.25        -34.737      -1.405979      0.9392189      0.9824253
      7985.5000        -999.25        -999.25       116.2142        67.1354         35.819       78.34809         0.7536         0.8348         47.655         1.0546        -999.25        -34.251     -0.8844299       0.964853      0.9889446
      7986.0000        -999.25        -999.25       115.7607        67.0884        35.2874       78.30988         0.7447         0.8334        45.9124         1.0641        -999.25        -33.838     -0.4358788        0.96404      0.9945515
      7986.5000        -999.25        -999.25       114.4232        65.5475        34.1669       77.05676         0.7469         0.8382        44.9543         1.0787        -999.25        -33.838     -0.4003296      0.9373779      0.9949959
      7987.0000        -999.25        -999.25       113.5522        63.7371        34.5082       75.58447         0.7553         0.8498        44.6562         1.0854        -999.25       -34.0414     -0.5681763      0.9060525      0.9928978
      7987.5000        -999.25        -999.25       113.2715        62.2086        34.4728       74.34142         0.7666         0.8654        45.1399         1.0906        -999.25       -34.2104     -0.7016258      0.8796048      0.9912297
      7988.0000        -999.25        -999.25       112.4786        61.9947        33.9606       74.16748         0.7779         0.8806        45.8791         1.1045        -999.25       -34.1691     -0.6247749      0.8759038      0.9921903
      7988.5000        -999.25        -999.25       110.3746        63.1726        33.9197       75.12539         0.7904         0.8913        45.9333         1.1341        -999.25       -34.0727     -0.4928246      0.8962849      0.9938397
      7989.0000        -999.25        -999.25       108.8389        63.5522        34.8267        75.4341          0.803         0.9009        45.8423         1.1695        -999.25       -33.8661     -0.2506752      0.9028533      0.9968666
      7989.5000        -999.25        -999.25       108.5681        63.0891        35.1987        75.0575         0.8159         0.9099        46.6295         1.1831        -999.25       -33.6702    -0.01922226      0.8948403      0.9997597
      7990.0000        -999.25        -999.25       109.2103        62.0417        35.1345        74.2057         0.8279          0.918        47.3781         1.1735        -999.25       -33.5654      0.1211281      0.8767171              1
      7990.5000        -999.25        -999.25       109.7155         61.275        34.9142        73.5822         0.8377         0.9232        48.2224          1.163        -999.25       -33.7047     0.01737976      0.8634511              1
      7991.0000        -999.25        -999.25       109.6422        60.8639        35.0862       73.24788         0.8403         0.9231        48.7176         1.1633        -999.25       -33.9575     -0.1998711      0.8563378      0.9975016
      7991.5000        -999.25        -999.25       109.2874        61.5928        35.6838       73.84064          0.839         0.9223        48.7968         1.1891        -999.25       -34.1575     -0.3643227      0.8689497       0.995446
      7992.0000        -999.25        -999.25       109.6777        62.8257         35.332       74.84328         0.8391         0.9204        48.2628         1.1999        -999.25       -34.3075     -0.4787674      0.8902825      0.9940154
      7992.5000        -999.25        -999.25        110.599         63.794        33.9365       75.63074          0.842         0.9162        47.0622         1.1758        -999.25       -34.3039      -0.439621       0.907037      0.9945047
      7993.0000        -999.25        -999.25       111.2041        63.6833        33.6627       75.54072         0.8475         0.9161        46.3469         1.1446        -999.25       -34.3597     -0.4598656      0.9051217      0.9942517
      7993.5000        -999.25        -999.25       111.2456        62.6315        33.4035       74.68535         0.8544         0.9161        46.4064         1.1085        -999.25       -34.4775     -0.5421181      0.8869223      0.9932235
      7994.0000        -999.25        -999.25       110.3446        60.9373        33.5025       73.30757         0.8566         0.9163        47.7328         1.1031        -999.25       -34.6062     -0.6352654      0.8576079      0.9920592
      7994.5000        -999.25        -999.25       108.9312        60.2649        33.3355       72.76074          0.858         0.9173        48.8602          1.115        -999.25       -34.5811     -0.5746155      0.8459733      0.9928173
      7995.0000        -999.25        -999.25       107.5051         60.252        32.7687       72.75025         0.8573         0.9176        49.5625         1.1169        -999.25       -34.4984     -0.4563675        0.84575      0.9942954
      7995.5000        -999.25        -999.25       106.9255        60.1969        32.7518       72.70544         0.8608         0.9175        49.3459         1.1205        -999.25        -34.385     -0.3074112      0.8447965      0.9961573
      7996.0000        -999.25        -999.25       107.2421        60.2458        32.9487       72.74521         0.8673         0.9175         48.408         1.1301        -999.25       -34.1564    -0.04326248      0.8456427      0.9994592
      7996.5000        -999.25        -999.25       108.5222        60.2355        33.1995       72.73683         0.8682         0.9187         47.158         1.1336        -999.25       -34.0974      0.0512886      0.8454645              1
      7997.0000        -999.25        -999.25       109.8685         60.124          33.78       72.64615         0.8693         0.9219        45.6534          1.128        -999.25       -34.0629      0.1213379      0.8435351              1
      7997.5000        -999.25        -999.25       110.8812        61.0585        34.7994       73.40612         0.8709         0.9251        44.7716         1.1186        -999.25       -33.9461      0.2736893      0.8597047              1
