#------------------------------------------------------------------------------
# Created by    : vladimir.rabinovich
# Created on    : 09/19/2023 17:20:35
#------------------------------------------------------------------------------
~Version Information Section
VERS.           2.0     :   CWLS log ASCII Standard - VERSION 2.0
WRAP.           NO      :   One line per depth step
~Well Information Section
#MNEM       .UNIT                                         VALUE :DESCRIPTION
#------------------------------------------------------------------------------
STRT        .FT                                             504 :START DEPTH
STOP        .FT                                            9361 :STOP DEPTH
STEP        .FT                                             0.5 :STEP      
NULL        .                                           -999.25 :NULL      
COMP        .                                      SHELL OIL CO :COMPANY   
WELL        .                                OCS 00704 ST00BP00 :WELL      
FLD         .                                           WILDCAT :FIELD     
LOC         .                                                   :LOCATION  
CNTY        .                             GALVESTON LARGE BLOCK :LOCATION  
STAT        .                                             TEXAS :STATE     
CTRY        .                                     UNITED STATES :COUNTRY   
SRVC        .                                                   :SERVICE COMPANY
DATE        .                             9/13/2023 11:19:25 AM :LOG DATE  
API         .                                    42706000430000 :API NUMBER
UWI         .                                    42706000430000 :UNIQUE WELL ID
XCOORD      .                                  1136254.96267488 :SURFACE X 
YCOORD      .                                  10526383.5552877 :SURFACE Y 
LAT         .                                         28.996505 :LATITUDE  
LON         .                                        -94.577519 :LONGITUDE 
ELEV        .FT                                              42 :ELEVATION VALUE
ELEV_TYPE   .                                                KB :ELEVATION REFERENCE TYPE
~Curve Information Section
#MNEM       .UNIT                                      API CODE :CURVE DESCRIPTION
#------------------------------------------------------------------------------
DEPT        .FT                                                 :DEPTH     
ASN         .OHMM                                               :          
DT          .US/F                                               :          
LN          .OHMM                                               :          
SP          .MV                                                 :          
SP_NORM     .MV                                                 :SP Normalized
VSH_SP      .V/V                                                :Volume of Shale from SP
~A        DEPTH            ASN             DT             LN             SP        SP_NORM         VSH_SP
# ...
      4038.0000          0.946       142.9376        -999.25       -54.3878     -0.5230103              1
      4038.5000          0.954       143.3014        -999.25       -54.7606     -0.8979683              1
      4039.0000         0.9612       146.5574        -999.25       -55.1335      -1.273022      0.9905854
      4039.5000         0.9683       151.0056        -999.25       -55.4626      -1.604275      0.9791629
      4040.0000         0.9755       152.0234        -999.25       -55.2542      -1.398029      0.9862748
      4040.5000         0.9827       152.6779        -999.25       -55.0459      -1.191879      0.9933835
      4041.0000         0.9799       153.4777        -999.25       -54.8493     -0.9974365              1
      4041.5000         0.9744       155.7147        -999.25       -54.7369     -0.8871918              1
      4042.0000         0.9698        160.252        -999.25       -54.6246     -0.7770424              1
      4042.5000          0.966       163.2171        -999.25       -54.5123     -0.6668968              1
      4043.0000         0.9621       163.2343        -999.25       -54.6012     -0.7579536              1
      4043.5000         0.9713       161.5463        -999.25       -54.8448      -1.003704      0.9998723
      4044.0000         0.9842       156.5785        -999.25       -55.0883      -1.249359      0.9914014
      4044.5000         0.9943       151.0967        -999.25        -55.332      -1.495213      0.9829237
      4045.0000         1.0006       144.5416        -999.25       -55.7144      -1.879768      0.9696631
      4045.5000         1.0069       143.7346        -999.25       -56.1449      -2.312424       0.954744
      4046.0000         1.0122       143.6687        -999.25       -56.5754      -2.745075       0.939825
      4046.5000         1.0163         144.47        -999.25       -56.6145      -2.786327      0.9384025
      4047.0000         1.0204       144.1693        -999.25       -56.2469      -2.420883       0.951004
      4047.5000         1.0245        142.902        -999.25       -55.8972      -2.073338      0.9629884
      4048.0000         1.0287       140.6941        -999.25       -55.5474      -1.725693      0.9749761
      4048.5000         1.0329       137.5139        -999.25       -55.1973      -1.377743      0.9869744
      4049.0000         1.0371        132.453        -999.25       -54.8475      -1.030098      0.9989622
      4049.5000         1.0378       130.1553        -999.25       -54.4977     -0.6824532              1
      4050.0000         1.0316       130.3737        -999.25       -54.3884     -0.5753059              1
      4050.5000         1.0253       131.9729        -999.25       -54.4067     -0.5957603              1
      4051.0000          1.019       149.1724        -999.25        -54.425     -0.6162109              1
      4051.5000         1.0118       149.1248        -999.25       -54.4433     -0.6366653              1
      4052.0000         1.0025       147.9624        -999.25       -54.4616     -0.6571236              1
      4052.5000         0.9933       147.7446        -999.25       -54.4697     -0.6673737              1
      4053.0000          0.984        147.745        -999.25       -54.3636     -0.5634308              1
      4053.5000         0.9747       148.1093        -999.25       -54.2576     -0.4595833              1
      4054.0000         0.9732       150.3511        -999.25       -54.1514     -0.3555374              1
      4054.5000         0.9724       152.3246        -999.25       -54.0453     -0.2515907              1
      4055.0000         0.9717       152.4704        -999.25       -53.9393     -0.1477432              1
      4055.5000          0.971       153.3428        -999.25       -53.8651    -0.07569885              1
      4056.0000         0.9702       151.7444        -999.25       -53.7928   -0.005554199              1
      4056.5000         0.9696        151.454        -999.25       -53.7207      0.0643959              1
      4057.0000         0.9694       151.3758        -999.25       -53.6485      0.1344414              1
      4057.5000         0.9693       151.3094        -999.25          -53.6      0.1807861              1
      4058.0000         0.9692       151.3824        -999.25       -53.5894      0.1892319              1
      4058.5000         0.9691         151.31        -999.25       -53.5788      0.1976776              1
      4059.0000          0.969        151.052        -999.25       -53.5682      0.2061272              1
      4059.5000         0.9662       150.8747        -999.25       -53.5576      0.2145729              1
      4060.0000         0.9627        152.038        -999.25       -53.5469       0.223114              1
      4060.5000         0.9591       152.0383        -999.25       -53.5363      0.2315636              1
      4061.0000         0.9579       151.8187        -999.25       -53.5257      0.2400093              1
      4061.5000         0.9588       151.4652        -999.25       -53.5084      0.2551575              1
      4062.0000         0.9597       151.3853        -999.25       -53.4898      0.2716026              1
      4062.5000         0.9601       152.2918        -999.25       -53.4712      0.2880478              1
      4063.0000         0.9587       153.9296        -999.25       -53.4526      0.3044968              1
      4063.5000         0.9573       153.7847        -999.25        -53.434      0.3209419              1
      4064.0000         0.9559        153.785        -999.25       -53.4153      0.3374863              1
      4064.5000         0.9545       153.8581        -999.25       -53.5613      0.1893349              1
      4065.0000         0.9531       154.0019        -999.25       -53.7859    -0.03742218              1
      4065.5000         0.9488       154.3675        -999.25       -54.0106     -0.2642746              1
      4066.0000         0.9426       154.8039        -999.25        -54.235     -0.4908295              1
      4066.5000         0.9363       155.6764        -999.25       -54.4537     -0.7116852              1
      4067.0000           0.93       156.3633        -999.25       -54.5623     -0.8224373              1
      4067.5000         0.9238       156.5492        -999.25       -54.6708     -0.9330902              1
      4068.0000         0.9192       156.2189        -999.25       -54.7792      -1.043644       0.998495
      4068.5000         0.9151       155.1579        -999.25       -54.8878      -1.154396       0.994676
      4069.0000         0.9111       154.6664        -999.25       -54.8282      -1.096954      0.9966568
      4069.5000         0.9167       154.4585        -999.25        -54.566     -0.8369064              1
      4070.0000          0.925        154.105        -999.25        -54.304     -0.5770607              1
      4070.5000         0.9333       153.7171        -999.25       -54.0417     -0.3169136              1
      4071.0000          0.942       153.0634        -999.25       -53.7795    -0.05686569              1
      4071.5000         0.9518       152.1576        -999.25       -53.6094      0.1110764              1
      4072.0000         0.9616       150.7195        -999.25       -53.6083      0.1100273              1
      4072.5000         0.9668       150.5935        -999.25       -53.6073      0.1088715              1
      4073.0000         0.9606       150.8846        -999.25       -53.6062      0.1078148              1
      4073.5000         0.9543       151.9024        -999.25       -53.6984     0.01346588              1
      4074.0000          0.948       153.7197        -999.25       -53.7931    -0.08338928              1
      4074.5000         0.9417        153.938        -999.25       -53.8879     -0.1803474              1
      4075.0000         0.9346       154.0359        -999.25       -53.9825     -0.2770958              1
      4075.5000         0.9265       154.4201        -999.25       -54.0773      -0.374054              1
