#------------------------------------------------------------------------------
# Created by    : vladimir.rabinovich
# Created on    : 09/19/2023 17:22:46
#------------------------------------------------------------------------------
~Version Information Section
VERS.           2.0     :   CWLS log ASCII Standard - VERSION 2.0
WRAP.           NO      :   One line per depth step
~Well Information Section
#MNEM       .UNIT                                         VALUE :DESCRIPTION
#------------------------------------------------------------------------------
STRT        .FT                                             862 :START DEPTH
STOP        .FT                                           11792 :STOP DEPTH
STEP        .FT                                             0.5 :STEP      
NULL        .                                           -999.25 :NULL      
COMP        .                     FREEPORT-MCMORAN OIL & GAS CO :COMPANY   
WELL        .                               OCS G08155 ST00BP00 :WELL      
FLD         .                            HIGH ISLAND BLOCK 0262 :FIELD     
LOC         .                                                   :LOCATION  
CNTY        .                           HIGH ISLAND LARGE BLOCK :LOCATION  
STAT        .                                             TEXAS :STATE     
CTRY        .                                     UNITED STATES :COUNTRY   
SRVC        .                                                   :SERVICE COMPANY
DATE        .                             9/13/2023 11:19:59 AM :LOG DATE  
API         .                                    42708403380000 :API NUMBER
UWI         .                                    42708403380000 :UNIQUE WELL ID
XCOORD      .                                  1194111.75057656 :SURFACE X 
YCOORD      .                                  10524686.1808471 :SURFACE Y 
LAT         .                                         28.993839 :LATITUDE  
LON         .                                         -94.39647 :LONGITUDE 
ELEV        .FT                                              98 :ELEVATION VALUE
ELEV_TYPE   .                                                KB :ELEVATION REFERENCE TYPE
~Curve Information Section
#MNEM       .UNIT                                      API CODE :CURVE DESCRIPTION
#------------------------------------------------------------------------------
DEPT        .FT                                                 :DEPTH     
DT          .US/F                                               :          
GR          .GAPI                                               :          
GR_NORM     .GAPI                                               :GammaRay Normalized
ILD         .OHMM                                               :          
ILM         .OHMM                                               :          
SFL         .OHMM                                               :          
SP          .MV                                                 :          
SP_NORM     .MV                                                 :SP Normalized
VSH_GR      .V/V                                                :Volume of Shale from GR
VSH_SP      .V/V                                                :Volume of Shale from SP
~A        DEPTH             DT             GR        GR_NORM            ILD            ILM            SFL             SP        SP_NORM         VSH_GR         VSH_SP
# ...
      9584.0000        92.6805        74.0269       74.51229         1.0828         1.0959         1.0259       -54.1968      -1.449551      0.8832402      0.9763395
      9584.5000        92.6797        72.2216       72.14258         1.1018         1.1331         1.0674       -54.2921      -1.544849      0.8328208      0.9713237
      9585.0000        92.4728        72.7318       72.81396         1.1211         1.1527         1.0953       -54.3579      -1.610649      0.8471054      0.9678606
      9585.5000        92.0237         73.759       74.16437         1.1346         1.1665         1.1245       -54.4238      -1.676552      0.8758376       0.964392
      9586.0000        92.0789        74.9617       75.74525         1.1463         1.1684         1.1492       -54.4897      -1.742451      0.9094735      0.9609237
      9586.5000        93.6021        74.6094       75.28387         1.1541         1.1471         1.1466        -54.482      -1.734749      0.8996567       0.961329
      9587.0000        95.4613        73.0768        73.2723         1.1496         1.1167         1.1194       -54.4472      -1.699951      0.8568575      0.9631605
      9587.5000        96.8269        71.5463        71.2635         1.1377         1.0818         1.0881       -54.4124       -1.66515       0.814117      0.9649921
      9588.0000         97.683        70.0137       69.25195          1.115         1.0458          1.059       -54.2936      -1.546349       0.771318      0.9712448
      9588.5000        97.6517        67.9709       66.57029          1.092         1.0023         1.0238       -54.1418       -1.39455      0.7142615      0.9792342
      9589.0000        97.6621        66.3973       64.50488         1.0643         0.9606         0.9873       -54.0017      -1.254452      0.6703166      0.9866078
      9589.5000        98.5732        65.2245       62.96587         1.0373         0.9318         0.9499       -53.9447      -1.197449      0.6375717       0.989608
      9590.0000        100.225        64.4373       61.93329         1.0094         0.9079         0.9159       -53.8878      -1.140549       0.615602      0.9926027
      9590.5000       102.8563        64.8003       62.41135         0.9807          0.892         0.8922       -53.8818      -1.134552      0.6257733      0.9929183
      9591.0000       107.8879         65.636       63.51025         0.9528         0.8828         0.8781       -53.9075      -1.160252      0.6491542      0.9915657
      9591.5000        117.636        65.8911       63.84659         0.9294         0.8736         0.8677       -53.9308      -1.183552      0.6563104      0.9903394
      9592.0000       118.3451        65.5598       63.41278         0.9067         0.8638         0.8225       -53.9238      -1.176552      0.6470804      0.9907078
      9592.5000       110.9736        66.9115       65.18937         0.8914         0.8539         0.8026       -53.9167      -1.169449      0.6848802      0.9910817
      9593.0000        111.181        68.6552        67.4808          0.881         0.8439         0.8126       -53.8922      -1.144951       0.733634       0.992371
      9593.5000       113.8058        70.5356       69.95178         0.8708         0.8331         0.8326       -53.8404      -1.093151      0.7862082      0.9950973
      9594.0000       108.7598        72.8501       72.99287         0.8655         0.8223         0.8558       -53.7886      -1.041351      0.8509122      0.9978236
      9594.5000       106.2374        76.1028       77.26618         0.8602         0.8148         0.8393       -53.7551      -1.007851      0.9418337      0.9995868
      9595.0000       107.5282        79.6057       81.86809         0.8558         0.8175         0.8112       -53.7341     -0.9868507              1              1
      9595.5000       108.2661        82.2524        85.3455          0.852         0.8203         0.7774       -53.7132       -0.96595              1              1
      9596.0000       107.2853         82.923       86.22755         0.8571         0.8234         0.7538       -53.7003     -0.9530487              1              1
      9596.5000       105.5244        80.0514       82.45739         0.8686         0.8267         0.7482       -53.6932     -0.9459496              1              1
      9597.0000       103.2555        77.2717       78.80791         0.8952         0.8353         0.7543       -53.6861     -0.9388504      0.9746365              1
      9597.5000       100.7712        74.8243       75.59489         0.9235         0.8551         0.7981       -53.6835     -0.9362488      0.9062744              1
      9598.0000        98.4366        72.4279       72.44884         0.9565         0.8882         0.8707       -53.6876     -0.9403496       0.839337              1
      9598.5000        96.2701        70.2463       69.58489          0.991         0.9439         0.9494       -53.6917     -0.9444504       0.778402              1
      9599.0000        94.3635        71.8336       71.67092         1.0135         0.9919          0.987       -53.6958     -0.9485512      0.8227856              1
      9599.5000        94.2139        74.1617       74.72987         1.0339         1.0204         1.0029       -53.6848     -0.9375496      0.8878697              1
      9600.0000        95.4508        71.7866       71.61179         1.0404         1.0353         0.9996       -53.6665     -0.9192505      0.8215275              1
      9600.5000         96.731        69.3765       68.44775         1.0366         1.0287         0.9956       -53.6483     -0.9010506      0.7542076              1
      9601.0000        97.9666        68.2822       67.01185         1.0314         1.0154         0.9909       -53.6299     -0.8826523      0.7236564              1
      9601.5000        99.7391        71.3879       71.09208         1.0204         1.0017         0.9528       -53.6187     -0.8714485      0.8104697              1
      9602.0000       101.0903        75.4539       76.43356         1.0094         0.9939         0.9163       -53.6215     -0.8742485      0.9241182              1
      9602.5000        100.141          75.62       76.65302         0.9985          1.005         0.8834       -53.6243     -0.8770485      0.9287875              1
      9603.0000        99.1982        74.8009       75.57854         0.9878         1.0161         0.8543       -53.6194     -0.8721504      0.9059265              1
      9603.5000        98.3171        72.9399       73.13567         0.9795         1.0222         0.8345       -53.5942     -0.8469505      0.8539505              1
      9604.0000         97.532        71.6058        71.3848         0.9733         1.0259         0.8647        -53.569     -0.8217506       0.816698              1
      9604.5000          96.92        72.4474       72.49146         0.9672         1.0266         0.9112       -53.5435     -0.7962494      0.8402437              1
      9605.0000        97.3888        73.9291       74.43878         0.9679         1.0177         0.9511       -53.5176     -0.7703514      0.8816762              1
      9605.5000       102.5518          75.36       76.31938         0.9716         1.0099         0.9787       -53.4917     -0.7444496       0.921689              1
      9606.0000       112.2157        76.7224       78.11002         0.9753         1.0096         0.9765       -53.4662     -0.7189522      0.9597877              1
      9606.5000       113.6338        77.9207       79.68515         0.9846         1.0092         0.9653        -53.441     -0.6937523      0.9933011              1
      9607.0000       102.2261        78.1797       80.02662         0.9951         1.0113         0.9891       -53.4158     -0.6685486              1              1
      9607.5000        98.7544        76.4194       77.71601         1.0047         1.0144         1.0115       -53.3921     -0.6448517      0.9514045              1
      9608.0000        98.1609        74.4921       75.18606         1.0124         1.0176         1.0274       -53.3691     -0.6218491      0.8975757              1
