#------------------------------------------------------------------------------
# Created by    : vladimir.rabinovich
# Created on    : 09/19/2023 17:22:17
#------------------------------------------------------------------------------
~Version Information Section
VERS.           2.0     :   CWLS log ASCII Standard - VERSION 2.0
WRAP.           NO      :   One line per depth step
~Well Information Section
#MNEM       .UNIT                                         VALUE :DESCRIPTION
#------------------------------------------------------------------------------
STRT        .FT                                             996 :START DEPTH
STOP        .FT                                            8436 :STOP DEPTH
STEP        .FT                                             0.5 :STEP      
NULL        .                                           -999.25 :NULL      
COMP        .                                    TDC ENERGY LLC :COMPANY   
WELL        .                               OCS G03738 ST00BP00 :WELL      
FLD         .                              GALVESTON BLOCK 0255 :FIELD     
LOC         .                                                   :LOCATION  
CNTY        .                             GALVESTON LARGE BLOCK :LOCATION  
STAT        .                                             TEXAS :STATE     
CTRY        .                                     UNITED STATES :COUNTRY   
SRVC        .                                                   :SERVICE COMPANY
DATE        .                             9/13/2023 11:18:53 AM :LOG DATE  
API         .                                    42706400460000 :API NUMBER
UWI         .                                    42706400460000 :UNIQUE WELL ID
XCOORD      .                                   1080542.6436948 :SURFACE X 
YCOORD      .                                  10548065.2081286 :SURFACE Y 
LAT         .                                        29.0539695 :LATITUDE  
LON         .                                       -94.7527854 :LONGITUDE 
ELEV        .FT                                              94 :ELEVATION VALUE
ELEV_TYPE   .                                                KB :ELEVATION REFERENCE TYPE
~Curve Information Section
#MNEM       .UNIT                                      API CODE :CURVE DESCRIPTION
#------------------------------------------------------------------------------
DEPT        .FT                                                 :DEPTH     
CALI        .IN                                                 :          
CILD        .MMHO                                               :          
DT          .US/F                                               :          
GR          .GAPI                                               :          
GR_NORM     .GAPI                                               :GammaRay Normalized
ILD         .OHMM                                               :          
ILM         .OHMM                                               :          
RHOB        .G/C3                                               :          
SFL         .OHMM                                               :          
SP          .MV                                                 :          
SP_NORM     .MV                                                 :SP Normalized
VSH_GR      .V/V                                                :Volume of Shale from GR
VSH_SP      .V/V                                                :Volume of Shale from SP
~A        DEPTH           CALI           CILD             DT             GR        GR_NORM            ILD            ILM           RHOB            SFL             SP        SP_NORM         VSH_GR         VSH_SP
# ...
      5955.0000        14.6742       1535.309       119.9688         85.209       91.80686         0.6143          0.618         1.9915         0.6439       -45.3268     -0.2005081              1      0.9966582
      5955.5000        14.6968       1540.301       121.2266        83.3926       89.29079         0.6138         0.6193         1.9892         0.6473       -45.2803     -0.1572647              1      0.9973789
      5956.0000        14.7243       1545.293       122.9336         81.627       86.84509         0.6115         0.6191          1.987         0.6582       -45.2773     -0.1575279              1      0.9973745
      5956.5000        14.7878       1551.844         123.73        80.0469       84.65634         0.6086         0.6126         1.9866         0.6547       -45.3251     -0.2085838              1      0.9965236
      5957.0000        14.8447       1569.656       123.9534        78.4199       82.40263         0.6055         0.6055         1.9866         0.6418       -45.3729     -0.2596397              1      0.9956726
      5957.5000        14.8587       1583.281        123.698        76.8984       80.29506         0.6025         0.5986         1.9849         0.6289       -45.4192     -0.3092041              1      0.9948466
      5958.0000        14.8907       1592.633       123.0762        75.6426       78.55553         0.6002         0.5918         1.9833         0.6287       -45.4211     -0.3143616      0.9692667      0.9947606
      5958.5000         14.938       1596.508       122.2529        74.8813       77.50098         0.5978         0.5888         1.9821         0.6321       -45.4152      -0.311718      0.9468294      0.9948047
      5959.0000        15.0204       1598.539        121.667        75.4561       78.29718         0.5956         0.5876         1.9839         0.6351       -45.3807     -0.2804794      0.9637698      0.9953253
      5959.5000        15.0815       1596.766       121.1313        76.1851       79.30699         0.5934         0.5892         1.9873         0.6379        -45.345     -0.2480392      0.9852551       0.995866
      5960.0000        15.1256        1593.98       120.6094        76.5452        79.8058         0.5919         0.5935         1.9884         0.6404       -45.2882        -0.1945      0.9958681      0.9967583
      5960.5000        15.1251       1590.141       120.2637        76.5432       79.80302         0.5919         0.5952         1.9862         0.6418       -45.2345     -0.1440582       0.995809       0.997599
      5961.0000        15.1428       1585.855       120.2134        75.8574       78.85307          0.592         0.5963         1.9829         0.6424       -45.2365     -0.1493149      0.9755971      0.9975114
      5961.5000        15.1699       1581.082       121.0137        75.3579       78.16116         0.5933         0.5963         1.9745         0.6438       -45.2805     -0.1965752      0.9608758      0.9967238
      5962.0000        15.2201       1577.547       122.7148         74.978       77.63492         0.5951         0.5967         1.9676          0.649       -45.3591     -0.2784348      0.9496791      0.9953594
      5962.5000        15.2515        1574.99       123.5693        75.0321       77.70986         0.5968         0.5973         1.9751         0.6541       -45.4561     -0.3786926      0.9512737      0.9936885
      5963.0000        15.2471       1573.334       123.6926        75.1548       77.87983         0.5974          0.598           1.98         0.6593       -45.5695     -0.4953537        0.95489      0.9917441
      5963.5000        15.2354       1571.627       123.5049        75.8228       78.80513         0.5975         0.5987         1.9831         0.6665       -45.7131     -0.6422119      0.9745772      0.9892965
      5964.0000          15.21       1569.895       123.2996        77.1543       80.64952         0.5975         0.5998         1.9817         0.6738       -45.6694     -0.6017685              1      0.9899705
      5964.5000        15.1845       1571.732       123.0725        78.2979       82.23363         0.5982         0.6006         1.9797         0.6795       -45.5937     -0.5293312              1      0.9911778
      5965.0000        15.1622       1576.555       122.7461        78.6871       82.77276          0.599         0.5991          1.978         0.6806       -45.4886     -0.4274902              1      0.9928752
      5965.5000        15.1415       1584.797       122.2388        78.7605       82.87442         0.5997         0.5977         1.9775         0.6439       -45.5174     -0.4595451              1      0.9923409
      5966.0000        15.1207       1594.273       122.6523        78.6483         82.719         0.5998         0.5948         1.9778         0.6071       -45.5312     -0.4766083              1      0.9920565
      5966.5000        15.1256        1604.25       124.1973        78.5286        82.5532         0.5998          0.592         1.9805         0.6048       -45.5693     -0.5179672              1      0.9913672
      5967.0000        15.1326       1619.078       125.9121        79.4111       83.77563         0.5984         0.5907         1.9844         0.6422       -45.6137     -0.5656242              1      0.9905729
      5967.5000        15.1422       1633.313       127.5059        80.3921       85.13451         0.5965         0.5907         1.9843         0.6708       -45.6157     -0.5708847              1      0.9904853
      5968.0000        15.1577       1645.719       127.3438        80.8809       85.81158         0.5948          0.592         1.9836         0.6409       -45.5425     -0.5009422              1      0.9916509
      5968.5000        15.1732       1655.148       125.8398        81.1682       86.20956         0.5829         0.5928         1.9863         0.5997       -45.4654     -0.4271049              1      0.9928816
      5969.0000        15.1886       1656.516        121.625        81.5137       86.68815         0.5742         0.5933         1.9953         0.5911       -45.3855     -0.3504639              1      0.9941589
      5969.5000         15.204       1651.883       116.4316        82.1084       87.51192          0.573         0.5921         2.0036         0.6279        -45.362     -0.3302193              1      0.9944963
      5970.0000        15.2145       1645.844       116.7266        83.7305       89.75884         0.5724         0.5913         2.0107         0.6661       -45.4158     -0.3872795              1      0.9935454
      5970.5000        15.1924       1636.141       120.8594        85.9883       92.88634          0.574         0.5913         2.0135         0.7002        -45.557     -0.5317383              1      0.9911377
      5971.0000        15.1703       1618.344       123.2261        88.0879       95.79469         0.5763         0.5913         1.9955         0.6865       -45.7324     -0.7103958              1      0.9881601
      5971.5000        15.1447       1593.375       123.6331        89.6201       97.91708         0.5794         0.5896         1.9822         0.6697       -45.8734       -0.85466              1      0.9857557
      5972.0000        15.1189       1575.063       123.9019        90.4419       99.05544         0.5833         0.5892         1.9823         0.6584        -45.898      -0.882515              1      0.9852914
      5972.5000        15.0968       1575.719       124.1689        90.3799       98.96956         0.5872         0.5892         1.9824         0.6531        -45.921     -0.9087753              1      0.9848537
      5973.0000        15.0976       1592.797       124.4614        88.9355       96.96879         0.5907         0.5914         1.9758         0.6494       -45.9425     -0.9335365              1       0.984441
      5973.5000        15.0984       1611.969       125.0303        87.0703       94.38511         0.5943         0.5937          1.972         0.6458       -45.9338      -0.928093              1      0.9845318
