#------------------------------------------------------------------------------
# Created by    : vladimir.rabinovich
# Created on    : 09/19/2023 17:21:04
#------------------------------------------------------------------------------
~Version Information Section
VERS.           2.0     :   CWLS log ASCII Standard - VERSION 2.0
WRAP.           NO      :   One line per depth step
~Well Information Section
#MNEM       .UNIT                                         VALUE :DESCRIPTION
#------------------------------------------------------------------------------
STRT        .FT                                            4500 :START DEPTH
STOP        .FT                                           11014 :STOP DEPTH
STEP        .FT                                             0.5 :STEP      
NULL        .                                           -999.25 :NULL      
COMP        .                              FIELDWOOD ENERGY LLC :COMPANY   
WELL        .                               OCS G06156 ST00BP00 :WELL      
FLD         .                            HIGH ISLAND BLOCK 0116 :FIELD     
LOC         .                                                   :LOCATION  
CNTY        .                           HIGH ISLAND LARGE BLOCK :LOCATION  
STAT        .                                             TEXAS :STATE     
CTRY        .                                     UNITED STATES :COUNTRY   
SRVC        .                                                   :SERVICE COMPANY
DATE        .                             9/13/2023 11:19:57 AM :LOG DATE  
API         .                                    42708404240000 :API NUMBER
UWI         .                                    42708404240000 :UNIQUE WELL ID
XCOORD      .                                  1333979.30181128 :SURFACE X 
YCOORD      .                                  10635798.2403082 :SURFACE Y 
LAT         .                                         29.303317 :LATITUDE  
LON         .                                        -93.961735 :LONGITUDE 
ELEV        .FT                                             101 :ELEVATION VALUE
ELEV_TYPE   .                                                KB :ELEVATION REFERENCE TYPE
~Curve Information Section
#MNEM       .UNIT                                      API CODE :CURVE DESCRIPTION
#------------------------------------------------------------------------------
DEPT        .FT                                                 :DEPTH     
AT10        .OHMM                                               :          
AT20        .OHMM                                               :          
AT30        .OHMM                                               :          
AT60        .OHMM                                               :          
AT90        .OHMM                                               :          
CALI        .IN                                                 :          
DCAL        .IN                                                 :          
DPHI        .DEC                                                :          
DRHO        .G/C3                                               :          
DT2R        .US/F                                               :          
DT4P        .US/F                                               :          
GR          .GAPI                                               :          
GR_NORM     .GAPI                                               :GammaRay Normalized
NPOR        .DEC                                                :          
SP          .MV                                                 :          
SP_NORM     .MV                                                 :SP Normalized
TENS        .LBF                                                :          
VSH_GR      .V/V                                                :Volume of Shale from GR
VSH_SP      .V/V                                                :Volume of Shale from SP
~A        DEPTH           AT10           AT20           AT30           AT60           AT90           CALI           DCAL           DPHI           DRHO           DT2R           DT4P             GR        GR_NORM           NPOR             SP        SP_NORM           TENS         VSH_GR         VSH_SP
# ...
      8293.5000         0.6294         0.6867         0.6484         0.6479         0.6566        11.3026        -999.25         0.2287         0.0012       297.7021       112.0479        75.2103        83.9015        -999.25       -33.6818     -0.3762223       3726.547              1      0.9946254
      8294.0000         0.6062         0.6685         0.6597         0.6569         0.6456        11.3226        -999.25         0.2293         0.0002       298.5015       112.1478        74.0078       82.50343        -999.25        -33.787     -0.5552048       3746.504              1      0.9920685
      8294.5000         0.5842         0.6478         0.6544         0.6522         0.6328        11.3828        -999.25         0.2305         0.0002       296.9028       112.4475        72.9058       81.22224        -999.25       -33.6923     -0.3940835       3766.465              1      0.9943702
      8295.0000         0.5696          0.632         0.6348         0.6477         0.6309        11.4529        -999.25         0.2323         0.0002       292.1064       112.1478        73.7072       82.15429        -999.25       -33.0958      0.6207956       3766.465              1              1
      8295.5000          0.586         0.6226         0.6262         0.6434         0.6266         11.493        -999.25         0.2359         0.0012       284.9087       111.3486        74.9105       83.55367        -999.25       -33.2009      0.4419754       3756.484              1              1
      8296.0000         0.6266         0.6686         0.6756         0.6682         0.6399         11.483        -999.25         0.2371         0.0022       279.3208       111.1488        75.7111       84.48479        -999.25       -33.5065    -0.07796778       3756.484              1      0.9988862
      8296.5000         0.6783         0.7301         0.7261         0.7024         0.6922        11.4529        -999.25         0.2365         0.0042       274.5254       111.3486        74.8093       83.43639        -999.25       -33.6117     -0.2569503       3746.504              1      0.9963293
      8297.0000         0.7091         0.7819         0.7705         0.7403         0.7371        11.4329        -999.25         0.2293         0.0042       272.9268       111.5483        73.4062       81.80506        -999.25       -33.8171     -0.6064196       3726.547              1      0.9913369
      8297.5000         0.6974         0.7799         0.7943         0.7553         0.7382        11.4329        -999.25         0.2228         0.0042       272.5273       111.5483        72.8059       81.10724        -999.25       -33.6217     -0.2739679       3756.484              1      0.9960862
      8298.0000         0.6901         0.7615         0.7865         0.7637         0.7456         11.473        -999.25         0.2168         0.0042       271.3296       111.1489        74.0083       82.50557        -999.25       -33.3261      0.2289642       3806.387              1              1
      8298.5000         0.7053         0.7443         0.7802          0.771         0.7712        11.5331        -999.25         0.2084         0.0032        267.332       109.7509        74.8098       83.43774        -999.25       -33.5316     -0.1206738       3846.305              1      0.9982761
      8299.0000         0.7332         0.7918         0.8141         0.7938         0.8074        11.5832        -999.25         0.1994         0.0032       262.9395       108.4513        74.3088       82.85537        -999.25       -34.0375     -0.9814023       3866.266              1        0.98598
      8299.5000          0.776         0.8494          0.849         0.8196         0.8484        11.7035        -999.25         0.1892         0.0022       259.7402       106.6531        72.8044       81.10626        -999.25       -33.8422     -0.6491257       3866.266              1      0.9907268
      8300.0000         0.8191         0.9224         0.8841         0.8341         0.8209        11.7635        -999.25         0.1868         0.0022       258.1416       106.2537        70.9017       78.89402        -999.25       -33.8472      -0.657628       3856.285      0.9764685      0.9906053
      8300.5000         0.7911         0.9213         0.8616         0.7967         0.7781        11.7635        -999.25         0.1892         0.0022       256.9429       106.2539        69.0981         76.797        -999.25       -34.0526      -1.007097       3826.348      0.9318511      0.9856129
      8301.0000         0.7509         0.8817         0.7843         0.7586         0.7435        11.7735        -999.25         0.1976         0.0012       257.7422       106.6536        68.4972       76.09848        -999.25       -34.4584      -1.697521       3836.324       0.916989      0.9757497
      8301.5000         0.7191         0.8538         0.7537         0.7455         0.7604        11.7836        -999.25         0.2036         0.0012       259.3423       107.2522        69.1985       76.91414        -999.25       -34.6638      -2.046983       3816.391      0.9343434      0.9707574
      8302.0000           0.71         0.8334         0.7669         0.7666         0.7881        11.7716        -999.25          0.208        -0.0002       261.3359       108.5502        69.3798       77.12514        -999.25       -34.8497      -2.363275        3790.18      0.9388327      0.9662389
      8302.5000         0.7236         0.8079         0.7864         0.7918         0.8014        11.7511        -999.25         0.2105        -0.0003       263.7358         109.85        68.7737       76.42056        -999.25       -34.8497      -2.363275       3791.168      0.9238418      0.9662389
      8303.0000         0.7156         0.7771          0.783         0.7986         0.7696        11.7506        -999.25         0.2147        -0.0014       266.5332        110.849        68.1675       75.71588        -999.25       -35.2505      -3.045189       3792.156      0.9088485      0.9564973
      8303.5000         0.6799         0.7547         0.7763         0.7742         0.7279          11.74        -999.25          0.219        -0.0015       270.1299       111.1483        69.3651       77.10863        -999.25       -35.4509       -3.38615       3813.203      0.9384815      0.9516264
      8304.0000         0.6495         0.7388         0.7576         0.7524          0.706        11.6994        -999.25          0.222         0.0004         271.73       110.6488        72.8657       81.17929        -999.25       -35.2505      -3.045189       3834.152              1      0.9564973
      8304.5000         0.6478          0.745         0.7371          0.738         0.7008        11.6288        -999.25         0.2233         0.0023       273.3267       110.0502        75.9685       84.78739        -999.25       -35.3506      -3.215501       3835.141              1      0.9540642
      8305.0000         0.6525         0.7542         0.7259         0.7417         0.7074        11.5882        -999.25         0.2281         0.0032       273.3267       109.3503        76.8649       85.82991        -999.25       -35.2507      -3.045533       3816.168              1      0.9564924
      8305.5000         0.6646         0.7735         0.7246         0.7454         0.7185        11.5276        -999.25         0.2348         0.0051        271.728       108.8511         77.161       86.17441        -999.25       -35.0497      -2.703553       3797.195              1      0.9613778
      8306.0000         0.6799         0.7881         0.7256          0.753          0.733         11.487        -999.25         0.2318          0.007       270.1299       109.2502        77.7567       86.86727        -999.25       -34.6493      -2.022314       3798.184              1      0.9711098
      8306.5000         0.6926         0.7967         0.7439         0.7617         0.7428        11.4965        -999.25         0.2211         0.0089         269.73       109.8501        77.9521       87.09468        -999.25       -34.2485      -1.340399        3839.09              1      0.9808514
