#------------------------------------------------------------------------------
# Created by    : vladimir.rabinovich
# Created on    : 09/19/2023 17:22:18
#------------------------------------------------------------------------------
~Version Information Section
VERS.           2.0     :   CWLS log ASCII Standard - VERSION 2.0
WRAP.           NO      :   One line per depth step
~Well Information Section
#MNEM       .UNIT                                         VALUE :DESCRIPTION
#------------------------------------------------------------------------------
STRT        .FT                                            4012 :START DEPTH
STOP        .FT                                            9352 :STOP DEPTH
STEP        .FT                                             0.5 :STEP      
NULL        .                                           -999.25 :NULL      
COMP        .                                   KERR-MCGEE CORP :COMPANY   
WELL        .                                ST TR 00007-L SE/4 :WELL      
FLD         .                                           WILDCAT :FIELD     
LOC         .                                                   :LOCATION  
CNTY        .                           HIGH ISLAND LARGE BLOCK :LOCATION  
STAT        .                                             TEXAS :STATE     
CTRY        .                                     UNITED STATES :COUNTRY   
SRVC        .                                                   :SERVICE COMPANY
DATE        .                             9/13/2023 11:19:15 AM :LOG DATE  
API         .                                    42708302700000 :API NUMBER
UWI         .                                    42708302700000 :UNIQUE WELL ID
XCOORD      .                                   1285759.2062487 :SURFACE X 
YCOORD      .                                  10728779.4927599 :SURFACE Y 
LAT         .                                        29.5578886 :LATITUDE  
LON         .                                       -94.1158411 :LONGITUDE 
ELEV        .FT                                             125 :ELEVATION VALUE
ELEV_TYPE   .                                                KB :ELEVATION REFERENCE TYPE
~Curve Information Section
#MNEM       .UNIT                                      API CODE :CURVE DESCRIPTION
#------------------------------------------------------------------------------
DEPT        .FT                                                 :DEPTH     
CALI        .IN                                                 :          
CILD        .MMHO                                               :          
DPHI        .%                                                  :          
ILD         .OHMM                                               :          
ILM         .OHMM                                               :          
SFL         .OHMM                                               :          
SP          .MV                                                 :          
SP_NORM     .MV                                                 :SP Normalized
VSH_SP      .V/V                                                :Volume of Shale from SP
~A        DEPTH           CALI           CILD           DPHI            ILD            ILM            SFL             SP        SP_NORM         VSH_SP
# ...
      7218.5000        12.9633       2122.109        20.0215          0.475         0.4723         0.6723       -58.7526         3.5796              1
      7219.0000        12.9518        2136.23        19.9507         0.4706         0.4716         0.6688       -61.2021          1.128              1
      7219.5000        12.9599       2144.992        19.8192         0.4656         0.4737         0.6518       -63.7496        -1.4215      0.9796929
      7220.0000        12.9679       2154.414        19.4301         0.4608         0.4794         0.6352       -65.0912        -2.7652      0.9604971
      7220.5000        12.9832       2167.773        19.0682         0.4579         0.4852         0.6224       -64.6947        -2.3707      0.9661329
      7221.0000        13.0018       2159.602         19.367          0.455         0.4937         0.6103        -63.221        -0.8991      0.9871557
      7221.5000        12.9996       2125.438        19.8123         0.4575         0.5055         0.6018        -60.862         1.4579              1
      7222.0000        12.9858       2079.773        19.9894         0.4621         0.5175         0.6007       -58.7697         3.5481              1
      7222.5000        12.9665       2035.922        19.9558         0.4766         0.5282          0.605       -58.7648          3.551              1
      7223.0000        12.9342       2003.082        19.6878         0.4918         0.5385          0.623        -59.899         2.4147              1
      7223.5000        12.9094       1967.207        19.4199         0.5014         0.5454         0.6685       -61.0895         1.2222              1
      7224.0000        12.9006       1963.193        19.0862         0.4974         0.5329         0.6835       -62.1369         0.1727              1
      7224.5000        12.9128        2017.52        18.6303         0.4781          0.519         0.6662        -62.608        -0.3005      0.9957072
      7225.0000        12.9536       2082.125        18.2856         0.4596         0.5011         0.6406        -62.192         0.1135              1
      7225.5000        12.9708       2273.688        18.0494         0.4438         0.4837         0.6162       -61.9669         0.3365              1
      7226.0000        12.9855       2425.508        17.9777          0.429         0.4702         0.5974       -62.2226         0.0788              1
      7226.5000        12.9679       2529.559        18.2966         0.4147         0.4571         0.6057       -64.4788        -2.1795      0.9688643
      7227.0000        12.9452       2613.348        18.4822         0.4008         0.4446         0.6261       -67.1412        -4.8439      0.9308015
      7227.5000        12.9335       2692.246        18.4911         0.3886         0.4329         0.6434       -71.6685        -9.3733      0.8660957
      7228.0000        12.9256        2767.52        18.4723         0.3767         0.4215         0.6348       -73.1538       -10.8606      0.8448486
      7228.5000        12.9314       2829.285        18.5995         0.3661         0.4119         0.6219        -72.908       -10.6169        0.84833
      7229.0000        12.9456       2880.578        18.9875         0.3571         0.4032         0.6083       -72.1456        -9.8565      0.8591928
      7229.5000        12.9524       2918.898         19.515         0.3484         0.3959         0.5973        -70.692         -8.405      0.8799286
      7230.0000        12.9519        2929.27        19.8784         0.3463         0.3958         0.5972       -69.1724        -6.8874      0.9016086
      7230.5000         12.935       2924.246        20.3108         0.3462         0.3957         0.6136       -69.9236        -7.6407      0.8908471
      7231.0000        12.8982       2878.621        21.4311         0.3461         0.3991          0.638       -72.4221       -10.1412      0.8551257
      7231.5000         12.888       2726.016        23.1548         0.3524         0.4079         0.6532       -75.4786       -13.1998      0.8114314
      7232.0000        12.8795       2627.543        23.9027         0.3622         0.4168         0.6132        -75.251       -12.9742      0.8146543
      7232.5000        12.8787       2518.008        23.7693         0.3723           0.43          0.566       -69.3241        -7.0494      0.8992943
      7233.0000        12.8781       2370.594         23.182         0.3991         0.4489         0.5634       -65.4576         -3.185         0.9545
      7233.5000        12.8776       2178.344        22.4464         0.4302         0.4687         0.5897        -63.336        -1.0654        0.98478
      7234.0000        12.8719       2011.939         21.681         0.4669         0.4971         0.6222       -62.1431         0.1254              1
      7234.5000        12.8632       1870.789        21.2703          0.508         0.5286         0.6376       -61.1532         1.1133              1
      7235.0000        12.8546       1763.996        21.0203          0.541         0.5594         0.6454       -60.4753         1.7891              1
      7235.5000        12.8459       1671.885        20.9738         0.5692         0.5864         0.6495       -59.8018         2.4606              1
      7236.0000        12.8379       1609.533        20.9273         0.5885         0.6088         0.6529       -59.4445         2.8158              1
      7236.5000        12.8301       1568.322        21.0267         0.6001         0.6099         0.6553       -59.1643          3.094              1
      7237.0000        12.8223       1543.141        21.2369         0.6012         0.6081         0.6578        -58.785         3.4712              1
      7237.5000        12.8145       1529.779        21.5518         0.6008         0.6029         0.6635       -58.3414         3.9128              1
      7238.0000          12.81       1526.357        21.8657         0.5994         0.6079         0.6707       -57.9866         4.2655              1
      7238.5000        12.8094       1531.016        22.1278         0.6082         0.6167         0.6742       -57.8016         4.4485              1
      7239.0000        12.8089        1542.09        22.3899          0.616         0.6268          0.669       -57.6165         4.6315              1
      7239.5000        12.8083       1550.574        22.5145         0.6224         0.6373         0.6607         -57.52          4.726              1
      7240.0000        12.8138       1554.275        22.5754         0.6267          0.644         0.6527       -57.5255         4.7184              1
      7240.5000        12.8206       1553.211        22.6039         0.6292         0.6482         0.6483       -57.5309          4.711              1
      7241.0000        12.8275        1549.67        22.5423         0.6317         0.6525         0.6457       -57.5213         4.7185              1
      7241.5000        12.8401       1544.322         22.489         0.6295         0.6499         0.6465       -57.4973         4.7405              1
      7242.0000        12.8561       1540.676        22.5457         0.6272         0.6473         0.6473       -57.4732         4.7625              1
      7242.5000        12.9094       1545.453        22.5546         0.6249         0.6446         0.6481       -57.3475         4.8861              1
      7243.0000        12.9708       1550.777        22.4684         0.6243         0.6426         0.6489       -57.2052         5.0264              1
      7243.5000        13.0207       1559.844        22.3706         0.6242         0.6425          0.648       -57.0628         5.1667              1
      7244.0000        13.0426       1568.803        22.2838          0.624         0.6423         0.6425       -56.9507         5.2768              1
      7244.5000        13.0129       1570.568        22.3597         0.6232         0.6422         0.6375       -56.8528         5.3726              1
