#------------------------------------------------------------------------------
# Created by    : vladimir.rabinovich
# Created on    : 09/19/2023 17:21:31
#------------------------------------------------------------------------------
~Version Information Section
VERS.           2.0     :   CWLS log ASCII Standard - VERSION 2.0
WRAP.           NO      :   One line per depth step
~Well Information Section
#MNEM       .UNIT                                         VALUE :DESCRIPTION
#------------------------------------------------------------------------------
STRT        .FT                                              40 :START DEPTH
STOP        .FT                                           13401 :STOP DEPTH
STEP        .FT                                             0.5 :STEP      
NULL        .                                           -999.25 :NULL      
COMP        .                                        TEXACO USA :COMPANY   
WELL        .                               OCS G01759 ST00BP00 :WELL      
FLD         .                                           WILDCAT :FIELD     
LOC         .                                                   :LOCATION  
CNTY        .                             GALVESTON LARGE BLOCK :LOCATION  
STAT        .                                             TEXAS :STATE     
CTRY        .                                     UNITED STATES :COUNTRY   
SRVC        .                                                   :SERVICE COMPANY
DATE        .                             9/13/2023 11:19:24 AM :LOG DATE  
API         .                                    42706001440000 :API NUMBER
UWI         .                                    42706001440000 :UNIQUE WELL ID
XCOORD      .                                   1131482.4965331 :SURFACE X 
YCOORD      .                                  10562344.6824913 :SURFACE Y 
LAT         .                                         29.095227 :LATITUDE  
LON         .                                        -94.593967 :LONGITUDE 
ELEV        .FT                                              83 :ELEVATION VALUE
ELEV_TYPE   .                                                KB :ELEVATION REFERENCE TYPE
~Curve Information Section
#MNEM       .UNIT                                      API CODE :CURVE DESCRIPTION
#------------------------------------------------------------------------------
DEPT        .FT                                                 :DEPTH     
CALI        .IN                                                 :          
DT          .US/F                                               :          
GR          .GAPI                                               :          
GR_NORM     .GAPI                                               :GammaRay Normalized
RHOB        .G/C3                                               :          
SP          .MV                                                 :          
SP_NORM     .MV                                                 :SP Normalized
VSH_GR      .V/V                                                :Volume of Shale from GR
VSH_SP      .V/V                                                :Volume of Shale from SP
~A        DEPTH           CALI             DT             GR        GR_NORM           RHOB             SP        SP_NORM         VSH_GR         VSH_SP
# ...
      2292.5000        13.5881       175.0845        77.1302       89.24456         2.7648        -999.25        -999.25              1        -999.25
      2293.0000          13.86       175.2549        76.4578       88.09468          2.762        -999.25        -999.25              1        -999.25
      2293.5000        13.7904       170.5325        76.7622         88.599         2.7631        -999.25        -999.25              1        -999.25
      2294.0000        13.7497       168.0266         77.104       89.16666         2.7588        -999.25        -999.25              1        -999.25
      2294.5000        13.0378       167.2654        76.4025       87.96747         2.7626        -999.25        -999.25              1        -999.25
      2295.0000        12.2488       166.7327        74.3202       84.42993         2.7687        -999.25        -999.25              1        -999.25
      2295.5000        12.1859       165.8208        72.1785       80.79176         2.7744        -999.25        -999.25              1        -999.25
      2296.0000        12.2813       163.6938         70.621       78.14294         2.7848        -999.25        -999.25      0.9604882        -999.25
      2296.5000        12.2686       159.0298        69.1405       75.62453         2.8171        -999.25        -999.25       0.906905        -999.25
      2297.0000        12.2232       159.1699        67.7755       73.30171         2.8426        -999.25        -999.25      0.8574832        -999.25
      2297.5000        12.2178       160.6055        66.7288       71.51794         2.8514        -999.25        -999.25      0.8195307        -999.25
      2298.0000        12.2452       157.4553        66.0143       70.29676         2.8369        -999.25        -999.25      0.7935481        -999.25
      2298.5000        12.3005       151.9849         65.038       68.63221         2.8147        -999.25        -999.25      0.7581321        -999.25
      2299.0000        12.1608       149.6116        63.6526       66.27484         2.8229        -999.25        -999.25      0.7079753        -999.25
      2299.5000        11.9678       148.3152        62.0666       63.57778         2.8348        -999.25        -999.25       0.650591        -999.25
      2300.0000        11.8358       147.1028         62.282       63.93139         2.8305        -999.25        -999.25      0.6581146        -999.25
      2300.5000        11.8712       145.9314         63.364       65.75256         2.8499        -999.25        -999.25      0.6968631        -999.25
      2301.0000         11.978        142.822        65.3638       69.12808         2.8304        -999.25        -999.25      0.7686826        -999.25
      2301.5000        12.0931       135.0603        67.7932       73.23111         2.8128        -999.25        -999.25      0.8559811        -999.25
      2302.0000        11.9481       133.8162        66.0018       70.18619         2.7927        -999.25        -999.25      0.7911955        -999.25
      2302.5000        11.8262       140.6125        65.4209       69.19125         2.7803        -999.25        -999.25      0.7700267        -999.25
      2303.0000        11.8655       142.6978        67.6614       72.97437         2.7847        -999.25        -999.25      0.8505186        -999.25
      2303.5000         11.913       143.7742         69.397       75.90246         2.8006        -999.25        -999.25      0.9128183        -999.25
      2304.0000        11.8816       144.9302        66.9119       71.68275         2.8075        -999.25        -999.25      0.8230371        -999.25
      2304.5000        11.7729       146.2388        63.4478       65.80508         2.8276        -999.25        -999.25      0.6979803        -999.25
      2305.0000         11.878       146.3682        61.3216       62.19317         2.8635        -999.25        -999.25      0.6211313        -999.25
      2305.5000        11.9809       145.8403        61.4415       62.38503         2.8693        -999.25        -999.25      0.6252134        -999.25
      2306.0000        11.8506       142.8279        62.7105       64.52293         2.8686        -999.25        -999.25      0.6707007        -999.25
      2306.5000        11.6918       140.7668        62.8547       64.75596         2.8646        -999.25        -999.25      0.6756587        -999.25
      2307.0000        11.6512       142.5537        61.6388       62.68565         2.8733        -999.25        -999.25      0.6316096        -999.25
      2307.5000        11.8627        142.314        59.4036       58.88912         2.8794        -999.25        -999.25      0.5508324        -999.25
      2308.0000        12.1127       140.7317        59.9737       59.84343         2.8843        -999.25        -999.25      0.5711369        -999.25
      2308.5000         12.142       144.1863        59.7935       59.52708         2.9059        -999.25        -999.25       0.564406        -999.25
      2309.0000        11.9975       145.9055        60.4515       60.63023         2.9148        -999.25        -999.25      0.5878772        -999.25
      2309.5000        11.7232       143.4187        63.4524       65.70111          2.916        -999.25        -999.25      0.6957683        -999.25
      2310.0000        11.5561       137.9497        66.2421       70.41432         2.8935        -999.25        -999.25      0.7960494        -999.25
      2310.5000        11.5941        133.915        68.2994       73.88718         2.8556        -999.25        -999.25      0.8699401        -999.25
      2311.0000        11.6811       131.7888          67.21       72.03111          2.843        -999.25        -999.25       0.830449        -999.25
      2311.5000        11.7027        133.782        66.5133       70.84006         2.8443        -999.25        -999.25      0.8051076        -999.25
      2312.0000        11.7497       138.5569        66.9254       71.52678         2.8567        -999.25        -999.25      0.8197187        -999.25
      2312.5000        11.8241       141.9976        68.0306       73.38728         2.8696        -999.25        -999.25      0.8593037        -999.25
      2313.0000        11.9102       144.2961        69.6407       76.10282         2.8591        -999.25        -999.25      0.9170813        -999.25
      2313.5000        11.9742       144.4766        71.8051       79.75707         2.8382        -999.25        -999.25      0.9948313        -999.25
      2314.0000        11.9734       147.6682        73.8308       83.17644         2.8231        -999.25        -999.25              1        -999.25
      2314.5000        11.9664       149.7432        75.9788       86.80291         2.8221        -999.25        -999.25              1        -999.25
      2315.0000        11.9903        152.322        77.6383       89.60212         2.8269        -999.25        -999.25              1        -999.25
      2315.5000        12.0343       157.1621        78.7308       91.44109         2.8244        -999.25        -999.25              1        -999.25
      2316.0000        12.1125       159.4214        78.6975       91.37354         2.8324        -999.25        -999.25              1        -999.25
      2316.5000        12.0131       157.1833        78.2831       90.66055         2.8199        -999.25        -999.25              1        -999.25
      2317.0000        11.9594       159.5381        77.7749       89.78876         2.8054        -999.25        -999.25              1        -999.25
      2317.5000        12.0329       165.7021        77.2281       88.85156         2.8018        -999.25        -999.25              1        -999.25
      2318.0000          12.12        170.575        76.8066       88.12659         2.8053        -999.25        -999.25              1        -999.25
      2318.5000         12.147       175.7976        76.6212       87.80142         2.8089        -999.25        -999.25              1        -999.25
