#------------------------------------------------------------------------------
# Created by    : vladimir.rabinovich
# Created on    : 09/19/2023 17:22:25
#------------------------------------------------------------------------------
~Version Information Section
VERS.           2.0     :   CWLS log ASCII Standard - VERSION 2.0
WRAP.           NO      :   One line per depth step
~Well Information Section
#MNEM       .UNIT                                         VALUE :DESCRIPTION
#------------------------------------------------------------------------------
STRT        .FT                                            3984 :START DEPTH
STOP        .FT                                           14348 :STOP DEPTH
STEP        .FT                                             0.5 :STEP      
NULL        .                                           -999.25 :NULL      
COMP        .                                  CNG PRODUCING CO :COMPANY   
WELL        .                               OCS G07292 ST00BP00 :WELL      
FLD         .                                           WILDCAT :FIELD     
LOC         .                                                   :LOCATION  
CNTY        .                           HIGH ISLAND LARGE BLOCK :LOCATION  
STAT        .                                             TEXAS :STATE     
CTRY        .                                     UNITED STATES :COUNTRY   
SRVC        .                                                   :SERVICE COMPANY
DATE        .                             9/13/2023 11:19:59 AM :LOG DATE  
API         .                                    42708402890000 :API NUMBER
UWI         .                                    42708402890000 :UNIQUE WELL ID
XCOORD      .                                  1158246.84135722 :SURFACE X 
YCOORD      .                                  10525039.0147689 :SURFACE Y 
LAT         .                                         28.993597 :LATITUDE  
LON         .                                        -94.508673 :LONGITUDE 
ELEV        .FT                                             101 :ELEVATION VALUE
ELEV_TYPE   .                                                KB :ELEVATION REFERENCE TYPE
~Curve Information Section
#MNEM       .UNIT                                      API CODE :CURVE DESCRIPTION
#------------------------------------------------------------------------------
DEPT        .FT                                                 :DEPTH     
CALX        .IN                                                 :          
DTL         .US/F                                               :          
GR          .GAPI                                               :          
GR_NORM     .GAPI                                               :GammaRay Normalized
ILD         .OHMM                                               :          
ILM         .OHMM                                               :          
LL3         .OHMM                                               :          
SP          .MV                                                 :          
SP_NORM     .MV                                                 :SP Normalized
VSH_GR      .V/V                                                :Volume of Shale from GR
VSH_SP      .V/V                                                :Volume of Shale from SP
~A        DEPTH           CALX            DTL             GR        GR_NORM            ILD            ILM            LL3             SP        SP_NORM         VSH_GR         VSH_SP
# ...
      8776.5000        17.0942        96.3013        40.3593       71.56086         1.5696         1.6372          1.556       -41.2102      -1.955097      0.8204438        0.97207
      8777.0000        17.1027        98.8027        41.8081       74.32184         1.5638         1.6009         1.5638       -39.3935     -0.1370735      0.8791881      0.9980418
      8777.5000        17.1099       100.7344        43.0704       76.72758         1.5586         1.5946         1.5558       -40.4442      -1.186443      0.9303741      0.9830508
      8778.0000        17.1144       101.4541        43.9731       78.44837         1.5542         1.6166         1.5533       -38.6275      0.6315842      0.9669867              1
      8778.5000        17.1194       100.5516        42.9697       76.53849         1.5628         1.6601         1.5632       -41.1321      -1.871689      0.9263508      0.9732616
      8779.0000        17.1188         98.097        41.3041       73.36728         1.5763         1.6869         1.6344       -40.5677      -1.305965      0.8588783      0.9813433
      8779.5000        17.1077        94.5511        39.5718       70.06901         1.5748         1.7068         1.7071       -38.4058      0.8572617      0.7887023              1
      8780.0000         17.102        93.7076        38.6912       68.39304         1.5681          1.706         1.7287       -41.6108      -2.346413      0.7530433      0.9664798
      8780.5000        17.0976        94.2821        38.4381       67.91231         1.5606         1.6734         1.7025       -38.7459      0.5198174      0.7428151              1
      8781.0000        17.0988        95.5132        39.0074       68.99803         1.5566         1.6221         1.6533       -41.0036      -1.736561      0.7659156       0.975192
      8781.5000        17.0995        98.8738        40.8077       72.42853         1.5356         1.5667         1.5374       -40.2074     -0.9390335      0.8389049      0.9865853
      8782.0000        17.0982       101.3893        43.7104       77.95883         1.5066         1.5344         1.4442       -39.8483     -0.5786057      0.9565709      0.9917342
      8782.5000        17.0948       102.8107        45.6998       81.74953         1.4764         1.5081         1.4463       -39.8798     -0.6087761              1      0.9913032
      8783.0000        17.0932       103.9009        46.4135       83.11032         1.4382         1.4815         1.4667       -39.1865     0.08584595              1              1
      8783.5000        17.0916       104.5544        46.0815       82.47931         1.3877         1.4652         1.4623       -38.8228      0.4508743              1              1
      8784.0000        17.0901        104.848         43.262       77.11018         1.3677          1.464         1.4526       -39.7791      -0.504097      0.9385145      0.9927986
      8784.5000        17.0885       104.7953        41.8673       74.45497         1.3627         1.4793         1.4499       -38.7938      0.4825287      0.8820207              1
      8785.0000        17.0869       104.5427        41.4708       73.70108         1.3732         1.5133         1.4517       -39.6656     -0.3879471      0.8659804      0.9944579
      8785.5000        17.0853        103.736        42.7051       76.05349         1.3817         1.5505         1.4767       -40.3233      -1.044319      0.9160317      0.9850811
      8786.0000        17.0837       102.7384        44.2509       78.99924         1.3946         1.5735         1.4853       -39.6448     -0.3644905      0.9787072       0.994793
      8786.5000        17.0821        101.501        44.2289       78.95869         1.4017         1.5806         1.4433       -39.1914     0.09023285      0.9778445              1
      8787.0000        17.0805        100.233         43.638       77.83453          1.409         1.5702         1.4584       -40.1318     -0.8488426      0.9539263      0.9878737
      8787.5000        17.0909        99.7241        43.2701       77.13512         1.4123         1.5564         1.5221       -39.8634      -0.579113      0.9390452      0.9917269
      8788.0000        17.0992       100.5009        43.9171       78.36885         1.4159         1.5473         1.5265       -40.4556      -1.169987      0.9652947      0.9832859
      8788.5000        17.1013       102.2904        45.5977       81.57137         1.4214         1.5468         1.4917       -39.6669     -0.3799629              1       0.994572
      8789.0000        17.1078       102.9769        46.4305       83.15901         1.4286         1.5396         1.4346       -40.2332     -0.9449348              1      0.9865009
      8789.5000         17.112       103.5519        45.6078        81.5933          1.434         1.5394         1.4056       -40.3762      -1.086609              1       0.984477
      8790.0000        17.1155       101.3918        43.5794       77.73106         1.4351         1.5506         1.4794       -37.8313       1.459621      0.9517246              1
      8790.5000        17.1198        99.0769        42.3322        75.3568         1.4382          1.561         1.5506       -39.4641     -0.1718559      0.9012085      0.9975449
      8791.0000         17.116          96.96         43.907       78.35778         1.4604         1.5694         1.5627       -41.3123       -2.01873      0.9650592       0.971161
      8791.5000        17.1115        97.8103         45.468       81.33246         1.4757         1.5868         1.5853       -40.7516      -1.456699              1        0.97919
      8792.0000        17.1101        99.5148        44.4664       79.42601         1.4921         1.6105          1.576       -39.8093      -0.513073      0.9877874      0.9926704
      8792.5000         17.104        99.9012        41.6796       74.11917         1.5067         1.6367          1.566       -38.1891       1.108452       0.874876              1
      8793.0000        17.0913       100.3842        40.6011       72.06624         1.5206         1.6589         1.5726       -38.5368      0.7620773      0.8311965              1
      8793.5000        17.0801       100.1519        40.2997       71.49352         1.5358         1.6849         1.5878       -41.1321      -1.831894       0.819011      0.9738301
      8794.0000        17.0753        99.1949        40.6622       72.18534         1.5515         1.7374         1.6167       -45.9952      -6.693668      0.8337306      0.9043761
      8794.5000        17.0771        98.2405        41.2664       73.33756         1.6196         1.8229         1.6618       -41.6865      -2.383644       0.858246      0.9659479
      8795.0000         17.087        96.6959        41.6374       74.04559         1.6991         1.9208         1.7145       -42.2471      -2.942917      0.8733103      0.9579583
      8795.5000        17.1053        92.4672        41.3186        73.4397         1.7702         1.9659         1.7814       -40.2653     -0.9597893      0.8604193      0.9862887
      8796.0000        17.1211        90.0837        40.1174       71.15307         1.8315         1.9804         1.8464         -40.23     -0.9231606      0.8117674       0.986812
      8796.5000         17.109        88.8501         39.115        69.2451         1.8625         1.9705         1.9003       -42.7183      -3.410137      0.7711724      0.9512838
      8797.0000        17.0813        89.4415        39.8604       70.66628         1.8709         1.9465         1.9007       -42.8329      -3.523411      0.8014101      0.9496655
      8797.5000         17.065        92.6094        42.4355       75.57257         1.8622         1.9152          1.774       -41.3287      -2.017883      0.9057994      0.9711731
      8798.0000        17.0562        94.6273        44.1873        78.9107          1.826         1.8807          1.715       -41.4149       -2.10276      0.9768234      0.9699606
      8798.5000         17.051        95.1978        44.1388       78.81966         1.7986         1.8431         1.6651       -39.9176     -0.6041298      0.9748865      0.9913695
