#------------------------------------------------------------------------------
# Created by    : vladimir.rabinovich
# Created on    : 09/19/2023 17:22:50
#------------------------------------------------------------------------------
~Version Information Section
VERS.           2.0     :   CWLS log ASCII Standard - VERSION 2.0
WRAP.           NO      :   One line per depth step
~Well Information Section
#MNEM       .UNIT                                         VALUE :DESCRIPTION
#------------------------------------------------------------------------------
STRT        .FT                                            2472 :START DEPTH
STOP        .FT                                            8382 :STOP DEPTH
STEP        .FT                                             0.5 :STEP      
NULL        .                                           -999.25 :NULL      
COMP        .                                 EPL OIL & GAS LLC :COMPANY   
WELL        .                               OCS G07215 ST00BP00 :WELL      
FLD         .                                 BRAZOS BLOCK 0376 :FIELD     
LOC         .                                                   :LOCATION  
CNTY        .                                BRAZOS LARGE BLOCK :LOCATION  
STAT        .                                             TEXAS :STATE     
CTRY        .                                     UNITED STATES :COUNTRY   
SRVC        .                                                   :SERVICE COMPANY
DATE        .                             9/13/2023 11:19:08 AM :LOG DATE  
API         .                                    42704402290000 :API NUMBER
UWI         .                                    42704402290000 :UNIQUE WELL ID
XCOORD      .                                  871225.230552878 :SURFACE X 
YCOORD      .                                  10399792.7272756 :SURFACE Y 
LAT         .                                         28.636239 :LATITUDE  
LON         .                                        -95.398308 :LONGITUDE 
ELEV        .FT                                              95 :ELEVATION VALUE
ELEV_TYPE   .                                                KB :ELEVATION REFERENCE TYPE
~Curve Information Section
#MNEM       .UNIT                                      API CODE :CURVE DESCRIPTION
#------------------------------------------------------------------------------
DEPT        .FT                                                 :DEPTH     
DT          .US/F                                               :          
GR          .GAPI                                               :          
GR_NORM     .GAPI                                               :GammaRay Normalized
ILD         .OHMM                                               :          
ILM         .OHMM                                               :          
SFL         .OHMM                                               :          
SP          .MV                                                 :          
SP_NORM     .MV                                                 :SP Normalized
VSH_GR      .V/V                                                :Volume of Shale from GR
VSH_SP      .V/V                                                :Volume of Shale from SP
~A        DEPTH             DT             GR        GR_NORM            ILD            ILM            SFL             SP        SP_NORM         VSH_GR         VSH_SP
# ...
      5240.5000        119.798        63.5847       71.36811         0.7286         0.7456         0.7422         -46.21      -3.802101      0.8163428      0.9461135
      5241.0000       117.9374        62.8037       70.11022         0.7094          0.755         0.7543       -49.1389      -6.727581      0.7895792      0.8898542
      5241.5000        116.921        63.2844       70.88444         0.6865         0.7652         0.7653       -51.8632       -9.44846      0.8060519      0.8375296
      5242.0000       115.9669        64.9613       73.58526          0.655         0.7546         0.7741       -55.3986      -12.98044      0.8635162      0.7696069
      5242.5000       114.9811        67.6447       77.90717          0.604         0.7278         0.8196       -60.6355      -18.21392      0.9554718      0.6689631
      5243.0000       113.0193        69.1157       80.27638         0.5538         0.6828         0.9237       -66.4452      -24.02019              1       0.557304
      5243.5000       110.5767        67.1008       77.03117         0.5077         0.6152         1.0675       -74.5797      -32.15127      0.9368333      0.4009371
      5244.0000       108.0364        61.7797       68.46095         0.4778         0.5442          1.166       -81.5975      -39.16565      0.7544883      0.2660451
      5244.5000       106.0551        51.6043       52.07235         0.4548          0.494         0.9647       -87.9703      -45.53503      0.4057946      0.1435572
      5245.0000       104.4896        47.2747       45.09904         0.4374          0.458         0.7858       -92.3073       -49.8686      0.2574265     0.06021918
      5245.5000       103.8976        45.4108       42.09703         0.4254         0.4322         0.6864       -94.2698      -51.82768      0.1935539     0.02254464
      5246.0000       104.0718        45.1274       41.64058         0.4195         0.4184         0.6232       -95.4875      -53.04196      0.1838422              0
      5246.5000        102.917        45.0744       41.55523         0.4411         0.4589         0.7045       -95.8414      -53.39244      0.1820261              0
      5247.0000        94.4325        44.3193       40.33905         0.4831         0.5485         1.4007        -95.249      -52.79662      0.1561501    0.003911239
      5247.5000        86.4873        42.9271       38.09676         0.5154          0.639         3.0843       -95.1995      -52.74369      0.1084418    0.004928956
      5248.0000        83.2053        43.2598       38.63261         0.5245         0.7084         3.9964        -95.946      -53.48677      0.1198428              0
      5248.5000        83.0358        42.8477       37.96888         0.5312         0.7286         3.0391       -96.7614      -54.29875      0.1057208              0
      5249.0000        84.4706        40.7093       34.52475           0.54         0.6931         1.7209       -97.4321      -54.96603     0.03244156              0
      5249.5000        87.6879        38.7888       31.43157         0.5527         0.6154         0.9925       -97.5765      -55.10701              0              0
      5250.0000        97.6877        38.9211       31.64466         0.5495         0.5553          0.685       -96.3937      -53.92078              0              0
      5250.5000        99.3124        41.9584       36.53657         0.5272         0.5066         0.6557       -92.3361      -49.85976      0.0752462     0.06038922
      5251.0000        99.3348        46.1364       43.26569         0.5078         0.4772         0.7202       -88.4229      -45.94313      0.2184189       0.135709
      5251.5000         99.688        48.9437       47.78716         0.4984         0.4726         0.7922       -86.6841      -44.20091      0.3146203      0.1692132
      5252.0000       100.3975        48.6706       47.34731         0.5016         0.4923         0.7917       -85.9111       -43.4245       0.305262      0.1841443
      5252.5000        97.7902        46.2471       43.44399         0.5547          0.538         0.7612       -85.6685      -43.17847      0.2222126      0.1888755
      5253.0000        91.9484        44.6948       40.94384         0.6314         0.6014         0.8813       -85.4735      -42.98005       0.169018      0.1926913
      5253.5000        87.3683        44.1286       40.03191         0.7141         0.6799         1.2212       -84.4916      -41.99473      0.1496151      0.2116399
      5254.0000         84.767        44.1846        40.1221         0.7985         0.7815         1.6537       -82.7142      -40.21391      0.1515341      0.2458864
      5254.5000        83.3807        44.5034       40.63557         0.8852         0.9375         1.9313       -81.2637      -38.75999      0.1624589      0.2738464
      5255.0000        84.8134        44.8521       41.19719         0.9728         1.1202         2.1971       -80.4586      -37.95147      0.1744083      0.2893949
      5255.5000        86.0256        44.7631       41.05384         1.0465         1.3248         2.5875       -80.1621      -37.65154      0.1713582      0.2951626
      5256.0000          85.87        44.3632       40.40976         1.0882         1.4444         3.2552       -80.3099      -37.79592      0.1576544      0.2923862
      5256.5000        82.9808        43.4156       38.88354         1.0531         1.4286         3.8198       -81.7972       -39.2798      0.1251818      0.2638501
      5257.0000        80.7371        42.0883       36.74578         0.9689         1.2136         4.0063       -83.7997      -41.27887     0.07969747      0.2254063
      5257.5000        81.1799        41.2208       35.34858         0.8856         1.0155          3.112       -86.3074      -43.78315     0.04996969       0.177247
      5258.0000        84.4034        43.0907       38.36025          0.833         0.8495         1.7379       -89.1112      -46.58353      0.1140479      0.1233937
      5258.5000        88.7469        42.9644       38.15684         0.8065          0.711         1.0996       -91.1074      -48.57631      0.1097199     0.08507105
      5259.0000        94.9108        40.4855        34.1643          0.786          0.632         0.8553       -90.6154      -48.08089     0.02477224     0.09459833
      5259.5000        97.9868        39.8188        33.0905         0.7692         0.5985         0.8009       -86.1991      -43.66116     0.00192561      0.1795931
      5260.0000        96.4359        46.2567       43.45945         0.7601         0.6492         0.9482       -77.7854      -35.24404      0.2225416      0.3414607
      5260.5000        93.0099        52.1145       52.89408         0.7603         0.7801         1.2328       -73.9106      -31.36582      0.4232782       0.416042
      5261.0000        88.9373        55.4622       58.28592         0.7966         0.9025         1.5074       -71.7928       -29.2446      0.5379984      0.4568346
      5261.5000         86.031        56.6103       60.13505         0.8535         1.0018         1.7645       -73.4702      -30.91858      0.5773414      0.4246428
      5262.0000        84.2437        56.2949       59.62708         0.9099         1.0439          1.937       -76.7745      -34.21945      0.5665335      0.3611645
      5262.5000        84.7743        54.2107       56.27024         0.9509         1.0536         1.9768       -81.0801      -38.52163      0.4951116      0.2784302
      5263.0000        86.6521        51.8618       52.48708         0.9699         1.0236         1.8845       -83.3893       -40.8274      0.4146187      0.2340884
      5263.5000        87.6989        49.3132       48.38229         0.9657         0.9794         1.8358       -83.6559      -41.09058      0.3272828      0.2290272
      5264.0000        88.6273        46.6153       44.03701         0.9441         0.9519         1.8277        -83.127      -40.55826      0.2348301      0.2392642
      5264.5000        90.0646        44.9102       41.29076         0.9041         0.9374          1.855       -82.9634      -40.39124      0.1763992      0.2424761
