#------------------------------------------------------------------------------
# Created by    : vladimir.rabinovich
# Created on    : 09/19/2023 17:20:24
#------------------------------------------------------------------------------
~Version Information Section
VERS.           2.0     :   CWLS log ASCII Standard - VERSION 2.0
WRAP.           NO      :   One line per depth step
~Well Information Section
#MNEM       .UNIT                                         VALUE :DESCRIPTION
#------------------------------------------------------------------------------
STRT        .FT                                            2979 :START DEPTH
STOP        .FT                                           11003 :STOP DEPTH
STEP        .FT                                             0.5 :STEP      
NULL        .                                           -999.25 :NULL      
COMP        .                                        TEXACO USA :COMPANY   
WELL        .                               OCS G01821 ST00BP00 :WELL      
FLD         .                                           WILDCAT :FIELD     
LOC         .                                                   :LOCATION  
CNTY        .                           HIGH ISLAND LARGE BLOCK :LOCATION  
STAT        .                                             TEXAS :STATE     
CTRY        .                                     UNITED STATES :COUNTRY   
SRVC        .                                                   :SERVICE COMPANY
DATE        .                             9/13/2023 11:19:15 AM :LOG DATE  
API         .                                    42708300170000 :API NUMBER
UWI         .                                    42708300170000 :UNIQUE WELL ID
XCOORD      .                                  1345073.13508324 :SURFACE X 
YCOORD      .                                  10640242.4404634 :SURFACE Y 
LAT         .                                         29.315788 :LATITUDE  
LON         .                                        -93.927032 :LONGITUDE 
ELEV        .FT                                              74 :ELEVATION VALUE
ELEV_TYPE   .                                                KB :ELEVATION REFERENCE TYPE
~Curve Information Section
#MNEM       .UNIT                                      API CODE :CURVE DESCRIPTION
#------------------------------------------------------------------------------
DEPT        .FT                                                 :DEPTH     
ASN         .OHMM                                               :          
CILD        .MMHO                                               :          
ILD         .OHMM                                               :          
SP          .MV                                                 :          
SP_NORM     .MV                                                 :SP Normalized
VSH_SP      .V/V                                                :Volume of Shale from SP
~A        DEPTH            ASN           CILD            ILD             SP        SP_NORM         VSH_SP
# ...
      9363.0000         0.6635       1720.326         0.4749       -34.5494      -1.822128      0.9867399
      9363.5000         0.6636       1711.381         0.4765       -34.5037      -1.776428      0.9874769
      9364.0000         0.6637       1706.279          0.478       -34.2588      -1.531528      0.9914269
      9364.5000         0.6638       1702.941         0.4796       -33.9382       -1.21093      0.9965979
      9365.0000          0.664       1699.605         0.4788        -33.617     -0.8897285              1
      9365.5000         0.6641       1696.273         0.4766       -33.5374     -0.8101273              1
      9366.0000         0.6639       1692.938         0.4743       -33.5381     -0.8108292              1
      9366.5000          0.663       1695.619          0.472       -33.5388     -0.8115273              1
      9367.0000         0.6622       1700.951         0.4698       -33.5917     -0.8644295              1
      9367.5000         0.6613       1706.291         0.4688       -33.6459     -0.9186287              1
      9368.0000         0.6604       1711.631         0.4716       -33.7001     -0.9728279              1
      9368.5000         0.6596       1716.965         0.4745       -33.7511      -1.023827      0.9996157
      9369.0000         0.6613       1722.303         0.4812       -33.8021      -1.074829      0.9987931
      9369.5000         0.6641       1727.031         0.4922       -33.8397      -1.112427      0.9981866
      9370.0000         0.6668       1730.781         0.5032       -33.8691      -1.141827      0.9977125
      9370.5000         0.6695       1734.535         0.5143       -33.8984      -1.171127      0.9972399
      9371.0000         0.6758       1738.285         0.5253       -33.9917      -1.264427       0.995735
      9371.5000         0.6884       1742.039         0.5363       -34.0972      -1.369926      0.9940335
      9372.0000          0.701       1733.824         0.5488       -34.2028      -1.475529      0.9923302
      9372.5000         0.7136       1689.363          0.562       -34.3083      -1.581028      0.9906286
      9373.0000         0.7262       1633.822         0.5751       -34.4667      -1.739429      0.9880737
      9373.5000         0.7418       1574.639         0.5882       -34.7593      -2.032028      0.9833544
      9374.0000         0.7598       1517.551         0.6013       -35.0581       -2.33083       0.978535
      9374.5000         0.7778       1473.889         0.6145       -35.4235      -2.696228      0.9726415
      9375.0000         0.7949       1430.174          0.628       -35.7889      -3.061626      0.9667479
      9375.5000         0.8074       1409.439         0.6425       -36.1544      -3.427128      0.9608528
      9376.0000           0.82        1394.27         0.6569       -36.5198      -3.792526      0.9549593
      9376.5000         0.8243         1379.1         0.6713       -36.2558      -3.528526      0.9592173
      9377.0000         0.8131       1383.117         0.6817       -35.6333      -2.906029      0.9692576
      9377.5000         0.8019       1393.135         0.6908       -35.0033      -2.276028      0.9794189
      9378.0000         0.7913       1402.242         0.7006       -34.3734       -1.64613      0.9895785
      9378.5000         0.8408       1411.336         0.7111       -34.8719      -2.144627      0.9815383
      9379.0000          0.891       1303.773         0.7216       -35.4105      -2.683228      0.9728512
      9379.5000         0.9362       1172.732         0.7321       -35.9489      -3.221626      0.9641673
      9380.0000         0.9811       1170.088         0.7406       -36.5085      -3.781227      0.9551415
      9380.5000         0.9106       1203.871         0.7465       -37.1535      -4.426228      0.9447383
      9381.0000           0.84       1249.682         0.7524       -37.7972      -5.069927       0.934356
      9381.5000         0.8173       1304.473         0.7577       -38.4421      -5.714828      0.9239544
      9382.0000         0.7996       1359.264         0.7442       -38.5853      -5.858028      0.9216447
      9382.5000         0.7849       1413.756         0.7186       -38.0225      -5.295227      0.9307221
      9383.0000         0.7703       1467.051         0.6907       -37.4623      -4.735027      0.9397576
      9383.5000          0.758       1520.445         0.6681       -36.9008      -4.173527      0.9488141
      9384.0000         0.7618        1573.84         0.6599       -36.3392      -3.611927      0.9578722
      9384.5000          0.779       1564.459         0.6516       -35.7777      -3.050426      0.9669286
      9385.0000         0.7939       1527.283         0.6434       -35.5334      -2.806129      0.9708689
      9385.5000         0.8079       1491.354         0.6351       -35.4403      -2.713028      0.9723705
      9386.0000         0.8218       1459.168         0.6464       -35.3473      -2.620029      0.9738705
      9386.5000         0.8173       1441.328         0.6597       -35.1611      -2.433826      0.9768738
      9387.0000         0.8106       1423.512         0.6731       -34.9358      -2.208527      0.9805076
      9387.5000          0.804       1405.697         0.6852       -34.7101      -1.982826       0.984148
      9388.0000         0.7973       1392.049         0.6948       -34.4847      -1.757427      0.9877834
      9388.5000         0.7906        1401.48         0.7044       -34.2594      -1.532127      0.9914173
      9389.0000         0.7872       1412.734          0.714       -34.5912       -1.86393      0.9860656
      9389.5000         0.7908       1423.986         0.7235       -34.9554      -2.228127      0.9801915
      9390.0000         0.8045       1435.264         0.7359       -35.3202       -2.59293      0.9743076
      9390.5000         0.8182       1446.518          0.753       -35.7279      -3.000629      0.9677318
      9391.0000         0.8319        1457.77         0.7701         -36.15      -3.422729      0.9609237
      9391.5000         0.8546       1422.539         0.7873       -35.8431      -3.115829      0.9658737
      9392.0000           0.88       1364.555         0.8035       -35.3314       -2.60413      0.9741269
      9392.5000         0.9054       1319.344         0.8157       -35.3351      -2.607826      0.9740673
      9393.0000         0.9285       1279.072         0.8279       -35.6769      -2.949627      0.9685544
      9393.5000         0.9515       1238.803         0.8401       -36.0186      -3.291328      0.9630431
      9394.0000         0.9745       1195.588         0.8426       -36.3604      -3.633129      0.9575302
      9394.5000         0.9962       1150.078         0.8385       -36.6452      -3.917927      0.9529366
      9395.0000         1.0173       1104.566         0.8345       -36.8967       -4.16943      0.9488801
      9395.5000         1.0046       1061.303         0.8303       -37.1482      -4.420929      0.9448237
      9396.0000         0.9887       1065.645          0.826       -37.2768      -4.549526      0.9427496
      9396.5000         0.9728       1089.297         0.8217       -37.2592      -4.531929      0.9430334
      9397.0000         0.9595       1112.951         0.8174       -37.2417      -4.514427      0.9433157
      9397.5000         0.9464       1136.555         0.8131       -37.2241      -4.496826      0.9435996
      9398.0000         0.9332       1160.207         0.8088       -37.2065      -4.479229      0.9438834
      9398.5000         0.9206       1183.811         0.8042        -37.189      -4.461727      0.9441657
      9399.0000         0.9342       1206.266         0.7962       -37.1714      -4.444126      0.9444496
      9399.5000         0.9478       1223.383         0.7882       -37.3726      -4.645329      0.9412044
      9400.0000         0.9475       1240.523         0.7802       -37.5945      -4.867229      0.9376253
      9400.5000         0.9385       1257.641         0.7722       -37.8168      -5.089527      0.9340399
