#------------------------------------------------------------------------------
# Created by    : vladimir.rabinovich
# Created on    : 09/19/2023 17:20:57
#------------------------------------------------------------------------------
~Version Information Section
VERS.           2.0     :   CWLS log ASCII Standard - VERSION 2.0
WRAP.           NO      :   One line per depth step
~Well Information Section
#MNEM       .UNIT                                         VALUE :DESCRIPTION
#------------------------------------------------------------------------------
STRT        .FT                                             601 :START DEPTH
STOP        .FT                                            9006 :STOP DEPTH
STEP        .FT                                             0.5 :STEP      
NULL        .                                           -999.25 :NULL      
COMP        .                                        SUN OIL CO :COMPANY   
WELL        .                               OCS G01715 ST00BP00 :WELL      
FLD         .                                           WILDCAT :FIELD     
LOC         .                                                   :LOCATION  
CNTY        .                                BRAZOS LARGE BLOCK :LOCATION  
STAT        .                                             TEXAS :STATE     
CTRY        .                                     UNITED STATES :COUNTRY   
SRVC        .                                                   :SERVICE COMPANY
DATE        .                             9/13/2023 11:18:52 AM :LOG DATE  
API         .                                    42704000710000 :API NUMBER
UWI         .                                    42704000710000 :UNIQUE WELL ID
XCOORD      .                                  842225.693118258 :SURFACE X 
YCOORD      .                                  10368215.6352389 :SURFACE Y 
LAT         .                                          28.54781 :LATITUDE  
LON         .                                        -95.486614 :LONGITUDE 
ELEV        .FT                                              79 :ELEVATION VALUE
ELEV_TYPE   .                                                KB :ELEVATION REFERENCE TYPE
~Curve Information Section
#MNEM       .UNIT                                      API CODE :CURVE DESCRIPTION
#------------------------------------------------------------------------------
DEPT        .FT                                                 :DEPTH     
ASN         .OHMM                                               :          
CALI        .IN                                                 :          
CILD        .MMHO                                               :          
DT          .US/F                                               :          
ILD         .OHMM                                               :          
SP          .MV                                                 :          
SP_NORM     .MV                                                 :SP Normalized
VSH_SP      .V/V                                                :Volume of Shale from SP
~A        DEPTH            ASN           CALI           CILD             DT            ILD             SP        SP_NORM         VSH_SP
# ...
      3403.5000         0.9584        15.7042       2018.248       153.4976         0.4462       -87.3876      -35.75546     0.06066328
      3404.0000         0.9455        15.7013       2044.164        151.354         0.4426       -87.6736       -36.0294     0.05325946
      3404.5000         0.9339        15.6984       2070.066       149.0869         0.4405       -87.9025      -36.24624     0.04739885
      3405.0000         0.9241        15.6964        2095.98       149.5552         0.4395       -88.0212      -36.35289     0.04451638
      3405.5000         0.9111        15.6954       2131.059       151.1885         0.4425       -88.0487      -36.36834     0.04409903
      3406.0000         0.8948        15.6945       2187.227       153.6265         0.4461       -88.0111      -36.31868     0.04544098
      3406.5000           0.88        15.6936        2245.41       156.3582         0.4524       -87.8699      -36.16543     0.04958292
      3407.0000         0.8746        15.6908        2303.57       157.7166         0.4587       -87.9065      -36.18998     0.04891957
      3407.5000         0.8717        15.6861       2305.199        160.248         0.4619       -88.0742      -36.34562     0.04471289
      3408.0000         0.8684        15.6815       2301.453        176.303         0.4644       -88.1312      -36.39057     0.04349817
      3408.5000         0.8659        15.6768       2297.707       179.2551         0.4634       -88.0674      -36.31471     0.04554841
      3409.0000         0.8788        15.6743       2268.859        178.658         0.4644       -87.9706      -36.20585     0.04849047
      3409.5000         0.8947         15.678       2226.082       177.9148         0.4658       -87.9371      -36.16031     0.04972149
      3410.0000         0.9028        15.6817       2170.941       179.2871         0.4671        -88.057      -36.26815     0.04680685
      3410.5000         0.9051        15.6854       2125.867       176.6208         0.4682       -88.2924      -36.49149     0.04077056
      3411.0000         0.9163        15.6891       2109.336       176.3076         0.4692       -88.2454      -36.43244     0.04236654
      3411.5000         0.9223        15.6893       2096.258       175.0723         0.4714       -88.1563      -36.33129     0.04510034
      3412.0000         0.9122        15.6892       2103.617       182.3975         0.4744       -88.2183      -36.38123     0.04375056
      3412.5000          0.892        15.6891       2080.133       186.2622         0.4818        -88.246      -36.39688     0.04332764
      3413.0000         0.8726        15.6891       2041.797       184.3606         0.4917       -88.1227      -36.26152     0.04698583
      3413.5000         0.8863        15.6885       2028.748       181.9104         0.5008       -87.8938      -36.02057     0.05349824
      3414.0000         0.9003        15.6867       2020.082       182.7412         0.5056       -87.6523      -35.76701     0.06035109
      3414.5000         0.8987        15.6848       2028.938       183.6228         0.5095       -87.4403      -35.54296     0.06640656
      3415.0000         0.8946         15.683       2037.785       179.9424         0.5095       -87.3772       -35.4678     0.06843773
      3415.5000         0.9089        15.6812       2046.641       177.1895         0.5123       -87.5209      -35.59945     0.06487975
      3416.0000         0.9249        15.6802       2053.727       173.4536         0.5188       -87.7844       -35.8509     0.05808382
      3416.5000         0.9302        15.6793       2057.984       169.7178          0.539       -87.9609      -36.01534     0.05363939
      3417.0000         0.9346        15.6784       2062.246       175.1111         0.5654       -88.0652      -36.10759     0.05114622
      3417.5000         0.9382        15.6775        2049.18       171.5156         0.5885       -88.1637      -36.19403     0.04880998
      3418.0000         0.9435        15.6779       1993.498       163.9712         0.6105       -88.2809      -36.29918     0.04596813
      3418.5000         0.9532        15.6797       1991.336       164.2217         0.6216       -88.4208      -36.42702     0.04251284
      3419.0000         0.9667        15.6815       1900.902       159.9324         0.6097       -88.5476      -36.54177      0.0394116
      3419.5000         0.9712        15.6833       1783.652       157.9019         0.5831       -88.5992      -36.58131     0.03834286
      3420.0000          0.933        15.6847       1709.943       158.6956         0.5462       -88.6073      -36.57736     0.03844967
      3420.5000          0.893        15.6829       1673.492        150.405         0.5049       -88.5345      -36.49251     0.04074303
      3421.0000         0.8505         15.681       1650.105       143.9314         0.4642        -88.335      -36.28095     0.04646074
      3421.5000         0.7992        15.6792       1633.988       152.0852         0.4341       -88.0557       -35.9896     0.05433511
      3422.0000         0.7586        15.6774       1650.854       148.5198         0.4099       -87.7887      -35.71054     0.06187728
      3422.5000         0.7202        15.6763       1768.641       149.8694         0.3891       -87.6134      -35.52319     0.06694072
      3423.0000         0.6953        15.6754       1831.828       152.3206         0.3702       -87.7035      -35.60123      0.0648315
      3423.5000         0.6774        15.6744       1906.789       154.8796         0.3524       -88.0139      -35.89958     0.05676806
      3424.0000         0.6655        15.6735       2010.004       155.1125         0.3365       -88.2494      -36.12302     0.05072908
      3424.5000         0.6552        15.6718       2128.336       153.9741         0.3262       -88.4438      -36.30537      0.0458007
      3425.0000         0.6438        15.6698       2466.641       153.5403         0.3187       -88.6046      -36.45412     0.04178063
      3425.5000         0.6341        15.6678       2598.238       153.1062         0.3108       -88.7142      -36.55167     0.03914415
      3426.0000         0.6254        15.6659       2644.473       152.5005         0.3037       -88.6489      -36.47431     0.04123481
      3426.5000         0.6177         15.665       2708.445        151.219         0.3004       -88.5096      -36.32295     0.04532561
      3427.0000          0.625         15.664       2809.652       151.6514         0.2954       -88.2905       -36.0918     0.05157306
      3427.5000         0.6457        15.6631       3207.711       152.2512           0.29       -87.8878      -35.67705      0.0627825
      3428.0000         0.6675         15.666       3267.953        152.739         0.2938       -87.3898      -35.16699     0.07656778
      3428.5000         0.6797        15.6704       3306.023       153.3447          0.306       -86.0929      -33.85804      0.1119449
      3429.0000         0.6754        15.6747       3321.809       155.6082          0.328       -83.5344      -31.28748      0.1814194
      3429.5000         0.6641        15.6795       3323.488       159.0261         0.3598       -80.3345      -28.07553      0.2682289
      3430.0000         0.6456        15.6845       3238.664       165.7991         0.3828       -76.1204      -23.84937      0.3824494
      3430.5000         0.6314        15.6895       3163.852       171.8774         0.4225       -68.7498      -16.46672      0.5819805
      3431.0000         0.6223        15.6873       3007.258       169.8027         0.4655       -62.0642      -9.769066      0.7629982
      3431.5000         0.6248        15.6851       2743.965       166.2825         0.5031       -57.2692      -4.962009      0.8929186
      3432.0000         0.6348        15.6829       2646.633       165.2996         0.5274       -55.0598      -2.740555       0.952958
      3432.5000         0.6472        15.6923       2581.434       174.3022         0.5321       -53.9531      -1.621799      0.9831946
