#------------------------------------------------------------------------------
# Created by    : vladimir.rabinovich
# Created on    : 09/19/2023 17:22:29
#------------------------------------------------------------------------------
~Version Information Section
VERS.           2.0     :   CWLS log ASCII Standard - VERSION 2.0
WRAP.           NO      :   One line per depth step
~Well Information Section
#MNEM       .UNIT                                         VALUE :DESCRIPTION
#------------------------------------------------------------------------------
STRT        .FT                                            1202 :START DEPTH
STOP        .FT                                           11047 :STOP DEPTH
STEP        .FT                                             0.5 :STEP      
NULL        .                                           -999.25 :NULL      
COMP        .                                 MESA PETROLEUM CO :COMPANY   
WELL        .                               OCS G03305 ST00BP00 :WELL      
FLD         .                                           WILDCAT :FIELD     
LOC         .                                                   :LOCATION  
CNTY        .                      MATAGORDA ISLAND LARGE BLOCK :LOCATION  
STAT        .                                             TEXAS :STATE     
CTRY        .                                     UNITED STATES :COUNTRY   
SRVC        .                                                   :SERVICE COMPANY
DATE        .                             9/13/2023 11:12:09 AM :LOG DATE  
API         .                                    42703400870000 :API NUMBER
UWI         .                                    42703400870000 :UNIQUE WELL ID
XCOORD      .                                  540264.325087739 :SURFACE X 
YCOORD      .                                   10226560.637492 :SURFACE Y 
LAT         .                                         28.138272 :LATITUDE  
LON         .                                        -96.413655 :LONGITUDE 
ELEV        .FT                                              80 :ELEVATION VALUE
ELEV_TYPE   .                                                KB :ELEVATION REFERENCE TYPE
~Curve Information Section
#MNEM       .UNIT                                      API CODE :CURVE DESCRIPTION
#------------------------------------------------------------------------------
DEPT        .FT                                                 :DEPTH     
CILD        .MMHO                                               :          
DPHI        .%                                                  :          
GR          .GAPI                                               :          
GR_NORM     .GAPI                                               :GammaRay Normalized
ILD         .OHMM                                               :          
ILM         .OHMM                                               :          
SFL         .OHMM                                               :          
SP          .MV                                                 :          
SP_NORM     .MV                                                 :SP Normalized
VSH_GR      .V/V                                                :Volume of Shale from GR
VSH_SP      .V/V                                                :Volume of Shale from SP
~A        DEPTH           CILD           DPHI             GR        GR_NORM            ILD            ILM            SFL             SP        SP_NORM         VSH_GR         VSH_SP
# ...
      7097.0000       2035.449        -999.25         41.226       37.44258         0.4705         0.5726         1.2947      -138.8579      -69.25342     0.09452301              0
      7097.5000       1982.111        -999.25        41.6767       38.37225         0.4922         0.5912         1.2155        -138.78      -69.18063      0.1143032              0
      7098.0000       1932.002        -999.25        42.1548       39.35843         0.5147         0.6111         1.1202      -138.4805      -68.88625      0.1352857              0
      7098.5000       1872.406        -999.25        43.0367       41.17753         0.5354         0.6348         1.0587      -138.1382      -68.54907        0.17399              0
      7099.0000        1804.17        -999.25        43.7509       42.65072         0.5552         0.6693         1.0328      -136.7373      -67.15329      0.2053344              0
      7099.5000       1739.559        -999.25        44.0204       43.20662         0.5703         0.7053         1.0989      -135.4736      -65.89471      0.2171621              0
      7100.0000       1701.666        -999.25        44.0489       43.26541         0.5814         0.7374         1.2451        -134.46      -64.88623       0.218413    0.001777649
      7100.5000        1684.99        -999.25        43.9622       43.08656         0.5889         0.7763         1.6117      -133.2085      -63.63984      0.2146076     0.02125251
      7101.0000       1683.178        -999.25        43.8438       42.84234         0.5943         0.7896         2.3206      -131.7583      -62.19476      0.2094115     0.04383194
      7101.5000       1690.268        -999.25        43.7817       42.71424         0.5978         0.7676         2.5933      -129.8042      -60.24577       0.206686     0.07428479
      7102.0000        1680.57        -999.25        44.0068       43.17857         0.5993         0.7359         2.1772       -127.533      -57.97969      0.2165653      0.1096923
      7102.5000       1664.492        -999.25        44.4797       44.15401            0.6         0.7072         1.7112      -122.5857      -53.03751      0.2373194      0.1869138
      7103.0000       1649.631        -999.25        45.1042       45.44217         0.5992         0.6771         1.2807      -118.5261      -48.98302       0.264727      0.2502652
      7103.5000       1663.375        -999.25        45.7483       46.77077         0.5873         0.6625         1.0658      -114.4938      -44.95584      0.2929951        0.31319
      7104.0000       1714.652        -999.25        46.5801       48.48653         0.5685         0.6658         0.9199      -112.3202      -42.78736      0.3295006      0.3470725
      7104.5000       1736.355        -999.25        47.6194       50.63031         0.5461         0.6562         0.8557      -111.2638      -41.73608       0.375113      0.3634988
      7105.0000       1728.781        -999.25        48.7855       53.03561         0.5646         0.6444         0.8837       -112.924       -43.4014      0.4262896      0.3374782
      7105.5000       1689.795        -999.25        49.3459       54.19161         0.5963         0.6363         0.9119      -114.3218      -44.80431      0.4508853      0.3155576
      7106.0000       1617.238        -999.25        49.0904       53.66456          0.632         0.6471         0.8578      -112.3495      -42.83714      0.4396715      0.3462948
      7106.5000        1536.09        -999.25        49.5435       54.59917         0.6623         0.6847         0.7697      -108.2803      -38.77304      0.4595568      0.4097962
      7107.0000       1488.152        -999.25         50.459       56.48758         0.6636         0.7303         0.7146      -103.5281      -34.02596      0.4997357      0.4839693
      7107.5000       1474.717        -999.25        51.5958       58.83246         0.6441         0.7427         0.7203       -100.902      -31.40498      0.5496268      0.5249221
      7108.0000       1523.674        -999.25         53.928       63.64315         0.6079         0.7561           0.77      -102.0034      -32.51151      0.6519819      0.5076327
      7108.5000       1620.318        -999.25        56.9944       69.96824         0.5731         0.7416         0.8281      -106.2457      -36.75891      0.7865583       0.441267
      7109.0000       1804.666        -999.25         57.686       71.39479         0.5286         0.6765         0.8831      -111.8079      -42.32623      0.8169104      0.3542776
      7109.5000       1989.014        -999.25        56.0967       68.11653         0.4685         0.5885         0.9143      -117.4919      -48.01535      0.7471603      0.2653852
      7110.0000       2212.098        -999.25        52.2203       60.12062         0.4234         0.5024         0.8414      -125.2104      -55.73897      0.5770345      0.1447036
      7110.5000         2506.5        -999.25        49.0855       53.65445         0.3847         0.4565         0.6521       -130.031      -60.56469      0.4394564     0.06930172
      7111.0000       2695.813        -999.25        46.8412       49.02513         0.3513         0.4268         0.5382      -132.7876       -63.3264      0.3409602     0.02614999
      7111.5000       2869.238        -999.25        45.4141       46.08139         0.3293          0.413         0.5299      -133.7769      -64.32082      0.2783275     0.01061213
      7112.0000       2980.879        -999.25        44.4297       44.05088         0.3207         0.4112         0.5227      -134.0947      -64.64373      0.2351251    0.005566716
      7112.5000       2979.191        -999.25        43.5649       42.26704         0.3349         0.4301         0.4887      -134.1978      -64.75195      0.1971711    0.003875732
      7113.0000       2810.238        -999.25        42.6135        40.3046         0.3648         0.4506         0.4598      -133.6421      -64.20138       0.155417     0.01247847
      7113.5000        2527.16        -999.25          42.15       39.34852          0.423         0.4753         0.4769       -133.231      -63.79539      0.1350749     0.01882195
      7114.0000       2242.293        -999.25        43.0404       41.18516          0.504         0.5345         0.5531      -132.8577       -63.4272      0.1741524       0.024575
      7114.5000       1902.602        -999.25        43.6967       42.53893         0.5794          0.653         0.8944      -133.3938      -63.96842      0.2029559     0.01611841
      7115.0000       1728.781        -999.25        43.5009       42.13504         0.6346         0.7917         1.2952      -134.6575      -65.23724      0.1943626              0
      7115.5000       1523.375        -999.25         43.162       41.43599         0.7004         0.9314         1.7937      -135.4436      -66.02846      0.1794891              0
      7116.0000       1332.422        -999.25        42.3915       39.84666         0.7509         1.0152         3.1312      -136.5322      -67.12217      0.1456736              0
      7116.5000       1285.098        -999.25        41.3339       37.66513         0.7732         1.0612          3.861      -137.5447      -68.13979      0.0992581              0
      7117.0000        1288.77        -999.25        40.2203       35.36811          0.766         0.9714         3.7036       -137.917      -68.51722     0.05038533              0
      7117.5000       1316.084        -999.25        41.2791        37.5521         0.7228         0.8859         2.6516       -138.021      -68.62632     0.09685322              0
      7118.0000       1404.582        -999.25         43.926        43.0119         0.6764         0.8587         1.9982      -137.7983      -68.40874      0.2130192              0
      7118.5000       1475.004        -999.25        45.4735       46.20394         0.6424         0.7759          1.337      -137.1372      -67.75277      0.2809349              0
      7119.0000        1520.84        -999.25          45.71       46.69176         0.6316         0.7755         1.1932      -136.2261      -66.84679      0.2913141              0
