#------------------------------------------------------------------------------
# Created by    : vladimir.rabinovich
# Created on    : 09/19/2023 17:22:52
#------------------------------------------------------------------------------
~Version Information Section
VERS.           2.0     :   CWLS log ASCII Standard - VERSION 2.0
WRAP.           NO      :   One line per depth step
~Well Information Section
#MNEM       .UNIT                                         VALUE :DESCRIPTION
#------------------------------------------------------------------------------
STRT        .FT                                             873 :START DEPTH
STOP        .FT                                           11612 :STOP DEPTH
STEP        .FT                                             0.5 :STEP      
NULL        .                                           -999.25 :NULL      
COMP        .                                   MARATHON OIL CO :COMPANY   
WELL        .                               OCS G04137 ST00BP04 :WELL      
FLD         .                       MATAGORDA ISLAND BLOCK 0527 :FIELD     
LOC         .                                                   :LOCATION  
CNTY        .                      MATAGORDA ISLAND LARGE BLOCK :LOCATION  
STAT        .                                             TEXAS :STATE     
CTRY        .                                     UNITED STATES :COUNTRY   
SRVC        .                                                   :SERVICE COMPANY
DATE        .                             9/13/2023 11:19:05 AM :LOG DATE  
API         .                                    42703400590000 :API NUMBER
UWI         .                                    42703400590000 :UNIQUE WELL ID
XCOORD      .                                  609906.580547661 :SURFACE X 
YCOORD      .                                  10277311.7025511 :SURFACE Y 
LAT         .                                         28.282909 :LATITUDE  
LON         .                                        -96.202007 :LONGITUDE 
ELEV        .FT                                              95 :ELEVATION VALUE
ELEV_TYPE   .                                                KB :ELEVATION REFERENCE TYPE
~Curve Information Section
#MNEM       .UNIT                                      API CODE :CURVE DESCRIPTION
#------------------------------------------------------------------------------
DEPT        .FT                                                 :DEPTH     
GR          .GAPI                                               :          
GR_NORM     .GAPI                                               :GammaRay Normalized
ILD         .OHMM                                               :          
SP          .MV                                                 :          
SP_NORM     .MV                                                 :SP Normalized
VSH_GR      .V/V                                                :Volume of Shale from GR
VSH_SP      .V/V                                                :Volume of Shale from SP
~A        DEPTH             GR        GR_NORM            ILD             SP        SP_NORM         VSH_GR         VSH_SP
# ...
     10186.0000        57.8067       76.19762         1.0618       -48.9993      -3.003696      0.9190982      0.9628945
     10186.5000        56.9286       74.27262         1.0521       -48.5029      -2.523548      0.8781409      0.9717861
     10187.0000        56.1098       72.47763         1.0437       -48.0941      -2.130997      0.8399496      0.9790556
     10187.5000        56.3022        72.8987         1.0467         -47.75      -1.803143      0.8489086       0.985127
     10188.0000        58.6749       78.09804         1.0496       -47.4146       -1.48399      0.9595327      0.9910372
     10188.5000         61.642       84.60002          1.052       -47.1787      -1.264336              1      0.9951049
     10189.0000        63.4894       88.64818         1.0523       -46.9566      -1.058487              1      0.9989169
     10189.5000        64.6461       91.18256         1.0526       -46.8436     -0.9617348              1              1
     10190.0000        65.1561       92.29971         1.0492        -46.769     -0.9033813              1              1
     10190.5000        64.8533       91.63555         1.0379       -47.0292      -1.179829              1      0.9966698
     10191.0000        63.5868       88.85937         1.0268       -47.3289      -1.495777              1      0.9908189
     10191.5000        62.7297        86.9804         1.0177       -48.0195      -2.202625              1      0.9777291
     10192.0000        61.6913       84.70413         1.0122       -48.6978      -2.897171              1      0.9648672
     10192.5000        60.5247       82.14692         1.0067       -49.2453      -3.460918              1      0.9544274
     10193.0000        59.4716       79.83842         1.0013       -49.3723      -3.604164      0.9965622      0.9517747
     10193.5000        59.6183       80.15939         0.9998       -49.2192      -3.467316              1       0.954309
     10194.0000        60.3915       81.85331         0.9994       -49.0662      -3.330563              1      0.9568414
     10194.5000        61.4077        84.0798         0.9991       -48.9132       -3.19381              1      0.9593739
     10195.0000        62.2957       86.02533          1.002       -48.7602      -3.057056              1      0.9619064
     10195.5000        62.9899       87.54612         1.0074       -48.6072      -2.920307              1      0.9644387
     10196.0000        62.3549       86.15395         1.0128       -48.4542      -2.783554              1      0.9669712
     10196.5000        61.1586       83.53163          1.019       -48.3011      -2.646702              1      0.9695055
     10197.0000         60.193       81.41489          1.036       -48.1481      -2.509949              1       0.972038
     10197.5000        60.2312       81.49805         1.0534       -48.7623      -3.140392              1      0.9603631
     10198.0000        60.9601       83.09492         1.0711       -49.4282      -3.822544              1      0.9477307
     10198.5000        61.4318       84.12812         1.0803        -49.509       -3.91959              1      0.9459335
     10199.0000        61.2881       83.81261         1.0846       -49.4551      -3.881939              1      0.9466308
     10199.5000        61.0316        83.2499         1.0803       -48.9793      -3.422386              1       0.955141
     10200.0000        60.7751       82.68723          1.068       -48.4009      -2.860237              1      0.9655511
     10200.5000        60.5762       82.25076          1.061       -47.8893      -2.364883              1      0.9747244
     10201.0000        60.3866       81.83469         1.0548       -47.7595      -2.251328              1      0.9768273
     10201.5000        60.6024       82.30706         1.0485       -47.5685      -2.076576              1      0.9800634
     10202.0000          61.33       83.90106         1.0423       -47.3314      -1.855724              1      0.9841533
     10202.5000        61.8976       85.14442         1.0337        -46.873      -1.413574              1      0.9923412
     10203.0000        62.0026       85.37399         1.0243       -46.4142     -0.9710197              1              1
     10203.5000        61.4053       84.06438          1.015       -46.1226     -0.6956673              1              1
     10204.0000        60.7751       82.68271         1.0052       -46.2151     -0.8044128              1              1
     10204.5000        60.4495       81.96857         0.9956       -46.2237     -0.8292618              1              1
     10205.0000         60.563       82.21675         0.9916       -46.1525     -0.7743111              1              1
     10205.5000        61.4854       84.23767          1.003       -46.1503     -0.7883568              1              1
     10206.0000        62.9739       87.49926         1.0146       -45.6016     -0.2559052              1              1
     10206.5000        61.5187       84.30953          1.021       -44.8369      0.4925499              1              1
     10207.0000        59.7712       80.47922         1.0275         -44.38       0.933197              1              1
     10207.5000        58.9745       78.73263          1.034       -44.2629        1.03405      0.9730346              1
     10208.0000        59.7355       80.39987         1.0437        -44.438      0.8427048              1              1
     10208.5000        62.0046       85.37215         1.0548       -44.7309      0.5335579              1              1
     10209.0000         64.365       90.54454         1.0633       -45.2451    0.003112793              1              1
     10209.5000         66.348       94.88981         1.0364       -45.7631     -0.5311394              1              1
     10210.0000        66.4319       95.07314         1.0052       -46.2706      -1.054886              1      0.9989836
     10210.5000        64.4711       90.77538         0.9732        -46.224      -1.024532              1      0.9995457
     10211.0000        62.4436       86.33141         0.9468       -46.2292      -1.045979              1      0.9991485
     10211.5000        60.3866       81.82281         0.8954       -46.6226      -1.455631              1      0.9915624
     10212.0000        59.0473       78.88713         0.8841       -47.1221      -1.971378      0.9763219      0.9820115
     10212.5000        58.8599       78.47585         0.8861       -47.8337      -2.699223      0.9675713      0.9685329
     10213.0000        59.0596       78.91296         0.8976       -48.3516      -3.233372      0.9768714      0.9586413
     10213.5000        59.0648       78.92376         0.9121       -49.0065      -3.904518      0.9771013      0.9462126
     10214.0000        59.0699        78.9344         0.9282       -50.0781      -4.992367      0.9773277      0.9260673
     10214.5000         59.075       78.94501         0.9367       -52.4854      -7.415916      0.9775534      0.8811867
     10215.0000         58.887       78.53242         0.9302        -54.937      -9.883762      0.9687749      0.8354859
     10215.5000        56.4304       73.14808         0.9051       -55.8644      -10.82741      0.8542144       0.818011
     10216.0000        54.1786       68.21258         0.8808       -55.3292      -10.30846      0.7492038      0.8276212
     10216.5000        53.3868       66.47673         0.8491       -54.9959      -9.991405      0.7122709      0.8334925
     10217.0000        52.7344       65.04643         0.8128       -58.5331      -13.54485       0.681839      0.7676879
     10217.5000        51.6776       62.72982         0.7847       -61.6433       -16.6713      0.6325493      0.7097908
     10218.0000        50.2766       59.65889         0.7728       -62.9468      -17.99105      0.5672104       0.685351
     10218.5000        48.6143       56.01528         0.7944       -63.2826       -18.3431      0.4896868      0.6788315
     10219.0000        47.1615       52.83084         0.8227       -63.4944      -18.57114      0.4219327      0.6746085
