#------------------------------------------------------------------------------
# Created by    : vladimir.rabinovich
# Created on    : 09/19/2023 17:20:31
#------------------------------------------------------------------------------
~Version Information Section
VERS.           2.0     :   CWLS log ASCII Standard - VERSION 2.0
WRAP.           NO      :   One line per depth step
~Well Information Section
#MNEM       .UNIT                                         VALUE :DESCRIPTION
#------------------------------------------------------------------------------
STRT        .FT                                            2310 :START DEPTH
STOP        .FT                                           12118 :STOP DEPTH
STEP        .FT                                             0.5 :STEP      
NULL        .                                           -999.25 :NULL      
COMP        .                                   FOREST OIL CORP :COMPANY   
WELL        .                               OCS G01793 ST00BP00 :WELL      
FLD         .                                           WILDCAT :FIELD     
LOC         .                                                   :LOCATION  
CNTY        .                             GALVESTON LARGE BLOCK :LOCATION  
STAT        .                                             TEXAS :STATE     
CTRY        .                                     UNITED STATES :COUNTRY   
SRVC        .                                                   :SERVICE COMPANY
DATE        .                             9/13/2023 11:19:24 AM :LOG DATE  
API         .                                    42706001380000 :API NUMBER
UWI         .                                    42706001380000 :UNIQUE WELL ID
XCOORD      .                                  1024149.02927821 :SURFACE X 
YCOORD      .                                  10425384.3690734 :SURFACE Y 
LAT         .                                         28.714212 :LATITUDE  
LON         .                                        -94.923031 :LONGITUDE 
ELEV        .FT                                              60 :ELEVATION VALUE
ELEV_TYPE   .                                                KB :ELEVATION REFERENCE TYPE
~Curve Information Section
#MNEM       .UNIT                                      API CODE :CURVE DESCRIPTION
#------------------------------------------------------------------------------
DEPT        .FT                                                 :DEPTH     
ASN         .OHMM                                               :          
CALI        .IN                                                 :          
CILD        .MMHO                                               :          
DT          .US/F                                               :          
ILD         .OHMM                                               :          
RHOB        .G/C3                                               :          
SP          .MV                                                 :          
SP_NORM     .MV                                                 :SP Normalized
VSH_SP      .V/V                                                :Volume of Shale from SP
~A        DEPTH            ASN           CALI           CILD             DT            ILD           RHOB             SP        SP_NORM         VSH_SP
# ...
      8166.5000         0.7034        11.8799       1456.787       102.7959         0.6805        -999.25       -49.8057       1.139182              1
      8167.0000         0.7046        11.8797       1471.877       102.8817         0.6815        -999.25       -49.6188       1.390152              1
      8167.5000         0.7015        11.8795       1486.391       103.1018         0.6826        -999.25       -49.4322         1.6407              1
      8168.0000         0.6984        11.8793       1500.184       103.3218         0.6836        -999.25       -49.2456       1.891253              1
      8168.5000         0.6953        11.8792           1514       103.5433         0.6847        -999.25        -49.059       2.141811              1
      8169.0000         0.6926         11.865       1527.242       103.8076         0.6854        -999.25       -48.9125       2.336224              1
      8169.5000         0.6904        11.8481       1540.361       104.0718         0.6826        -999.25        -48.777       2.515235              1
      8170.0000         0.6882        11.8199       1553.453       104.3361         0.6799        -999.25       -48.6413       2.694529              1
      8170.5000         0.6854        11.7782       1560.523       104.4622         0.6772        -999.25       -48.5058       2.873545              1
      8171.0000         0.6839        11.7365       1553.105       104.3345         0.6744        -999.25       -48.3701       3.052839              1
      8171.5000         0.6875        11.6948       1545.672       104.2178         0.6713        -999.25       -48.3853        3.02087              1
      8172.0000          0.689        11.7161        1538.24       104.1635         0.6681        -999.25       -48.6108       2.694481              1
      8172.5000         0.6905        11.7624       1532.248       104.1089         0.6648        -999.25       -48.8363       2.368097              1
      8173.0000          0.692        11.8087       1528.412       104.0551         0.6616        -999.25       -49.3571       1.628288              1
      8173.5000         0.6936         11.828         1531.6        104.004         0.6586        -999.25       -50.0661      0.6250023              1
      8174.0000         0.6946        11.7811       1534.789       103.8169         0.6573        -999.25       -50.7751     -0.3782837      0.9941803
      8174.5000         0.6951        11.7343       1537.982        102.943          0.656        -999.25       -51.4841       -1.38157      0.9787451
      8175.0000         0.6956        11.6874       1541.172       102.3287         0.6547        -999.25       -51.7538      -1.769835      0.9727718
      8175.5000         0.6961        11.6405        1544.83       101.8475         0.6533        -999.25       -52.2952      -2.538483      0.9609464
      8176.0000         0.6957        11.6193        1548.49       101.4529          0.652        -999.25       -53.0615      -3.621989      0.9442771
      8176.5000         0.6949        11.6185        1553.33       101.0813         0.6507        -999.25       -53.8851      -4.785717      0.9263736
      8177.0000          0.693        11.6269       1563.318       100.7838         0.6494        -999.25       -54.8234       -6.11002      0.9059997
      8177.5000         0.6911        11.6353       1573.293       100.5514         0.6481        -999.25       -55.4935      -7.058848      0.8914024
      8178.0000         0.6892        11.6181       1582.283       100.3188         0.6484        -999.25       -55.5223      -7.109856      0.8906176
      8178.5000         0.6873        11.5941       1591.225       100.0919         0.6494        -999.25       -55.5512      -7.161002      0.8898307
      8179.0000         0.6854        11.5702       1600.166       100.0139         0.6504        -999.25       -55.5848      -7.218729      0.8889427
      8179.5000         0.6837        11.5462       1609.107       100.4496         0.6514        -999.25       -55.6204      -7.279259      0.8880114
      8180.0000         0.6824        11.5338       1618.047        101.494         0.6523        -999.25       -55.6559      -7.339644      0.8870824
      8180.5000          0.681        11.5361       1626.826       103.0414         0.6533        -999.25       -56.1155      -7.993774      0.8770189
      8181.0000         0.6796        11.5384       1633.996       100.8055         0.6543        -999.25       -56.9865      -9.223859      0.8580945
      8181.5000          0.684        11.5492       1641.154        98.1727         0.6553        -999.25        -57.881      -10.48685      0.8386639
      8182.0000         0.6956        11.5852       1632.662        97.5104         0.6562        -999.25       -58.8355      -11.83383      0.8179411
      8182.5000         0.7002        11.6212       1621.752        96.8802         0.6571        -999.25       -59.7887        -13.179      0.7972462
      8183.0000         0.6981        11.6572        1610.84        96.6941         0.6579        -999.25       -60.7432      -14.52598      0.7765234
      8183.5000         0.6961        11.6931        1599.93         96.954         0.6587        -999.25       -60.1737      -13.73937      0.7886251
      8184.0000          0.694        11.7292       1584.479        99.8521         0.6595        -999.25       -59.2429      -12.44694      0.8085086
      8184.5000          0.692        11.7654       1567.545       101.1691         0.6603        -999.25       -58.3122      -11.15464      0.8283901
      8185.0000         0.6905        11.7932       1550.635       101.7051          0.661        -999.25       -57.3814      -9.862212      0.8482736
      8185.5000         0.6897         11.791       1533.727       101.9294         0.6618        -999.25       -56.4506      -8.569777      0.8681573
      8186.0000         0.6888        11.7897        1515.42        102.092         0.6626        -999.25       -55.6115      -7.405724      0.8860658
      8186.5000         0.6879        11.7916       1496.916       102.1339         0.6634        -999.25       -55.3261       -7.01685      0.8920485
      8187.0000         0.6946        11.7935       1478.436       101.0632         0.6642        -999.25       -55.0408      -6.628114       0.898029
      8187.5000         0.7022        11.7954       1459.232        99.4437          0.665        -999.25       -54.7554      -6.239245      0.9040116
      8188.0000         0.7098        11.7973       1439.629        98.4204         0.6658        -999.25       -54.4701      -5.850511      0.9099922
      8188.5000         0.7174        11.7992       1420.002        97.7668         0.6671        -999.25       -54.4943      -5.895078      0.9093065
      8189.0000         0.7252        11.7936        1400.25        97.2858         0.6685        -999.25       -54.6052      -6.061025      0.9067535
      8189.5000         0.7333        11.7791       1380.447        96.8046         0.6699        -999.25       -54.7161      -6.226968      0.9042005
      8190.0000         0.7414        11.7646       1364.436        96.6216         0.6714        -999.25       -54.8268      -6.392638      0.9016517
      8190.5000         0.7435         11.753        1373.34        96.7655         0.6728        -999.25       -54.9965        -6.6409      0.8978323
      8191.0000          0.742        11.7428       1398.229        96.9172         0.6743        -999.25       -55.4265      -7.253587      0.8884063
      8191.5000         0.7393        11.7388       1414.863        97.1083         0.6757        -999.25       -55.8569      -7.866839      0.8789717
      8192.0000         0.7361        11.7495           1431        97.3221         0.6771        -999.25       -56.2874      -8.480227       0.869535
      8192.5000         0.7328        11.7602       1447.137        97.1918         0.6786        -999.25       -56.7179      -9.093613      0.8600982
