#------------------------------------------------------------------------------
# Created by    : vladimir.rabinovich
# Created on    : 09/19/2023 17:19:47
#------------------------------------------------------------------------------
~Version Information Section
VERS.           2.0     :   CWLS log ASCII Standard - VERSION 2.0
WRAP.           NO      :   One line per depth step
~Well Information Section
#MNEM       .UNIT                                         VALUE :DESCRIPTION
#------------------------------------------------------------------------------
STRT        .FT                                             380 :START DEPTH
STOP        .FT                                            8002 :STOP DEPTH
STEP        .FT                                             0.5 :STEP      
NULL        .                                           -999.25 :NULL      
COMP        .                               AMOCO PRODUCTION CO :COMPANY   
WELL        .                               OCS G07253 ST00BP00 :WELL      
FLD         .                                           WILDCAT :FIELD     
LOC         .                                                   :LOCATION  
CNTY        .                             GALVESTON LARGE BLOCK :LOCATION  
STAT        .                                             TEXAS :STATE     
CTRY        .                                     UNITED STATES :COUNTRY   
SRVC        .                                                   :SERVICE COMPANY
DATE        .                             9/13/2023 11:19:27 AM :LOG DATE  
API         .                                    42706401230000 :API NUMBER
UWI         .                                    42706401230000 :UNIQUE WELL ID
XCOORD      .                                  925879.569593371 :SURFACE X 
YCOORD      .                                  10358786.1357032 :SURFACE Y 
LAT         .                                         28.526408 :LATITUDE  
LON         .                                        -95.225632 :LONGITUDE 
ELEV        .FT                                             100 :ELEVATION VALUE
ELEV_TYPE   .                                                KB :ELEVATION REFERENCE TYPE
~Curve Information Section
#MNEM       .UNIT                                      API CODE :CURVE DESCRIPTION
#------------------------------------------------------------------------------
DEPT        .FT                                                 :DEPTH     
ASFL        .OHMM                                               :          
CILD        .MMHO                                               :          
GR          .GAPI                                               :          
GR_NORM     .GAPI                                               :GammaRay Normalized
ILD         .OHMM                                               :          
SP          .MV                                                 :          
SP_NORM     .MV                                                 :SP Normalized
VSH_GR      .V/V                                                :Volume of Shale from GR
VSH_SP      .V/V                                                :Volume of Shale from SP
~A        DEPTH           ASFL           CILD             GR        GR_NORM            ILD             SP        SP_NORM         VSH_GR         VSH_SP
# ...
      2447.0000         0.8377       1210.154        77.4299       80.23213          0.825       -61.5025      0.4022636              1              1
      2447.5000         0.8379       1209.846        75.2417       78.03994         0.8264       -62.0284     -0.1236382      0.9582966              1
      2448.0000         0.8381       1209.535        72.8533       75.64756         0.8278       -62.5543     -0.6495361      0.9073949              1
      2448.5000          0.836       1209.227        72.5117       75.30197         0.8291         -63.08       -1.17524      0.9000419              1
      2449.0000         0.8339       1208.918        74.8203       77.60658         0.8305       -63.5175       -1.61274      0.9490762              1
      2449.5000         0.8319       1206.137        77.1301       79.91239         0.8319        -63.825      -1.920238       0.998136              1
      2450.0000         0.8298       1202.184        79.2312       82.00951         0.8333        -63.983      -2.078239              1      0.9972057
      2450.5000         0.8277       1198.232        80.2036       82.97792         0.8356       -63.5448      -1.640038              1              1
      2451.0000         0.8292       1194.281         79.955       82.72534         0.8395       -63.1066      -1.201839              1              1
      2451.5000         0.8328       1185.914        79.7064       82.47275         0.8435        -62.671     -0.7662392              1              1
      2452.0000         0.8364       1163.678        79.3939       82.15627         0.8474       -62.2443     -0.3395386              1              1
      2452.5000           0.84       1141.441        79.0649       81.82328         0.8513       -61.8176     0.08716202              1              1
      2453.0000         0.8461       1119.205         78.736       81.49039         0.8553       -61.5797      0.3250618              1              1
      2453.5000         0.8562        1099.17        78.4069        81.1573         0.8592       -61.6392       0.265564              1              1
      2454.0000         0.8664       1079.705         78.078       80.82442         0.8631       -61.5839      0.3208618              1              1
      2454.5000         0.8765       1060.232        77.0273       79.76973         0.8671       -61.3447      0.5600624      0.9951006              1
      2455.0000         0.8843       1042.869        75.4598       78.19825          0.871        -61.424      0.4807625      0.9616649              1
      2455.5000         0.8913       1029.404        74.0331       76.76756         0.8808       -62.0267     -0.1219368      0.9312246              1
      2456.0000         0.8983       1015.935        72.6096       75.34007         0.9056        -62.639     -0.7342377      0.9008526              1
      2456.5000         0.9125        1002.47        70.9149       73.64139         0.9304       -63.2511      -1.346336      0.8647104              1
      2457.0000         0.9422        984.333        68.7697        71.4922         0.9552       -63.5341      -1.629337       0.818983              1
      2457.5000          0.975       965.7588        67.2383       69.95681           0.98       -63.7205      -1.815739      0.7863151              1
      2458.0000         1.0154       946.7295        66.1669       68.88143         1.0048       -63.9069      -2.002136      0.7634347      0.9999237
      2458.5000         1.0397       922.2471        65.0955       67.80604         1.0296       -64.2904      -2.385635       0.740554      0.9862273
      2459.0000         1.0559       900.2285        64.2173       66.92386         1.0557       -64.8245      -2.919739      0.7217842      0.9671522
      2459.5000         1.0744       885.5723        64.8542       67.55677         1.0822       -65.3586      -3.453835      0.7352504      0.9480773
      2460.0000         1.0812       896.9404        66.7216       69.42019         1.1087       -65.8928      -3.988037      0.7748976      0.9289986
      2460.5000         1.0627       913.4561        68.5341        71.2287         1.1018       -65.6552      -3.750435      0.8133765      0.9374844
      2461.0000         1.0361       930.3701        70.3458       73.03642         1.0863       -65.1731      -3.268341      0.8518386      0.9547021
      2461.5000         1.0096       959.8818        72.1583       74.84492         1.0707       -64.6909       -2.78614      0.8903176      0.9719235
      2462.0000         0.9831       989.3799        73.9702       76.65284         1.0548       -64.2089      -2.304138      0.9287838      0.9891379
      2462.5000         0.9565       1018.892         75.782       78.46065         1.0368       -63.9249      -2.020138      0.9672478      0.9992808
      2463.0000         0.9298       1050.498        77.5945       80.26917         1.0187       -63.7975      -1.892738              1              1
      2463.5000         0.9058       1070.121        78.7781       81.44878         1.0007       -63.9432      -2.038437              1      0.9986272
      2464.0000         0.8921       1077.016        76.2987       78.96539         0.9826       -64.0889      -2.184135      0.9779871      0.9934238
      2464.5000         0.8913       1083.912        73.8206       76.48331         0.9645       -64.1484      -2.243637      0.9251767      0.9912987
      2465.0000         0.8938       1094.123        71.9065       74.56522         0.9465       -64.0428      -2.138039      0.8843665        0.99507
      2465.5000         0.9015       1115.898        70.1302       72.78493         0.9284       -63.9373      -2.032539       0.846488      0.9988379
      2466.0000          0.913       1137.822        68.9958       71.64655         0.9104       -63.8317      -1.926937      0.8222669              1
      2466.5000         0.8974       1166.484        67.8827       70.52946         0.8894       -63.5143      -1.609539      0.7984991              1
      2467.0000         0.8688        1195.16        66.9098       69.55257         0.8671       -64.2158      -2.311035      0.7777144      0.9888916
      2467.5000         0.8401       1224.771        65.7031       68.34189         0.8449       -65.2942      -3.389435      0.7519551      0.9503773
      2468.0000         0.8248       1254.945        64.0221       66.65691         0.8226       -66.9863      -5.081535      0.7161044      0.8899451
      2468.5000         0.8352       1285.529        62.2072       64.83801         0.8004       -69.7886      -7.883835      0.6774045       0.789863
      2469.0000         0.8541       1329.254        60.2707       62.89753         0.7746        -71.907      -10.00224      0.6361176      0.7142059
      2469.5000         0.8881       1370.832        58.4633       61.08614         0.7447       -73.2146      -11.30984      0.5975775      0.6675058
      2470.0000         0.9233        1405.57         56.925       59.54386         0.7147       -74.6014      -12.69664      0.5647629      0.6179771
      2470.5000         0.9495         1439.6        55.7875       58.40237         0.6848       -73.5575      -11.65274      0.5404759      0.6552593
      2471.0000         0.9401       1472.268        57.6337       60.24459          0.656       -72.3022      -10.39744       0.579672      0.7000915
      2471.5000         0.9026        1495.09        59.4798        62.0867         0.6537       -71.0463      -9.141541      0.6188659       0.744945
      2472.0000         0.8652       1475.051        61.3259       63.92881         0.6573       -69.7904      -7.885635      0.6580599      0.7897987
      2472.5000         0.8289       1432.025        63.1714       65.77032         0.6813       -68.5345      -6.629738      0.6972409      0.8346522
      2473.0000         0.8055       1388.975        64.7345       67.32944         0.7054       -68.0013      -6.096535      0.7304136      0.8536952
