#------------------------------------------------------------------------------
# Created by    : vladimir.rabinovich
# Created on    : 09/19/2023 17:22:15
#------------------------------------------------------------------------------
~Version Information Section
VERS.           2.0     :   CWLS log ASCII Standard - VERSION 2.0
WRAP.           NO      :   One line per depth step
~Well Information Section
#MNEM       .UNIT                                         VALUE :DESCRIPTION
#------------------------------------------------------------------------------
STRT        .FT                                              41 :START DEPTH
STOP        .FT                                            7991 :STOP DEPTH
STEP        .FT                                             0.5 :STEP      
NULL        .                                           -999.25 :NULL      
COMP        .                           ENERGY DEVELOPMENT CORP :COMPANY   
WELL        .                               OCS G11200 ST00BP00 :WELL      
FLD         .                                           WILDCAT :FIELD     
LOC         .                                                   :LOCATION  
CNTY        .                    NORTH PADRE ISLAND LARGE BLOCK :LOCATION  
STAT        .                                             TEXAS :STATE     
CTRY        .                                     UNITED STATES :COUNTRY   
SRVC        .                                                   :SERVICE COMPANY
DATE        .                             9/13/2023 11:18:55 AM :LOG DATE  
API         .                                    42701400410000 :API NUMBER
UWI         .                                    42701400410000 :UNIQUE WELL ID
XCOORD      .                                   309944.09600436 :SURFACE X 
YCOORD      .                                  9740515.29665267 :SURFACE Y 
LAT         .                                          26.78454 :LATITUDE  
LON         .                                        -97.077486 :LONGITUDE 
ELEV        .FT                                              91 :ELEVATION VALUE
ELEV_TYPE   .                                                KB :ELEVATION REFERENCE TYPE
~Curve Information Section
#MNEM       .UNIT                                      API CODE :CURVE DESCRIPTION
#------------------------------------------------------------------------------
DEPT        .FT                                                 :DEPTH     
CALI        .IN                                                 :          
DRHO        .G/C3                                               :          
DT          .US/F                                               :          
GR          .GAPI                                               :          
GR_NORM     .GAPI                                               :GammaRay Normalized
ILD         .OHMM                                               :          
ILM         .OHMM                                               :          
NPHI        .%                                                  :          
RFOC        .OHMM                                               :          
RHOB        .G/C3                                               :          
SP          .MV                                                 :          
SP_NORM     .MV                                                 :SP Normalized
VSH_GR      .V/V                                                :Volume of Shale from GR
VSH_SP      .V/V                                                :Volume of Shale from SP
~A        DEPTH           CALI           DRHO             DT             GR        GR_NORM            ILD            ILM           NPHI           RFOC           RHOB             SP        SP_NORM         VSH_GR         VSH_SP
# ...
      7277.0000        10.3067         0.0181         93.056        52.0219       37.48607         0.3065         0.3602        32.1144           0.66         2.2066         -96.34      -58.72462     0.09544835              0
      7277.5000        10.3073         0.0178        92.9598        54.2034       41.05783         0.3178         0.3807        31.9132          0.686         2.2107       -94.9347      -57.31176      0.1714433              0
      7278.0000        10.3078          0.026        93.4338        57.4593       46.39215         0.3338         0.4013        32.6961         0.7351         2.2182       -92.7318      -55.10129      0.2849395              0
      7278.5000        10.3083         0.0301        94.5491        61.6663       53.28675         0.3551          0.419        34.0065         0.7401          2.228       -86.1193      -48.48122      0.4316331      0.1207181
      7279.0000        10.3071         0.0292        96.3439        64.3158       57.62628          0.381         0.4366        32.6782         0.7268         2.2404       -75.5313      -37.88565      0.5239635      0.3169323
      7279.5000        10.3058         0.0227        97.0878        66.1904       60.69455         0.4099         0.4544        31.2042          0.765         2.2576       -68.5564      -30.90318      0.5892457      0.4462374
      7280.0000        10.3283         0.0185        96.5767        68.6412       64.70812         0.4419         0.4752        30.8152         0.8058         2.2782       -63.7404      -26.07961      0.6746409      0.5355628
      7280.5000        10.3835         0.0228        96.3851        72.9639       71.79253         0.4849         0.5002        31.4521          0.775         2.2994        -57.606      -19.93764      0.8253731      0.6493029
      7281.0000        10.4436         0.0353        96.8978          79.35       82.26196         0.5485         0.5355        32.6318         0.7029         2.3108       -49.9871      -12.31118              1      0.7905338
      7281.5000        10.5235         0.0509         98.644        86.3073       93.66843         0.5938         0.5742        34.0566          0.658         2.3131       -41.9604      -4.276909              1      0.9393165
      7282.0000        10.5076         0.0643       102.1888        86.9458       94.70891          0.629         0.6136        34.9451         0.6745         2.3138       -38.6754     -0.9843407              1              1
      7282.5000        10.4454         0.0722       104.3213        84.2465       90.27367         0.6608         0.6473        34.0252         0.7384         2.3125       -39.1599      -1.461269              1       0.991458
      7283.0000        10.3677         0.0621       102.2086        81.0056       84.94999         0.6807         0.6706        33.2715         0.8274         2.3083       -41.0546        -3.3484              1      0.9565111
      7283.5000        10.4091          0.049         99.824        79.6646       82.74307         0.6925         0.6786        33.3547         0.9123         2.2959       -42.6134      -4.899632              1      0.9277846
      7284.0000        10.4961         0.0656        97.8889        80.7892         84.581         0.6966         0.6833         34.421         0.9197         2.2761       -43.7067      -5.985363              1      0.9076785
      7284.5000        10.5119         0.0748        96.4702        83.7383       89.41201         0.6871         0.6851        35.5784         0.8617         2.2699       -41.3339      -3.604996              1      0.9517593
      7285.0000        10.4936         0.0626        98.6416        85.7726       92.74228         0.6724         0.6728        36.7567         0.7885         2.2899       -39.6506      -1.914127              1      0.9830717
      7285.5000        10.4459         0.0687       100.8623        86.2255       93.47827         0.6514         0.6585        37.4466         0.7304         2.3132       -38.7614      -1.017357              1      0.9996786
      7286.0000        10.3896         0.0877       102.5441        85.7876       92.75291         0.6334         0.6419        36.1234         0.7595         2.3246       -39.5714      -1.819786              1      0.9848188
      7286.5000        10.3267         0.0703       102.0895        85.3322       91.99884         0.6171         0.6278        35.5096         0.8973         2.3223       -41.3994      -3.640217              1      0.9511071
      7287.0000        10.3478         0.0467       100.1991        86.2959       93.57278          0.611         0.6156        35.7247         0.9803         2.3075       -42.5215      -4.754749              1      0.9304676
      7287.5000        10.4896         0.0634        99.3835        87.9427       96.26739         0.6064         0.6095        36.0077         0.9586          2.281       -41.5956      -3.821281              1       0.947754
      7288.0000        10.6713         0.0954       103.1874        88.8323       97.71976         0.6155         0.6171        36.0394          0.813         2.2603       -39.3008      -1.518913              1      0.9903905
      7288.5000        10.7738         0.1204       108.5529        88.7084       97.50951         0.6249         0.6344        36.0108         0.7076         2.2381       -37.1093      0.6801567              1              1
      7289.0000        10.8051         0.1497       112.5237        88.3032       96.83779         0.6352         0.6717        35.5395         0.6769          2.221       -36.1846       1.612423              1              1
      7289.5000        10.7764         0.1766       113.5787         87.688       95.82157         0.6451         0.7178         34.866         0.7195         2.2223       -37.2803       0.524292              1              1
      7290.0000        10.6976         0.1849        108.851        86.2268       93.41747         0.6523         0.7409        33.8856         0.8399         2.2674       -39.4845      -1.672337              1      0.9875493
      7290.5000         10.562          0.154       102.2633        82.8575       87.88313         0.6625          0.727        33.1874         0.9822         2.3226       -42.1542      -4.334469              1      0.9382506
      7291.0000        10.4141         0.0833        95.0994        80.3804       83.81244         0.6799         0.7089        33.2236         1.0975         2.3669       -44.6326      -6.805298              1      0.8924945
      7291.5000        10.3756         0.0357         91.911        81.8762        86.2593         0.7117         0.7151         34.288          1.084         2.3844       -45.6414       -7.80653              1      0.8739532
      7292.0000        10.5594         0.0465        93.3903        83.8357       89.46689         0.7525         0.7617        35.3932         0.9602         2.3706       -44.2048      -6.362362              1       0.900697
      7292.5000        10.6501         0.0745         98.428         80.769       84.42896         0.8144         0.8156        36.0727         0.8205         2.3591       -42.1114      -4.261395              1      0.9396038
      7293.0000        10.6965         0.0904       102.4421        74.7605       74.56499          0.885         0.8742        34.5867         0.7414         2.3648       -40.0029      -2.145325      0.8843616      0.9787903
      7293.5000        10.7195          0.102       102.1565        71.7361       69.59646         0.9422         0.9308          32.95         0.8264         2.3718       -39.8141      -1.948952      0.7786481      0.9824268
      7294.0000         10.733         0.1442        99.7371        70.9473       68.29545         0.9856         0.9887        32.2302         0.9473         2.3656       -40.7904      -2.917686       0.750967      0.9644873
      7294.5000        10.7437         0.1775        96.6891        74.2271       73.66896         1.0015         1.0061        33.0851         1.0093         2.3511       -42.1466      -4.266315       0.865297      0.9395127
