#------------------------------------------------------------------------------
# Created by    : vladimir.rabinovich
# Created on    : 09/19/2023 17:22:10
#------------------------------------------------------------------------------
~Version Information Section
VERS.           2.0     :   CWLS log ASCII Standard - VERSION 2.0
WRAP.           NO      :   One line per depth step
~Well Information Section
#MNEM       .UNIT                                         VALUE :DESCRIPTION
#------------------------------------------------------------------------------
STRT        .FT                                            1000 :START DEPTH
STOP        .FT                                            7796 :STOP DEPTH
STEP        .FT                                             0.5 :STEP      
NULL        .                                           -999.25 :NULL      
COMP        .                                SHELL OFFSHORE INC :COMPANY   
WELL        .                               OCS G06060 ST00BP00 :WELL      
FLD         .                                           WILDCAT :FIELD     
LOC         .                                                   :LOCATION  
CNTY        .                                BRAZOS LARGE BLOCK :LOCATION  
STAT        .                                             TEXAS :STATE     
CTRY        .                                     UNITED STATES :COUNTRY   
SRVC        .                                                   :SERVICE COMPANY
DATE        .                             9/13/2023 11:19:08 AM :LOG DATE  
API         .                                    42704401260000 :API NUMBER
UWI         .                                    42704401260000 :UNIQUE WELL ID
XCOORD      .                                   881020.58603234 :SURFACE X 
YCOORD      .                                   10392321.681828 :SURFACE Y 
LAT         .                                         28.616238 :LATITUDE  
LON         .                                        -95.367327 :LONGITUDE 
ELEV        .FT                                              90 :ELEVATION VALUE
ELEV_TYPE   .                                                KB :ELEVATION REFERENCE TYPE
~Curve Information Section
#MNEM       .UNIT                                      API CODE :CURVE DESCRIPTION
#------------------------------------------------------------------------------
DEPT        .FT                                                 :DEPTH     
CALI        .IN                                                 :          
CILD        .MMHO                                               :          
DPHI        .%                                                  :          
DT          .US/F                                               :          
GR          .GAPI                                               :          
GR_NORM     .GAPI                                               :GammaRay Normalized
ILD         .OHMM                                               :          
ILM         .OHMM                                               :          
SFL         .OHMM                                               :          
SP          .MV                                                 :          
SP_NORM     .MV                                                 :SP Normalized
VSH_GR      .V/V                                                :Volume of Shale from GR
VSH_SP      .V/V                                                :Volume of Shale from SP
~A        DEPTH           CALI           CILD           DPHI             DT             GR        GR_NORM            ILD            ILM            SFL             SP        SP_NORM         VSH_GR         VSH_SP
# ...
      6890.0000        10.5061       1870.303        29.2447       115.3114        38.8431       39.89333         0.5289         0.6313         1.2461       -97.7864        -49.868      0.1466666      0.1717289
      6890.5000        10.5027       1818.547        27.9939       108.2513         38.318       39.02779         0.5485         0.6388          1.292       -99.0071      -51.09248      0.1282508      0.1509749
      6891.0000        10.4956       1746.869        25.7996       104.5486        37.9244       38.37796         0.5739         0.6511         1.2454       -99.6111      -51.70026      0.1144248      0.1406736
      6891.5000        10.4909       1675.588         23.379       101.0333        37.6514       37.92599         0.6005         0.6756         1.2223       -99.8767      -51.96965      0.1048084      0.1361077
      6892.0000        10.4951       1575.635        23.2043        95.9763        37.9897       38.47686         0.6283         0.7239         1.2672      -100.1973      -52.29403      0.1165289      0.1306096
      6892.5000        10.5119       1496.988        24.5495        93.1248        38.4726       39.26494         0.6574         0.7966         1.5599      -100.7023      -52.80281      0.1332966      0.1219862
      6893.0000        10.5213       1487.053         27.433          92.36        38.7971       39.79316         0.6755           0.84         1.7407      -101.6394      -53.74369      0.1445354      0.1060391
      6893.5000         10.525       1500.621        29.1061        92.1509        38.6321       39.51837         0.6782         0.8457         1.7506      -103.0839      -55.19198      0.1386887     0.08149189
      6894.0000        10.5209       1526.352        29.8226         93.623        37.1536       37.08877         0.6641         0.8282          1.629      -104.5925      -56.70436     0.08699515     0.05585829
      6894.5000        10.5159       1576.377        30.3227        97.6094        36.0775        35.3193         0.6503         0.7904         1.5164      -105.6731      -57.78875     0.04934684     0.03747882
      6895.0000        10.5191       1638.611        30.6473       100.7916        35.7942       34.85043         0.6285         0.7323         1.4667      -105.9657      -58.08513     0.03937084     0.03245544
      6895.5000        10.4953       1731.348         30.782       101.6575        35.5131       34.38517         0.5826         0.6838         1.4559      -106.0732      -58.19641      0.0294717      0.0305693
      6896.0000        10.4583        1861.85        30.8382       102.1614        34.8481       33.29011           0.54          0.645         1.4606      -106.0422      -58.16919    0.006172586     0.03103062
      6896.5000        10.4309       1985.037        30.8698       102.3268        33.8861       31.70783         0.5006         0.6152         1.4694      -106.2478      -58.37858              0     0.02748166
      6897.0000        10.4227       2091.613        30.8449       102.1699        33.7045       31.40579         0.4765         0.5928         1.4641      -106.5736      -58.70816              0     0.02189552
      6897.5000        10.4065       2163.883        30.8097       101.6371        33.9886       31.86774         0.4604         0.5771         1.4373      -107.0016      -59.13995              0     0.01457712
      6898.0000        10.3812        2217.07        30.7437       100.9951        34.2383       32.27326         0.4484         0.5695         1.4014      -107.0885      -59.23063              0     0.01304012
      6898.5000        10.3809       2254.789        30.8206       100.5043        34.1385       32.10542         0.4413         0.5671          1.374      -107.0801      -59.22602              0     0.01311836
      6899.0000         10.376       2275.773        31.1194         100.87        33.9481       31.78896         0.4333         0.5646         1.3601      -107.1312       -59.2809              0     0.01218815
      6899.5000        10.3615       2306.297        31.3571       101.4009        33.9873       31.84915         0.4241         0.5599         1.3816      -107.6876      -59.84108              0    0.002693564
      6900.0000        10.3605       2354.988         31.502       101.5109        34.0741       31.98743         0.4138         0.5504         1.4246      -107.9509      -60.10816              0              0
      6900.5000        10.3713       2414.605        31.4517        101.861        35.1058       33.67583         0.4082         0.5342           1.44       -107.667      -59.82805     0.01437938    0.002914429
      6901.0000        10.3827       2432.547        31.3268       102.4172        36.5327       36.01254          0.406         0.5176         1.4196      -106.5593      -58.72414     0.06409657     0.02162481
      6901.5000        10.4027       2395.426        31.0115       103.1388        38.3879       39.05188         0.4081         0.5023         1.3722      -104.2754      -56.44402      0.1287635     0.06027092
      6902.0000        10.4631       2328.789        29.9007       103.5732        43.0947       46.76928         0.4251         0.4951         1.2803       -98.1896        -50.362      0.2929634       0.163356
      6902.5000         10.599       2181.977        26.6458       103.7843        50.4075       58.76185         0.4488         0.5042         1.0832       -87.0226      -39.19878      0.5481244      0.3525631
      6903.0000         10.763       2029.525        25.3131       103.8954        54.7117       65.81878         0.4756         0.5368         0.8383       -78.4731      -30.65306      0.6982719      0.4974057
      6903.5000        10.9351       1870.352        23.5073       104.3883        59.3399       73.40724         0.5064         0.6018         0.7286       -62.7895      -14.97325      0.8597286      0.7631652
      6904.0000        11.1035       1711.377        22.4746       105.5822        62.2601       78.19371         0.5547         0.6629         0.7236       -56.7513      -8.938835      0.9615683      0.8654435
      6904.5000        11.2471       1587.598        21.4877        108.054        62.4687       78.53183         0.6177         0.7447         0.7491       -55.0805      -7.271816      0.9687623       0.893698
      6905.0000        11.2563        1468.07        20.8649       111.0586        58.0344       71.25321         0.6734          0.804         0.7737       -56.6084      -8.803497      0.8138981      0.8677374
      6905.5000        11.1172        1358.33        21.5054       113.6401        53.2296       63.36679         0.7195         0.8548         0.8288       -62.2029      -14.40178       0.646102      0.7728511
      6906.0000        10.8516       1299.158        22.4592       113.5723        49.6198        57.4408         0.7688         0.9237         0.9982       -69.4471      -21.64977      0.5200169       0.650004
      6906.5000        10.6302       1291.596        23.0492       109.6722        46.9695       53.08885         0.7785         0.9241         1.2656       -75.9508      -28.15725      0.4274224      0.5397077
      6907.0000        10.5967       1287.598        21.0705       105.4736        45.2007         50.183         0.7852         0.8961         1.3875       -80.1046      -32.31483      0.3655958      0.4692401
      6907.5000        10.6163       1288.289        19.5949       100.7373        47.6002       54.11529          0.792          0.863         1.4496       -80.0294      -32.24342      0.4492615      0.4704505
      6908.0000        10.6737       1287.195        19.2794          96.45        54.7264       65.80171         0.7931         0.8363         1.5108       -74.3964       -26.6142      0.6979088       0.565861
      6908.5000        10.8795       1277.605        20.5796         93.031        60.2675       74.88779         0.7971         0.8219         1.5843       -64.5785      -16.80008      0.8912297       0.732202
