#------------------------------------------------------------------------------
# Created by    : vladimir.rabinovich
# Created on    : 09/19/2023 17:20:24
#------------------------------------------------------------------------------
~Version Information Section
VERS.           2.0     :   CWLS log ASCII Standard - VERSION 2.0
WRAP.           NO      :   One line per depth step
~Well Information Section
#MNEM       .UNIT                                         VALUE :DESCRIPTION
#------------------------------------------------------------------------------
STRT        .FT                                            2124 :START DEPTH
STOP        .FT                                            8264 :STOP DEPTH
STEP        .FT                                             0.5 :STEP      
NULL        .                                           -999.25 :NULL      
COMP        .                               SUPERIOR OIL CO THE :COMPANY   
WELL        .                                     ST TR 00009-L :WELL      
FLD         .                                           WILDCAT :FIELD     
LOC         .                                                   :LOCATION  
CNTY        .                           HIGH ISLAND LARGE BLOCK :LOCATION  
STAT        .                                             TEXAS :STATE     
CTRY        .                                     UNITED STATES :COUNTRY   
SRVC        .                                                   :SERVICE COMPANY
DATE        .                             9/13/2023 11:19:15 AM :LOG DATE  
API         .                                    42708300270000 :API NUMBER
UWI         .                                    42708300270000 :UNIQUE WELL ID
XCOORD      .                                  1318170.30554107 :SURFACE X 
YCOORD      .                                  10738395.6931535 :SURFACE Y 
LAT         .                                        29.5851559 :LATITUDE  
LON         .                                       -94.0141459 :LONGITUDE 
ELEV        .FT                                              72 :ELEVATION VALUE
ELEV_TYPE   .                                                KB :ELEVATION REFERENCE TYPE
~Curve Information Section
#MNEM       .UNIT                                      API CODE :CURVE DESCRIPTION
#------------------------------------------------------------------------------
DEPT        .FT                                                 :DEPTH     
ASN         .OHMM                                               :          
CILD        .MMHO                                               :          
ILD         .OHMM                                               :          
SN          .OHMM                                               :          
SP          .MV                                                 :          
SP_NORM     .MV                                                 :SP Normalized
VSH_SP      .V/V                                                :Volume of Shale from SP
~A        DEPTH            ASN           CILD            ILD             SN             SP        SP_NORM         VSH_SP
# ...
      6177.5000         0.7103       4153.727         0.3394         0.7358      -124.1382      -74.96579              0
      6178.0000         0.7155       4177.266          0.339         0.7296      -124.6499      -75.47563              0
      6178.5000         0.6762       4171.734         0.3331         0.6834      -124.9683      -75.79218              0
      6179.0000         0.6563       4196.828         0.3239         0.6484       -125.036      -75.85802              0
      6179.5000         0.6309       4325.625         0.3147         0.6162      -124.7977      -75.61786              0
      6180.0000         0.6004       4459.875         0.3053         0.5845      -123.2246      -74.04291              0
      6180.5000         0.5794       4565.828         0.2959         0.5436      -120.8429      -71.65936    0.004797814
      6181.0000         0.5457       4594.938         0.2908         0.5157      -118.7705       -69.5851      0.0340127
      6181.5000         0.5355        4620.43         0.2874         0.5288      -117.2766      -68.08934     0.05507972
      6182.0000          0.547       4684.906         0.2843         0.5623      -115.8632      -66.67409     0.07501286
      6182.5000         0.5361       4800.125         0.2839         0.5549       -114.578      -65.38704      0.0931403
      6183.0000          0.528       4885.484         0.2837         0.5478      -113.5193      -64.32648      0.1080778
      6183.5000         0.5442       4959.422          0.288         0.5611      -112.6006      -63.40592      0.1210434
      6184.0000         0.5646       5004.938         0.2941         0.5825      -112.0536      -62.85706      0.1287738
      6184.5000         0.5839       4989.586         0.3038         0.6056      -113.5884      -64.39001      0.1071829
      6185.0000          0.585       4912.938         0.3177           0.61      -114.5743      -65.37405     0.09332319
      6185.5000         0.5898       4698.133         0.3144         0.6168      -114.5856       -65.3835     0.09319016
      6186.0000         0.5917       4437.039         0.3439         0.6121       -112.385      -63.18105      0.1242106
      6186.5000         0.5963       4046.297         0.3705         0.6075      -108.2604      -59.05459      0.1823297
      6187.0000         0.5685       3513.879         0.4102         0.5823      -102.3955      -53.18783      0.2649601
      6187.5000          0.528       3268.012         0.4652          0.558       -90.0822      -40.87268       0.438413
      6188.0000         0.5019       2621.086         0.5216         0.5513       -75.8373      -26.62592      0.6390715
      6188.5000         0.5148        2249.48         0.5735         0.5681        -63.041      -13.82777      0.8193272
      6189.0000         0.5518       1921.951         0.6349         0.5935       -53.7406      -4.525513      0.9503449
      6189.5000         0.6102       1786.795         0.6973         0.6253       -51.8581      -2.641155      0.9768851
      6190.0000         0.6665       1587.217         0.7554         0.6627       -53.1672      -3.948399      0.9584733
      6190.5000         0.6972       1534.717         0.7849         0.7017       -52.2241      -3.003441      0.9717825
      6191.0000         0.6992       1496.445         0.7925         0.7327        -48.859      0.3635101              1
      6191.5000         0.6821       1489.119         0.7908         0.7119       -46.1378       3.086567              1
      6192.0000         0.6581       1498.875         0.7855         0.6764       -43.7825       5.443722              1
      6192.5000         0.6307       1507.322         0.7774         0.6638       -43.1418       6.086277              1
      6193.0000         0.6478        1514.58         0.7666         0.6794       -42.8652       6.364735              1
      6193.5000         0.6825       1507.666         0.7595         0.7088       -42.7151       6.516689              1
      6194.0000         0.7098       1481.416         0.7733         0.7196       -42.6294       6.604244              1
      6194.5000         0.7273       1423.207         0.8015         0.7475       -42.3994       6.836102              1
      6195.0000         0.7413       1349.768         0.8451         0.7553       -42.2484       6.988953              1
      6195.5000         0.7531       1279.434         0.9049         0.7564       -42.0667       7.172512              1
      6196.0000         0.7624       1208.049         0.9585         0.7629       -42.4609       6.780167              1
      6196.5000         0.7691       1165.469         0.9982         0.7834       -42.6344       6.608521              1
      6197.0000         0.7846       1142.074          1.003         0.8097        -43.001       6.243778              1
      6197.5000         0.8097       1194.572         0.9569         0.8456       -44.1346        5.11203              1
      6198.0000         0.8316       1273.924         0.8864         0.8711       -45.9894       3.259087              1
      6198.5000         0.8508       1414.689         0.8055         0.8908        -48.864      0.3863449              1
      6199.0000         0.8532       1673.982         0.7345         0.8798       -54.6409      -5.388702      0.9381873
      6199.5000         0.8133       1982.166         0.6642         0.8335       -59.4547      -10.20065      0.8704134
      6200.0000         0.7571       2072.598         0.5969         0.7733       -69.2982      -20.04229      0.7317987
      6200.5000         0.7299       2372.316         0.5402         0.7303       -81.9839      -32.72614       0.553153
      6201.0000         0.7145       2620.586         0.4898         0.7093       -88.7542      -39.49458      0.4578228
      6201.5000         0.6943       2920.152         0.4498         0.7047      -101.1429      -51.88142      0.2833602
      6202.0000         0.6734       3089.473         0.4262         0.6852       -105.333      -56.06967      0.2243709
      6202.5000          0.654       3244.168         0.4097         0.6649      -103.1248      -53.85962      0.2554984
      6203.0000         0.6481       3368.602         0.3969         0.6709       -99.7498      -50.48276      0.3030597
      6203.5000         0.6644       3374.164         0.4009         0.6895       -98.6957       -49.4268      0.3179323
      6204.0000         0.6855       3319.711         0.4107         0.7176       -98.2734      -49.00265      0.3239064
      6204.5000         0.6837       3277.379         0.4298         0.7142       -99.1838      -49.91119        0.31111
      6205.0000         0.6859        3246.57         0.4452          0.692       -99.8578      -50.58334      0.3016431
      6205.5000         0.6867       3255.637          0.453         0.6882       -97.4611      -48.18478      0.3354256
      6206.0000         0.6932       3364.746         0.4561          0.713       -95.4515      -46.17332       0.363756
      6206.5000         0.7071       3450.055         0.4416         0.7388       -97.9238      -48.64377       0.328961
      6207.0000         0.7212       3632.504         0.4246         0.7465      -103.4316      -54.14972      0.2514125
      6207.5000         0.7097       3777.578         0.4035         0.7248      -107.0532      -57.76946      0.2004302
      6208.0000         0.6823       3919.848         0.3846         0.6931      -109.4224      -60.13681      0.1670872
      6208.5000         0.6674       4110.016         0.3686         0.6918      -110.9653      -61.67785      0.1453824
      6209.0000         0.6769       4270.422         0.3549         0.6986      -112.3184      -63.02909      0.1263508
      6209.5000         0.6718       4361.195         0.3449         0.6769      -114.4221      -65.13094     0.09674738
      6210.0000         0.6448       4423.063         0.3386         0.6592      -116.4756      -67.18259      0.0678509
      6210.5000         0.6461       4485.977          0.342         0.6781      -117.9028      -68.60793      0.0477757
