#------------------------------------------------------------------------------
# Created by    : vladimir.rabinovich
# Created on    : 09/19/2023 17:22:39
#------------------------------------------------------------------------------
~Version Information Section
VERS.           2.0     :   CWLS log ASCII Standard - VERSION 2.0
WRAP.           NO      :   One line per depth step
~Well Information Section
#MNEM       .UNIT                                         VALUE :DESCRIPTION
#------------------------------------------------------------------------------
STRT        .FT                                            3493 :START DEPTH
STOP        .FT                                            8566 :STOP DEPTH
STEP        .FT                                             0.5 :STEP      
NULL        .                                           -999.25 :NULL      
COMP        .                          SEAGULL ENERGY E & P INC :COMPANY   
WELL        .                               OCS G09038 ST00BP00 :WELL      
FLD         .                                           WILDCAT :FIELD     
LOC         .                                                   :LOCATION  
CNTY        .                             GALVESTON LARGE BLOCK :LOCATION  
STAT        .                                             TEXAS :STATE     
CTRY        .                                     UNITED STATES :COUNTRY   
SRVC        .                                                   :SERVICE COMPANY
DATE        .                             9/13/2023 11:19:36 AM :LOG DATE  
API         .                                    42706402070000 :API NUMBER
UWI         .                                    42706402070000 :UNIQUE WELL ID
XCOORD      .                                  986976.405819811 :SURFACE X 
YCOORD      .                                  10491452.3738699 :SURFACE Y 
LAT         .                                         28.894171 :LATITUDE  
LON         .                                        -95.042508 :LONGITUDE 
ELEV        .FT                                              93 :ELEVATION VALUE
ELEV_TYPE   .                                                KB :ELEVATION REFERENCE TYPE
~Curve Information Section
#MNEM       .UNIT                                      API CODE :CURVE DESCRIPTION
#------------------------------------------------------------------------------
DEPT        .FT                                                 :DEPTH     
DCAL        .IN                                                 :          
DPHI        .%                                                  :          
DRHO        .G/C3                                               :          
GR          .GAPI                                               :          
GR_NORM     .GAPI                                               :GammaRay Normalized
ILD         .OHMM                                               :          
ILM         .OHMM                                               :          
NPHI        .%                                                  :          
SGRD        .OHMM                                               :          
SP          .MV                                                 :          
SP_NORM     .MV                                                 :SP Normalized
VSH_GR      .V/V                                                :Volume of Shale from GR
VSH_SP      .V/V                                                :Volume of Shale from SP
~A        DEPTH           DCAL           DPHI           DRHO             GR        GR_NORM            ILD            ILM           NPHI           SGRD             SP        SP_NORM         VSH_GR         VSH_SP
# ...
      6191.0000         1.6679        20.4991         0.0309        79.7134       81.92757         0.8269         0.8925        42.2938          1.113       -50.1315      -1.376686              1       0.980333
      6191.5000         1.6947        20.8131          0.027        81.2269       83.60418         0.8146         0.9006        41.9243         1.1019       -50.5276      -1.771423              1       0.974694
      6192.0000         1.6966        21.1167         0.0272        82.2144       84.69633         0.8055         0.9055        41.4787         1.0744       -51.3055      -2.547966              1      0.9636005
      6192.5000          1.621        21.3522         0.0306        80.2766       82.53816         0.8021         0.9065        40.9775         1.0424       -52.1801      -3.421207              1      0.9511256
      6193.0000         1.5186        21.5443         0.0391          79.02       81.13686         0.8026         0.9076        40.5227         1.0639       -53.0373      -4.277046              1      0.9388993
      6193.5000         1.4756        21.5834         0.0515        77.6169       79.57281         0.8037         0.9082        40.0576         1.0955       -54.0508      -5.289188      0.9909108      0.9244401
      6194.0000         1.4876        21.4612          0.062        75.8145       77.56507          0.806         0.9072        39.6208         1.1238       -54.1563       -5.39333       0.948193      0.9229524
      6194.5000         1.5459        21.2663         0.0658        76.5215       78.34557         0.8099         0.9057        39.9575         1.1461       -52.9591      -4.194767      0.9647993      0.9400747
      6195.0000         1.6034        21.0917         0.0649         77.906       79.87883         0.8131         0.9038         40.899           1.16       -51.7496       -2.98391      0.9974219      0.9573727
      6195.5000         1.6633        21.0868         0.0589        78.5929       80.63699         0.8152         0.9011        41.8605          1.145       -50.5959      -1.828854              1      0.9738735
      6196.0000         1.7237        21.1476         0.0504        78.9828       81.06515         0.8177         0.8979        42.8324         1.1041        -49.627      -0.858593              1      0.9877344
      6196.5000         1.7709        20.8513         0.0428        76.3193       78.10063          0.819         0.8892        43.6575          1.059       -49.3817     -0.6119308      0.9595879      0.9912581
      6197.0000         1.7816        20.5605         0.0358        74.3431        75.8998         0.8201         0.8792        43.1171         1.0454       -49.8745      -1.103374      0.9127616      0.9842375
      6197.5000         1.7628        20.6022         0.0316        73.2167       74.64317         0.8199         0.8632        42.4588         1.0748       -50.6362      -1.863716      0.8860248      0.9733755
      6198.0000          1.744        20.2337         0.0475        72.0444       73.33556         0.8162         0.8506        41.7649         1.0992       -51.0614      -2.287556      0.8582033      0.9673206
      6198.5000         1.7307         19.555          0.063        71.9899       73.26993         0.8082         0.8467        41.1716         1.1202       -50.6443      -1.869095       0.856807      0.9732987
      6199.0000         1.7283        19.8853         0.0744        75.3392       76.98631         0.7964         0.8422        42.1941         1.1107       -49.8168      -1.040237       0.935879      0.9851395
      6199.5000         1.7203        20.3068          0.082        80.3958       82.59969         0.7839          0.824        44.0994          1.072       -49.1525     -0.3745766              1      0.9946489
      6200.0000          1.765        20.9459         0.0911        83.9146       86.50439         0.7703         0.7809        45.0273         0.9935       -47.3428       1.436481              1              1
      6200.5000         1.7696        21.1393         0.0846         84.615       87.27755          0.757         0.7519        45.8553         1.0017        -47.183       1.597641              1              1
      6201.0000         1.7412        21.1098         0.0718        83.7258       86.28448         0.7461         0.7855         46.613         1.0133       -47.2899         1.4921              1              1
      6201.5000         1.7395         21.058         0.0553        82.8057        85.2571          0.736         0.8004        46.3828          1.011       -47.5999        1.18346              1              1
      6202.0000         1.7447         21.247         0.0428        81.7067       84.03091         0.7311         0.7794        45.9833         0.9946       -48.0233      0.7614174              1              1
      6202.5000          1.752        21.2253          0.037        80.3792       82.55086         0.7282         0.7973         45.435         0.9879       -48.5579      0.2281761              1              1
      6203.0000         1.7366        21.1015         0.0342        79.3174         81.366         0.7249         0.8106        44.6999         0.9962       -49.3036     -0.5161629              1      0.9926262
      6203.5000         1.6915        20.9829         0.0329        78.9858       80.99249          0.721         0.8031         44.244         1.0247       -50.3021      -1.513306              1      0.9783813
      6204.0000         1.5798        20.8563         0.0343        80.6312       82.81565         0.7167         0.8023        43.7554         1.0594       -51.4868      -2.696648              1      0.9614764
      6204.5000         1.4542        20.6433         0.0409        79.8229       81.91247         0.7141         0.8013        43.0536          1.073       -53.4438      -4.652287              1      0.9335387
      6205.0000         1.3379        20.3959         0.0497         78.884       80.86419         0.7129         0.8044        43.5656         1.0385       -57.0948      -8.301926              1      0.8814011
      6205.5000         1.2112        21.0373         0.0575        77.1691       78.95367         0.7146         0.8088        43.5389         1.0063       -61.4064      -12.61217      0.9777377      0.8198262
      6206.0000         1.0801        21.9105         0.0632        73.1605       74.49461         0.7219         0.8145        42.2695         1.0106       -66.7114      -17.91581      0.8828641      0.7440599
      6206.5000         0.9837        23.0436         0.0655        68.0269       68.78555         0.7317         0.8197        40.3434         1.1408       -69.0006      -20.20365      0.7613946      0.7113764
      6207.0000          0.936        24.0913         0.0648        68.8092        69.6497           0.74          0.819        38.7009         1.2751       -64.5059      -15.70759      0.7797809      0.7756059
      6207.5000         0.9268         24.414         0.0708          73.24       74.56774         0.7474         0.8113        37.7211         1.3163       -58.8879      -10.08823        0.88442      0.8558824
      6208.0000         0.9408        23.7921         0.0748        80.3083       82.41634         0.7575         0.8101        37.6724         1.2352        -54.184      -5.382969              1      0.9231005
      6208.5000         0.9835        22.9545         0.0732        85.7301       88.43551         0.7687          0.809        38.1313         1.1237       -51.2433      -2.440914              1      0.9651298
      6209.0000         1.0714        22.0783         0.0677        87.3525        90.2331         0.7845         0.8079        38.3483         1.0428       -49.9677      -1.163952              1      0.9833721
      6209.5000         1.1603        21.2229         0.0619        85.5414       88.21571          0.798         0.8113        39.0424         1.0197       -49.7974     -0.9922943              1      0.9858243
