#------------------------------------------------------------------------------
# Created by    : vladimir.rabinovich
# Created on    : 09/19/2023 17:20:49
#------------------------------------------------------------------------------
~Version Information Section
VERS.           2.0     :   CWLS log ASCII Standard - VERSION 2.0
WRAP.           NO      :   One line per depth step
~Well Information Section
#MNEM       .UNIT                                         VALUE :DESCRIPTION
#------------------------------------------------------------------------------
STRT        .FT                                             507 :START DEPTH
STOP        .FT                                            6530 :STOP DEPTH
STEP        .FT                                             0.5 :STEP      
NULL        .                                           -999.25 :NULL      
COMP        .                                      SHELL OIL CO :COMPANY   
WELL        .                                ST TR 00692-L SE/4 :WELL      
FLD         .                                           WILDCAT :FIELD     
LOC         .                                                   :LOCATION  
CNTY        .                      MATAGORDA ISLAND LARGE BLOCK :LOCATION  
STAT        .                                             TEXAS :STATE     
CTRY        .                                     UNITED STATES :COUNTRY   
SRVC        .                                                   :SERVICE COMPANY
DATE        .                             9/13/2023 11:12:05 AM :LOG DATE  
API         .                                    42703000180000 :API NUMBER
UWI         .                                    42703000180000 :UNIQUE WELL ID
XCOORD      .                                  399042.886430441 :SURFACE X 
YCOORD      .                                  10159669.4462586 :SURFACE Y 
LAT         .                                        27.9430215 :LATITUDE  
LON         .                                       -96.8445442 :LONGITUDE 
ELEV        .FT                                              84 :ELEVATION VALUE
ELEV_TYPE   .                                                DF :ELEVATION REFERENCE TYPE
~Curve Information Section
#MNEM       .UNIT                                      API CODE :CURVE DESCRIPTION
#------------------------------------------------------------------------------
DEPT        .FT                                                 :DEPTH     
ASN         .OHMM                                               :          
CILD        .MMHO                                               :          
ILD         .OHMM                                               :          
SP          .MV                                                 :          
SP_NORM     .MV                                                 :SP Normalized
VSH_SP      .V/V                                                :Volume of Shale from SP
~A        DEPTH            ASN           CILD            ILD             SP        SP_NORM         VSH_SP
# ...
      4915.0000         0.8594       1290.471          0.758       -37.8232          0.302              1
      4915.5000         0.8587       1297.719         0.7547       -37.7596         0.3697              1
      4916.0000          0.858       1304.078         0.7535        -37.696         0.4374              1
      4916.5000         0.8573       1307.789         0.7557       -37.6324         0.5051              1
      4917.0000         0.8567       1302.613         0.7578       -37.4603         0.6814              1
      4917.5000          0.856       1293.598           0.76       -37.2816         0.8642              1
      4918.0000         0.8553       1284.277         0.7622       -37.1028         1.0471              1
      4918.5000         0.8604       1272.301         0.7644       -36.9242         1.2298              1
      4919.0000         0.8665       1260.338         0.7665       -36.7455         1.4126              1
      4919.5000         0.8726       1253.736         0.7687       -36.3708         1.7914              1
      4920.0000         0.8784       1247.854         0.7709       -37.4752         0.6911              1
      4920.5000         0.8843       1241.971         0.7735       -38.9203        -0.7498              1
      4921.0000         0.8901       1232.602         0.7928       -39.2938        -1.1192              1
      4921.5000         0.9046       1221.924          0.812        -39.528        -1.3493              1
      4922.0000         0.9199       1198.477         0.8313       -39.7624        -1.5796              1
      4922.5000         0.9352       1163.846         0.8506       -39.9966        -1.8097              1
      4923.0000         0.9582       1124.492         0.8698       -40.2311        -2.0401      0.9993317
      4923.5000         0.9834       1065.463         0.8891       -40.1107        -1.9156              1
      4924.0000         1.0086       1030.338         0.9401       -39.9206        -1.7213              1
      4924.5000         1.0412       1003.938         1.0062       -39.7305        -1.5271              1
      4925.0000         1.0748       981.0352         1.0631       -39.7065         -1.499              1
      4925.5000         1.1095       955.9082         1.1039       -39.8665        -1.6549              1
      4926.0000         1.1443       931.0156         1.0691       -41.1303        -2.9146      0.9847566
      4926.5000         1.1791       908.2734         1.0121       -48.8076       -10.5878        0.85687
      4927.0000         1.2203       929.3838         0.9549        -50.399       -12.1751       0.830415
      4927.5000         1.2749       952.4473         0.9026       -51.2437       -13.0156      0.8164067
      4928.0000         1.2783       994.9893          0.861       -51.5038       -13.2716        0.81214
      4928.5000          1.239       1047.318         0.8193        -51.764       -13.5277      0.8078716
      4929.0000         1.1946       1157.172         0.7776       -52.0212       -13.7808      0.8036534
      4929.5000          1.169       1267.123          0.736       -52.2697       -14.0252        0.79958
      4930.0000          1.146       1377.074         0.6943       -52.5854       -14.3368      0.7943867
      4930.5000          1.153       1486.926         0.6527       -57.2681       -19.0154        0.71641
      4931.0000         1.1495       1571.107         0.6122       -70.3743       -32.1174      0.4980433
      4931.5000         1.1461       1592.428          0.589       -71.0051       -32.7441      0.4875984
      4932.0000         1.1426       1696.842         0.5658       -71.4666       -33.2015       0.479975
      4932.5000         1.0989       1921.293         0.5427        -71.861       -33.5918        0.47347
      4933.0000         1.0579        1940.76         0.5165       -72.2012       -33.9279      0.4678684
      4933.5000         1.0214       2010.482         0.4899       -72.5366       -34.2592      0.4623466
      4934.0000         0.9879       2028.219         0.4678       -72.7321       -34.4506      0.4591567
      4934.5000         0.9315       2049.996         0.4483       -72.8219       -34.5362        0.45773
      4935.0000         0.8963       2093.699         0.4488       -72.5383       -34.2485       0.462525
      4935.5000         0.8741       2156.313         0.4601       -72.1318       -33.8379      0.4693684
      4936.0000         0.8544       2221.398         0.4715       -71.3639       -33.0659       0.482235
      4936.5000         0.8466       2092.066         0.5118       -70.5955       -32.2934        0.49511
      4937.0000         0.8388       1998.975         0.5567       -69.6615       -31.3553       0.510745
      4937.5000         0.8672         1910.5         0.6016        -68.598       -30.2877      0.5285383
      4938.0000         0.9068           1734         0.6572       -67.5347       -29.2202        0.54633
      4938.5000         0.9389       1557.625         0.7172        -64.819       -26.5004        0.59166
      4939.0000         0.9709        1381.25          0.774       -60.9667        -22.644      0.6559333
      4939.5000         0.9958       1239.883         0.8123       -55.3098        -16.983      0.7502834
      4940.0000         1.0182       1130.871         0.8506       -51.0212       -12.6903      0.8218283
      4940.5000         1.0406       1071.865         0.8889       -48.4084       -10.0734      0.8654433
      4941.0000         1.0683       1043.611         0.9273       -47.6431         -9.304      0.8782667
      4941.5000          1.097       1020.944         0.9655       -47.0382        -8.6949      0.8884183
      4942.0000         1.1257       999.4385         1.0027       -46.2471        -7.8997      0.9016716
      4942.5000         1.1545       982.7529         1.0399        -45.817        -7.4655      0.9089083
      4943.0000          1.181       967.5254         1.0764       -45.3259        -6.9703      0.9171616
      4943.5000         1.2041       941.6699         1.0999       -44.6492        -6.2895      0.9285083
      4944.0000         1.2348       920.1641         1.1233       -44.2355        -5.8717      0.9354717
      4944.5000         1.2736        894.876         1.1557       -43.8484        -5.4805      0.9419917
      4945.0000         1.2975       860.1211         1.1893       -43.4413        -5.0692      0.9488466
      4945.5000         1.3178       814.4639         1.2229       -43.1912         -4.815      0.9530833
      4946.0000         1.3194       795.6162         1.2284       -43.0191        -4.6388        0.95602
      4946.5000         1.3209       803.1182         1.2226       -42.8948        -4.5104        0.95816
      4947.0000         1.3224       810.6143         1.2168       -42.7704        -4.3819      0.9603017
      4947.5000         1.3209       818.1162         1.2109        -42.596        -4.2034      0.9632767
      4948.0000         1.3186       825.2607         1.1981       -42.4096        -4.0129      0.9664516
      4948.5000         1.3163        831.415         1.1824       -42.3745        -3.9736      0.9671066
      4949.0000         1.3098       837.5645         1.1668       -42.8327        -4.4277      0.9595383
      4949.5000         1.2976       843.7197         1.1493        -43.291        -4.8819      0.9519683
      4950.0000         1.2853       850.2207         1.1311       -43.7493        -5.3361      0.9443983
      4950.5000          1.261       856.7832         1.1128        -44.343        -5.9257      0.9345717
      4951.0000         1.2365       866.1396         1.0946        -45.189        -6.7676        0.92054
      4951.5000         1.2066       880.2422         1.0764       -46.0275         -7.602      0.9066333
      4952.0000         1.1837        894.752         1.0581        -46.729        -8.2993      0.8950117
      4952.5000         1.1687       917.6172          1.036       -47.3013        -8.8675      0.8855417
