#------------------------------------------------------------------------------
# Created by    : vladimir.rabinovich
# Created on    : 09/19/2023 17:22:17
#------------------------------------------------------------------------------
~Version Information Section
VERS.           2.0     :   CWLS log ASCII Standard - VERSION 2.0
WRAP.           NO      :   One line per depth step
~Well Information Section
#MNEM       .UNIT                                         VALUE :DESCRIPTION
#------------------------------------------------------------------------------
STRT        .FT                                             996 :START DEPTH
STOP        .FT                                            8436 :STOP DEPTH
STEP        .FT                                             0.5 :STEP      
NULL        .                                           -999.25 :NULL      
COMP        .                                    TDC ENERGY LLC :COMPANY   
WELL        .                               OCS G03738 ST00BP00 :WELL      
FLD         .                              GALVESTON BLOCK 0255 :FIELD     
LOC         .                                                   :LOCATION  
CNTY        .                             GALVESTON LARGE BLOCK :LOCATION  
STAT        .                                             TEXAS :STATE     
CTRY        .                                     UNITED STATES :COUNTRY   
SRVC        .                                                   :SERVICE COMPANY
DATE        .                             9/13/2023 11:18:53 AM :LOG DATE  
API         .                                    42706400460000 :API NUMBER
UWI         .                                    42706400460000 :UNIQUE WELL ID
XCOORD      .                                   1080542.6436948 :SURFACE X 
YCOORD      .                                  10548065.2081286 :SURFACE Y 
LAT         .                                        29.0539695 :LATITUDE  
LON         .                                       -94.7527854 :LONGITUDE 
ELEV        .FT                                              94 :ELEVATION VALUE
ELEV_TYPE   .                                                KB :ELEVATION REFERENCE TYPE
~Curve Information Section
#MNEM       .UNIT                                      API CODE :CURVE DESCRIPTION
#------------------------------------------------------------------------------
DEPT        .FT                                                 :DEPTH     
CALI        .IN                                                 :          
CILD        .MMHO                                               :          
DT          .US/F                                               :          
GR          .GAPI                                               :          
GR_NORM     .GAPI                                               :GammaRay Normalized
ILD         .OHMM                                               :          
ILM         .OHMM                                               :          
RHOB        .G/C3                                               :          
SFL         .OHMM                                               :          
SP          .MV                                                 :          
SP_NORM     .MV                                                 :SP Normalized
VSH_GR      .V/V                                                :Volume of Shale from GR
VSH_SP      .V/V                                                :Volume of Shale from SP
~A        DEPTH           CALI           CILD             DT             GR        GR_NORM            ILD            ILM           RHOB            SFL             SP        SP_NORM         VSH_GR         VSH_SP
# ...
      7437.0000        13.2046       2178.059       111.7461        59.7422       54.19577         0.4538         0.5378          1.953         0.6597       -82.2148        -38.147      0.4509738        0.23706
      7437.5000        13.2176       2175.297       111.7598         57.498       51.08712         0.4558         0.5506         1.9529         0.7104       -84.3906       -40.3228      0.3848323      0.1935439
      7438.0000        13.2306       2187.469       110.4746        56.2261       49.32529         0.4571         0.5515         1.9492         0.7616       -86.0957       -42.0279      0.3473465      0.1594419
      7438.5000        13.2336       2212.313       108.6836        56.0276       49.05033         0.4544           0.54         1.9451           0.78       -87.2031       -43.1353      0.3414963      0.1372939
      7439.0000        13.2338       2244.656       106.2539        56.5312       49.74791         0.4508         0.5232         1.9402         0.7944       -86.5098      -42.44201      0.3563386      0.1511599
      7439.5000        13.2268       2259.563       102.9531        57.0859       50.51628          0.448         0.5124         1.9343         0.8069       -82.8984       -38.8306      0.3726868       0.223388
      7440.0000         13.206       2206.313       100.6406        58.5547       52.55085         0.4464         0.5037         1.9308         0.8167       -76.6328        -32.565      0.4159756         0.3487
      7440.5000        13.1852       2136.875       100.4102        61.5781       56.73885         0.4552         0.5116         1.9285         0.8146       -61.4766       -17.4088      0.5050818      0.6518239
      7441.0000        13.1757        2060.75       105.2969        64.2773       60.47777         0.4868         0.5266         1.9265         0.7852        -55.168       -11.1002      0.5846334       0.777996
      7441.5000        13.1675       1959.375       114.5547        66.1309       63.04536         0.5281         0.5532          1.924         0.7647       -50.7793      -6.711502      0.6392631        0.86577
      7442.0000        13.1884         1824.5       120.9531        67.5566       65.02025         0.5641         0.5827         1.9267         0.7518        -48.959      -4.891201      0.6812819       0.902176
      7442.5000        13.2344        1674.25       123.6113        69.1387       67.21176          0.598         0.6229         1.9328         0.7447       -47.5547        -3.4869      0.7279098       0.930262
      7443.0000        13.2968         1497.5       121.5313        70.7559       69.45189         0.6353         0.6671          1.948         0.7271       -46.6533      -2.585503      0.7755721      0.9482899
      7443.5000        13.3627       1349.188       118.2109        72.2637        71.5405         0.6695         0.7179         1.9652         0.7157       -46.0669        -1.9991      0.8200105       0.960018
      7444.0000        13.4409       1296.719       115.0156        73.6953       73.52354         0.7017         0.7489         1.9837         0.7498       -45.5376      -1.469803      0.8622029      0.9706039
      7444.5000        13.5192       1278.646       113.8477        75.1074       75.47957         0.7341         0.7725         1.9993          0.803       -44.9453     -0.8775024      0.9038206      0.9824499
      7445.0000        13.6058       1278.943       115.3379        76.4512         77.341         0.7617         0.7888          2.007         0.8587       -44.2988     -0.2310028      0.9434254      0.9953799
      7445.5000        13.6684       1279.242       116.2969        77.9805       79.45937          0.771         0.7962         2.0115         0.8888       -43.6855      0.3822975      0.9884973              1
      7446.0000        13.6972       1282.488       116.0361         79.709       81.85368         0.7678         0.7947         2.0137         0.8427       -43.1143      0.9534988              1              1
      7446.5000        13.6974       1285.813       115.1563        80.8945       83.49583         0.7629           0.79         2.0155         0.8021       -42.6396         1.4282              1              1
      7447.0000        13.6833        1280.68       114.7812        81.5342       84.38195         0.7573         0.7838         2.0188         0.8097       -42.3457       1.722099              1              1
      7447.5000        13.7134       1274.539       116.2578        81.8912       84.87646         0.7526         0.7772         2.0246          0.825       -42.1707       1.897099              1              1
      7448.0000        13.8105       1278.727       117.3344        81.9019       84.89128         0.7484         0.7718         2.0287         0.8423       -42.1002       1.967598              1              1
      7448.5000        13.9731       1287.469       117.4265        81.5288       84.37447         0.7447         0.7684         2.0236         0.8436       -42.0407         2.0271              1              1
      7449.0000        14.0177       1299.563       117.6328        81.1755       83.88507         0.7426          0.765         2.0207         0.8441       -41.9909         2.0769              1              1
      7449.5000        14.0364       1320.688       117.8718        80.9705        83.6011         0.7405          0.762         2.0156         0.8356       -41.9156       2.152199              1              1
      7450.0000         14.065       1341.844       118.1108        80.7654       83.31702         0.7387         0.7593         2.0081         0.8266       -41.8127         2.2551              1              1
      7450.5000         14.076       1353.906       119.8262        80.5906       83.07487         0.7361         0.7587         2.0012         0.8212       -41.7189         2.3489              1              1
      7451.0000        14.0034       1364.438       121.8789        80.4421       82.86918         0.7317         0.7582         2.0101         0.8163        -41.642         2.4258              1              1
      7451.5000        13.9308       1374.711       123.2305        80.2847       82.65114         0.7275         0.7579         2.0186         0.8127       -41.5651       2.502697              1              1
      7452.0000        13.8757       1382.305       121.9063        79.8545       82.05522         0.7255         0.7596         2.0246         0.8125       -41.5544       2.513397              1              1
      7452.5000        13.8882       1389.906       120.0215        79.4204       81.45393         0.7236         0.7606         2.0172         0.8122       -41.5928       2.474998              1              1
      7453.0000        13.9008       1397.508       118.4434        78.9819       80.84651         0.7205         0.7592         2.0079         0.8099       -41.6348       2.432999              1              1
      7453.5000        13.9515       1403.797       116.9902        79.1816       81.12313         0.7172         0.7577         2.0007         0.8066       -41.7925       2.275299              1              1
      7454.0000        14.0102       1409.867       116.0205         79.751       81.91187         0.7143         0.7562         1.9968         0.8083       -41.9502       2.117599              1              1
      7454.5000        14.0533        1415.93        116.791        80.5068       82.95879         0.7125         0.7521         1.9945          0.819       -41.9658       2.101997              1              1
      7455.0000         13.906       1411.938       117.4658        81.2627       84.00586         0.7107         0.7476         1.9943         0.8497       -41.9146       2.153198              1              1
      7455.5000        13.8827       1406.195       117.8613        82.0195       85.05418         0.7116         0.7431         1.9956         0.8873       -41.8637       2.204098              1              1
