#------------------------------------------------------------------------------
# Created by    : vladimir.rabinovich
# Created on    : 09/19/2023 17:22:25
#------------------------------------------------------------------------------
~Version Information Section
VERS.           2.0     :   CWLS log ASCII Standard - VERSION 2.0
WRAP.           NO      :   One line per depth step
~Well Information Section
#MNEM       .UNIT                                         VALUE :DESCRIPTION
#------------------------------------------------------------------------------
STRT        .FT                                            3984 :START DEPTH
STOP        .FT                                           14348 :STOP DEPTH
STEP        .FT                                             0.5 :STEP      
NULL        .                                           -999.25 :NULL      
COMP        .                                  CNG PRODUCING CO :COMPANY   
WELL        .                               OCS G07292 ST00BP00 :WELL      
FLD         .                                           WILDCAT :FIELD     
LOC         .                                                   :LOCATION  
CNTY        .                           HIGH ISLAND LARGE BLOCK :LOCATION  
STAT        .                                             TEXAS :STATE     
CTRY        .                                     UNITED STATES :COUNTRY   
SRVC        .                                                   :SERVICE COMPANY
DATE        .                             9/13/2023 11:19:59 AM :LOG DATE  
API         .                                    42708402890000 :API NUMBER
UWI         .                                    42708402890000 :UNIQUE WELL ID
XCOORD      .                                  1158246.84135722 :SURFACE X 
YCOORD      .                                  10525039.0147689 :SURFACE Y 
LAT         .                                         28.993597 :LATITUDE  
LON         .                                        -94.508673 :LONGITUDE 
ELEV        .FT                                             101 :ELEVATION VALUE
ELEV_TYPE   .                                                KB :ELEVATION REFERENCE TYPE
~Curve Information Section
#MNEM       .UNIT                                      API CODE :CURVE DESCRIPTION
#------------------------------------------------------------------------------
DEPT        .FT                                                 :DEPTH     
CALX        .IN                                                 :          
DTL         .US/F                                               :          
GR          .GAPI                                               :          
GR_NORM     .GAPI                                               :GammaRay Normalized
ILD         .OHMM                                               :          
ILM         .OHMM                                               :          
LL3         .OHMM                                               :          
SP          .MV                                                 :          
SP_NORM     .MV                                                 :SP Normalized
VSH_GR      .V/V                                                :Volume of Shale from GR
VSH_SP      .V/V                                                :Volume of Shale from SP
~A        DEPTH           CALX            DTL             GR        GR_NORM            ILD            ILM            LL3             SP        SP_NORM         VSH_GR         VSH_SP
# ...
     13659.0000        -999.25       124.3281        50.1933       78.92585         0.4352         0.4428         0.6224       -45.4979      -3.739658      0.9771457      0.9465763
     13659.5000        -999.25       125.3706        50.0389       78.63176         0.4371         0.4397         0.5807       -45.7413      -3.983059      0.9708885      0.9430991
     13660.0000        -999.25       126.9811        50.5135       79.53575         0.4305         0.4344         0.5691       -45.3309      -3.572659      0.9901224       0.948962
     13660.5000        -999.25        128.291        50.8015       80.08433         0.4206         0.4264         0.5717       -45.2279      -3.469662              1      0.9504334
     13661.0000        -999.25       129.6038        51.1147       80.68091         0.4117         0.4174         0.5471       -45.0448       -3.28656              1      0.9530491
     13661.5000        -999.25       130.4973        51.6707       81.73996          0.403         0.4085         0.5185       -44.8719      -3.113659              1      0.9555191
     13662.0000        -999.25       130.5647        52.2064       82.76033         0.3932         0.4004         0.5349       -44.8973      -3.139061              1      0.9551563
     13662.5000        -999.25       130.6562        52.6741       83.65118          0.383         0.3931         0.5564       -44.9997      -3.241459              1      0.9536934
     13663.0000        -999.25       131.2041        53.0724       84.40985         0.3725         0.3866         0.5506       -44.9975      -3.239262              1      0.9537249
     13663.5000        -999.25        131.615        53.4733       85.17349         0.3636         0.3806         0.5221       -44.9843      -3.226059              1      0.9539135
     13664.0000        -999.25       132.1709         53.825       85.84339         0.3555          0.374         0.5164        -45.116      -3.357761              1       0.952032
     13664.5000        -999.25       132.9912         54.036       86.24529         0.3477         0.3683         0.5147       -45.2844      -3.526161              1      0.9496263
     13665.0000        -999.25       133.9404        54.1292       86.42282         0.3418         0.3626         0.5122        -45.186      -3.427761              1       0.951032
     13665.5000        -999.25       134.7556         53.951       86.08337         0.3411         0.3602         0.5086       -44.9559      -3.197659              1      0.9543192
     13666.0000        -999.25       135.6292        53.4178       85.06776         0.3476         0.3655         0.4755       -44.7986      -3.040359              1      0.9565663
     13666.5000        -999.25       136.1238        53.1307        84.5209         0.3522         0.3751          0.468       -44.7385      -2.980259              1      0.9574249
     13667.0000        -999.25       134.8264        53.2802       84.80568         0.3533          0.381         0.4895       -44.9351      -3.176861              1      0.9546162
     13667.5000        -999.25       131.2319        53.5054       85.23462         0.3524         0.3861         0.5617       -45.2686      -3.510361              1       0.949852
     13668.0000        -999.25       128.2583        53.6567       85.52281         0.3527         0.3869         0.5576       -45.7021      -3.943859              1      0.9436591
     13668.5000        -999.25       127.9327        53.0649       84.39558         0.3534         0.3837         0.6104       -44.9634      -3.205162              1       0.954212
     13669.0000        -999.25       129.9192        52.3577       83.04853         0.3548          0.371         0.5278       -44.6282      -2.869961              1      0.9590006
     13669.5000        -999.25       132.8171        51.9423       82.25728         0.3543         0.3656         0.4991        -44.908      -3.149761              1      0.9550034
     13670.0000        -999.25       134.7202        51.3807       81.18757         0.3543         0.3674         0.4939       -45.4651       -3.70686              1      0.9470448
     13670.5000        -999.25        135.499        50.6017       79.70377         0.3538          0.372         0.4926       -45.1021      -3.343861      0.9936972      0.9522306
     13671.0000        -999.25       135.7021        50.5021       79.51405          0.354         0.3754         0.4801       -44.9814       -3.22316      0.9896606      0.9539549
     13671.5000        -999.25       134.5637        51.2698       80.97633         0.3556         0.3802         0.4877       -44.8809      -3.122662              1      0.9553906
     13672.0000        -999.25       132.7161        52.5355       83.38718         0.3593         0.3858         0.5151       -45.4349      -3.676659              1      0.9474763
     13672.5000        -999.25       131.0779        52.5342       83.38472         0.3632         0.3901         0.5353        -45.666      -3.907761              1      0.9441748
     13673.0000        -999.25       130.3333        51.6884       81.77366          0.366          0.393         0.5651       -45.5206       -3.76236              1       0.946252
     13673.5000        -999.25       131.2849        50.5046       79.51881         0.3692          0.387         0.5621       -45.4337      -3.675461      0.9897618      0.9474934
     13674.0000        -999.25       133.1553        50.3206       79.16833         0.3682         0.3806          0.533       -45.6246       -3.86636      0.9823048      0.9447663
     13674.5000        -999.25       134.3367         50.961       80.38814         0.3627         0.3788         0.5001       -45.4973      -3.739059              1      0.9465849
     13675.0000        -999.25       134.5486        51.5762       81.55995         0.3593         0.3817          0.505       -45.3293       -3.57106              1      0.9489849
     13675.5000        -999.25       134.0325        52.1283       82.61158         0.3596         0.3827         0.5088       -45.2304       -3.47216              1      0.9503977
     13676.0000        -999.25       133.0696        52.4472       83.21899         0.3599         0.3847         0.5174       -45.1194       -3.36116              1      0.9519835
     13676.5000        -999.25       131.4741        52.6974       83.69556         0.3601         0.3859         0.5321       -45.0068      -3.248562              1       0.953592
     13677.0000        -999.25       130.3154        53.0151        84.3007         0.3598         0.3859         0.5338       -45.1362       -3.37796              1      0.9517434
     13677.5000        -999.25       130.2046        53.4708       85.16872         0.3585         0.3818         0.5265       -44.2991      -2.540859              1       0.963702
     13678.0000        -999.25       131.1738        54.4288       86.99347         0.3563         0.3768         0.5614       -44.2998      -2.541561              1       0.963692
     13678.5000        -999.25       132.7717        55.7499       89.50986         0.3528          0.372         0.5258       -44.5175      -2.759262              1       0.960582
     13679.0000        -999.25       134.6699         57.008       91.90624         0.3493         0.3684         0.5201       -44.6613      -2.903061              1      0.9585277
     13679.5000        -999.25       136.0808        57.8777       93.56281         0.3468          0.366         0.5268       -44.8135       -3.05526              1      0.9563534
     13680.0000        -999.25        136.636        57.6471       93.12358         0.3457          0.364         0.5202       -44.8119      -3.053661              1      0.9563763
     13680.5000        -999.25       136.5654        57.2682       92.40184         0.3448         0.3635         0.5146       -44.7423      -2.984058              1      0.9573706
     13681.0000        -999.25       136.3005        56.9241       91.74641          0.345         0.3647         0.5017       -44.8557      -3.097462              1      0.9557505
