#------------------------------------------------------------------------------
# Created by    : vladimir.rabinovich
# Created on    : 09/19/2023 17:20:01
#------------------------------------------------------------------------------
~Version Information Section
VERS.           2.0     :   CWLS log ASCII Standard - VERSION 2.0
WRAP.           NO      :   One line per depth step
~Well Information Section
#MNEM       .UNIT                                         VALUE :DESCRIPTION
#------------------------------------------------------------------------------
STRT        .FT                                            3530 :START DEPTH
STOP        .FT                                           11780 :STOP DEPTH
STEP        .FT                                             0.5 :STEP      
NULL        .                                           -999.25 :NULL      
COMP        .                                        TEXACO INC :COMPANY   
WELL        .                                     ST TR 00820-L :WELL      
FLD         .                                           WILDCAT :FIELD     
LOC         .                                                   :LOCATION  
CNTY        .                        MUSTANG ISLAND LARGE BLOCK :LOCATION  
STAT        .                                             TEXAS :STATE     
CTRY        .                                     UNITED STATES :COUNTRY   
SRVC        .                                                   :SERVICE COMPANY
DATE        .                             9/13/2023 11:18:55 AM :LOG DATE  
API         .                                    42702302010000 :API NUMBER
UWI         .                                    42702302010000 :UNIQUE WELL ID
XCOORD      .                                  295719.314319733 :SURFACE X 
YCOORD      .                                  9994218.17259751 :SURFACE Y 
LAT         .                                        27.4796405 :LATITUDE  
LON         .                                       -97.1466422 :LONGITUDE 
ELEV        .FT                                              78 :ELEVATION VALUE
ELEV_TYPE   .                                                KB :ELEVATION REFERENCE TYPE
~Curve Information Section
#MNEM       .UNIT                                      API CODE :CURVE DESCRIPTION
#------------------------------------------------------------------------------
DEPT        .FT                                                 :DEPTH     
ASFL        .OHMM                                               :          
CILD        .MMHO                                               :          
GR          .GAPI                                               :          
GR_NORM     .GAPI                                               :GammaRay Normalized
ILD         .OHMM                                               :          
SP          .MV                                                 :          
SP_NORM     .MV                                                 :SP Normalized
VSH_GR      .V/V                                                :Volume of Shale from GR
VSH_SP      .V/V                                                :Volume of Shale from SP
~A        DEPTH           ASFL           CILD             GR        GR_NORM            ILD             SP        SP_NORM         VSH_GR         VSH_SP
# ...
      4086.5000         1.1538       1900.568        40.7961       52.69244         0.5281      -100.3606      -41.70279      0.4189881      0.4101046
      4087.0000         1.1667       1946.824        39.9277       51.66403         0.5169      -100.4614      -41.80719      0.3971071      0.4085915
      4087.5000         1.1791       1989.588        39.1685       50.76451          0.515      -100.2931      -41.64248      0.3779684      0.4109785
      4088.0000         1.1897        2011.16        38.4597        49.9245         0.5131       -99.6333      -40.98629      0.3600956      0.4204886
      4088.5000         1.2002       2018.822        37.7508       49.08436         0.5112       -98.9729      -40.32949      0.3422204      0.4300074
      4089.0000         1.2107       2025.064        37.0972        48.3095         0.5144       -98.3125      -39.67269       0.325734      0.4395263
      4089.5000          1.222       2005.684        36.4546       47.54762         0.5505       -97.6528      -39.01659      0.3095239      0.4490349
      4090.0000         1.2574       1802.471         35.812       46.78574         0.5867       -96.9924      -38.35979      0.2933137      0.4585538
      4090.5000         1.2927       1706.727        34.4864       45.21765         0.6228        -96.441      -37.81199        0.25995      0.4664929
      4091.0000         1.3324       1618.871        33.1632       43.65239         0.6605       -95.8984      -37.27299      0.2266466      0.4743045
      4091.5000         1.3897       1545.029        32.0757       42.36534          0.716       -95.3562      -36.73439      0.1992626      0.4821102
      4092.0000         1.4652       1472.754        30.9888       41.07901         0.7716        -94.814       -36.1958      0.1718938       0.489916
      4092.5000         1.5564       1366.279        29.2599       39.03485         0.8271       -95.1764      -36.56179      0.1284012      0.4846117
      4093.0000         1.6477       1239.418         27.184       36.58111         0.8826       -96.0547       -37.4437     0.07619379      0.4718305
      4093.5000          1.739       1188.705        27.5958       37.66477         0.9381       -96.9329       -38.3255     0.09925039      0.4590508
      4094.0000         1.8302       1137.941        28.0076       38.18857          0.988       -97.8112       -39.2074      0.1103951      0.4462695
      4094.5000         1.9214       1087.178        28.4194       38.71238         1.0124       -98.0198       -39.4196      0.1215401      0.4431942
      4095.0000         2.0019       1036.414        28.8312       39.23619         1.0317       -97.9523       -39.3557      0.1326849      0.4441203
      4095.5000         2.1608       1005.766        30.2198       41.01111         1.0342       -96.1074       -37.5144      0.1704491      0.4708058
      4096.0000         2.0962       979.0605        31.6866       42.88618         1.0366       -94.1067       -35.5173      0.2103443      0.4997493
      4096.5000         2.0315       960.8945        33.0895       44.67941         1.0391       -90.1261       -31.5403      0.2484981      0.5573869
      4097.0000          1.863       979.4033        34.4238       46.38478         1.0169       -84.8823      -26.30011      0.2847825      0.6333318
      4097.5000         1.7231       997.9014        35.7568       48.08848         0.9917       -81.5093       -22.9307      0.3210315      0.6821637
      4098.0000         1.5762       1034.699         37.884        50.8094         0.9664       -78.7721      -20.19711      0.3789234      0.7217811
      4098.5000         1.3071       1078.064        40.4052       54.03498         0.9262       -76.0791      -17.50771      0.4475528      0.7607579
      4099.0000         1.1721       1121.428        42.1714       56.29353         0.8695       -76.7075       -18.1397       0.495607      0.7515985
      4099.5000         1.0971       1215.164        43.7475        58.3086         0.8129       -82.6926       -24.1284      0.5384808      0.6648058
      4100.0000         1.0482       1351.383        44.3748       59.10842         0.7563       -86.1761      -27.61551      0.5554983       0.614268
      4100.5000         1.0303       1470.844        42.9301       57.25438         0.6931         -89.64      -31.08301      0.5160507      0.5640144
      4101.0000         1.0348       1564.529        41.4853       55.40022         0.6189       -93.2095      -34.65611      0.4766005      0.5122303
      4101.5000         1.0449       1625.828        40.0406       53.54618         0.5505       -96.7838      -38.23401      0.4371527      0.4603767
      4102.0000         1.0604       1687.176        38.5947       51.69061          0.536      -100.1617      -41.61551      0.3976725      0.4113694
      4102.5000         1.0759       1748.475          37.15       49.83657         0.5215      -103.5397      -44.99712      0.3582249      0.3623606
      4103.0000         1.0158       1943.395        35.7053       47.98253          0.507      -106.9152      -48.37621      0.3187773      0.3133882
      4103.5000          0.965       2078.215        34.2777       46.15039         0.4925      -110.2931      -51.75771      0.2797956       0.264381
      4104.0000         0.9447       2109.992        32.8575       44.32774         0.4778      -108.1304      -49.59862      0.2410157      0.2956722
      4104.5000         1.0158       2146.961        32.8527       44.31796         0.4628      -111.1597      -52.63152      0.2408076      0.2517172
      4105.0000         1.0812       2186.527        33.3163       44.90811         0.4478      -117.6664      -59.14182      0.2533641       0.157365
      4105.5000         1.1177        2245.23        32.9732       44.46503         0.4328      -119.7826      -61.26162      0.2439368      0.1266432
      4106.0000         1.1542        2303.98        32.4243       43.75835         0.4178        -122.85      -64.33262      0.2289011     0.08213596
      4106.5000         1.1907        2360.23        31.8753       43.05155         0.4028       -124.755      -66.24122      0.2138627     0.05447509
      4107.0000         1.1747       2425.305        31.3116       42.32591         0.3878      -125.6019      -67.09172      0.1984237     0.04214898
      4107.5000         1.1289       2588.422        30.7466       41.59861         0.3663      -126.2346      -67.72802      0.1829492     0.03292725
      4108.0000          1.095       2817.543         30.182       40.87182         0.3427      -126.5974      -68.09442      0.1674856     0.02761708
      4108.5000          1.061       3046.469        30.1658       40.84745          0.319      -126.4519      -67.95252      0.1669671     0.02967359
      4109.0000         1.0341        3275.59        30.7568       41.60077         0.2953      -125.9889      -67.49313      0.1829951     0.03633151
      4109.5000         1.0274        3423.57        31.3539       42.36192         0.3092      -125.5258      -67.03363      0.1991899     0.04299086
      4110.0000         1.0775       3490.402        31.9916       43.17506         0.3259      -125.0625      -66.57393      0.2164907     0.04965321
      4110.5000         1.1275       3485.309        31.5325       42.58341         0.3558      -124.5994      -66.11443      0.2039023     0.05631267
      4111.0000          1.167       3224.828        30.7709        41.6043         0.3894      -124.0192      -65.53783      0.1830702     0.06466918
      4111.5000         1.2027       2947.688        30.0086       40.62429         0.4229       -123.209      -64.73123      0.1622189     0.07635896
      4112.0000         1.2384       2392.352        29.6005       40.09795         0.4565      -122.3989      -63.92473      0.1510202     0.08804736
      4112.5000         1.2694         2343.5        30.0783        40.7063         0.4901      -121.5894      -63.11883      0.1639639     0.09972708
