#------------------------------------------------------------------------------
# Created by    : vladimir.rabinovich
# Created on    : 09/19/2023 17:20:35
#------------------------------------------------------------------------------
~Version Information Section
VERS.           2.0     :   CWLS log ASCII Standard - VERSION 2.0
WRAP.           NO      :   One line per depth step
~Well Information Section
#MNEM       .UNIT                                         VALUE :DESCRIPTION
#------------------------------------------------------------------------------
STRT        .FT                                             501 :START DEPTH
STOP        .FT                                            8659 :STOP DEPTH
STEP        .FT                                             0.5 :STEP      
NULL        .                                           -999.25 :NULL      
COMP        .                                      SHELL OIL CO :COMPANY   
WELL        .                                OCS 00705 ST00BP00 :WELL      
FLD         .                                           WILDCAT :FIELD     
LOC         .                                                   :LOCATION  
CNTY        .                             GALVESTON LARGE BLOCK :LOCATION  
STAT        .                                             TEXAS :STATE     
CTRY        .                                     UNITED STATES :COUNTRY   
SRVC        .                                                   :SERVICE COMPANY
DATE        .                             9/13/2023 11:19:25 AM :LOG DATE  
API         .                                    42706000440000 :API NUMBER
UWI         .                                    42706000440000 :UNIQUE WELL ID
XCOORD      .                                  1104214.94625617 :SURFACE X 
YCOORD      .                                  10500066.5450575 :SURFACE Y 
LAT         .                                         28.922918 :LATITUDE  
LON         .                                        -94.676571 :LONGITUDE 
ELEV        .FT                                              41 :ELEVATION VALUE
ELEV_TYPE   .                                                KB :ELEVATION REFERENCE TYPE
~Curve Information Section
#MNEM       .UNIT                                      API CODE :CURVE DESCRIPTION
#------------------------------------------------------------------------------
DEPT        .FT                                                 :DEPTH     
ASN         .OHMM                                               :          
CILD        .MMHO                                               :          
DT          .US/F                                               :          
ILD         .OHMM                                               :          
LAT         .OHMM                                               :          
SP          .MV                                                 :          
SP_NORM     .MV                                                 :SP Normalized
VSH_SP      .V/V                                                :Volume of Shale from SP
~A        DEPTH            ASN           CILD             DT            ILD            LAT             SP        SP_NORM         VSH_SP
# ...
      1032.0000         1.2675        -999.25        -999.25         1.3981         1.4855       -50.3258     -0.6457596              1
      1032.5000         1.2672        -999.25        -999.25         1.3826         1.5026       -50.4958     -0.8144722              1
      1033.0000         1.2573        -999.25        -999.25         1.3672         1.5197       -50.6659      -0.983284              1
      1033.5000         1.2464        -999.25        -999.25         1.3517         1.5368       -50.8359      -1.151997              1
      1034.0000         1.2355        -999.25        -999.25         1.3362          1.557        -51.006      -1.320808              1
      1034.5000         1.2246        -999.25        -999.25         1.3208          1.599       -51.0057      -1.319221              1
      1035.0000         1.2137        -999.25        -999.25         1.3053          1.641       -50.8323      -1.144531              1
      1035.5000         1.2028        -999.25        -999.25         1.2899         1.6554       -50.6588     -0.9697456              1
      1036.0000         1.1879        -999.25        -999.25         1.2744         1.6669       -50.4854     -0.7950592              1
      1036.5000         1.1705        -999.25        -999.25         1.2589         1.6683       -50.3119     -0.6202736              1
      1037.0000          1.153        -999.25        -999.25         1.2416         1.6655       -50.1384     -0.4454842              1
      1037.5000         1.1356        -999.25        -999.25         1.2242         1.6588       -49.9649     -0.2706947              1
      1038.0000         1.1225        -999.25        -999.25         1.2069         1.6434       -49.8694     -0.1739082              1
      1038.5000         1.1136        -999.25        -999.25         1.1895          1.628       -49.9308     -0.2340202              1
      1039.0000         1.1139        -999.25        -999.25         1.1722         1.6126       -49.9921     -0.2940331              1
      1039.5000         1.1174        -999.25        -999.25         1.1548         1.5972       -50.0534     -0.3540421              1
      1040.0000         1.1209        -999.25        -999.25         1.1375         1.5819       -50.1049     -0.4042587              1
      1040.5000         1.1135        -999.25        -999.25         1.1201         1.5696       -50.0994     -0.3974686              1
      1041.0000         1.1052        -999.25        -999.25         1.1028         1.5637       -50.0939     -0.3906822              1
      1041.5000         1.0808        -999.25        -999.25         1.0872         1.5579       -50.0884     -0.3838959              1
      1042.0000         1.0554        -999.25        -999.25         1.0945         1.5521       -50.0829     -0.3771095              1
      1042.5000         1.0324        -999.25        -999.25         1.1019         1.5462       -50.0775     -0.3704185              1
      1043.0000         1.0125        -999.25        -999.25         1.1092         1.5404       -49.6551     0.05326462              1
      1043.5000         0.9943        -999.25        -999.25         1.1321         1.5159       -49.2188      0.4908562              1
      1044.0000         0.9901        -999.25        -999.25         1.1982         1.4901       -48.7826      0.9283409              1
      1044.5000         0.9859        -999.25        -999.25         1.2644         1.4643       -48.3464       1.365829              1
      1045.0000         1.0005        -999.25        -999.25         1.3305         1.4334       -47.9102       1.803318              1
      1045.5000         1.0321        -999.25        -999.25         1.3966          1.393       -47.7623       1.952507              1
      1046.0000          1.176        -999.25        -999.25         1.4524         1.3526       -48.0364       1.679691              1
      1046.5000          1.287        -999.25        -999.25         1.4901          1.307       -48.3104       1.406982              1
      1047.0000         1.3361        -999.25        -999.25         1.5279         1.2612       -48.5845       1.134167              1
      1047.5000         1.3727        -999.25        -999.25         1.5656         1.2425       -48.8586      0.8613548              1
      1048.0000         1.4092        -999.25        -999.25         1.5865         1.2307       -49.2017      0.5195465              1
      1048.5000         1.4498        -999.25        -999.25         1.5714         1.2328        -49.641     0.08153152              1
      1049.0000         1.5028        -999.25        -999.25         1.5563         1.2556       -50.0804     -0.3565788              1
      1049.5000         1.5269        -999.25        -999.25         1.5371         1.2785       -50.5199      -0.794796              1
      1050.0000         1.5018        -999.25        -999.25         1.5177         1.3013       -50.9593      -1.232906              1
      1050.5000         1.4683        -999.25        -999.25         1.4982         1.3299       -51.3819      -1.654221              1
      1051.0000         1.4404        -999.25        -999.25         1.4787         1.3601       -51.0732      -1.344231              1
      1051.5000         1.4125        -999.25        -999.25         1.4592         1.3902       -50.7645      -1.034245              1
      1052.0000         1.3847        -999.25        -999.25         1.4397         1.4203       -50.4558     -0.7242546              1
      1052.5000         1.3568        -999.25        -999.25         1.4202         1.4505        -50.176     -0.4431686              1
      1053.0000         1.3292        -999.25        -999.25         1.4007         1.4806       -49.9324     -0.1982803              1
      1053.5000         1.3015        -999.25        -999.25         1.3813         1.5075       -49.6887     0.04670334              1
      1054.0000         1.2738        -999.25        -999.25         1.3618         1.5343       -49.4451      0.2915955              1
      1054.5000         1.2287        -999.25        -999.25         1.3538         1.5611       -49.2014      0.5365791              1
      1055.0000          1.214        -999.25        -999.25          1.349         1.5879       -48.9578      0.7814674              1
      1055.5000         1.2087        -999.25        -999.25         1.3441         1.6147       -48.7141       1.026455              1
      1056.0000         1.2035        -999.25        -999.25         1.3392         1.6221       -48.4705       1.271343              1
      1056.5000         1.1982        -999.25        -999.25         1.3344         1.6222       -48.2267        1.51643              1
      1057.0000         1.1899        -999.25        -999.25         1.3295         1.6169       -48.0342        1.71022              1
      1057.5000         1.1771        -999.25        -999.25         1.3246         1.6004       -48.3227       1.423008              1
      1058.0000         1.1643        -999.25        -999.25         1.3344         1.5839       -48.6289       1.118095              1
      1058.5000         1.1514        -999.25        -999.25         1.3442         1.5675       -49.0949      0.6533852              1
      1059.0000         1.1386        -999.25        -999.25          1.354          1.551        -49.561      0.1885681              1
      1059.5000         1.1254        -999.25        -999.25         1.3637         1.5345       -50.0271     -0.2762413              1
      1060.0000         1.1091        -999.25        -999.25         1.3735         1.5389       -50.4932     -0.7410545              1
      1060.5000         1.0928        -999.25        -999.25         1.3833         1.5443       -50.9593      -1.205868              1
      1061.0000         1.0765        -999.25        -999.25         1.3931         1.5497       -51.4254      -1.670681              1
