#------------------------------------------------------------------------------
# Created by    : vladimir.rabinovich
# Created on    : 09/19/2023 17:20:04
#------------------------------------------------------------------------------
~Version Information Section
VERS.           2.0     :   CWLS log ASCII Standard - VERSION 2.0
WRAP.           NO      :   One line per depth step
~Well Information Section
#MNEM       .UNIT                                         VALUE :DESCRIPTION
#------------------------------------------------------------------------------
STRT        .FT                                             627 :START DEPTH
STOP        .FT                                            8077 :STOP DEPTH
STEP        .FT                                             0.5 :STEP      
NULL        .                                           -999.25 :NULL      
COMP        .                                    MOBIL OIL CORP :COMPANY   
WELL        .                               OCS G02338 ST00BP00 :WELL      
FLD         .                                           WILDCAT :FIELD     
LOC         .                                                   :LOCATION  
CNTY        .                             GALVESTON LARGE BLOCK :LOCATION  
STAT        .                                             TEXAS :STATE     
CTRY        .                                     UNITED STATES :COUNTRY   
SRVC        .                                                   :SERVICE COMPANY
DATE        .                             9/13/2023 11:18:53 AM :LOG DATE  
API         .                                    42706400220000 :API NUMBER
UWI         .                                    42706400220000 :UNIQUE WELL ID
XCOORD      .                                  948421.875172236 :SURFACE X 
YCOORD      .                                   10402667.405867 :SURFACE Y 
LAT         .                                         28.648189 :LATITUDE  
LON         .                                        -95.157922 :LONGITUDE 
ELEV        .FT                                              76 :ELEVATION VALUE
ELEV_TYPE   .                                                KB :ELEVATION REFERENCE TYPE
~Curve Information Section
#MNEM       .UNIT                                      API CODE :CURVE DESCRIPTION
#------------------------------------------------------------------------------
DEPT        .FT                                                 :DEPTH     
ASFL        .OHMM                                               :          
CALI        .IN                                                 :          
CILD        .MMHO                                               :          
DT          .US/F                                               :          
DT_1        .US/F                                               :          
GR          .GAPI                                               :          
GR_NORM     .GAPI                                               :GammaRay Normalized
ILD         .OHMM                                               :          
SFL         .OHMM                                               :          
SP          .MV                                                 :          
SP_NORM     .MV                                                 :SP Normalized
VSH_GR      .V/V                                                :Volume of Shale from GR
VSH_SP      .V/V                                                :Volume of Shale from SP
~A        DEPTH           ASFL           CALI           CILD             DT           DT_1             GR        GR_NORM            ILD            SFL             SP        SP_NORM         VSH_GR         VSH_SP
# ...
      7562.0000         0.8636        10.4297       1398.135       114.5791        -999.25       103.4772       74.90693         0.7025         0.8438       -46.3624     -0.1439209      0.8916368              1
      7562.5000         0.8633        10.3766       1398.334        113.212        -999.25       102.5974        73.8585         0.7038         0.8737       -46.2383    -0.01786804      0.8693298              1
      7563.0000         0.8629        10.3237       1398.236       112.0225        -999.25       103.2454       74.64953         0.7049         0.8886       -46.0583      0.1640892      0.8861602              1
      7563.5000         0.8642        10.2367       1397.457       111.9437        -999.25       105.5284       77.40903         0.7036         0.8869       -45.9228      0.3015442      0.9448731              1
      7564.0000         0.8658        10.2208       1396.676       112.7555        -999.25       108.0458       80.45076         0.7022         0.8719       -45.7053      0.5209961              1              1
      7564.5000         0.8673        10.2542       1395.896       114.1127        -999.25       109.9866       82.79829         0.7001         0.8492       -45.5157      0.7125511              1              1
      7565.0000         0.8689        10.2767       1395.115       114.6046        -999.25       112.1051       85.35974         0.6977         0.8297       -45.3288      0.9014053              1              1
      7565.5000         0.8694         10.204       1394.336       114.1854        -999.25       113.8286       87.44563         0.6939         0.8098       -45.1169       1.115261              1              1
      7566.0000         0.8662        10.1153       1394.215       114.0254        -999.25       113.6544       87.24675         0.6904         0.8116       -44.6951       1.539017              1              1
      7566.5000         0.8629        10.1209       1396.541       114.0038        -999.25       111.8385       85.07129         0.6873         0.8286       -44.3903       1.845768              1              1
      7567.0000         0.8596        10.2615       1398.867       114.0475        -999.25       110.4309       83.38743         0.6844         0.8408       -44.4568       1.781227              1              1
      7567.5000         0.8563        10.3524       1401.191       113.9879        -999.25       109.6899       82.50613         0.6817         0.8361       -44.6845       1.555477              1              1
      7568.0000         0.8538        10.4118        1406.49       114.6575        -999.25       109.5807       82.38551         0.6803         0.8266       -44.9092       1.332733              1              1
      7568.5000         0.8527        10.4045        1412.73       115.6627        -999.25       109.5308       82.33627         0.6793         0.8192       -45.1155       1.128387              1              1
      7569.0000         0.8516        10.3717       1418.977       116.0203        -999.25       109.2534       82.01313         0.6792         0.8159       -45.3038      0.9420433              1              1
      7569.5000         0.8504        10.3362       1425.217       115.5333        -999.25       108.9468       81.65483         0.6791         0.8166       -45.4453      0.8024979              1              1
      7570.0000         0.8493        10.3123       1431.457       114.6401        -999.25       108.6655         81.327          0.678         0.8198       -45.4857      0.7640533              1              1
      7570.5000         0.8482        10.3243       1434.658       113.9678        -999.25       108.2794         80.873         0.6805         0.8259       -45.4943      0.7574043              1              1
      7571.0000         0.8472        10.3271       1437.447       113.5796        -999.25       107.6698        80.1499         0.6804         0.8332       -45.4292      0.8244629              1              1
      7571.5000         0.8462         10.362       1440.236       114.1201        -999.25       106.7943       79.10665         0.6792         0.8404       -45.1887       1.066914      0.9809926              1
      7572.0000         0.8452        10.3979       1443.027       114.8926        -999.25       105.6257       77.71055         0.6792         0.8424       -44.9498        1.30777      0.9512883              1
      7572.5000         0.8442        10.3906       1445.816       115.2795        -999.25       106.4232       78.68155         0.6802         0.8407        -44.798       1.461525      0.9719478              1
      7573.0000         0.8433        10.3478       1448.604       115.4286        -999.25        107.318       79.76972         0.6812         0.8342       -44.7197       1.541779      0.9951004              1
      7573.5000         0.8431        10.3044       1451.393       115.3125        -999.25       107.7218       80.26673         0.6821         0.8224        -44.658       1.605434              1              1
      7574.0000         0.8429        10.3005       1452.113       115.1638        -999.25       106.9877       79.39373          0.682         0.8155       -44.5127       1.752689      0.9871007              1
      7574.5000         0.8427        10.3044       1452.777       115.1036        -999.25       106.1986       78.45453         0.6819         0.8218       -44.3874        1.87994      0.9671176              1
      7575.0000         0.8425        10.3028       1453.441       115.0692        -999.25       105.4924       77.61514         0.6832         0.8421       -44.3521       1.917198      0.9492582              1
      7575.5000         0.8423        10.2914       1454.107       115.0558        -999.25        104.806       76.79956         0.6851         0.8355       -44.4537       1.817551      0.9319056              1
      7576.0000         0.8421        10.2318       1454.518       114.9626        -999.25       104.4034       76.32569         0.6871         0.8218       -44.5899       1.683304      0.9218232              1
      7576.5000         0.8416        10.1664        1452.67       114.9456        -999.25       104.2234       76.11981         0.6891         0.8096       -44.6938        1.58136      0.9174428              1
      7577.0000         0.8391        10.1431       1450.822       115.1962        -999.25       104.2761       76.19411         0.6905         0.8121        -44.855       1.422115      0.9190236              1
      7577.5000         0.8366        10.1142       1448.975       115.5563        -999.25       104.5232       76.50246         0.6922         0.8147       -45.0241       1.254971      0.9255844              1
      7578.0000         0.8341         10.069       1444.807       115.8257        -999.25       104.9093       76.97815          0.694         0.8169       -45.1594       1.121624      0.9357053              1
      7578.5000         0.8316         10.026       1439.391       114.8789        -999.25       105.3855       77.56233         0.6967         0.8223       -45.3256      0.9573784      0.9481347              1
      7579.0000         0.8316        10.0499       1433.977       114.3108        -999.25       106.1134       78.44955         0.7001         0.8257        -45.497      0.7879333      0.9670116              1
      7579.5000         0.8326        10.1072       1451.377       114.0013        -999.25        107.145       79.70241         0.7043         0.8286       -45.6105      0.6763878      0.9936683              1
      7580.0000         0.8336        10.1715       1434.521       113.7382        -999.25       108.3508       81.16501         0.7089         0.8423       -45.6843      0.6045418              1              1
      7580.5000         0.8346        10.1938       1419.979       113.4817        -999.25       108.0314       80.79131         0.7141         0.8702       -45.6458      0.6449966              1              1
