#------------------------------------------------------------------------------
# Created by    : vladimir.rabinovich
# Created on    : 09/19/2023 17:19:50
#------------------------------------------------------------------------------
~Version Information Section
VERS.           2.0     :   CWLS log ASCII Standard - VERSION 2.0
WRAP.           NO      :   One line per depth step
~Well Information Section
#MNEM       .UNIT                                         VALUE :DESCRIPTION
#------------------------------------------------------------------------------
STRT        .FT                                             880 :START DEPTH
STOP        .FT                                            8374 :STOP DEPTH
STEP        .FT                                             0.5 :STEP      
NULL        .                                           -999.25 :NULL      
COMP        .                                        EXXON CORP :COMPANY   
WELL        .                               OCS G04552 ST00BP00 :WELL      
FLD         .                                 BRAZOS BLOCK 0451 :FIELD     
LOC         .                                                   :LOCATION  
CNTY        .                                BRAZOS LARGE BLOCK :LOCATION  
STAT        .                                             TEXAS :STATE     
CTRY        .                                     UNITED STATES :COUNTRY   
SRVC        .                                                   :SERVICE COMPANY
DATE        .                             9/13/2023 11:19:08 AM :LOG DATE  
API         .                                    42704401130000 :API NUMBER
UWI         .                                    42704401130000 :UNIQUE WELL ID
XCOORD      .                                  760277.642000753 :SURFACE X 
YCOORD      .                                  10343629.6463693 :SURFACE Y 
LAT         .                                         28.475327 :LATITUDE  
LON         .                                        -95.739931 :LONGITUDE 
ELEV        .FT                                              95 :ELEVATION VALUE
ELEV_TYPE   .                                                KB :ELEVATION REFERENCE TYPE
~Curve Information Section
#MNEM       .UNIT                                      API CODE :CURVE DESCRIPTION
#------------------------------------------------------------------------------
DEPT        .FT                                                 :DEPTH     
ASFL        .OHMM                                               :          
CALI        .IN                                                 :          
CILD        .MMHO                                               :          
DT          .US/F                                               :          
GR          .GAPI                                               :          
GR_NORM     .GAPI                                               :GammaRay Normalized
ILD         .OHMM                                               :          
ILM         .OHMM                                               :          
RHOB        .G/C3                                               :          
SP          .MV                                                 :          
SP_NORM     .MV                                                 :SP Normalized
VSH_GR      .V/V                                                :Volume of Shale from GR
VSH_SP      .V/V                                                :Volume of Shale from SP
~A        DEPTH           ASFL           CALI           CILD             DT             GR        GR_NORM            ILD            ILM           RHOB             SP        SP_NORM         VSH_GR         VSH_SP
# ...
      5402.0000         1.1411        12.0873       1378.564       128.0703        50.6733       76.34264         0.7091         0.7121         2.2356       -41.2076        -2.8568      0.9221839       0.942864
      5402.5000         1.1432        12.1132       1370.596       127.8203        51.8136       78.54741         0.7078         0.7196         2.2551       -41.1887        -2.8372      0.9690938       0.943256
      5403.0000         1.1453        12.1306       1362.627       126.9043         53.444       81.69946         0.7136         0.7282          2.261       -41.1698        -2.8177              1       0.943646
      5403.5000         1.1474        12.1374       1354.658        125.922        55.9921       86.62558         0.7194         0.7382         2.2557       -41.1652        -2.8124              1       0.943752
      5404.0000         1.1495        12.1332       1345.225       124.5228        57.7924       90.10612         0.7251         0.7456         2.2305         -41.18        -2.8265              1        0.94347
      5404.5000         1.1524        12.1392       1333.967        123.743         58.442       91.36221         0.7309         0.7507         2.1759       -41.1948        -2.8407              1       0.943186
      5405.0000         1.1656        12.1569       1322.707       123.4663        53.3281       81.47521         0.7371         0.7502         2.1649       -41.2096        -2.8548              1       0.942904
      5405.5000          1.168        12.2164       1312.268       123.7057        52.9698       80.78251         0.7437         0.7486         2.1842       -41.2244        -2.8689              1       0.942622
      5406.0000         1.1563        12.2962       1318.547       123.9321        52.7597       80.37631         0.7503         0.7447         2.2351       -41.2392        -2.8831              1       0.942338
      5406.5000         1.1445        12.4081       1324.834       124.1541        52.6447       80.15417         0.7569         0.7404         2.2992       -41.1697        -2.8129              1       0.943742
      5407.0000         1.1326        12.5232       1331.113       123.8632        52.6049       80.07705         0.7554         0.7349         2.3042       -41.0029        -2.6454              1       0.947092
      5407.5000         1.1239        12.6396       1337.395       123.2648        52.6943       80.25006         0.7537         0.7298         2.2983       -40.8361         -2.478              1        0.95044
      5408.0000         1.1328         12.709       1340.934       121.6967        52.7838        80.4231          0.752         0.7276          2.299       -40.6691        -2.3103              1       0.953794
      5408.5000         1.1417        12.7555        1343.18       120.6731        53.3785       81.57265         0.7504         0.7253         2.3335       -40.5122        -2.1527              1       0.956946
      5409.0000         1.1487        12.7504       1345.426       121.0039        55.2921       85.27245         0.7487         0.7233          2.339       -40.3567        -1.9966              1       0.960068
      5409.5000         1.1286        12.7424        1347.67       121.8152        57.8465        90.2107         0.7464         0.7213         2.3103        -40.201        -1.8402              1       0.963196
      5410.0000         1.1177        12.7308       1346.025       122.1334        58.6516       91.76723          0.744         0.7203         2.2816       -40.0962        -1.7348              1       0.965304
      5410.5000          1.107        12.7237       1335.605       122.4517        58.0562       90.61631         0.7415         0.7204          2.279       -40.1159        -1.7538              1       0.964924
      5411.0000         1.1029        12.7251       1325.184       122.2163        57.7293       89.98412         0.7391         0.7208         2.2933       -40.1356        -1.7728              1       0.964544
      5411.5000         1.1012        12.7265       1314.752       121.7906        57.6557       89.84203         0.7366         0.7272         2.2808       -40.1553        -1.7919              1       0.964162
      5412.0000         1.1009         12.723        1304.33       121.9215        57.6519       89.83468         0.7391         0.7337         2.2542        -40.175        -1.8109              1       0.963782
      5412.5000         1.1019        12.7184       1294.311       122.1785        57.5422        89.6224          0.744         0.7419         2.2395       -40.1777        -1.8129              1       0.963742
      5413.0000         1.1069        12.7098       1287.566       121.9211        57.1038       88.77502         0.7489         0.7511         2.2392       -40.1791        -1.8137              1       0.963726
      5413.5000          1.112        12.6621        1280.83       121.3541        56.2073       87.04161          0.754         0.7576         2.2477       -40.1804        -1.8143              1       0.963714
      5414.0000         1.1151        12.6113       1279.934       120.3112        54.7067       84.14049         0.7592         0.7618         2.2775       -40.1817        -1.8149              1       0.963702
      5414.5000         1.1125        12.5129       1284.586       119.4039        53.3023       81.42534         0.7645         0.7628         2.2516       -40.1746        -1.8072              1       0.963856
      5415.0000         1.1099        12.4384       1289.244       118.5436        54.9522       84.61512          0.768          0.763         2.2297       -40.1201         -1.752              1        0.96496
      5415.5000         1.1073        12.3941         1293.9       118.4697        56.5032       87.61369         0.7696         0.7598         2.2307       -40.0657        -1.6969              1       0.966062
      5416.0000         1.1047        12.4576       1298.555       118.6703         57.924       90.36054         0.7711         0.7561         2.2511       -40.0112        -1.6418              1       0.967164
      5416.5000         1.1017          12.69       1303.211       118.8956        58.6646       91.79237         0.7719         0.7515         2.2644       -39.9567        -1.5866              1       0.968268
      5417.0000         1.0978        12.8795       1303.477       118.6888        58.8055       92.06477         0.7728         0.7469         2.2787       -39.9023        -1.5315              1        0.96937
      5417.5000          1.094        12.9693       1303.525       118.4324        58.3007       91.08903         0.7736         0.7423         2.2878       -39.8434         -1.472              1        0.97056
      5418.0000         1.0901        12.9709       1303.572       118.5098        58.0209       90.54787         0.7745          0.741         2.2807       -39.7773        -1.4052              1       0.971896
      5418.5000         1.0877        12.9949       1299.715       118.8287        57.4081       89.36315         0.7781         0.7416         2.2608       -39.7112        -1.3384              1       0.973232
      5419.0000         1.0853        13.0122        1289.23       119.5309        57.0165       88.60607         0.7821         0.7435         2.2604       -39.6451        -1.2717              1       0.974566
      5419.5000         1.0842        13.0247       1278.734       119.9891        56.5372       87.67959          0.786         0.7524         2.2663       -39.6129        -1.2388              1       0.975224
      5420.0000         1.0842        13.0382       1268.252       120.2765        55.7038       86.06821          0.796         0.7626          2.275       -39.5889        -1.2142              1       0.975716
      5420.5000         1.0842        13.0608        1235.35       120.0588        54.6085       83.95082         0.8065         0.7851         2.2775       -39.5649        -1.1895              1        0.97621
