#------------------------------------------------------------------------------
# Created by    : vladimir.rabinovich
# Created on    : 09/19/2023 17:22:54
#------------------------------------------------------------------------------
~Version Information Section
VERS.           2.0     :   CWLS log ASCII Standard - VERSION 2.0
WRAP.           NO      :   One line per depth step
~Well Information Section
#MNEM       .UNIT                                         VALUE :DESCRIPTION
#------------------------------------------------------------------------------
STRT        .FT                                            1705 :START DEPTH
STOP        .FT                                           10298 :STOP DEPTH
STEP        .FT                                             0.5 :STEP      
NULL        .                                           -999.25 :NULL      
COMP        .                            STANOLIND OIL & GAS CO :COMPANY   
WELL        .                                       ST TR 00219 :WELL      
FLD         .                                           WILDCAT :FIELD     
LOC         .                                                   :LOCATION  
CNTY        .                             GALVESTON LARGE BLOCK :LOCATION  
STAT        .                                             TEXAS :STATE     
CTRY        .                                     UNITED STATES :COUNTRY   
SRVC        .                                                   :SERVICE COMPANY
DATE        .                             9/13/2023 11:19:42 AM :LOG DATE  
API         .                                    42706000170000 :API NUMBER
UWI         .                                    42706000170000 :UNIQUE WELL ID
XCOORD      .                                  1024804.26554262 :SURFACE X 
YCOORD      .                                  10549089.4715911 :SURFACE Y 
LAT         .                                        29.0543948 :LATITUDE  
LON         .                                       -94.9272588 :LONGITUDE 
ELEV        .FT                                              60 :ELEVATION VALUE
ELEV_TYPE   .                                                GL :ELEVATION REFERENCE TYPE
~Curve Information Section
#MNEM       .UNIT                                      API CODE :CURVE DESCRIPTION
#------------------------------------------------------------------------------
DEPT        .FT                                                 :DEPTH     
LAT         .OHMM                                               :          
LN          .OHMM                                               :          
SN          .OHMM                                               :          
SP          .MV                                                 :          
SP_NORM     .MV                                                 :SP Normalized
VSH_SP      .V/V                                                :Volume of Shale from SP
~A        DEPTH            LAT             LN             SN             SP        SP_NORM         VSH_SP
# ...
      6835.0000         0.9641         0.3163         0.4285      -117.4553      -62.87883       0.401154
      6835.5000         1.0063         0.3091         0.4807      -124.3234      -69.74368      0.3357745
      6836.0000          1.023         0.3019         0.5329      -120.0245      -65.44151      0.3767475
      6836.5000         1.0142         0.2947          0.585      -109.8528      -55.26655      0.4736519
      6837.0000         1.0058         0.2875         0.6541      -105.5391      -50.94959      0.5147658
      6837.5000         1.0034         0.2929         0.7362      -101.5897      -46.99693      0.5524102
      6838.0000         1.0011         0.2995         0.8182       -97.8135      -43.21747       0.588405
      6838.5000         1.0109         0.3061         0.8396       -93.2902      -38.69091      0.6315151
      6839.0000         1.0558         0.3126         0.8598        -120.48      -65.87746      0.3725956
      6839.5000         1.1008         0.3192         0.8702       -94.6339      -40.02809      0.6187801
      6840.0000         1.1458          0.326         0.8778      -103.7352      -49.12613      0.5321321
      6840.5000         1.1278         0.3354         0.8854      -114.2485      -59.63617      0.4320365
      6841.0000         1.0442         0.3448         0.9071      -128.2236      -73.60801      0.2989713
      6841.5000         0.9606         0.3542          0.826       -144.686      -90.06715      0.1422176
      6842.0000         0.8771         0.3636         0.5601      -150.6807      -96.05858      0.0851564
      6842.5000         0.7935          0.373         0.4793      -158.2058      -103.5804      0.0135198
      6843.0000         0.7088         0.3824         0.3985      -163.1392      -108.5106              0
      6843.5000         0.6239         0.3918         0.3184      -165.7197      -111.0878              0
      6844.0000         0.5392         0.4008         0.2613      -164.1116      -109.4764              0
      6844.5000         0.4788         0.4012         0.2042      -161.7339      -107.0955              0
      6845.0000         0.4234         0.4015          0.173      -159.3538      -104.7121    0.002741641
      6845.5000         0.4467         0.4018         0.1671      -156.9761      -102.3312     0.02541751
      6846.0000         0.4705         0.4022          0.202      -154.5959      -99.94771     0.04811706
      6846.5000         0.4933         0.4025         0.2369      -147.9294      -93.27794      0.1116387
      6847.0000         0.5119          0.396         0.2718       -138.532      -83.87727      0.2011688
      6847.5000         0.5304         0.3878         0.3018      -133.4258      -78.76781      0.2498303
      6848.0000         0.5489         0.3796         0.3236      -132.0957      -77.43446      0.2625289
      6848.5000         0.5675         0.3752         0.3454      -137.7532       -83.0887      0.2086791
      6849.0000          0.586         0.3771         0.3672      -143.4106      -88.74284      0.1548301
      6849.5000         0.5846          0.379         0.3889      -149.0591      -94.38808      0.1010659
      6850.0000         0.5697         0.3809         0.3847      -154.7166      -100.0423     0.04721607
      6850.5000         0.5549         0.3828         0.3793       -160.374      -105.6964              0
      6851.0000         0.5406         0.3665          0.374       -163.449      -108.7682              0
      6851.5000         0.5349         0.3437         0.3753      -156.7756      -102.0915     0.02769964
      6852.0000         0.5783         0.3209         0.4228      -102.7695      -48.08218      0.5420745
      6852.5000         0.7489         0.2981         0.4703       -95.8319      -41.14132       0.608178
      6853.0000         0.9253         0.2754         0.5178       -91.6229      -36.92905      0.6482947
      6853.5000         1.0925          0.267         0.5966       -87.4733      -32.77619      0.6878458
      6854.0000         1.2376         0.2652         0.6872        -82.458      -27.75763      0.7356416
      6854.5000         1.3607         0.2634         0.7743        -79.939      -25.23537      0.7596631
      6855.0000         1.4464         0.2747         0.8399       -77.6637      -22.95681      0.7813637
      6855.5000         1.3074         0.3223         0.9055       -76.0033      -21.29316      0.7972081
      6856.0000         1.1685         0.3699         0.9576       -77.5657      -22.85229      0.7823592
      6856.5000         1.0468         0.4174         0.9843       -85.4963      -30.77963      0.7068607
      6857.0000         0.9274          0.465         0.9957       -94.0236      -39.30367      0.6256794
      6857.5000          0.881         0.5126         0.9117      -109.6752      -54.95201      0.4766475
      6858.0000         0.9527         0.5469         0.8277      -121.5004      -66.77394      0.3640577
      6858.5000         1.0207          0.579         0.7528      -134.4187      -79.68899      0.2410573
      6859.0000         0.9251         0.6112         0.7008       -135.093      -80.36003      0.2346664
      6859.5000         0.8294         0.6433         0.6522      -128.6885      -73.95227      0.2956927
      6860.0000         0.7283         0.6755         0.6621       -118.002       -63.2625      0.3974999
      6860.5000         0.5856         0.7076          0.672       -92.4475      -37.70475      0.6409072
      6861.0000         0.4821          0.721         0.6818       -87.3457      -32.59969      0.6895268
      6861.5000         0.5197          0.711         0.7036       -84.2937      -29.54443      0.7186245
      6862.0000         0.5764          0.701         0.7648       -81.5607      -26.80816      0.7446842
      6862.5000          0.633          0.691          0.826       -81.1711       -26.4153      0.7484257
      6863.0000         0.6897         0.6709         0.8888       -83.6013      -28.84224       0.725312
      6863.5000         0.7464         0.6129          0.957        -86.922      -32.15968      0.6937174
      6864.0000         0.8324         0.5549         0.9548       -90.2473      -35.48172      0.6620789
      6864.5000         0.9503         0.4969         0.9384       -85.4417      -30.67286      0.7078775
      6865.0000          0.922         0.5393         0.8937        -82.467       -27.6949       0.736239
      6865.5000         0.8411         0.5859         0.8491        -79.488      -24.71264      0.7646415
      6866.0000         0.7602         0.6325         0.7982        -77.568      -22.78938      0.7829583
      6866.5000         0.7152         0.6792          0.743       -75.7118      -20.92992      0.8006675
      6867.0000         0.6769         0.7258         0.7179       -73.8578      -19.07266      0.8183556
      6867.5000         0.6385         0.7724         0.7468       -72.0016       -17.2132      0.8360648
      6868.0000         0.7507         0.8191         0.7757       -71.4504      -16.65874      0.8413454
      6868.5000         0.8632         0.8486         0.7974       -72.5117      -17.71678      0.8312688
      6869.0000         0.9573         0.8645         0.8133       -73.5731      -18.77491      0.8211913
      6869.5000         1.0513         0.8804         0.8292       -74.9807      -20.17925      0.8078166
      6870.0000         1.0991         0.8962         0.8451       -67.6127      -12.80799      0.8780191
      6870.5000         1.0464         0.9121          0.863       -54.1157      0.6922684              1
      6871.0000         0.9938          0.928         0.8851       -53.4712       1.340031              1
      6871.5000         0.9412         0.9386         0.9206       -53.8008       1.013687              1
      6872.0000         0.8893         0.9488         0.9843       -54.1306       0.687149              1
      6872.5000         0.8788         0.9591          1.048       -54.5735       0.247509              1
