#------------------------------------------------------------------------------
# Created by    : vladimir.rabinovich
# Created on    : 09/19/2023 17:20:12
#------------------------------------------------------------------------------
~Version Information Section
VERS.           2.0     :   CWLS log ASCII Standard - VERSION 2.0
WRAP.           NO      :   One line per depth step
~Well Information Section
#MNEM       .UNIT                                         VALUE :DESCRIPTION
#------------------------------------------------------------------------------
STRT        .FT                                             309 :START DEPTH
STOP        .FT                                            9124 :STOP DEPTH
STEP        .FT                                             0.5 :STEP      
NULL        .                                           -999.25 :NULL      
COMP        .                         SONAT EXPLORATION GOM INC :COMPANY   
WELL        .                               OCS G03084 ST00BP00 :WELL      
FLD         .                                           WILDCAT :FIELD     
LOC         .                                                   :LOCATION  
CNTY        .                      MATAGORDA ISLAND LARGE BLOCK :LOCATION  
STAT        .                                             TEXAS :STATE     
CTRY        .                                     UNITED STATES :COUNTRY   
SRVC        .                                                   :SERVICE COMPANY
DATE        .                             9/13/2023 11:12:09 AM :LOG DATE  
API         .                                    42703400260000 :API NUMBER
UWI         .                                    42703400260000 :UNIQUE WELL ID
XCOORD      .                                  563826.313549269 :SURFACE X 
YCOORD      .                                  10238444.2560225 :SURFACE Y 
LAT         .                                         28.172716 :LATITUDE  
LON         .                                        -96.341662 :LONGITUDE 
ELEV        .FT                                              97 :ELEVATION VALUE
ELEV_TYPE   .                                                KB :ELEVATION REFERENCE TYPE
~Curve Information Section
#MNEM       .UNIT                                      API CODE :CURVE DESCRIPTION
#------------------------------------------------------------------------------
DEPT        .FT                                                 :DEPTH     
ASFL        .OHMM                                               :          
CILD        .MMHO                                               :          
DT          .US/F                                               :          
GR          .GAPI                                               :          
GR_NORM     .GAPI                                               :GammaRay Normalized
ILD         .OHMM                                               :          
SP          .MV                                                 :          
SP_NORM     .MV                                                 :SP Normalized
VSH_GR      .V/V                                                :Volume of Shale from GR
VSH_SP      .V/V                                                :Volume of Shale from SP
~A        DEPTH           ASFL           CILD             DT             GR        GR_NORM            ILD             SP        SP_NORM         VSH_GR         VSH_SP
# ...
      9104.5000         0.6344       1970.963       122.4779        -999.25        -999.25         0.4532       -39.8547       1.109158        -999.25              1
      9105.0000         0.6473       1960.607       121.8893        -999.25        -999.25         0.4548       -39.6962       1.267654        -999.25              1
      9105.5000         0.6601       1951.186       119.3374        -999.25        -999.25         0.4564       -39.5377       1.426155        -999.25              1
      9106.0000         0.6647       1965.748       116.6249        -999.25        -999.25          0.458       -39.2546       1.709255        -999.25              1
      9106.5000         0.6537       1980.311       115.8062        -999.25        -999.25         0.4595       -38.8355       2.128357        -999.25              1
      9107.0000         0.6426       1994.375       115.6794        -999.25        -999.25         0.4611       -38.4492       2.514656        -999.25              1
      9107.5000         0.6315       2007.867       115.5428        -999.25        -999.25         0.4627       -38.0935       2.870358        -999.25              1
      9108.0000          0.621       2021.359       115.5621        -999.25        -999.25         0.4642       -37.7379       3.225956        -999.25              1
      9108.5000          0.612       2034.877       115.5317        -999.25        -999.25         0.4638       -37.3827       3.581154        -999.25              1
      9109.0000          0.603       2048.367       115.5013        -999.25        -999.25         0.4595       -37.0145       3.949356        -999.25              1
      9109.5000         0.5939       2061.859       115.4722        -999.25        -999.25         0.4552       -36.6234       4.340454        -999.25              1
      9110.0000         0.5849       2073.313       115.4391        -999.25        -999.25         0.4509       -36.2324       4.731457        -999.25              1
      9110.5000         0.5822        2079.57       115.3992        -999.25        -999.25         0.4466       -35.9797       4.984158        -999.25              1
      9111.0000          0.581       2086.457       115.3395        -999.25        -999.25         0.4423       -35.7661       5.197754        -999.25              1
      9111.5000         0.5798       2094.793       115.2782        -999.25        -999.25          0.438       -35.5521       5.411755        -999.25              1
      9112.0000         0.5786       2103.121       115.2296        -999.25        -999.25         0.4336       -35.4596       5.504257        -999.25              1
      9112.5000         0.5773       2111.449       115.2303        -999.25        -999.25         0.4291       -35.8059       5.157955        -999.25              1
      9113.0000         0.5761       2128.227       115.2311        -999.25        -999.25         0.4246       -36.5759       4.387955        -999.25              1
      9113.5000         0.5746       2145.453       115.2318        -999.25        -999.25         0.4202       -37.3636       3.600254        -999.25              1
      9114.0000         0.5672       2162.703       115.2324        -999.25        -999.25         0.4157       -37.5379       3.425957        -999.25              1
      9114.5000         0.5597       2186.773       115.2332        -999.25        -999.25         0.4112       -37.2401       3.723755        -999.25              1
      9115.0000         0.5501       2213.211       115.2339        -999.25        -999.25         0.4067       -36.9423       4.021557        -999.25              1
      9115.5000         0.5405       2239.648       115.2346        -999.25        -999.25         0.4023       -36.7059       4.257957        -999.25              1
      9116.0000         0.5308       2262.375       115.2354        -999.25        -999.25            0.4       -36.5011       4.462757        -999.25              1
      9116.5000         0.5219       2281.645       115.2361        -999.25        -999.25         0.3997       -36.3409       4.622955        -999.25              1
      9117.0000          0.516       2294.152       115.2367        -999.25        -999.25         0.3993       -36.6672       4.296658        -999.25              1
      9117.5000         0.5101       2304.008       115.2374        -999.25        -999.25         0.3989        -36.994       3.969856        -999.25              1
      9118.0000         0.5043       2311.828       115.2382        -999.25        -999.25         0.3985       -37.3337       3.630157        -999.25              1
      9118.5000         0.4989       2315.672       115.2389        -999.25        -999.25         0.3982       -37.6852       3.278656        -999.25              1
      9119.0000          0.496       2320.016       115.2396        -999.25        -999.25         0.3978       -38.0366       2.927258        -999.25              1
      9119.5000         0.4932       2324.289       115.2404        -999.25        -999.25         0.3977       -38.3881       2.575756        -999.25              1
      9120.0000         0.4904       2324.582       115.1582        -999.25        -999.25         0.3989       -38.7395       2.224358        -999.25              1
      9120.5000         0.4875       2324.875       115.0896        -999.25        -999.25         0.4001       -39.1963       1.767555        -999.25              1
      9121.0000         0.4874       2325.168          115.1        -999.25        -999.25         0.4014       -39.6671       1.296757        -999.25              1
      9121.5000         0.4883       2325.461       115.1602        -999.25        -999.25         0.4026       -39.9705      0.9933548        -999.25              1
      9122.0000         0.4891       2325.754       115.2391        -999.25        -999.25         0.4039       -40.2744      0.6894569        -999.25              1
      9122.5000         0.4899       2326.047       115.2448        -999.25        -999.25         0.4051       -40.5778       0.386055        -999.25              1
      9123.0000         0.4907        2326.34       115.2308        -999.25        -999.25         0.4063       -40.8812     0.08265686        -999.25              1
      9123.5000         0.4915       2326.633       115.1895        -999.25        -999.25         0.4076       -41.1071     -0.1432457        -999.25              1
      9124.0000         0.4921        2326.93       115.2019        -999.25        -999.25         0.4088        -41.191     -0.2271461        -999.25              1
