#------------------------------------------------------------------------------
# Created by    : vladimir.rabinovich
# Created on    : 09/19/2023 17:20:31
#------------------------------------------------------------------------------
~Version Information Section
VERS.           2.0     :   CWLS log ASCII Standard - VERSION 2.0
WRAP.           NO      :   One line per depth step
~Well Information Section
#MNEM       .UNIT                                         VALUE :DESCRIPTION
#------------------------------------------------------------------------------
STRT        .FT                                            2377 :START DEPTH
STOP        .FT                                            9500 :STOP DEPTH
STEP        .FT                                             0.5 :STEP      
NULL        .                                           -999.25 :NULL      
COMP        .                                     SKELLY OIL CO :COMPANY   
WELL        .                                     ST TR 00146-L :WELL      
FLD         .                                           WILDCAT :FIELD     
LOC         .                                                   :LOCATION  
CNTY        .                             GALVESTON LARGE BLOCK :LOCATION  
STAT        .                                             TEXAS :STATE     
CTRY        .                                     UNITED STATES :COUNTRY   
SRVC        .                                                   :SERVICE COMPANY
DATE        .                             9/13/2023 11:19:24 AM :LOG DATE  
API         .                                    42706001330000 :API NUMBER
UWI         .                                    42706001330000 :UNIQUE WELL ID
XCOORD      .                                  1116482.89093459 :SURFACE X 
YCOORD      .                                  10631825.2810539 :SURFACE Y 
LAT         .                                         29.285733 :LATITUDE  
LON         .                                       -94.6439746 :LONGITUDE 
ELEV        .FT                                              61 :ELEVATION VALUE
ELEV_TYPE   .                                                KB :ELEVATION REFERENCE TYPE
~Curve Information Section
#MNEM       .UNIT                                      API CODE :CURVE DESCRIPTION
#------------------------------------------------------------------------------
DEPT        .FT                                                 :DEPTH     
ASN         .OHMM                                               :          
CALI        .IN                                                 :          
CILD        .MMHO                                               :          
DT          .US/F                                               :          
ILD         .OHMM                                               :          
SP          .MV                                                 :          
SP_NORM     .MV                                                 :SP Normalized
VSH_SP      .V/V                                                :Volume of Shale from SP
~A        DEPTH            ASN           CALI           CILD             DT            ILD             SP        SP_NORM         VSH_SP
# ...
      5209.0000          0.904         9.9258       1037.479       131.4302         0.8484       -53.9208       3.575043              1
      5209.5000         0.9026         9.8907        1043.66       131.4695         0.8409       -54.0664       3.427593              1
      5210.0000         0.9019         9.8995       1046.402       132.5205         0.8333       -54.2121       3.280041              1
      5210.5000          0.902         9.9141       1041.705       133.1865          0.839       -54.3572       3.133091              1
      5211.0000         0.9039         9.9328       1037.012       133.4883         0.8508       -54.3499       3.138542              1
      5211.5000         0.9057         9.9419       1031.586       132.9805         0.8625       -54.3427        3.14389              1
      5212.0000         0.9081         9.9493       1025.422       131.3496         0.8719       -54.3354       3.149342              1
      5212.5000         0.9106         9.9598       1015.665       130.0166         0.8812       -54.3316       3.151287              1
      5213.0000         0.9135         9.9693       1006.445        128.908         0.8904       -54.3826       3.098438              1
      5213.5000         0.9183         9.9675       1001.514       127.7747         0.8997       -54.4335       3.045689              1
      5214.0000         0.9231         9.9646       996.6309       126.9634          0.909       -54.4068       3.070538              1
      5214.5000         0.9285         9.9595       991.9375       126.3386         0.9182       -54.1959       3.279587              1
      5215.0000         0.9342         9.9678       991.1318       125.8558         0.9299       -53.9849       3.488735              1
      5215.5000         0.9398         9.9843       991.1318       125.1796          0.942        -53.774       3.697788              1
      5216.0000         0.9464        10.0063       989.8428       124.1298          0.954       -53.6155       3.854435              1
      5216.5000         0.9535        10.0269       988.3496       123.1321         0.9633        -53.554       3.914082              1
      5217.0000         0.9606        10.0464       982.1172       123.7129         0.9701       -53.4924       3.973831              1
      5217.5000         0.9711        10.0609       971.7051       124.7096          0.977       -53.4786       3.985783              1
      5218.0000         0.9921        10.0901       952.1768       125.6046         0.9838       -53.5393       3.923233              1
      5218.5000         1.0205        10.1303        924.376       124.6877         0.9897       -53.6023       3.858383              1
      5219.0000         1.0634        10.1767       897.0801       117.7999         0.9956       -53.7581       3.700733              1
      5219.5000         1.1051        10.2542       870.4121       105.5271         1.0041       -53.9241       3.532883              1
      5220.0000         1.1353        10.3228       844.5762        97.3784         1.0195       -54.2664       3.188732              1
      5220.5000          1.173        10.3703       811.4697        91.2695         1.0264       -55.0602       2.393078              1
      5221.0000         1.1894         10.388       803.2471        90.3495         1.0299       -56.0632       1.388226              1
      5221.5000         1.2059        10.2917        806.751        91.5054         1.0354       -56.9631      0.4864769              1
      5222.0000         1.2223        10.1768       811.1357        92.2781         1.0445       -58.1011     -0.6533737              1
      5222.5000         1.2177        10.1375       814.5479        94.9469         1.0147       -59.7289      -2.283024      0.9826618
      5223.0000         1.2032        10.1554       817.9629        97.0638         0.9581       -63.4091      -5.965073      0.9329044
      5223.5000         1.1877        10.2015       852.8359        98.2085         0.8949       -66.2703      -8.828125      0.8942145
      5224.0000         1.1852        10.1085       1041.494       100.0472         0.8189        -70.267      -12.82667      0.8401801
      5224.5000         1.1873         9.8336       1237.506        97.9727         0.7366       -76.1753      -18.73683      0.7603132
      5225.0000         1.1974         9.7894        1371.27        95.3138         0.6697       -79.9183      -22.48167      0.7097071
      5225.5000         1.2148         9.7894       1499.494        94.0731         0.6062       -86.2437      -28.80893      0.6242037
      5226.0000         1.2369         9.8078       1651.186         91.614         0.5378       -92.8906      -35.45768      0.5343557
      5226.5000         1.2318         9.8788       1775.482        89.4333          0.542      -100.5524      -43.12133      0.4307929
      5227.0000          1.033        10.0398       1896.201        95.0917          0.555      -109.4451      -52.01588      0.3105963
      5227.5000         0.9315        10.2029       1815.873       104.2638         0.5679       -108.385      -50.95763      0.3248969
      5228.0000         0.8103        10.2957       1715.047       117.8049         0.5857       -106.089      -48.66348       0.355899
      5228.5000         0.7955        10.2403       1620.414       121.9042         0.6267      -101.0498      -43.62613      0.4239712
      5229.0000         0.8051        10.1918       1533.941       121.4286         0.6714       -93.3478      -35.92598      0.5280272
      5229.5000         0.8205        10.1718       1388.848       119.8801         0.7214       -69.9203      -12.50034      0.8445901
      5230.0000         0.8418        10.1517       1292.201       119.1455         0.7696       -63.8763      -6.458183      0.9262407
      5230.5000         0.8591        10.1317       1201.498       118.2842         0.8168       -58.8911      -1.474834      0.9935833
      5231.0000         0.8702        10.1146       1109.182       120.3264         0.8618       -56.9907      0.4237175              1
      5231.5000         0.8743        10.1101       1058.164       120.5219         0.8911       -55.0251       2.387466              1
      5232.0000         0.8835        10.1202       1025.504       120.8381         0.9013       -54.2313       3.179417              1
      5232.5000         0.8972        10.1185       1011.542       120.4237         0.9055       -53.5598       3.849064              1
      5233.0000          0.916        10.1258       1002.539       116.8862         0.9075       -53.7565       3.650513              1
      5233.5000         0.9362        10.1856        993.625       114.3385         0.9089       -54.1238       3.281364              1
      5234.0000         0.9387        10.2789       1001.803       111.5936         0.9103       -54.7104       2.692913              1
      5234.5000         0.9412        10.3485       1020.343       108.7688         0.9118       -55.3566       2.044861              1
      5235.0000         0.9379         10.264       1046.857       110.8596         0.9132       -56.1661       1.233513              1
      5235.5000         0.9317        10.0844       1072.896       117.6002         0.9146       -56.9512      0.4465637              1
      5236.0000         0.9292         9.9154       1099.336       121.6895         0.9365       -57.5264     -0.1304893              1
      5236.5000         0.9272         9.8884       1116.668       126.6837         0.9604       -57.6047       -0.21064              1
      5237.0000         0.9318         9.9494       1117.189       124.3258         0.9766       -57.4956     -0.1033936              1
      5237.5000         0.9422        10.0576        1105.67       119.7821         0.9868       -57.3865    0.003856659              1
      5238.0000         0.9702        10.2476        1081.18       110.9795         0.9795       -57.5886     -0.2000923              1
