#------------------------------------------------------------------------------
# Created by    : vladimir.rabinovich
# Created on    : 09/19/2023 17:20:24
#------------------------------------------------------------------------------
~Version Information Section
VERS.           2.0     :   CWLS log ASCII Standard - VERSION 2.0
WRAP.           NO      :   One line per depth step
~Well Information Section
#MNEM       .UNIT                                         VALUE :DESCRIPTION
#------------------------------------------------------------------------------
STRT        .FT                                            3071 :START DEPTH
STOP        .FT                                           14991 :STOP DEPTH
STEP        .FT                                             0.5 :STEP      
NULL        .                                           -999.25 :NULL      
COMP        .                                        TEXACO USA :COMPANY   
WELL        .                                     ST TR 00012-L :WELL      
FLD         .                                           WILDCAT :FIELD     
LOC         .                                                   :LOCATION  
CNTY        .                           HIGH ISLAND LARGE BLOCK :LOCATION  
STAT        .                                             TEXAS :STATE     
CTRY        .                                     UNITED STATES :COUNTRY   
SRVC        .                                                   :SERVICE COMPANY
DATE        .                             9/13/2023 11:19:15 AM :LOG DATE  
API         .                                    42708000680000 :API NUMBER
UWI         .                                    42708000680000 :UNIQUE WELL ID
XCOORD      .                                  1354682.00685938 :SURFACE X 
YCOORD      .                                  10733491.7088446 :SURFACE Y 
LAT         .                                        29.5724948 :LATITUDE  
LON         .                                       -93.8991324 :LONGITUDE 
ELEV        .FT                                              44 :ELEVATION VALUE
ELEV_TYPE   .                                                KB :ELEVATION REFERENCE TYPE
~Curve Information Section
#MNEM       .UNIT                                      API CODE :CURVE DESCRIPTION
#------------------------------------------------------------------------------
DEPT        .FT                                                 :DEPTH     
ASN         .OHMM                                               :          
CILD        .MMHO                                               :          
ILD         .OHMM                                               :          
SP          .MV                                                 :          
SP_NORM     .MV                                                 :SP Normalized
VSH_SP      .V/V                                                :Volume of Shale from SP
~A        DEPTH            ASN           CILD            ILD             SP        SP_NORM         VSH_SP
# ...
     14965.0000         0.7292       2048.813         0.6808       -40.0865       1.422935              1
     14965.5000         0.7283       2058.094         0.6779       -39.9771       1.532333              1
     14966.0000         0.7273       2067.395          0.675       -39.8674       1.642033              1
     14966.5000         0.7264       2069.367          0.672        -39.718       1.791435              1
     14967.0000         0.7255       2062.164         0.6691       -39.5016       2.007835              1
     14967.5000         0.7245       2054.984         0.6662       -39.2852       2.224236              1
     14968.0000         0.7236       2047.828         0.6633       -39.0688       2.440632              1
     14968.5000         0.7227       2040.648         0.6604       -38.8524       2.657032              1
     14969.0000         0.7238       2033.467         0.6574        -38.636       2.873432              1
     14969.5000         0.7269       2026.287         0.6545       -38.4196       3.089832              1
     14970.0000         0.7301       2017.084         0.6516       -38.2032       3.306232              1
     14970.5000         0.7332       1963.975         0.6487       -37.9868       3.522633              1
     14971.0000         0.7363       1956.795         0.6457       -37.7704       3.739033              1
     14971.5000         0.7394       1949.613         0.6441       -37.5534       3.956036              1
     14972.0000         0.7425       1940.213         0.6452        -37.337       4.172432              1
     14972.5000         0.7457       1927.506         0.6464       -37.1206       4.388832              1
     14973.0000         0.7489       1914.799         0.6476       -36.9042       4.605232              1
     14973.5000         0.7524       1902.066         0.6487       -36.6878       4.821632              1
     14974.0000         0.7559       1889.359         0.6499       -36.4714       5.038033              1
     14974.5000         0.7593       1876.627         0.6511       -36.2563       5.253132              1
     14975.0000         0.7628       1861.871         0.6522       -36.0647       5.444733              1
     14975.5000         0.7663       1843.563         0.6534       -35.8731       5.636333              1
     14976.0000         0.7698       1825.305         0.6546       -35.6815       5.827934              1
     14976.5000         0.7733       1814.453         0.6557       -35.4899       6.019535              1
     14977.0000         0.7767       1817.828         0.6569       -35.2983       6.211132              1
     14977.5000         0.7802       1821.195         0.6581       -35.1067       6.402733              1
     14978.0000         0.7837       1824.564         0.6592       -34.9151       6.594334              1
     14978.5000         0.7832       1827.938         0.6604       -34.7235       6.785934              1
     14979.0000         0.7796       1831.307         0.6616       -34.5319       6.977535              1
     14979.5000          0.776       1834.686         0.6628       -34.3403       7.169132              1
     14980.0000         0.7723       1838.066         0.6639       -34.1487       7.360733              1
     14980.5000         0.7687       1841.447         0.6651       -34.0139       7.495533              1
     14981.0000          0.765       1844.834         0.6663        -34.017       7.492435              1
     14981.5000         0.7614       1848.215         0.6674       -34.0201       7.489334              1
     14982.0000         0.7578       1851.594         0.6686       -34.0233       7.486134              1
     14982.5000         0.7541       1854.975         0.6698       -34.0265       7.482933              1
     14983.0000         0.7499       1858.355         0.6709       -34.0297       7.479733              1
     14983.5000         0.7457       1861.736         0.6721       -34.0328       7.476635              1
     14984.0000         0.7415       1865.123         0.6733        -34.036       7.473434              1
     14984.5000         0.7373       1868.502         0.6744       -34.0392       7.470234              1
     14985.0000         0.7331       1871.883         0.6745       -34.0424       7.467033              1
     14985.5000         0.7289       1875.264         0.6735       -34.0455       7.463932              1
     14986.0000         0.7247       1878.645         0.6725       -34.0487       7.460735              1
     14986.5000         0.7205       1882.023         0.6715       -34.0519       7.457535              1
     14987.0000         0.7195        1885.41         0.6705       -34.0551       7.454334              1
     14987.5000         0.7216       1888.791         0.6695       -34.0821       7.427334              1
     14988.0000         0.7237       1892.172         0.6685       -34.1729       7.336533              1
     14988.5000         0.7258       1895.553         0.6674       -34.2634       7.246033              1
     14989.0000         0.7279       1898.932         0.6664        -34.354       7.155434              1
     14989.5000           0.73       1902.313         0.6654       -34.4445       7.064934              1
     14990.0000         0.7321       1905.252         0.6644        -34.535       6.974434              1
     14990.5000         0.7342        1905.01         0.6634       -34.6255       6.883934              1
     14991.0000         0.7363       1904.768         0.6624       -34.7161       6.793335              1
