#------------------------------------------------------------------------------
# Created by    : vladimir.rabinovich
# Created on    : 09/19/2023 17:22:10
#------------------------------------------------------------------------------
~Version Information Section
VERS.           2.0     :   CWLS log ASCII Standard - VERSION 2.0
WRAP.           NO      :   One line per depth step
~Well Information Section
#MNEM       .UNIT                                         VALUE :DESCRIPTION
#------------------------------------------------------------------------------
STRT        .FT                                            1000 :START DEPTH
STOP        .FT                                            7796 :STOP DEPTH
STEP        .FT                                             0.5 :STEP      
NULL        .                                           -999.25 :NULL      
COMP        .                                SHELL OFFSHORE INC :COMPANY   
WELL        .                               OCS G06060 ST00BP00 :WELL      
FLD         .                                           WILDCAT :FIELD     
LOC         .                                                   :LOCATION  
CNTY        .                                BRAZOS LARGE BLOCK :LOCATION  
STAT        .                                             TEXAS :STATE     
CTRY        .                                     UNITED STATES :COUNTRY   
SRVC        .                                                   :SERVICE COMPANY
DATE        .                             9/13/2023 11:19:08 AM :LOG DATE  
API         .                                    42704401260000 :API NUMBER
UWI         .                                    42704401260000 :UNIQUE WELL ID
XCOORD      .                                   881020.58603234 :SURFACE X 
YCOORD      .                                   10392321.681828 :SURFACE Y 
LAT         .                                         28.616238 :LATITUDE  
LON         .                                        -95.367327 :LONGITUDE 
ELEV        .FT                                              90 :ELEVATION VALUE
ELEV_TYPE   .                                                KB :ELEVATION REFERENCE TYPE
~Curve Information Section
#MNEM       .UNIT                                      API CODE :CURVE DESCRIPTION
#------------------------------------------------------------------------------
DEPT        .FT                                                 :DEPTH     
CALI        .IN                                                 :          
CILD        .MMHO                                               :          
DPHI        .%                                                  :          
DT          .US/F                                               :          
GR          .GAPI                                               :          
GR_NORM     .GAPI                                               :GammaRay Normalized
ILD         .OHMM                                               :          
ILM         .OHMM                                               :          
SFL         .OHMM                                               :          
SP          .MV                                                 :          
SP_NORM     .MV                                                 :SP Normalized
VSH_GR      .V/V                                                :Volume of Shale from GR
VSH_SP      .V/V                                                :Volume of Shale from SP
~A        DEPTH           CALI           CILD           DPHI             DT             GR        GR_NORM            ILD            ILM            SFL             SP        SP_NORM         VSH_GR         VSH_SP
# ...
      7783.0000        -999.25       1892.184        -999.25       140.2888        71.3129       79.41923         0.5364         0.5412           0.58       -43.0237     -0.2491341      0.9876431              1
      7783.5000        -999.25       1845.443        -999.25       140.2793        71.3472       79.46597         0.5461         0.5581          0.625       -43.0042     -0.2296333      0.9886376              1
      7784.0000        -999.25       1842.771        -999.25       140.3191        71.3516       79.47197         0.5502         0.5594         0.6551       -42.9562      -0.181633      0.9887653              1
      7784.5000        -999.25       1878.984        -999.25       140.3655        71.4028       79.54173          0.551         0.5493         0.6666       -42.5341      0.2404671      0.9902496              1
      7785.0000        -999.25        1918.09        -999.25       140.4077        71.4296       79.57824         0.5365         0.5366         0.6589       -42.3943      0.3802681      0.9910263              1
      7785.5000        -999.25       1963.992        -999.25       140.3699        71.5728       79.77337         0.5166          0.523         0.6226       -42.3063      0.4682655       0.995178              1
      7786.0000        -999.25       2049.098        -999.25        140.332        71.5989       79.80893         0.4985         0.5068         0.5708       -42.0305      0.7440681      0.9959347              1
      7786.5000        -999.25       2106.031        -999.25       140.3074        71.7485       80.01276         0.4805         0.4903          0.535       -41.7909      0.9836655              1              1
      7787.0000        -999.25       2167.594        -999.25       140.3196        71.7025        79.9501         0.4627         0.4899         0.5192       -41.6597       1.114868      0.9989382              1
      7787.5000        -999.25       2241.469        -999.25       140.3318        71.7229       79.97789         0.4481         0.4878         0.5386       -41.6187       1.155869      0.9995296              1
      7788.0000        -999.25       2285.648        -999.25        140.344        71.7079       79.95744         0.4402         0.4766         0.5721       -41.6699       1.104668      0.9990945              1
      7788.5000        -999.25       2254.965        -999.25        140.356        71.6296       79.85076         0.4369         0.4675         0.5609       -41.6985       1.076065      0.9968247              1
      7789.0000        -999.25       2216.008        -999.25       140.3682        71.6271       79.84736         0.4409         0.4744         0.5299       -41.6498       1.124767      0.9967523              1
      7789.5000        -999.25       2192.637        -999.25       140.3748        71.6548       79.88508         0.4475         0.4907         0.4936         -41.33       1.444565      0.9975548              1
      7790.0000        -999.25       2183.203        -999.25       140.3801        71.6833       79.92393         0.4515         0.5062          0.502       -41.2708       1.503765      0.9983814              1
      7790.5000        -999.25       2190.473        -999.25       140.3853        71.6765       79.91467          0.453         0.5081         0.5483       -41.3245       1.450066      0.9981844              1
      7791.0000        -999.25        2195.57        -999.25       140.3906        71.7156       79.96794         0.4538         0.4997         0.5745       -41.3461       1.428467      0.9993179              1
      7791.5000        -999.25       2190.465        -999.25        140.396        71.7306       79.98838          0.454         0.4839         0.5873       -41.3613       1.413265      0.9997528              1
      7792.0000        -999.25       2183.008        -999.25       140.3889        71.6953       79.94027         0.4563         0.4709         0.5674       -41.3427       1.431866      0.9987291              1
      7792.5000        -999.25       2175.727        -999.25        140.364        71.6613       79.89395         0.4585         0.4636         0.5362       -41.4034       1.371166      0.9977437              1
      7793.0000        -999.25       2170.465        -999.25       140.3391        71.6672       79.90199         0.4595         0.4598         0.5243       -41.5565       1.218067      0.9979146              1
      7793.5000        -999.25       2168.922        -999.25       140.3274        71.6649       79.89886          0.463         0.4574         0.5277       -41.7073       1.067268       0.997848              1
      7794.0000        -999.25        2169.52        -999.25       140.3181         71.527       79.71095         0.4649         0.4555         0.5511       -41.7529       1.021667      0.9938501              1
      7794.5000        -999.25       2170.957        -999.25          140.3        71.5135       79.69256         0.4617          0.454         0.5487       -41.5945       1.180065      0.9934587              1
      7795.0000        -999.25       2172.391        -999.25       140.2524        71.5938       79.80199         0.4546         0.4531         0.5371       -41.4365       1.338066       0.995787              1
      7795.5000        -999.25           2172        -999.25       140.2053        71.7548       80.02135         0.4512         0.4536          0.533       -41.3896       1.384968              1              1
      7796.0000        -999.25       2168.945        -999.25        140.158        71.5789       79.78168         0.4525         0.4542         0.5346       -41.3608       1.413765       0.995355              1
