#------------------------------------------------------------------------------
# Created by    : vladimir.rabinovich
# Created on    : 09/19/2023 17:19:58
#------------------------------------------------------------------------------
~Version Information Section
VERS.           2.0     :   CWLS log ASCII Standard - VERSION 2.0
WRAP.           NO      :   One line per depth step
~Well Information Section
#MNEM       .UNIT                                         VALUE :DESCRIPTION
#------------------------------------------------------------------------------
STRT        .FT                                             782 :START DEPTH
STOP        .FT                                            8251 :STOP DEPTH
STEP        .FT                                             0.5 :STEP      
NULL        .                                           -999.25 :NULL      
COMP        .                                     TALOS ERT LLC :COMPANY   
WELL        .                               OCS G06037 ST00BP00 :WELL      
FLD         .                       MATAGORDA ISLAND BLOCK 0619 :FIELD     
LOC         .                                                   :LOCATION  
CNTY        .                      MATAGORDA ISLAND LARGE BLOCK :LOCATION  
STAT        .                                             TEXAS :STATE     
CTRY        .                                     UNITED STATES :COUNTRY   
SRVC        .                                                   :SERVICE COMPANY
DATE        .                             9/13/2023 11:18:52 AM :LOG DATE  
API         .                                    42703402240000 :API NUMBER
UWI         .                                    42703402240000 :UNIQUE WELL ID
XCOORD      .                                  606760.800591327 :SURFACE X 
YCOORD      .                                  10227689.0556145 :SURFACE Y 
LAT         .                                        28.1463556 :LATITUDE  
LON         .                                       -96.2076889 :LONGITUDE 
ELEV        .FT                                              77 :ELEVATION VALUE
ELEV_TYPE   .                                                KB :ELEVATION REFERENCE TYPE
~Curve Information Section
#MNEM       .UNIT                                      API CODE :CURVE DESCRIPTION
#------------------------------------------------------------------------------
DEPT        .FT                                                 :DEPTH     
ASFL        .OHMM                                               :          
CALI        .IN                                                 :          
CILD        .MMHO                                               :          
DRHO        .G/C3                                               :          
DT          .US/F                                               :          
GR          .GAPI                                               :          
GR_NORM     .GAPI                                               :GammaRay Normalized
ILD         .OHMM                                               :          
ILM         .OHMM                                               :          
NPHI        .%                                                  :          
RHOB        .G/C3                                               :          
SFL         .OHMM                                               :          
SP          .MV                                                 :          
SP_NORM     .MV                                                 :SP Normalized
VSH_GR      .V/V                                                :Volume of Shale from GR
VSH_SP      .V/V                                                :Volume of Shale from SP
~A        DEPTH           ASFL           CALI           CILD           DRHO             DT             GR        GR_NORM            ILD            ILM           NPHI           RHOB            SFL             SP        SP_NORM         VSH_GR         VSH_SP
# ...
      1294.0000         0.7056        20.0698       1302.129         0.0145       167.0664        79.2139       90.39321         0.7766          0.696        46.1757         1.9546          0.683       -56.8755      -2.670467              1      0.9176168
      1294.5000         0.6998        19.4326         1320.5         0.0123        169.884        78.9565       90.08251         0.7578         0.6918        46.5003         1.9535          0.682       -56.8624      -2.653809              1      0.9134521
      1295.0000         0.6955        18.5614       1327.043         0.0105       171.1082        79.1768       90.35921          0.752         0.6893         48.168         1.9598          0.682       -56.8261      -2.613949              1      0.9034872
      1295.5000         0.6936        18.0549       1333.584          0.009        171.175        79.4926       90.75331         0.7471         0.6909        49.8525         1.9691          0.683       -56.7878      -2.572086              1      0.8930216
      1296.0000         0.6917        17.8652       1339.639         0.0072       169.7947        79.5449       90.82341         0.7409         0.6943        51.5371         1.9704         0.6849        -56.696      -2.476727              1      0.8691816
      1296.5000         0.6899        17.7853       1344.988          0.005       167.9932        79.2915       90.51765         0.7375         0.6981        51.6676         1.9613         0.6882       -56.5809      -2.358067              1      0.8395166
      1297.0000         0.6877        17.7427       1350.336         0.0022       166.7266        80.2698       91.72636         0.7335         0.6959        50.9196         1.9538         0.6909       -56.4659       -2.23951              1      0.8098774
      1297.5000         0.6853        17.7273       1355.686         0.0031       166.1887        81.6359        93.4119         0.7295         0.6901        50.3132         1.9543         0.6838       -56.3915      -2.161545              1      0.7903862
      1298.0000         0.6829        17.7293       1361.035         0.0144       166.3123        82.5374       94.52618         0.7243         0.6818        50.3469           1.96          0.677       -56.4189      -2.185387              1      0.7963467
      1298.5000         0.6805        17.7305       1366.596         0.0194       167.0093         82.189        94.1036         0.7165         0.6756        51.4338         1.9627          0.675       -56.5984      -2.361328              1       0.840332
      1299.0000         0.6781        17.7501        1374.65         0.0213       168.5198        81.5812       93.36205         0.7102         0.6746        51.5427         1.9593         0.6773       -56.7681      -2.527466              1      0.8818665
      1299.5000         0.6751        17.7686       1382.705         0.0217       170.3306        81.1926       92.89003          0.707         0.6777        50.4649         1.9567         0.6781       -56.9911      -2.746906              1      0.9367266
      1300.0000          0.672        17.7888       1390.762         0.0191       171.3083        82.7792        94.8467         0.7054         0.6739        50.2103         1.9536         0.6727       -57.1826      -2.934845              1      0.9837112
      1300.5000          0.669         17.707       1400.746         0.0148       171.5261        84.2559       96.66824         0.7012         0.6683        53.2632          1.949         0.6568       -57.3096      -3.058289              1              1
      1301.0000         0.6668        17.6259       1412.498         0.0107       171.4043        84.8635       97.42114          0.693         0.6643        55.3414         1.9435          0.653       -57.3789      -3.124023              1              1
      1301.5000         0.6652        17.5991       1424.252         0.0079       171.0696        84.1735       96.57854          0.686         0.6607        54.7825         1.9404         0.6532       -57.3713      -3.112865              1              1
      1302.0000         0.6635        17.6737       1428.561         0.0074       170.3816        82.6783       94.74586         0.6827         0.6594        51.7773         1.9453         0.6537       -57.3553      -3.093307              1              1
      1302.5000         0.6639        17.7229       1431.408         0.0074        169.291         80.847       92.49992          0.683         0.6592        50.5081         1.9528         0.6556       -57.3862      -3.120647              1              1
      1303.0000         0.6652        17.7521       1434.256         0.0086        168.124        81.1484       92.87632         0.6862          0.659        51.7781         1.9577         0.6511       -57.3616      -3.092484              1              1
      1303.5000         0.6665        17.7378       1433.633         0.0102       167.0681        82.7925        94.9037         0.6913         0.6588        53.5458         1.9656         0.6474       -57.2831      -3.010426              1              1
      1304.0000         0.6678        17.7704       1430.184         0.0112       166.2891        83.7202       96.05019         0.6981         0.6605        54.8943         1.9726         0.6489       -57.0458      -2.769566              1      0.9423914
      1304.5000         0.6695        17.8455       1424.295         0.0102       165.8467        82.7626       94.87854         0.7032          0.663        55.0154          1.977         0.6511       -56.7194      -2.439606              1      0.8599014
      1305.0000         0.6725        17.9279       1409.859         0.0097       165.9312        81.4181       93.23116         0.7085         0.6685        52.7783         1.9777         0.6571       -56.5606      -2.277245              1      0.8193111
      1305.5000         0.6755        17.8977       1395.424         0.0101       166.3484        80.9713       92.68758         0.7153         0.6746        50.5334         1.9771         0.6642       -56.5577      -2.270786              1      0.8176966
      1306.0000         0.6784        17.8708       1380.988          0.013       166.9458        82.8383       94.98904         0.7257         0.6811        47.2247         1.9787         0.6711        -56.559      -2.268524              1       0.817131
      1306.5000         0.6814        17.8557       1364.947         0.0161       167.5916        83.6722       96.02018         0.7351         0.6865        46.9466         1.9949         0.6723       -56.6043      -2.310268              1      0.8275671
      1307.0000         0.6844        17.6889       1348.203         0.0161       167.8452        81.3901       93.21994         0.7445         0.6907        47.9045         2.0009         0.6676       -56.7054      -2.407803              1      0.8519506
      1307.5000         0.6874        17.5902       1331.461         0.0126       167.6726        75.6975        86.2262         0.7541         0.6972        47.7892         2.0127         0.6618       -56.7952      -2.494045              1      0.8735113
      1308.0000         0.6927        17.6737       1314.516         0.0087       166.6213         73.163       83.11561         0.7644         0.7048         46.272         2.0232         0.6681       -56.9308      -2.626087              1      0.9065218
      1308.5000          0.703        17.9471       1297.508         0.0084       164.5923        71.0656       80.54247          0.775           0.72        44.0208         2.0407         0.6908        -57.071      -2.762726              1      0.9406815
      1309.0000         0.7133        18.1242       1280.498         0.0132       162.5645        70.3662       79.68831          0.791         0.7354        43.7767         2.0532         0.7259        -57.184      -2.872162      0.9933683      0.9680405
      1309.5000         0.7281        18.1463       1263.488         0.0183       161.1357         70.323       79.64098         0.8098         0.7498        44.1629         2.0597         0.7471       -57.2803      -2.964905      0.9923612      0.9912262
