#------------------------------------------------------------------------------
# Created by    : vladimir.rabinovich
# Created on    : 09/19/2023 17:22:38
#------------------------------------------------------------------------------
~Version Information Section
VERS.           2.0     :   CWLS log ASCII Standard - VERSION 2.0
WRAP.           NO      :   One line per depth step
~Well Information Section
#MNEM       .UNIT                                         VALUE :DESCRIPTION
#------------------------------------------------------------------------------
STRT        .FT                                             597 :START DEPTH
STOP        .FT                                            8696 :STOP DEPTH
STEP        .FT                                             0.5 :STEP      
NULL        .                                           -999.25 :NULL      
COMP        .                MURPHY EXPLORATION & PRODUCTION CO :COMPANY   
WELL        .                               OCS G13308 ST00BP00 :WELL      
FLD         .                                           WILDCAT :FIELD     
LOC         .                                                   :LOCATION  
CNTY        .                             GALVESTON LARGE BLOCK :LOCATION  
STAT        .                                             TEXAS :STATE     
CTRY        .                                     UNITED STATES :COUNTRY   
SRVC        .                                                   :SERVICE COMPANY
DATE        .                             9/13/2023 11:19:54 AM :LOG DATE  
API         .                                    42706403460000 :API NUMBER
UWI         .                                    42706403460000 :UNIQUE WELL ID
XCOORD      .                                  1110706.35492259 :SURFACE X 
YCOORD      .                                  10520329.8149831 :SURFACE Y 
LAT         .                                         28.978895 :LATITUDE  
LON         .                                        -94.657168 :LONGITUDE 
ELEV        .FT                                              71 :ELEVATION VALUE
ELEV_TYPE   .                                                KB :ELEVATION REFERENCE TYPE
~Curve Information Section
#MNEM       .UNIT                                      API CODE :CURVE DESCRIPTION
#------------------------------------------------------------------------------
DEPT        .FT                                                 :DEPTH     
DCAL        .IN                                                 :          
DPHI        .%                                                  :          
DRHO        .G/C3                                               :          
DTLN        .US/F                                               :          
GR          .GAPI                                               :          
GR_1        .GAPI                                               :          
GR_NORM     .GAPI                                               :GammaRay Normalized
ILD         .OHMM                                               :          
ILM         .OHMM                                               :          
NPHI        .%                                                  :          
SFL         .OHMM                                               :          
SP          .MV                                                 :          
VSH_GR      .V/V                                                :Volume of Shale from GR
~A        DEPTH           DCAL           DPHI           DRHO           DTLN             GR           GR_1        GR_NORM            ILD            ILM           NPHI            SFL             SP         VSH_GR
# ...
      8121.0000        -0.4262        24.1774        -0.0032        -999.25        -999.25        54.1382       61.33476         0.7553         0.7546        30.7928         0.9069       -55.8692      0.6028673
      8121.5000        -0.4052        23.2009        -0.0004        -999.25        -999.25        57.0056       65.23599         0.7815         0.8063        31.3245         1.0208       -56.1028      0.6858722
      8122.0000        -0.2559        22.6373         0.0028        -999.25        -999.25        59.3799       68.46634         0.8371          0.853        32.2769         1.1004       -54.9279       0.754603
      8122.5000         0.1038        22.4468         0.0119        -999.25        -999.25        60.5144       70.00987         0.8924         0.9024        33.4394         1.0864       -53.4293      0.7874441
      8123.0000         0.4546        22.4919         0.0158        -999.25        -999.25        60.3439       69.77789         0.9515         0.9546        35.0743         1.0596       -52.0165      0.7825084
      8123.5000         0.5269        22.7929         0.0163        -999.25        -999.25        59.6031          68.77         0.9994         1.0092        36.4887         1.0323       -50.7864      0.7610639
      8124.0000         0.4663        23.2714         0.0132        -999.25        -999.25         57.739       66.23381         1.0235         1.0501        36.4189         1.0298       -50.1839      0.7071024
      8124.5000         0.4512        24.2029         0.0091        -999.25        -999.25        55.7277       63.49735          1.039         1.0672        35.8032         1.0763       -50.4368      0.6488798
      8125.0000         0.4836        25.8258         0.0045        -999.25        -999.25        57.0976       65.36116         1.0467         1.0725        35.6945          1.138       -50.8302      0.6885353
      8125.5000         0.6193        27.1382        -0.0003        -999.25        -999.25        58.1805        66.8345         1.0489         1.0703        36.5427           1.19       -51.1343      0.7198829
      8126.0000         0.9188        27.9632        -0.0018        -999.25        -999.25        59.2156        68.2428         1.0365         1.0629        37.9631          1.188       -51.4134      0.7498468
      8126.5000         1.2338        28.3805        -0.0025        -999.25        -999.25        63.5914       74.19626          1.014          1.047         40.321         1.0618       -51.6733      0.8765162
      8127.0000          1.301        27.6407        -0.0019        -999.25        -999.25        69.6548       82.44579         0.9878         1.0221        43.0118         0.9518        -51.786              1
      8127.5000         1.1234        25.3008         0.0001        -999.25        -999.25        71.2859       84.66496         0.9626         0.9984        45.1688         0.8799       -51.6915              1
      8128.0000         0.8703        22.9039         0.0045        -999.25        -999.25        71.4293       84.86007          0.938         0.9731        46.9087         0.8495        -51.448              1
      8128.5000         0.6439        21.5615         0.0089        -999.25        -999.25        70.9241       84.17273         0.9138         0.9503        47.5759         0.8602       -51.1429              1
      8129.0000         0.5438        21.1378         0.0115        -999.25        -999.25        70.6052       83.73885         0.8935         0.9364        46.8276         0.9025       -51.4315              1
      8129.5000         0.6306        21.4798         0.0115        -999.25        -999.25        69.6498         82.439          0.874          0.928        45.6322         0.9618       -52.5107              1
      8130.0000         0.6437        22.0977         0.0106        -999.25        -999.25        66.4709       78.11395          0.851         0.9199        44.5613         0.9894       -53.1477      0.9598712
      8130.5000         0.3412        22.3839         0.0086        -999.25        -999.25         65.702       77.06783         0.8242         0.9043        44.1411         0.9153       -53.1975      0.9376135
      8131.0000         0.0262        22.1461         0.0056        -999.25        -999.25         68.394       80.73041         0.7946         0.8683        44.3636          0.792       -53.8696              1
      8131.5000        -0.1563        21.9422         0.0023        -999.25        -999.25        72.6472       86.51709           0.76         0.8086         44.601          0.743       -55.0285              1
      8132.0000        -0.1599        21.9237        -0.0015        -999.25        -999.25        75.4973       90.39476         0.7218         0.7564        44.5609         0.7316       -56.8362              1
      8132.5000        -0.1484         22.373         -0.005        -999.25        -999.25        69.9687       82.87286         0.6822          0.701         44.058         0.6996       -57.4234              1
      8133.0000        -0.1912        23.4319        -0.0082        -999.25        -999.25        60.6186       70.15163         0.6473         0.6513        42.6279         0.6614         -57.81      0.7904603
      8133.5000        -0.2994        25.2708        -0.0104        -999.25        -999.25        51.9553       58.36483         0.6212         0.6527        41.1039         0.6539       -58.6292      0.5396773
      8134.0000        -0.3702        26.5277        -0.0121        -999.25        -999.25        46.3579       50.74932         0.5992          0.661          40.27         0.7076       -60.0837      0.3776452
      8134.5000        -0.3654        27.0006        -0.0132        -999.25        -999.25        48.9039       54.21326         0.5957         0.6669        39.2996          0.753       -61.1575       0.451346
      8135.0000        -0.3705        26.9076        -0.0133        -999.25        -999.25        49.3727       54.85109         0.5974         0.6697        38.6284         0.7646       -61.3313      0.4649168
      8135.5000        -0.3677         26.578         -0.014        -999.25        -999.25        47.9915       52.97191         0.6059         0.6661        38.1116         0.7429       -60.9202      0.4249343
      8136.0000        -0.3337        26.1528        -0.0172        -999.25        -999.25        47.8271       52.74823          0.607         0.6576        37.8124         0.7322       -60.3916      0.4201751
      8136.5000        -0.3093        25.9527        -0.0211        -999.25        -999.25        50.6503       56.58932         0.6014         0.6433        37.6926         0.7441       -59.9967      0.5019004
      8137.0000        -0.2984        26.0264        -0.0244        -999.25        -999.25        53.7017       60.74089         0.5979         0.6262        37.5375         0.7315       -59.6478      0.5902317
      8137.5000         -0.305        26.4265         -0.027        -999.25        -999.25        54.1824        61.3949         0.5955         0.6136        37.0565         0.6997       -59.4188      0.6041468
      8138.0000        -0.3075        26.9215        -0.0289        -999.25        -999.25        50.2922       56.10211         0.5979         0.6046        36.0358         0.6615       -59.7453      0.4915343
      8138.5000        -0.2853        27.4112        -0.0303        -999.25        -999.25        45.7889       49.97517         0.6009         0.6007        35.0143         0.6333       -60.5314      0.3611738
      8139.0000        -0.2806        27.5835        -0.0307        -999.25        -999.25        42.4175       45.38824         0.6057         0.6082        34.4722         0.6265       -61.3875      0.2635795
      8139.5000        -0.2954        27.0542        -0.0283        -999.25        -999.25         41.623       44.30729         0.6124         0.6263        34.5366         0.6485       -61.1017      0.2405805
