#------------------------------------------------------------------------------
# Created by    : vladimir.rabinovich
# Created on    : 09/19/2023 17:19:47
#------------------------------------------------------------------------------
~Version Information Section
VERS.           2.0     :   CWLS log ASCII Standard - VERSION 2.0
WRAP.           NO      :   One line per depth step
~Well Information Section
#MNEM       .UNIT                                         VALUE :DESCRIPTION
#------------------------------------------------------------------------------
STRT        .FT                                             970 :START DEPTH
STOP        .FT                                            9511 :STOP DEPTH
STEP        .FT                                             0.5 :STEP      
NULL        .                                           -999.25 :NULL      
COMP        .                                SHELL OFFSHORE INC :COMPANY   
WELL        .                               OCS G06097 ST00BP00 :WELL      
FLD         .                                           WILDCAT :FIELD     
LOC         .                                                   :LOCATION  
CNTY        .                             GALVESTON LARGE BLOCK :LOCATION  
STAT        .                                             TEXAS :STATE     
CTRY        .                                     UNITED STATES :COUNTRY   
SRVC        .                                                   :SERVICE COMPANY
DATE        .                             9/13/2023 11:19:27 AM :LOG DATE  
API         .                                    42706401130000 :API NUMBER
UWI         .                                    42706401130000 :UNIQUE WELL ID
XCOORD      .                                  1026820.46089783 :SURFACE X 
YCOORD      .                                  10482391.3243497 :SURFACE Y 
LAT         .                                         28.871086 :LATITUDE  
LON         .                                        -94.917566 :LONGITUDE 
ELEV        .FT                                             107 :ELEVATION VALUE
ELEV_TYPE   .                                                KB :ELEVATION REFERENCE TYPE
~Curve Information Section
#MNEM       .UNIT                                      API CODE :CURVE DESCRIPTION
#------------------------------------------------------------------------------
DEPT        .FT                                                 :DEPTH     
ASFL        .OHMM                                               :          
CALI        .IN                                                 :          
CILD        .MMHO                                               :          
DT          .US/F                                               :          
GR          .GAPI                                               :          
GR_NORM     .GAPI                                               :GammaRay Normalized
ILD         .OHMM                                               :          
ILM         .OHMM                                               :          
RHOB        .G/C3                                               :          
SP          .MV                                                 :          
SP_NORM     .MV                                                 :SP Normalized
VSH_GR      .V/V                                                :Volume of Shale from GR
VSH_SP      .V/V                                                :Volume of Shale from SP
~A        DEPTH           ASFL           CALI           CILD             DT             GR        GR_NORM            ILD            ILM           RHOB             SP        SP_NORM         VSH_GR         VSH_SP
# ...
      9501.0000         0.8908         7.6094       1194.266       126.0631         74.395       64.97265         0.8002         0.8612         2.2611       -43.3473      -3.826344      0.6802691       0.945338
      9501.5000         0.8602         8.2195       1241.227       126.0559        73.8325       64.07816         0.8062          0.823         2.2831       -42.1904      -2.669441      0.6612375      0.9618651
      9502.0000         0.8199         8.6797       1340.994       126.0487        73.2688       63.18176         0.7883         0.7712         2.2989       -41.1353      -1.614342       0.642165      0.9769379
      9502.5000         0.7895         9.0853       1383.496       126.1016        72.7063       62.28727         0.7598         0.7363         2.3015       -40.2198     -0.6988411      0.6231335      0.9900166
      9503.0000         0.7646         9.0695        1437.59       126.1619        72.1713       61.43652         0.7306         0.7072         2.3102       -39.1071      0.4138565      0.6050324              1
      9503.5000         0.7371         9.0378       1510.012       126.2223        72.0952        61.3155         0.6945         0.6828         2.3212       -37.7014       1.819557      0.6024574              1
      9504.0000         0.7121         8.9904       1577.283        126.259         72.019       61.19432         0.6618         0.6599         2.3198       -37.1909       2.330059      0.5998793              1
      9504.5000         0.6861         8.9467       1655.055       126.2616        71.9429       61.07332         0.6348         0.6419         2.2973         -37.08       2.440956      0.5973046              1
      9505.0000         0.6666         9.0011        1749.67       126.2642        71.8717       60.96008         0.6078         0.6273         2.2496       -37.3228       2.198158      0.5948954              1
      9505.5000         0.6516         9.1019       1852.707       126.2573        71.8594       60.94053         0.5843         0.6129         2.2121       -37.9183       1.602657      0.5944793              1
      9506.0000         0.6366         9.1756       2016.771       126.2207         71.847       60.92081         0.5618          0.596         2.2208       -38.6095      0.9114571      0.5940598              1
      9506.5000         0.6212         8.6958       2066.109       126.1841        71.8347       60.90126         0.5416         0.5794         2.2273       -39.3987      0.1222572      0.5936438              1
      9507.0000         0.6056         8.0686       2105.281       126.1439        71.8224       60.88169         0.5321         0.5633         2.2259       -40.1401     -0.6191406      0.5932276      0.9911551
      9507.5000           0.59         7.9902       2113.133       126.0829        71.8184       60.87533         0.5226         0.5461         2.2271       -40.8338      -1.312843      0.5930921      0.9812451
      9508.0000         0.5698         7.9723       2114.047       126.0219        71.8308       60.89505          0.513         0.5236         2.2416       -41.3705      -1.849541      0.5935118       0.973578
      9508.5000         0.5476         7.8641       2114.461        -999.25        71.8433       60.91493         0.5058        -999.25          2.258       -41.7523      -2.231342      0.5939347      0.9681237
      9509.0000         0.5281         7.8082        2111.93        -999.25        71.8557       60.93465         0.5005        -999.25         2.2735       -41.8007      -2.279743      0.5943542      0.9674323
      9509.5000          0.512         8.0123       2108.023        -999.25        71.8682       60.95453         0.4953        -999.25         2.2791       -41.7699      -2.248943      0.5947772      0.9678723
      9510.0000         0.5062         8.3176       2104.152        -999.25        71.8806       60.97425           0.49        -999.25          2.257       -41.6827      -2.161743      0.5951967      0.9691179
      9510.5000         0.5004         8.9719           2101        -999.25        71.8885        60.9868         0.4854        -999.25         2.1969       -41.5677      -2.046741      0.5954639      0.9707608
      9511.0000         0.4989         9.2569       2097.852        -999.25        71.8945       60.99635         0.4829        -999.25         2.1519       -41.4526      -1.931641      0.5956669      0.9724051
