#------------------------------------------------------------------------------
# Created by    : vladimir.rabinovich
# Created on    : 09/19/2023 17:20:10
#------------------------------------------------------------------------------
~Version Information Section
VERS.           2.0     :   CWLS log ASCII Standard - VERSION 2.0
WRAP.           NO      :   One line per depth step
~Well Information Section
#MNEM       .UNIT                                         VALUE :DESCRIPTION
#------------------------------------------------------------------------------
STRT        .FT                                             409 :START DEPTH
STOP        .FT                                           13135 :STOP DEPTH
STEP        .FT                                             0.5 :STEP      
NULL        .                                           -999.25 :NULL      
COMP        .                         ATLANTIC RICHFIELD CO THE :COMPANY   
WELL        .                               OCS G04547 ST00BP00 :WELL      
FLD         .                                           WILDCAT :FIELD     
LOC         .                                                   :LOCATION  
CNTY        .                      MATAGORDA ISLAND LARGE BLOCK :LOCATION  
STAT        .                                             TEXAS :STATE     
CTRY        .                                     UNITED STATES :COUNTRY   
SRVC        .                                                   :SERVICE COMPANY
DATE        .                             9/13/2023 11:12:03 AM :LOG DATE  
API         .                                    42703401300000 :API NUMBER
UWI         .                                    42703401300000 :UNIQUE WELL ID
XCOORD      .                                  517134.995430583 :SURFACE X 
YCOORD      .                                  10172294.5320476 :SURFACE Y 
LAT         .                                         27.987424 :LATITUDE  
LON         .                                        -96.480505 :LONGITUDE 
ELEV        .FT                                              99 :ELEVATION VALUE
ELEV_TYPE   .                                                KB :ELEVATION REFERENCE TYPE
~Curve Information Section
#MNEM       .UNIT                                      API CODE :CURVE DESCRIPTION
#------------------------------------------------------------------------------
DEPT        .FT                                                 :DEPTH     
ASFL        .OHMM                                               :          
CILD        .MMHO                                               :          
GR          .GAPI                                               :          
GR_NORM     .GAPI                                               :GammaRay Normalized
ILD         .OHMM                                               :          
SP          .MV                                                 :          
SP_NORM     .MV                                                 :SP Normalized
VSH_GR      .V/V                                                :Volume of Shale from GR
VSH_SP      .V/V                                                :Volume of Shale from SP
~A        DEPTH           ASFL           CILD             GR        GR_NORM            ILD             SP        SP_NORM         VSH_GR         VSH_SP
# ...
      5497.0000         0.8954       1182.205        -999.25        -999.25          0.883       -52.0267      -9.958042        -999.25      0.8171828
      5497.5000         0.9101       1175.891        -999.25        -999.25         0.8928       -51.9262      -9.838531        -999.25      0.8196218
      5498.0000         0.9406        1164.51        -999.25        -999.25         0.9025       -51.8256      -9.718922        -999.25      0.8220628
      5498.5000         0.9769       1146.275        -999.25        -999.25         0.9123       -51.3971      -9.271408        -999.25      0.8311958
      5499.0000         1.0108       1116.092        -999.25        -999.25         0.9353       -51.1779      -9.033195        -999.25      0.8360572
      5499.5000         1.0308       1072.539        -999.25        -999.25          0.968       -51.4688      -9.305084        -999.25      0.8305085
      5500.0000           1.05       1028.986        -999.25        -999.25         1.0006       -51.7593      -9.576572        -999.25      0.8249679
      5500.5000          1.058       988.1113        -999.25        -999.25         1.0452       -52.1899      -9.988159        -999.25      0.8165682
      5501.0000         1.0525        947.624        -999.25        -999.25         1.0975       -53.0734      -10.85265        -999.25      0.7989256
      5501.5000         1.0435        895.459        -999.25        -999.25         1.1498       -54.0065      -11.76674        -999.25      0.7802707
      5502.0000         1.0262       887.5996        -999.25        -999.25         1.0705       -55.1942      -12.93542        -999.25      0.7564199
      5502.5000          1.022       898.7187        -999.25        -999.25         0.9903       -56.3686      -14.09081        -999.25      0.7328405
      5503.0000         1.0232       909.8389        -999.25        -999.25         0.9101       -57.5309       -15.2341        -999.25      0.7095082
      5503.5000          1.024       966.0186        -999.25        -999.25         0.5547       -59.1927      -16.87689        -999.25      0.6759819
      5504.0000         1.0014       1074.438        -999.25        -999.25          0.422       -62.4873      -20.15248        -999.25      0.6091331
      5504.5000          0.921       1501.105        -999.25        -999.25         0.2997        -70.015      -27.66116        -999.25      0.4558946
      5505.0000         0.8541       1979.941        -999.25        -999.25         0.2588       -79.2457      -36.87285        -999.25      0.2679011
      5505.5000         0.7515       2458.773        -999.25        -999.25         0.2179       -88.5344      -46.14254        -999.25     0.07872368
      5506.0000         0.6489       3942.141        -999.25        -999.25         0.1977       -93.1787      -50.76783        -999.25              0
      5506.5000         0.5568       3995.133        -999.25        -999.25         0.1795       -95.2203      -52.79042        -999.25              0
      5507.0000         0.5239        4564.75        -999.25        -999.25         0.1623       -94.5286      -52.07971        -999.25              0
      5507.5000         0.4774       4815.555        -999.25        -999.25         0.1544        -91.067      -48.59909        -999.25     0.02858991
      5508.0000         0.4521       4935.797        -999.25        -999.25         0.1466       -88.1715      -45.68458        -999.25     0.08806976
      5508.5000         0.4444       5001.391        -999.25        -999.25         0.1393       -85.4139      -42.90797        -999.25      0.1447353
      5509.0000         0.4369       4085.313        -999.25        -999.25         0.1405       -84.3835      -41.85855        -999.25      0.1661519
      5509.5000         0.4327        4017.75        -999.25        -999.25         0.1416       -83.7805      -41.23655        -999.25       0.178846
      5510.0000         0.5495       3117.852        -999.25        -999.25         0.1428        -83.177      -40.61404        -999.25      0.1915503
      5510.5000         0.6472       2647.145        -999.25        -999.25         0.1896       -82.9309      -40.34892        -999.25      0.1969608
      5511.0000         0.6854       2591.086        -999.25        -999.25         0.2365       -93.1873      -50.58631        -999.25              0
      5511.5000         0.7129       2467.535        -999.25        -999.25         0.3779       -93.9341      -51.31409        -999.25              0
      5512.0000         0.7281       2536.633        -999.25        -999.25         0.4013       -94.5957      -51.95669        -999.25              0
      5512.5000         0.7077       2868.703        -999.25        -999.25         0.3671        -95.172      -52.51397        -999.25              0
      5513.0000         0.6825       3200.773        -999.25        -999.25          0.333       -95.6848      -53.00776        -999.25              0
      5513.5000         0.6329       3532.844        -999.25        -999.25         0.2989       -96.1722      -53.47615        -999.25              0
      5514.0000         0.6101        3808.25        -999.25        -999.25         0.2671       -96.4573      -53.74224        -999.25              0
      5514.5000         0.5918       4273.555        -999.25        -999.25         0.2384       -96.7279      -53.99382        -999.25              0
      5515.0000         0.5832       4356.477        -999.25        -999.25         0.2098       -95.6642      -52.91111        -999.25              0
      5515.5000         0.5747       4472.195        -999.25        -999.25          0.203       -94.4535       -51.6814        -999.25              0
      5516.0000         0.5699       4570.297        -999.25        -999.25         0.2012       -93.2683      -50.47719        -999.25              0
      5516.5000         0.5683       4318.031        -999.25        -999.25         0.2075        -92.083      -49.27288        -999.25     0.01483925
      5517.0000         0.5698       3998.324        -999.25        -999.25         0.2211       -90.9001      -48.07096        -999.25     0.03936806
      5517.5000         0.5782       3999.094        -999.25        -999.25         0.2348        -89.658      -46.80985        -999.25     0.06510513
      5518.0000         0.5868       3799.707        -999.25        -999.25         0.2484       -88.2599      -45.39275        -999.25     0.09402559
      5518.5000         0.5995       3534.012        -999.25        -999.25         0.2621       -86.8605      -43.97433        -999.25      0.1229729
      5519.0000         0.6318       3268.316        -999.25        -999.25         0.2756       -84.8479      -41.94272        -999.25      0.1644343
      5519.5000          0.671       3002.621        -999.25        -999.25         0.2889        -82.504       -39.5798        -999.25      0.2126571
      5520.0000         0.7176       2736.926        -999.25        -999.25         0.3287       -70.8859       -27.9427        -999.25      0.4501491
      5520.5000         0.8277       2495.855        -999.25        -999.25         0.4141       -65.2642      -22.30198        -999.25      0.5652657
      5521.0000         0.9987       2334.395        -999.25        -999.25         0.4998       -63.8201      -20.83887        -999.25      0.5951251
      5521.5000         1.0176       1379.158        -999.25        -999.25         0.5888       -62.7365      -19.73626        -999.25      0.6176274
      5522.0000         0.9724       1433.174        -999.25        -999.25         0.6594       -61.6896      -18.67035        -999.25      0.6393806
      5522.5000         0.9267       1559.986        -999.25        -999.25         0.6526       -63.8419      -20.80363        -999.25      0.5958442
      5523.0000         0.8953       1690.889        -999.25        -999.25          0.607       -71.5244      -28.46712        -999.25      0.4394465
