#------------------------------------------------------------------------------
# Created by    : vladimir.rabinovich
# Created on    : 09/19/2023 17:20:24
#------------------------------------------------------------------------------
~Version Information Section
VERS.           2.0     :   CWLS log ASCII Standard - VERSION 2.0
WRAP.           NO      :   One line per depth step
~Well Information Section
#MNEM       .UNIT                                         VALUE :DESCRIPTION
#------------------------------------------------------------------------------
STRT        .FT                                            1590 :START DEPTH
STOP        .FT                                            8991 :STOP DEPTH
STEP        .FT                                             0.5 :STEP      
NULL        .                                           -999.25 :NULL      
COMP        .                                 C & K OFFSHORE CO :COMPANY   
WELL        .                                OCS 00507 ST00BP00 :WELL      
FLD         .                                           WILDCAT :FIELD     
LOC         .                                                   :LOCATION  
CNTY        .                           HIGH ISLAND LARGE BLOCK :LOCATION  
STAT        .                                             TEXAS :STATE     
CTRY        .                                     UNITED STATES :COUNTRY   
SRVC        .                                                   :SERVICE COMPANY
DATE        .                             9/13/2023 11:19:15 AM :LOG DATE  
API         .                                    42708300260000 :API NUMBER
UWI         .                                    42708300260000 :UNIQUE WELL ID
XCOORD      .                                  1287575.74118613 :SURFACE X 
YCOORD      .                                  10681645.7296129 :SURFACE Y 
LAT         .                                         29.428295 :LATITUDE  
LON         .                                        -94.108714 :LONGITUDE 
ELEV        .FT                                              73 :ELEVATION VALUE
ELEV_TYPE   .                                                KB :ELEVATION REFERENCE TYPE
~Curve Information Section
#MNEM       .UNIT                                      API CODE :CURVE DESCRIPTION
#------------------------------------------------------------------------------
DEPT        .FT                                                 :DEPTH     
ASN         .OHMM                                               :          
CALI        .IN                                                 :          
CILD        .MMHO                                               :          
DT          .US/F                                               :          
GR          .GAPI                                               :          
GR_NORM     .GAPI                                               :GammaRay Normalized
ILD         .OHMM                                               :          
SP          .MV                                                 :          
SP_NORM     .MV                                                 :SP Normalized
VSH_GR      .V/V                                                :Volume of Shale from GR
VSH_SP      .V/V                                                :Volume of Shale from SP
~A        DEPTH            ASN           CALI           CILD             DT             GR        GR_NORM            ILD             SP        SP_NORM         VSH_GR         VSH_SP
# ...
      8970.0000          0.473         9.1796       2660.426       124.8805        93.7292       101.6086         0.3723       -40.4113      -5.297626              1      0.9243196
      8970.5000         0.4676         9.0723        2649.16       123.4875        95.7239        104.102         0.3729       -40.3259      -5.259979              1      0.9248574
      8971.0000         0.4621         8.9771       2637.895       122.8573        94.5956       102.6916         0.3731       -40.2404      -5.222229              1      0.9253967
      8971.5000         0.4586         8.9622       2626.641        124.093         92.067       99.53087         0.3732       -40.1866      -5.216183              1      0.9254831
      8972.0000         0.4619         9.0824       2613.559       126.6648        89.0164       95.71762         0.3734       -40.4355      -5.512836              1      0.9212452
      8972.5000         0.4652         9.4794       2600.973       128.6189        89.6597       96.52174         0.3736       -40.6844      -5.809486              1      0.9170073
      8973.0000         0.4685           9.94       2612.664       130.4941        88.1442       94.62737         0.3737       -40.9329       -6.10574              1      0.9127752
      8973.5000         0.4717        10.2538       2624.352       130.8362        86.6129       92.71324         0.3739       -41.1441      -6.364693              1      0.9090758
      8974.0000         0.4747          10.05       2635.645       130.1816        88.6135         95.214          0.374       -41.0072      -6.275543              1      0.9103494
      8974.5000         0.4773         8.7749       2646.883       129.0127        89.7242       96.60236         0.3756       -40.8704      -6.186497              1      0.9116215
      8975.0000         0.4799         8.4814       2658.137        127.413        90.1956       97.19162         0.3779       -40.7438      -6.107651              1      0.9127479
      8975.5000         0.4825         8.4897       2669.391       124.2234        91.6681       99.03224         0.3803       -40.6697      -6.054314              1      0.9135098
      8976.0000         0.4796         8.5208       2679.813        75.4158        94.9221       103.0997         0.3827       -40.5956      -5.980213              1      0.9145684
      8976.5000         0.4759         8.4718       2690.211        77.1681        98.4031        107.451         0.3851       -40.6631      -6.047714              1      0.9136041
      8977.0000         0.4722         8.2064       2700.605       101.7195          99.99       109.4346         0.3874       -40.9152      -6.299812              1      0.9100027
      8977.5000         0.4685         8.1187       2707.395       167.3115        97.5621       106.3997         0.3898       -41.1672      -6.551811              1      0.9064027
      8978.0000         0.4679         8.1969        2698.23        76.3608        96.2949       104.8157         0.3943       -41.4192      -6.803814              1      0.9028026
      8978.5000          0.472         8.2967       2686.703        86.0475        96.5844       105.1776         0.4013       -41.5353      -6.919914              1      0.9011441
      8979.0000         0.4762         8.4352       2675.188        87.0713        98.0479        107.007         0.4083       -41.5767      -6.961311              1      0.9005527
      8979.5000         0.4803          8.638        2663.66        75.1844        94.9926       103.1879         0.4153       -41.3225      -6.707111              1      0.9041841
      8980.0000         0.4845          8.782       2651.387       119.4391        91.1597       98.39674         0.4223       -40.9738      -6.358414              1      0.9091655
      8980.5000         0.4886         8.7522       2634.672       119.4243        90.0137       96.96425         0.4293       -40.6245      -6.009113              1      0.9141555
      8981.0000         0.4928         8.6718       2575.258       118.1987        95.9938       104.4394         0.4363        -40.332      -5.716614              1      0.9183341
      8981.5000         0.4969         8.6692       2541.383       114.5072        98.9995       108.1965         0.4433        -40.262      -5.646614              1      0.9193341
      8982.0000         0.5004         8.6748       2507.461       104.2446        99.7291       109.1085         0.4422       -40.1918      -5.576412              1       0.920337
      8982.5000         0.5035        -999.25       2447.074        -999.25        -999.25        -999.25         0.4399       -40.1218      -5.506413        -999.25      0.9213369
      8983.0000         0.5067        -999.25       2424.094        -999.25        -999.25        -999.25         0.4376       -40.0518      -5.436413        -999.25      0.9223369
      8983.5000         0.5098        -999.25       2401.633        -999.25        -999.25        -999.25         0.4353       -39.9572      -5.341812        -999.25      0.9236884
      8984.0000         0.5064        -999.25       2383.156        -999.25        -999.25        -999.25         0.4329       -39.8459      -5.230515        -999.25      0.9252784
      8984.5000         0.5009        -999.25       2366.355        -999.25        -999.25        -999.25          0.427       -39.7344      -5.119015        -999.25      0.9268712
      8985.0000          0.499        -999.25       2357.352        -999.25        -999.25        -999.25         0.4211        -39.623      -5.007614        -999.25      0.9284627
      8985.5000         0.5019        -999.25        2351.32        -999.25        -999.25        -999.25         0.4152       -39.5115      -4.896114        -999.25      0.9300555
      8986.0000         0.5048        -999.25       2360.699        -999.25        -999.25        -999.25         0.4093       -39.4002      -4.784813        -999.25      0.9316455
      8986.5000         0.5088        -999.25       2370.074        -999.25        -999.25        -999.25         0.4035       -39.2876      -4.672215        -999.25      0.9332541
      8987.0000          0.513        -999.25       2376.094        -999.25        -999.25        -999.25         0.3976       -39.1619      -4.546513        -999.25      0.9350498
      8987.5000         0.5035        -999.25       2381.242        -999.25        -999.25        -999.25         0.3943       -39.0363      -4.420914        -999.25      0.9368441
      8988.0000         0.4935        -999.25       2386.391        -999.25        -999.25        -999.25         0.3949       -38.9107      -4.295315        -999.25      0.9386384
      8988.5000         0.4835        -999.25       2391.539        -999.25        -999.25        -999.25         0.3955        -38.785      -4.169613        -999.25      0.9404341
      8989.0000         0.4734        -999.25       2396.684        -999.25        -999.25        -999.25         0.3961       -38.6594      -4.044014        -999.25      0.9422284
      8989.5000          0.463        -999.25       2401.832        -999.25        -999.25        -999.25         0.3968       -38.5352      -3.919811        -999.25      0.9440027
      8990.0000         0.4527        -999.25        2404.93        -999.25        -999.25        -999.25         0.3974       -38.6398      -4.024414        -999.25      0.9425084
      8990.5000          0.451        -999.25       2405.969        -999.25        -999.25        -999.25          0.398       -38.7501      -4.134712        -999.25      0.9409327
      8991.0000         0.4503        -999.25       2407.004        -999.25        -999.25        -999.25         0.3986       -38.9001      -4.284714        -999.25      0.9387898
