#------------------------------------------------------------------------------
# Created by    : vladimir.rabinovich
# Created on    : 09/19/2023 17:20:37
#------------------------------------------------------------------------------
~Version Information Section
VERS.           2.0     :   CWLS log ASCII Standard - VERSION 2.0
WRAP.           NO      :   One line per depth step
~Well Information Section
#MNEM       .UNIT                                         VALUE :DESCRIPTION
#------------------------------------------------------------------------------
STRT        .FT                                             254 :START DEPTH
STOP        .FT                                            9030 :STOP DEPTH
STEP        .FT                                             0.5 :STEP      
NULL        .                                           -999.25 :NULL      
COMP        .                                    MOBIL OIL CORP :COMPANY   
WELL        .                                OCS 00724 ST00BP00 :WELL      
FLD         .                                           WILDCAT :FIELD     
LOC         .                                                   :LOCATION  
CNTY        .                             GALVESTON LARGE BLOCK :LOCATION  
STAT        .                                             TEXAS :STATE     
CTRY        .                                     UNITED STATES :COUNTRY   
SRVC        .                                                   :SERVICE COMPANY
DATE        .                             9/13/2023 11:19:25 AM :LOG DATE  
API         .                                    42706000340000 :API NUMBER
UWI         .                                    42706000340000 :UNIQUE WELL ID
XCOORD      .                                  1011870.95166473 :SURFACE X 
YCOORD      .                                   10400634.765487 :SURFACE Y 
LAT         .                                         28.645607 :LATITUDE  
LON         .                                        -94.960058 :LONGITUDE 
ELEV        .FT                                              34 :ELEVATION VALUE
ELEV_TYPE   .                                                KB :ELEVATION REFERENCE TYPE
~Curve Information Section
#MNEM       .UNIT                                      API CODE :CURVE DESCRIPTION
#------------------------------------------------------------------------------
DEPT        .FT                                                 :DEPTH     
ASN         .OHMM                                               :          
CALI        .IN                                                 :          
CILD        .MMHO                                               :          
DT          .US/F                                               :          
ILD         .OHMM                                               :          
SP          .MV                                                 :          
SP_NORM     .MV                                                 :SP Normalized
VSH_SP      .V/V                                                :Volume of Shale from SP
~A        DEPTH            ASN           CALI           CILD             DT            ILD             SP        SP_NORM         VSH_SP
# ...
      3764.5000         0.7928        10.3256       1520.137       174.4336           0.68       -54.8427     -0.2048531              1
      3765.0000          0.786        10.3375       1528.982       175.2747         0.6784       -55.3864     -0.7505226              1
      3765.5000         0.7806        10.3233        1537.68       176.3042         0.6767       -55.9302      -1.296295      0.9912854
      3766.0000         0.7761        10.3003       1544.402       177.5984         0.6751       -56.4738      -1.841873       0.975239
      3766.5000         0.7717        10.2773       1551.131       172.2905         0.6735       -56.5961      -1.966145       0.971584
      3767.0000         0.7697        10.2543       1554.662       170.5007         0.6718       -56.3304      -1.702415      0.9793407
      3767.5000         0.7678        10.2312       1549.092       170.0479         0.6747       -56.0645      -1.438488      0.9871033
      3768.0000         0.7667        10.2158           1535       175.5271         0.6815       -55.7986      -1.174564      0.9948658
      3768.5000         0.7667        10.2034       1520.908       176.0452         0.6882       -55.5465     -0.9244385              1
      3769.0000         0.7668         10.191       1496.711       176.6184         0.6949       -55.2961     -0.6760101              1
      3769.5000         0.7668        10.1786       1468.936        177.646         0.7016       -55.0459      -0.427784              1
      3770.0000         0.7732        10.1791       1431.963       178.5574         0.7088       -54.8563     -0.2401581              1
      3770.5000           0.78        10.2067       1397.102       178.7158          0.716       -54.7465      -0.132328              1
      3771.0000         0.7892        10.2331       1370.064       178.1477         0.7232       -54.6367    -0.02450562              1
      3771.5000         0.8014        10.2595       1352.555       168.2429         0.7304       -54.5269     0.08332062              1
      3772.0000         0.8135        10.2859       1339.418       167.3472         0.7351       -54.5063      0.1019478              1
      3772.5000         0.8239        10.3123       1327.908       166.4143         0.7362       -54.8205      -0.214222              1
      3773.0000         0.8334        10.3445       1319.982       163.9456         0.7373       -55.1344      -0.530098              1
      3773.5000         0.8421        10.3785       1333.285       162.6785         0.7384       -55.4483     -0.8459702              1
      3774.0000         0.8472        10.4138       1350.773       158.8728         0.7388       -55.7625      -1.162144      0.9952311
      3774.5000         0.8448        10.4602        1368.26       162.5508         0.7362       -56.1024      -1.504021      0.9851758
      3775.0000         0.8373        10.5034       1387.939       162.8682         0.7335       -55.8093      -1.212891      0.9937385
      3775.5000         0.8277        10.5209       1408.389       163.2048         0.7308        -55.226     -0.6315651              1
      3776.0000         0.8181        10.4568       1423.924       163.7476         0.7282       -54.8641     -0.2716408              1
      3776.5000          0.809        10.3927       1434.922       164.0737         0.7253       -55.2592     -0.6687126              1
      3777.0000         0.8013        10.3043       1441.859       164.3162         0.7207       -55.6072      -1.018684      0.9994504
      3777.5000         0.7989        10.1789       1454.436       164.5762         0.7161       -55.9468      -1.360256      0.9894042
      3778.0000         0.8025         9.9744       1471.797       164.8538         0.7115       -56.1488      -1.564232      0.9834049
      3778.5000         0.8051         9.6712       1492.453       165.1313          0.707       -56.0197      -1.437103       0.987144
      3779.0000         0.8078         9.5363       1510.904       163.5161         0.7024       -55.8758      -1.295177      0.9913183
      3779.5000         0.8104         9.4746       1527.393       162.9683          0.698       -55.5605     -0.9818535              1
      3780.0000         0.8032         9.4394       1541.336       162.5779         0.6961       -55.2451     -0.6684227              1
      3780.5000         0.7956         9.4058        1555.02       162.2148         0.6941       -54.9298     -0.3550949              1
      3781.0000         0.7869          9.413       1568.113       161.8542         0.6922       -54.6142    -0.04146957              1
      3781.5000         0.7787         9.4248       1578.373       161.8982         0.6902       -54.3209       0.249855              1
      3782.0000         0.7788         9.4366       1578.174       162.3354         0.6886       -54.0593      0.5094833              1
      3782.5000         0.7788         9.4484       1550.717       162.6577         0.6948       -53.7977      0.7691116              1
      3783.0000         0.7803         9.4662       1504.955       162.9263         0.7009        -53.536       1.028835              1
      3783.5000         0.7837         9.4697       1446.043       165.4692         0.7071       -53.3658       1.197063              1
      3784.0000         0.7871         9.3909       1401.916       166.7837         0.7133       -53.6918       0.869091              1
      3784.5000         0.7905          9.326       1368.465        167.468         0.7195       -54.0179      0.5410156              1
      3785.0000            0.8         9.2711       1345.777       167.5732         0.7281       -54.3437      0.2132416              1
      3785.5000         0.8099         9.2332       1327.414       166.9092         0.7388       -54.6697     -0.1147308              1
      3786.0000         0.8231         9.1962       1309.939       164.6079         0.7494       -54.8779     -0.3249016              1
      3786.5000         0.8406          9.208       1295.553       162.9578         0.7601       -55.0612     -0.5101776              1
      3787.0000         0.8559         9.2695       1281.176       161.4426         0.7707       -55.1927     -0.6436501              1
      3787.5000         0.8658          9.334       1267.471       159.7217         0.7814        -55.259     -0.7119217              1
      3788.0000         0.8704         9.3119       1254.004       157.7673         0.7894       -55.3254     -0.7803001              1
      3788.5000         0.8736         9.2679       1242.154       155.3713          0.796       -55.3918      -0.848671              1
      3789.0000         0.8762         9.2239       1233.002       152.8462         0.8026       -55.4582     -0.9170418              1
      3789.5000         0.8786         9.1799       1239.105       148.9602         0.8023       -55.5995      -1.060314       0.998226
      3790.0000          0.881         9.1368       1245.211       148.5413         0.8004       -55.8287      -1.291492      0.9914267
      3790.5000         0.8834         9.0945       1251.314       148.5469         0.7984        -56.058      -1.522762      0.9846246
      3791.0000         0.8855         9.0568       1257.422       147.8452         0.7965       -56.1516      -1.618336      0.9818137
      3791.5000         0.8873         9.1078       1255.344        146.582         0.7946       -55.9216      -1.390312      0.9885202
      3792.0000         0.8891         9.1624       1245.572       148.3027         0.7931       -55.6917      -1.162384       0.995224
      3792.5000         0.8908         9.1989        1237.09       147.7483         0.7917       -55.4617     -0.9343567              1
      3793.0000         0.8926         9.1989       1229.646       147.1968         0.7904       -55.2318     -0.7064323              1
      3793.5000         0.8943         9.1989       1237.521       146.6284          0.789       -55.0018      -0.478405              1
