#------------------------------------------------------------------------------
# Created by    : vladimir.rabinovich
# Created on    : 09/19/2023 17:20:31
#------------------------------------------------------------------------------
~Version Information Section
VERS.           2.0     :   CWLS log ASCII Standard - VERSION 2.0
WRAP.           NO      :   One line per depth step
~Well Information Section
#MNEM       .UNIT                                         VALUE :DESCRIPTION
#------------------------------------------------------------------------------
STRT        .FT                                            2310 :START DEPTH
STOP        .FT                                           12118 :STOP DEPTH
STEP        .FT                                             0.5 :STEP      
NULL        .                                           -999.25 :NULL      
COMP        .                                   FOREST OIL CORP :COMPANY   
WELL        .                               OCS G01793 ST00BP00 :WELL      
FLD         .                                           WILDCAT :FIELD     
LOC         .                                                   :LOCATION  
CNTY        .                             GALVESTON LARGE BLOCK :LOCATION  
STAT        .                                             TEXAS :STATE     
CTRY        .                                     UNITED STATES :COUNTRY   
SRVC        .                                                   :SERVICE COMPANY
DATE        .                             9/13/2023 11:19:24 AM :LOG DATE  
API         .                                    42706001380000 :API NUMBER
UWI         .                                    42706001380000 :UNIQUE WELL ID
XCOORD      .                                  1024149.02927821 :SURFACE X 
YCOORD      .                                  10425384.3690734 :SURFACE Y 
LAT         .                                         28.714212 :LATITUDE  
LON         .                                        -94.923031 :LONGITUDE 
ELEV        .FT                                              60 :ELEVATION VALUE
ELEV_TYPE   .                                                KB :ELEVATION REFERENCE TYPE
~Curve Information Section
#MNEM       .UNIT                                      API CODE :CURVE DESCRIPTION
#------------------------------------------------------------------------------
DEPT        .FT                                                 :DEPTH     
ASN         .OHMM                                               :          
CALI        .IN                                                 :          
CILD        .MMHO                                               :          
DT          .US/F                                               :          
ILD         .OHMM                                               :          
RHOB        .G/C3                                               :          
SP          .MV                                                 :          
SP_NORM     .MV                                                 :SP Normalized
VSH_SP      .V/V                                                :Volume of Shale from SP
~A        DEPTH            ASN           CALI           CILD             DT            ILD           RHOB             SP        SP_NORM         VSH_SP
# ...
      5569.5000         0.6096        12.0373       1654.965       124.7615         0.5721        -999.25       -54.3357      -3.958665      0.9390975
      5570.0000         0.6049         12.004       1653.893        118.995         0.5696        -999.25       -54.2433       -3.82812      0.9411058
      5570.5000         0.5999        11.9793       1644.008       114.6541         0.5676        -999.25       -54.1511      -3.697847        0.94311
      5571.0000         0.5923        11.9491       1634.086        112.048         0.5657        -999.25       -54.9211      -4.774662      0.9265437
      5571.5000         0.5892        11.9188       1625.646       111.1226         0.5637        -999.25       -56.1844      -6.542094      0.8993524
      5572.0000         0.5977        11.8717       1656.359       110.6442         0.5618        -999.25       -57.4477       -8.30953      0.8721611
      5572.5000         0.6062        11.8201       1758.773       110.5117         0.5598        -999.25       -59.8904      -11.72812      0.8195674
      5573.0000         0.6147        11.7741       1822.943       110.5475         0.5591        -999.25        -63.103      -16.22458      0.7503911
      5573.5000         0.6196        11.7847       1877.342       110.6956         0.5591        -999.25        -71.266      -27.65159       0.574591
      5574.0000         0.6241        11.8377       1921.219       110.7676         0.5591        -999.25        -77.546      -36.44239      0.4393478
      5574.5000         0.6287        11.8908       1970.375       110.5165         0.5591        -999.25       -81.2345      -41.60511      0.3599215
      5575.0000         0.6249        11.9438       1988.844       110.2657         0.5591        -999.25       -82.7168      -43.67914      0.3280132
      5575.5000         0.6207        11.9977       2007.328       110.0149         0.5532        -999.25       -83.9539       -45.4099      0.3013861
      5576.0000         0.6165         12.052       2034.098       109.9921         0.5465        -999.25       -84.8428      -46.65316       0.282259
      5576.5000         0.6123        11.9884       2117.637       110.0724         0.5398        -999.25       -85.4625      -47.51957      0.2689297
      5577.0000         0.6082        11.9061       2083.883       110.1528         0.5331        -999.25       -85.7057      -47.85886      0.2637098
      5577.5000         0.6087        11.8147        2026.07       110.4244         0.5271        -999.25       -85.2856      -47.26953      0.2727765
      5578.0000         0.6119        11.6756       2016.898       110.8923         0.5257        -999.25       -84.8656      -46.68034      0.2818409
      5578.5000         0.6152        11.5838       2013.984       111.3604         0.5242        -999.25       -84.4456      -46.09116      0.2909052
      5579.0000         0.6184        11.5519       1940.266       102.7461         0.5227        -999.25       -84.0251      -45.50127      0.2999805
      5579.5000         0.6266        11.5788       1906.287        99.8202         0.5212        -999.25       -83.6051      -44.91209      0.3090448
      5580.0000         0.6371        11.6201       1901.941       100.0735         0.5197        -999.25       -83.5732      -44.86623      0.3097503
      5580.5000         0.6475         11.664       1910.711       101.4518         0.5216        -999.25       -83.8214      -45.21253      0.3044226
      5581.0000          0.658        11.7081       1924.012       108.9888         0.5242        -999.25       -84.0696      -45.55883       0.299095
      5581.5000         0.6658        11.7476       1937.313       112.0472         0.5268        -999.25       -84.3181      -45.90554       0.293761
      5582.0000         0.6577        11.7779       1950.611       112.5302         0.5293        -999.25       -84.0988      -45.59733      0.2985027
      5582.5000         0.6473        11.8082       1963.912       113.4767         0.5319        -999.25       -83.8018      -45.18034      0.3049178
      5583.0000         0.6329        11.8254       1977.711       114.4698         0.5345        -999.25       -83.4656      -44.70847      0.3121773
      5583.5000         0.6185        11.8324       2017.719       115.2352         0.5338        -999.25       -83.1296      -44.23689      0.3194325
      5584.0000         0.6097        11.8395       2062.625       115.2278         0.5316        -999.25       -82.7936       -43.7653      0.3266877
      5584.5000         0.6043        11.8438        2108.34       113.8837         0.5295        -999.25       -82.4574      -43.29343      0.3339472
      5585.0000         0.5962        11.8353       2158.199       111.3136         0.5273        -999.25       -82.1212      -42.82157      0.3412066
      5585.5000         0.5876        11.8269       2208.012       109.6447         0.5252        -999.25       -81.7854      -42.35026      0.3484575
      5586.0000         0.5779        11.8184       2257.871       107.9359         0.5221        -999.25       -81.9709      -42.60877      0.3444804
      5586.5000         0.5581        11.8099       2246.055       106.2533         0.5152        -999.25       -82.3046      -43.07477      0.3373113
      5587.0000         0.5427        11.8075        2209.73        105.046         0.5083        -999.25       -82.6383      -43.54076      0.3301422
      5587.5000         0.5576        11.8078       2022.256       104.3622         0.5014        -999.25       -82.3049      -43.07281      0.3373413
      5588.0000         0.5726        11.8206       2000.344       104.8706         0.4945        -999.25       -81.7328      -42.27069      0.3496817
      5588.5000         0.5875        11.8333       1932.238       106.6814         0.4876        -999.25       -81.2189      -41.55004      0.3607686
      5589.0000         0.6005        11.8461       1895.092       111.1519         0.4807        -999.25       -80.7404      -40.87896       0.371093
      5589.5000         0.6121        11.8588       1844.732       109.7418         0.4819        -999.25       -80.6135      -40.70011      0.3738445
      5590.0000         0.6072        11.8599       1860.689       108.1824         0.4842        -999.25       -80.4865      -40.52112      0.3765982
      5590.5000         0.5978         11.858       1918.377       104.6577         0.4866        -999.25       -80.3595      -40.34212      0.3793519
      5591.0000         0.5884        11.8562         1963.9       102.7163         0.4877        -999.25       -80.2325      -40.16314      0.3821056
      5591.5000         0.5775        11.8543       1987.982       100.6143         0.4877        -999.25       -79.8929      -39.68652      0.3894382
      5592.0000         0.5619        11.8509        1990.91         99.132         0.4877        -999.25       -79.1975      -38.71177      0.4044343
      5592.5000         0.5463        11.8465       1991.361        98.6497         0.4861        -999.25       -91.6123       -56.0913       0.137057
      5593.0000         0.5308        11.8421       1990.691        98.4399         0.4768        -999.25       -93.0071      -58.04284      0.1070332
      5593.5000         0.5152        11.8378       1990.021       101.0934         0.4674        -999.25       -94.6134      -60.29047      0.0724543
      5594.0000         0.5271        11.8377       1989.352       105.9777         0.4602        -999.25       -96.7205      -63.23922     0.02708899
      5594.5000         0.5395        11.8378        1988.68       106.4966         0.4615        -999.25       -98.2003      -65.30975              0
      5595.0000         0.5517        11.8378        1988.01       107.0156         0.4627        -999.25       -84.9429      -46.74821      0.2807968
      5595.5000         0.5638        11.8431       1980.592        107.519         0.4644        -999.25       -83.4956      -44.72079      0.3119878
