#------------------------------------------------------------------------------
# Created by    : vladimir.rabinovich
# Created on    : 09/19/2023 17:19:45
#------------------------------------------------------------------------------
~Version Information Section
VERS.           2.0     :   CWLS log ASCII Standard - VERSION 2.0
WRAP.           NO      :   One line per depth step
~Well Information Section
#MNEM       .UNIT                                         VALUE :DESCRIPTION
#------------------------------------------------------------------------------
STRT        .FT                                            3127 :START DEPTH
STOP        .FT                                           13892 :STOP DEPTH
STEP        .FT                                             0.5 :STEP      
NULL        .                                           -999.25 :NULL      
COMP        .                                       MONSANTO CO :COMPANY   
WELL        .                                     ST TR 00010-L :WELL      
FLD         .                                           WILDCAT :FIELD     
LOC         .                                                   :LOCATION  
CNTY        .                           HIGH ISLAND LARGE BLOCK :LOCATION  
STAT        .                                             TEXAS :STATE     
CTRY        .                                     UNITED STATES :COUNTRY   
SRVC        .                                                   :SERVICE COMPANY
DATE        .                             9/13/2023 11:19:15 AM :LOG DATE  
API         .                                    42708300750000 :API NUMBER
UWI         .                                    42708300750000 :UNIQUE WELL ID
XCOORD      .                                  1327265.43976741 :SURFACE X 
YCOORD      .                                  10725214.5969587 :SURFACE Y 
LAT         .                                        29.5491158 :LATITUDE  
LON         .                                       -93.9851741 :LONGITUDE 
ELEV        .FT                                              54 :ELEVATION VALUE
ELEV_TYPE   .                                                KB :ELEVATION REFERENCE TYPE
~Curve Information Section
#MNEM       .UNIT                                      API CODE :CURVE DESCRIPTION
#------------------------------------------------------------------------------
DEPT        .FT                                                 :DEPTH     
ASFL        .OHMM                                               :          
CILD        .MMHO                                               :          
ILD         .OHMM                                               :          
SP          .MV                                                 :          
SP_NORM     .MV                                                 :SP Normalized
VSH_SP      .V/V                                                :Volume of Shale from SP
~A        DEPTH           ASFL           CILD            ILD             SP        SP_NORM         VSH_SP
# ...
     11715.0000         0.6503       1982.719         0.5026         -52.36        1.72805              1
     11715.5000         0.6519        1971.99         0.5009       -53.4376      0.6504517              1
     11716.0000         0.6467       1973.193         0.4991       -54.4742     -0.3861504              1
     11716.5000         0.6415       1978.248         0.4973       -54.8282     -0.7401505              1
     11717.0000         0.6363       1983.303         0.4956       -55.2576      -1.169548      0.9971263
     11717.5000          0.631       1988.357         0.4938       -55.5375      -1.449448      0.9923822
     11718.0000         0.6242        2001.67         0.4927        -55.139      -1.050949      0.9991364
     11718.5000         0.6174        2030.48         0.4921       -54.7405     -0.6524506              1
     11719.0000         0.6152        2059.34         0.4914       -54.3414     -0.2533493              1
     11719.5000           0.62       2050.648         0.4908       -53.9429      0.1451492              1
     11720.0000         0.6248       2036.119         0.4902       -53.5797      0.5083504              1
     11720.5000         0.6296        2021.59         0.4895       -53.3529      0.7351494              1
     11721.0000         0.6343       2007.061         0.4878       -53.1523      0.9357491              1
     11721.5000         0.6391       1992.033         0.4858       -53.1803      0.9077492              1
     11722.0000         0.6441       1967.346         0.4838       -53.2083      0.8797493              1
     11722.5000         0.6494       1942.707         0.4818       -53.3007      0.7873497              1
     11723.0000         0.6547       1918.715         0.4798       -53.4786      0.6094513              1
     11723.5000         0.6549       1894.672         0.4778       -53.6566      0.4314499              1
     11724.0000         0.6513       1896.385         0.4758       -53.8867      0.2013512              1
     11724.5000         0.6477       1904.283         0.4743       -54.1561    -0.06805038              1
     11725.0000         0.6441        1912.17         0.4761       -54.4171     -0.3290482              1
     11725.5000         0.6405       1920.055         0.4778       -54.5836     -0.4955482              1
     11726.0000          0.638       1930.908         0.4796       -54.7504     -0.6623497              1
     11726.5000         0.6355       1941.861         0.4814       -54.9246     -0.8365479              1
     11727.0000         0.6336       1952.814         0.4832       -55.3033      -1.215248      0.9963517
     11727.5000         0.6365        1963.77          0.485       -55.1581      -1.070049      0.9988127
     11728.0000         0.6394       1969.258         0.4867       -54.8981      -0.810051              1
     11728.5000           0.64       1973.033         0.4885       -54.5453     -0.4572487              1
     11729.0000         0.6394       1981.875         0.4903       -54.1925     -0.1044502              1
     11729.5000         0.6387       1993.424           0.49       -53.8397      0.2483521              1
     11730.0000          0.638       2004.973         0.4895       -53.6301      0.4579506              1
     11730.5000         0.6373       2014.545          0.489       -53.5458      0.5422516              1
     11731.0000         0.6358       2016.625         0.4885       -53.4615      0.6265526              1
     11731.5000         0.6342       2018.703          0.488       -53.1799      0.9081497              1
     11732.0000         0.6327       2010.438         0.4875       -52.7999       1.288151              1
     11732.5000         0.6337       2001.074          0.487       -52.4163       1.671749              1
     11733.0000         0.6349       1991.734         0.4848        -52.027        2.06105              1
     11733.5000         0.6361         1981.9         0.4818       -52.0873       2.000751              1
     11734.0000         0.6379       1972.064         0.4787       -52.3156       1.772449              1
     11734.5000         0.6405       1962.229         0.4756       -52.6251       1.462952              1
     11735.0000         0.6431       1952.393         0.4726       -52.8529       1.235149              1
     11735.5000         0.6456       1958.117         0.4695       -52.7825        1.30555              1
     11736.0000         0.6458       1964.154         0.4648       -52.7119       1.376152              1
     11736.5000         0.6435       1973.082         0.4569       -52.6414       1.446651              1
     11737.0000         0.6411       1982.422         0.4491       -52.5709       1.517151              1
     11737.5000         0.6407        1991.76         0.4412        -52.407       1.681049              1
     11738.0000         0.6407       1986.246         0.4334        -52.188       1.900051              1
     11738.5000         0.6451       1977.182         0.4256       -51.9687        2.11935              1
     11739.0000         0.6515        2000.18         0.4177       -51.7493       2.338753              1
     11739.5000         0.6553         2027.5         0.4204       -51.6227       2.465351              1
     11740.0000         0.6491       2069.375         0.4253       -51.4969       2.591152              1
     11740.5000         0.6415       2099.477         0.4302       -51.3795       2.708549              1
     11741.0000         0.6333       2120.641         0.4351       -51.3158       2.772251              1
     11741.5000          0.625       2130.332           0.44       -51.2913       2.796749              1
     11742.0000         0.6197        2130.34         0.4458       -51.4095       2.678551              1
     11742.5000         0.6245       2119.445         0.4625       -51.5279        2.56015              1
     11743.0000          0.639       2073.449         0.4793       -51.6462       2.441853              1
     11743.5000         0.6535       2027.551          0.496       -51.9233       2.164749              1
     11744.0000         0.6681       1973.406         0.5127       -52.3193       1.768749              1
     11744.5000         0.6829       1902.271         0.5294       -52.8988       1.189251              1
     11745.0000         0.7021       1866.406         0.5451       -53.7192      0.3688507              1
     11745.5000         0.7149       1831.734         0.5546       -54.0134     0.07464981              1
     11746.0000         0.7296       1797.359         0.5641       -54.1669    -0.07884979              1
     11746.5000         0.7444       1763.432         0.5736       -54.4125     -0.3244476              1
     11747.0000         0.7553       1722.053         0.5831       -54.8832     -0.7951508              1
     11747.5000         0.7689       1688.473         0.5927       -55.6444      -1.556351      0.9905703
     11748.0000         0.7747       1658.471         0.6021       -56.2437      -2.155647      0.9804128
     11748.5000         0.7651       1628.467         0.5965       -57.0678      -2.979748       0.966445
     11749.0000         0.7554       1636.613          0.571       -57.2544      -3.166348      0.9632822
     11749.5000         0.7382       1689.467         0.5455       -56.8083      -2.720249      0.9708433
     11750.0000         0.7121        1742.42         0.5223       -55.9817       -1.89365      0.9848534
     11750.5000         0.6906       1787.475         0.5094       -54.9153     -0.8272476              1
     11751.0000          0.675       1821.949         0.4965         -53.23      0.8580513              1
     11751.5000         0.6678       1856.422         0.4837       -53.0474       1.040649              1
     11752.0000         0.6661       1888.611         0.4708       -52.8648       1.223251              1
     11752.5000         0.6644       1919.211          0.458       -52.6733       1.414749              1
