#------------------------------------------------------------------------------
# Created by    : vladimir.rabinovich
# Created on    : 09/19/2023 17:20:37
#------------------------------------------------------------------------------
~Version Information Section
VERS.           2.0     :   CWLS log ASCII Standard - VERSION 2.0
WRAP.           NO      :   One line per depth step
~Well Information Section
#MNEM       .UNIT                                         VALUE :DESCRIPTION
#------------------------------------------------------------------------------
STRT        .FT                                             582 :START DEPTH
STOP        .FT                                            8015 :STOP DEPTH
STEP        .FT                                             0.5 :STEP      
NULL        .                                           -999.25 :NULL      
COMP        .                                CONTINENTAL OIL CO :COMPANY   
WELL        .                                OCS 00719 ST00BP00 :WELL      
FLD         .                                           WILDCAT :FIELD     
LOC         .                                                   :LOCATION  
CNTY        .                             GALVESTON LARGE BLOCK :LOCATION  
STAT        .                                             TEXAS :STATE     
CTRY        .                                     UNITED STATES :COUNTRY   
SRVC        .                                                   :SERVICE COMPANY
DATE        .                             9/13/2023 11:19:25 AM :LOG DATE  
API         .                                    42706000350000 :API NUMBER
UWI         .                                    42706000350000 :UNIQUE WELL ID
XCOORD      .                                  1010979.62119212 :SURFACE X 
YCOORD      .                                  10432235.4027546 :SURFACE Y 
LAT         .                                          28.73246 :LATITUDE  
LON         .                                        -94.964458 :LONGITUDE 
ELEV        .FT                                              63 :ELEVATION VALUE
ELEV_TYPE   .                                                KB :ELEVATION REFERENCE TYPE
~Curve Information Section
#MNEM       .UNIT                                      API CODE :CURVE DESCRIPTION
#------------------------------------------------------------------------------
DEPT        .FT                                                 :DEPTH     
ASN         .OHMM                                               :          
DT          .US/F                                               :          
LN          .OHMM                                               :          
SP          .MV                                                 :          
SP_NORM     .MV                                                 :SP Normalized
VSH_SP      .V/V                                                :Volume of Shale from SP
~A        DEPTH            ASN             DT             LN             SP        SP_NORM         VSH_SP
# ...
      1076.0000         1.0783        -999.25         1.1253       -58.6143      -6.405455      0.6611189
      1076.5000         1.0979        -999.25         1.1363       -59.0167      -7.014866      0.6142411
      1077.0000         1.1145        -999.25         1.1483       -59.2216      -7.326511      0.5902684
      1077.5000         1.1025        -999.25         1.1603       -59.4265      -7.638151      0.5662961
      1078.0000         1.0708        -999.25         1.1724       -58.9571      -6.933162       0.620526
      1078.5000         1.0282        -999.25         1.1844       -58.6877      -6.529702      0.6515614
      1079.0000         0.9313        -999.25         1.1942       -58.4447      -6.166048      0.6795348
      1079.5000          0.899        -999.25         1.2035       -58.2017      -5.802399      0.7075078
      1080.0000         0.8895        -999.25         1.1876       -57.9586      -5.438595      0.7354927
      1080.5000         0.8816        -999.25         1.1716       -58.4398      -6.166818      0.6794755
      1081.0000          0.876        -999.25         1.1659       -58.9434      -6.928809      0.6208609
      1081.5000         0.8705        -999.25         1.1722       -59.4422      -7.683563      0.5628029
      1082.0000          0.865        -999.25         1.1785       -59.3723      -7.580889      0.5707008
      1082.5000         0.8605        -999.25         1.1848       -59.3024      -7.478221      0.5785984
      1083.0000          0.856        -999.25         1.1911       -59.2325      -7.375548      0.5864963
      1083.5000         0.9327        -999.25         1.1974       -59.1471      -7.249512      0.5961914
      1084.0000         0.9593        -999.25         1.2039       -59.3702      -7.588596       0.570108
      1084.5000         0.9841        -999.25          1.211       -60.1472      -8.762789      0.4797855
      1085.0000         1.0037        -999.25         1.1968       -60.7775      -9.715805      0.4064765
      1085.5000         1.0158        -999.25         1.1788       -61.2173       -10.3816      0.3552613
      1086.0000         1.0243        -999.25         1.1608       -61.6252      -10.99931      0.3077455
      1086.5000         1.0327        -999.25         1.1427       -61.9276      -11.45795      0.2724651
      1087.0000         1.0411        -999.25         1.1336       -62.1271      -11.76146      0.2491185
      1087.5000          1.049        -999.25         1.1248       -61.2605      -10.45761      0.3494148
      1088.0000         1.0569        -999.25         1.1367        -60.226       -8.90062       0.469183
      1088.5000         1.0648        -999.25         1.1537       -59.7771      -8.226529      0.5210362
      1089.0000         1.0725        -999.25         1.1707       -59.3281      -7.552288      0.5729009
      1089.5000         1.0746        -999.25         1.1876       -58.9346      -6.961735       0.618328
      1090.0000         1.0767        -999.25         1.1638       -58.7438      -6.676783      0.6402475
      1090.5000         1.0788        -999.25         1.1375       -59.0258      -7.104669      0.6073332
      1091.0000          1.078        -999.25          1.131        -59.394      -7.662519      0.5644216
      1091.5000         1.0772        -999.25         1.1487       -59.7155      -8.149961      0.5269261
      1092.0000         1.0719        -999.25         1.1665       -60.0002      -8.581913       0.493699
      1092.5000         1.0667        -999.25         1.1843       -60.1624      -8.829183      0.4746782
      1093.0000         1.0615        -999.25         1.2027       -60.0023      -8.590517      0.4930372
      1093.5000         1.0595        -999.25         1.2244       -59.8421      -8.351697      0.5114079
      1094.0000         1.0647        -999.25         1.2461       -59.6819      -8.112887      0.5297779
      1094.5000         1.0699        -999.25         1.2678       -59.5153      -7.864421      0.5488907
      1095.0000         1.0752        -999.25         1.2758       -59.3115      -7.559874      0.5723174
      1095.5000         1.0804        -999.25         1.2694       -59.1078       -7.25547       0.595733
      1096.0000         1.0857        -999.25         1.2631       -58.9041      -6.951072      0.6191483
      1096.5000         1.0909        -999.25         1.2567       -58.7427      -6.710445      0.6376581
      1097.0000         1.0961        -999.25         1.2504       -60.0141      -8.630047      0.4899964
      1097.5000         1.1003        -999.25          1.244        -60.748       -9.73926      0.4046723
      1098.0000         1.1041        -999.25         1.2376       -61.1613       -10.3651      0.3565305
      1098.5000         1.1079        -999.25         1.2313       -61.5747       -10.9911      0.3083768
      1099.0000         1.1117        -999.25         1.2249       -61.8225      -11.36742      0.2794292
      1099.5000         1.1106        -999.25         1.2186       -62.0521      -11.71631      0.2525914
      1100.0000         1.1045        -999.25         1.2126       -62.1675      -11.89301      0.2389991
      1100.5000          1.097        -999.25          1.207       -61.8438      -11.40769      0.2763314
      1101.0000          1.089        -999.25         1.2013       -61.6016      -11.04525      0.3042119
      1101.5000         1.0809        -999.25         1.2015       -61.5061      -10.90398      0.3150785
      1102.0000         1.0729        -999.25           1.22       -61.3945      -10.73844      0.3278125
      1102.5000         1.0745        -999.25         1.2385       -61.1829      -10.42212      0.3521444
      1103.0000         1.0818        -999.25         1.2456       -60.9713      -10.10581      0.3764759
      1103.5000         1.1003        -999.25         1.2524       -60.7596      -9.789354      0.4008189
      1104.0000         1.1117        -999.25         1.2592       -60.4889      -9.383939      0.4320047
      1104.5000         1.1232        -999.25         1.2661       -60.1437      -8.866199      0.4718309
      1105.0000         1.1347        -999.25         1.2729       -59.7985      -8.348464      0.5116566
      1105.5000         1.1481        -999.25         1.2797       -59.3708      -7.706339      0.5610508
      1106.0000         1.1641        -999.25         1.2865       -58.9105      -7.015068      0.6142256
      1106.5000           1.18        -999.25         1.2933       -58.3821      -6.221117      0.6752987
      1107.0000          1.196        -999.25         1.3001       -58.0577      -5.734745      0.7127119
      1107.5000         1.2113        -999.25         1.3071        -58.445      -6.321387      0.6675856
      1108.0000         1.2267        -999.25         1.3175       -58.8903      -6.995479      0.6157324
      1108.5000         1.2421        -999.25         1.3278       -59.3157      -7.639571      0.5661868
      1109.0000         1.2597        -999.25         1.3381       -59.5496      -7.994932      0.5388514
      1109.5000          1.278        -999.25         1.3425       -58.4097      -6.279034      0.6708435
      1110.0000         1.2824        -999.25         1.3377       -57.6718      -5.169223      0.7562136
      1110.5000         1.2507        -999.25         1.3328       -56.9341      -4.059722      0.8415598
      1111.0000         1.2235        -999.25          1.328       -56.4979      -3.404777      0.8919402
      1111.5000         1.2008        -999.25         1.3257       -56.5508      -3.487257      0.8855956
      1112.0000         1.1852        -999.25         1.3271       -56.9928      -4.156374      0.8341251
      1112.5000         1.1697        -999.25         1.3285        -57.624      -5.110743      0.7607121
      1113.0000         1.1542        -999.25         1.3299       -58.1208      -5.862484      0.7028859
      1113.5000         1.1395        -999.25         1.3313       -58.6026      -6.591605      0.6467996
