#------------------------------------------------------------------------------
# Created by    : vladimir.rabinovich
# Created on    : 09/19/2023 17:19:20
#------------------------------------------------------------------------------
~Version Information Section
VERS.           2.0     :   CWLS log ASCII Standard - VERSION 2.0
WRAP.           NO      :   One line per depth step
~Well Information Section
#MNEM       .UNIT                                         VALUE :DESCRIPTION
#------------------------------------------------------------------------------
STRT        .FT                                            4783 :START DEPTH
STOP        .FT                                            9473 :STOP DEPTH
STEP        .FT                                             0.5 :STEP      
NULL        .                                           -999.25 :NULL      
COMP        .                                   FOREST OIL CORP :COMPANY   
WELL        .                               OCS G20658 ST00BP00 :WELL      
FLD         .                            HIGH ISLAND BLOCK 0052 :FIELD     
LOC         .                                                   :LOCATION  
CNTY        .                           HIGH ISLAND LARGE BLOCK :LOCATION  
STAT        .                                             TEXAS :STATE     
CTRY        .                                     UNITED STATES :COUNTRY   
SRVC        .                                                   :SERVICE COMPANY
DATE        .                             9/13/2023 11:19:51 AM :LOG DATE  
API         .                                    42708405710000 :API NUMBER
UWI         .                                    42708405710000 :UNIQUE WELL ID
XCOORD      .                                  1254974.65209524 :SURFACE X 
YCOORD      .                                  10682885.5467737 :SURFACE Y 
LAT         .                                         29.430813 :LATITUDE  
LON         .                                        -94.211177 :LONGITUDE 
ELEV        .FT                                             108 :ELEVATION VALUE
ELEV_TYPE   .                                                KB :ELEVATION REFERENCE TYPE
~Curve Information Section
#MNEM       .UNIT                                      API CODE :CURVE DESCRIPTION
#------------------------------------------------------------------------------
DEPT        .FT                                                 :DEPTH     
A28H_COND   .MMHO                                               :          
A28H_UNC    .OHMM                                               :          
AHT10       .OHMM                                               :          
AHT20       .OHMM                                               :          
AHT30       .OHMM                                               :          
AHT60       .OHMM                                               :          
AHT90       .OHMM                                               :          
DCAL        .IN                                                 :          
DPHZ        .V/V                                                :          
DRHO        .G/CC                                               :          
DTCO        .US/F                                               :          
DTSM        .US/F                                               :          
GR          .GAPI                                               :          
GR_ARC_FIL  .GAPI                                               :          
GR_NORM     .GAPI                                               :GammaRay Normalized
GR1         .GAPI                                               :          
GRM1        .GAPI                                               :          
NPOR        .V/V                                                :          
P28H_UNC    .OHMM                                               :          
ROP5        .F/HR                                               :          
ROP5_RM     .F/HR                                               :          
SP          .MV                                                 :          
TENS        .LB                                                 :          
VSH_GR      .V/V                                                :Volume of Shale from GR
~A        DEPTH      A28H_COND       A28H_UNC          AHT10          AHT20          AHT30          AHT60          AHT90           DCAL           DPHZ           DRHO           DTCO           DTSM             GR     GR_ARC_FIL        GR_NORM            GR1           GRM1           NPOR       P28H_UNC           ROP5        ROP5_RM             SP           TENS         VSH_GR
# ...
      8853.0000        -999.25        -999.25         0.6161         0.6123         0.6137         0.6118         0.6045          0.923         0.2208          0.018          125.6            320        65.4101        -999.25       65.91875           68.4         71.735         0.4212        -999.25         29.307        -999.25         0.2454           3152      0.7003989
      8853.5000        -999.25        -999.25          0.615          0.612          0.613         0.6114         0.6047           0.95         0.2202           0.02          125.8       322.3762         64.549        -999.25       62.07626         70.202         68.661         0.4278        -999.25         29.183        -999.25         0.9646           3152      0.6186438
      8854.0000        -999.25        -999.25         0.6128         0.6082         0.6089         0.6072         0.6017         0.9963         0.2238          0.022          126.2       324.5545        64.6915        -999.25       71.04375        72.6263         75.835         0.4224        -999.25         28.717        -999.25         1.1004           3152      0.8094414
      8854.5000        -999.25        -999.25         0.6058         0.6023         0.6032         0.6017         0.5967         1.0426         0.2238          0.023          126.4       326.3366        65.2281        -999.25        69.7625        72.4242          74.81         0.4093        -999.25         28.008        -999.25         1.3404           3152      0.7821808
      8855.0000        -999.25        -999.25         0.5976         0.5938         0.5941         0.5925         0.5889         1.0465         0.2244          0.026          126.4       327.7228        65.5963        -999.25        69.7625        71.5152          74.81         0.4111        -999.25         27.657        -999.25         1.4554           3152      0.7821808
      8855.5000        -999.25        -999.25         0.5936         0.5899         0.5898         0.5884          0.586         1.0041         0.2214          0.032          126.2       328.5149        64.6835        -999.25           67.2         70.404          72.76         0.4105        -999.25         26.713        -999.25         1.7788           3152      0.7276596
      8856.0000        -999.25        -999.25         0.5953         0.5922         0.5919         0.5903         0.5879         0.9578         0.2166          0.037            126       328.3168        63.5097        -999.25        63.3575           68.5         69.686         0.4081        -999.25         27.812        -999.25         2.0187           3152      0.6459042
      8856.5000        -999.25        -999.25         0.5982          0.596          0.595         0.5927         0.5913         0.9269         0.2088          0.039            126       327.3267        63.3884        -999.25           67.2           68.7          72.76          0.404        -999.25         27.577        -999.25         1.9462           3152      0.7276596
      8857.0000        -999.25        -999.25         0.5999          0.598         0.5965         0.5948         0.5921         0.9307         0.2046          0.041            126       326.1386        65.3909        -999.25       72.32375           69.8         76.859         0.4057        -999.25         27.662        -999.25         1.5403           3152      0.8366756
      8857.5000        -999.25        -999.25         0.5981         0.5958         0.5933         0.5925         0.5883         0.9423         0.2034           0.04          125.8       324.5545        68.6465        -999.25       64.63875        71.5152         70.711         0.4099        -999.25         27.254        -999.25         1.1553           3188      0.6731648
      8858.0000        -999.25        -999.25         0.5983         0.5966         0.5943         0.5923         0.5886         0.9462         0.2034          0.037          125.6       323.1683        70.1318        -999.25        69.7625        75.5556          74.81         0.4141        -999.25         27.513        -999.25         1.1662           3224      0.7821808
      8858.5000        -999.25        -999.25          0.604         0.6019         0.5996         0.5972         0.5931         0.9693         0.2034          0.035          125.4       321.5842        69.0391        -999.25        69.7625        77.6768          74.81         0.4147        -999.25         27.942        -999.25         1.2395           3242      0.7821808
      8859.0000        -999.25        -999.25         0.6095         0.6068         0.6052         0.6033          0.598         0.9655         0.1986          0.037          125.2       320.7921        65.6466        -999.25       71.04375        74.4444         75.835         0.4111        -999.25         27.623        -999.25          1.167           3224      0.8094414
      8859.5000        -999.25        -999.25         0.6106         0.6079         0.6067         0.6048         0.5996          0.977         0.1992          0.034          125.2       320.5941        63.4551        -999.25       65.91875        71.1111         71.735          0.395        -999.25         28.582        -999.25          0.657           3188      0.7003989
      8860.0000        -999.25        -999.25          0.608         0.6046         0.6028         0.6009         0.5962         0.9616          0.201          0.021          125.2       320.9901        62.9719        -999.25       65.91875        70.9091         71.735         0.3921        -999.25         28.695        -999.25         0.5012           3170      0.7003989
      8860.5000        -999.25        -999.25         0.6076         0.6046         0.6024         0.6003         0.5952         0.9616         0.1986         0.0001          125.2       321.9802        64.0545        -999.25       72.32375        71.5152         76.859          0.395        -999.25         30.077        -999.25         0.4287           3152      0.8366756
      8861.0000        -999.25        -999.25           0.61         0.6057          0.605         0.6032          0.598         1.0002         0.1962        -0.0155          125.6       323.1683        63.9793        -999.25       71.04375        73.5354         75.835         0.3985        -999.25         29.023        -999.25         0.7103           3134      0.8094414
      8861.5000        -999.25        -999.25         0.6093         0.6052         0.6049         0.6041         0.5987         1.0426         0.1998        -0.0283          125.8       324.7525        62.3376        -999.25        69.7625        73.1313          74.81         0.3985        -999.25         29.205        -999.25         0.7628           3134      0.7821808
      8862.0000        -999.25        -999.25         0.6081         0.6043         0.6039         0.6023         0.5966         1.1353         0.2094        -0.0281            126       326.1386        60.4633        -999.25       71.04375        73.4343         75.835         0.3924        -999.25          29.36        -999.25         0.5444           3134      0.8094414
      8862.5000        -999.25        -999.25         0.6063         0.6029         0.6025         0.6007         0.5946         1.1854         0.2172         -0.017            126       327.3267        60.9806        -999.25       65.91875        78.0808         71.735         0.3882        -999.25         28.814        -999.25         0.6594           3134      0.7003989
      8863.0000        -999.25        -999.25         0.6027         0.5994         0.6005         0.5988         0.5937         1.2472          0.219         -0.005          126.2       327.5248        62.3295        -999.25       65.91875        73.8384         71.735         0.3948        -999.25         29.904        -999.25         1.0036           3134      0.7003989
      8863.5000        -999.25        -999.25         0.6006         0.5976         0.5959         0.5943         0.5907         1.2549         0.2214          0.007          126.4       327.3267        62.9156        -999.25       65.91875           69.6         71.735         0.4098        -999.25         28.993        -999.25         1.4519           3134      0.7003989
