#------------------------------------------------------------------------------
# Created by    : vladimir.rabinovich
# Created on    : 09/19/2023 17:20:32
#------------------------------------------------------------------------------
~Version Information Section
VERS.           2.0     :   CWLS log ASCII Standard - VERSION 2.0
WRAP.           NO      :   One line per depth step
~Well Information Section
#MNEM       .UNIT                                         VALUE :DESCRIPTION
#------------------------------------------------------------------------------
STRT        .FT                                             222 :START DEPTH
STOP        .FT                                            9192 :STOP DEPTH
STEP        .FT                                             0.5 :STEP      
NULL        .                                           -999.25 :NULL      
COMP        .                                      PAN AMERICAN :COMPANY   
WELL        .                                     ST TR 00060-L :WELL      
FLD         .                                           WILDCAT :FIELD     
LOC         .                                                   :LOCATION  
CNTY        .                             GALVESTON LARGE BLOCK :LOCATION  
STAT        .                                             TEXAS :STATE     
CTRY        .                                     UNITED STATES :COUNTRY   
SRVC        .                                                   :SERVICE COMPANY
DATE        .                             9/13/2023 11:19:24 AM :LOG DATE  
API         .                                    42706000830000 :API NUMBER
UWI         .                                    42706000830000 :UNIQUE WELL ID
XCOORD      .                                  1150669.84230747 :SURFACE X 
YCOORD      .                                  10684730.4394491 :SURFACE Y 
LAT         .                                        29.4325033 :LATITUDE  
LON         .                                       -94.5389235 :LONGITUDE 
ELEV        .FT                                              11 :ELEVATION VALUE
ELEV_TYPE   .                                                KB :ELEVATION REFERENCE TYPE
~Curve Information Section
#MNEM       .UNIT                                      API CODE :CURVE DESCRIPTION
#------------------------------------------------------------------------------
DEPT        .FT                                                 :DEPTH     
ASN         .OHMM                                               :          
CILD        .MMHO                                               :          
ILD         .OHMM                                               :          
SP          .MV                                                 :          
SP_NORM     .MV                                                 :SP Normalized
VSH_SP      .V/V                                                :Volume of Shale from SP
~A        DEPTH            ASN           CILD            ILD             SP        SP_NORM         VSH_SP
# ...
      3186.0000         0.6953       1268.328         0.7186       -67.4034        -6.4002         0.8258
      3186.5000         0.7016       1251.328         0.7421       -66.8531      -5.854694       0.843397
      3187.0000         0.7078       1237.738         0.7656       -66.3025      -5.308876       0.861004
      3187.5000         0.7141       1226.408         0.7774       -65.7521      -4.763264      0.8786044
      3188.0000         0.7203       1215.689         0.7843       -65.5311      -4.547047      0.8855792
      3188.5000         0.7288       1204.268         0.7823       -66.0172      -5.037933      0.8697441
      3189.0000         0.7402       1191.504         0.7725       -66.5035      -5.529026      0.8539024
      3189.5000         0.7517       1190.953         0.7627         -66.99      -6.020306      0.8380547
      3190.0000         0.7631       1216.137         0.7528       -67.4761      -6.511192      0.8222196
      3190.5000         0.7746       1242.887          0.743       -67.9624      -7.002285      0.8063779
      3191.0000         0.7891       1267.422          0.731       -68.4467      -7.491371       0.790601
      3191.5000         0.8014       1287.512          0.719       -68.9307      -7.980156      0.7748337
      3192.0000         0.7923       1307.197         0.7071       -69.4146      -8.468838      0.7590697
      3192.5000         0.7828       1329.725         0.6951       -69.8988      -8.957832      0.7432957
      3193.0000         0.7727       1354.467         0.6831       -70.3827       -9.44651      0.7275319
      3193.5000         0.7626       1377.545         0.6712       -70.6335      -9.702099      0.7192872
      3194.0000         0.7525        1396.41         0.6592       -70.2675      -9.340889      0.7309391
      3194.5000         0.7425       1414.395         0.6473       -69.9014      -8.979572      0.7425944
      3195.0000         0.7324       1430.971         0.6418       -69.5353      -8.618259      0.7542497
      3195.5000         0.7223       1441.451         0.6363       -69.1692      -8.256943      0.7659051
      3196.0000         0.7122       1448.629         0.6308       -68.8031      -7.895634      0.7775602
      3196.5000         0.7021       1455.166         0.6253       -68.7758      -7.873119      0.7782865
      3197.0000         0.6938       1458.639         0.6198       -69.9843      -9.086403      0.7391483
      3197.5000         0.6867       1462.111         0.6143        -71.192      -10.29889      0.7000357
      3198.0000         0.6797       1466.656         0.6087       -72.4005      -11.51218      0.6608976
      3198.5000         0.6778       1472.088         0.6062        -73.609      -12.72546      0.6217592
      3199.0000         0.7164       1492.834         0.6059       -75.2399      -14.36115      0.5689952
      3199.5000          0.755       1530.248         0.6057       -77.1157      -16.24174      0.5083311
      3200.0000         0.7899       1589.771         0.6054       -78.9927      -18.12352      0.4476284
      3200.5000         0.8242       1643.492         0.6046       -80.9738      -20.10941      0.3835675
      3201.0000         0.8564       1690.406         0.5923       -82.9891      -22.12949      0.3184034
      3201.5000         0.8615       1740.553         0.5801       -84.2986      -23.44378       0.276007
      3202.0000         0.8377       1793.979         0.5679       -85.3357      -24.48567      0.2423978
      3202.5000         0.8139        1844.32         0.5396       -86.3734      -25.52815      0.2087693
      3203.0000         0.7913       1905.412         0.5076       -87.3538      -26.51334       0.176989
      3203.5000         0.7792       2035.979         0.4756       -87.9158      -27.08013      0.1587056
      3204.0000          0.767       2097.879         0.4436       -88.4781      -27.64722      0.1404124
      3204.5000         0.7549       2212.957         0.4116         -89.04       -28.2139      0.1221322
      3205.0000         0.7427       2391.801         0.3829       -89.6021      -28.78078      0.1038457
      3205.5000         0.7142       2570.543         0.3572       -90.0137      -29.19717     0.09041374
      3206.0000         0.6773       2749.285         0.3314       -90.3964      -29.58466     0.07791421
      3206.5000          0.642       2928.027         0.3056       -90.7791      -29.97215     0.06541467
      3207.0000         0.6114       3106.871         0.2798       -90.6095      -29.80733     0.07073138
      3207.5000         0.5808       3289.141         0.2625       -90.1194      -29.32202     0.08638652
      3208.0000         0.5481       3413.918         0.2473       -89.6293      -28.83671      0.1020417
      3208.5000         0.5139       3462.152         0.2321       -88.7529      -27.96509      0.1301583
      3209.0000         0.4935       3446.824         0.2302       -87.6376      -26.85458      0.1659813
      3209.5000         0.4751       3268.277          0.229       -86.5221      -25.74387      0.2018108
      3210.0000         0.4723       3171.023         0.2278       -85.4061      -24.63265      0.2376565
      3210.5000         0.4719       3106.309         0.2275       -84.2906      -23.52194      0.2734859
      3211.0000          0.479       3031.406         0.2344       -83.1747      -22.41082      0.3093284
      3211.5000         0.4884       3030.426         0.2412       -82.1682      -21.40911      0.3416417
      3212.0000         0.4979       3064.535         0.2481       -82.5891       -21.8348      0.3279096
      3212.5000         0.5073       3124.477          0.255        -83.343      -22.59348       0.303436
      3213.0000         0.5167       3165.586         0.2562       -84.6427      -23.89797      0.2613558
      3213.5000         0.5262       3189.715         0.2547       -85.9418      -25.20186      0.2192949
      3214.0000         0.5193       3193.523         0.2532       -87.2415      -26.50634      0.1772148
      3214.5000          0.509       3158.828         0.2517       -86.8796      -26.14923      0.1887346
      3215.0000         0.5028        3123.57         0.2503       -86.2037      -25.47811      0.2103835
      3215.5000         0.5027       3087.918         0.2488       -85.5276       -24.8068      0.2320386
      3216.0000         0.5027       3019.777         0.2427       -84.8514      -24.13539      0.2536972
      3216.5000         0.5167       2972.543         0.2349       -84.1755      -23.46427      0.2753461
      3217.0000         0.5321       2971.711          0.227        -84.181      -23.47456      0.2750142
      3217.5000         0.5476        3134.98         0.2192       -84.7734      -24.07174      0.2557502
      3218.0000          0.563       3430.762           0.21       -85.3654      -24.66853      0.2364989
      3218.5000         0.5785       3726.742         0.1923       -85.9613      -25.26922      0.2171219
      3219.0000         0.5792        3978.82         0.1745       -86.9966       -26.3093      0.1835709
      3219.5000         0.5724       4063.328         0.1567       -88.0312      -27.34869      0.1500424
      3220.0000         0.5634       4030.359         0.1394       -89.0658      -28.38808      0.1165135
      3220.5000          0.553       4006.555         0.1256       -90.1005      -29.42757     0.08298173
      3221.0000         0.5426       4003.602         0.1554       -88.3667      -27.69855      0.1387565
      3221.5000         0.5322       4000.645         0.2436       -81.4109      -20.74753      0.3629828
      3222.0000          0.546       3873.555         0.3295       -74.2555      -13.59692      0.5936476
      3222.5000         0.5713       3659.945         0.4116       -69.1841      -8.530308      0.7570869
      3223.0000         0.5955       3446.238         0.4937       -66.3435      -5.694492      0.8485647
      3223.5000         0.6149       3232.625         0.5758       -63.9308      -3.286583      0.9262393
