#------------------------------------------------------------------------------
# Created by    : vladimir.rabinovich
# Created on    : 09/19/2023 17:22:41
#------------------------------------------------------------------------------
~Version Information Section
VERS.           2.0     :   CWLS log ASCII Standard - VERSION 2.0
WRAP.           NO      :   One line per depth step
~Well Information Section
#MNEM       .UNIT                                         VALUE :DESCRIPTION
#------------------------------------------------------------------------------
STRT        .FT                                            4470 :START DEPTH
STOP        .FT                                            9513 :STOP DEPTH
STEP        .FT                                             0.5 :STEP      
NULL        .                                           -999.25 :NULL      
COMP        .                 FAIRWAYS SPEC SALES & SERVICE INC :COMPANY   
WELL        .                               OCS G11315 ST00BP00 :WELL      
FLD         .                              GALVESTON BLOCK 0319 :FIELD     
LOC         .                                                   :LOCATION  
CNTY        .                             GALVESTON LARGE BLOCK :LOCATION  
STAT        .                                             TEXAS :STATE     
CTRY        .                                     UNITED STATES :COUNTRY   
SRVC        .                                                   :SERVICE COMPANY
DATE        .                             9/13/2023 11:19:34 AM :LOG DATE  
API         .                                    42706402650000 :API NUMBER
UWI         .                                    42706402650000 :UNIQUE WELL ID
XCOORD      .                                  1065572.18570413 :SURFACE X 
YCOORD      .                                  10465680.9820926 :SURFACE Y 
LAT         .                                         28.826802 :LATITUDE  
LON         .                                        -94.795723 :LONGITUDE 
ELEV        .FT                                              86 :ELEVATION VALUE
ELEV_TYPE   .                                                KB :ELEVATION REFERENCE TYPE
~Curve Information Section
#MNEM       .UNIT                                      API CODE :CURVE DESCRIPTION
#------------------------------------------------------------------------------
DEPT        .FT                                                 :DEPTH     
DCAL        .IN                                                 :          
DPHI        .%                                                  :          
DRHO        .G/C3                                               :          
GR          .GAPI                                               :          
GR_NORM     .GAPI                                               :GammaRay Normalized
ILD         .OHMM                                               :          
ILM         .OHMM                                               :          
NPHI        .%                                                  :          
SFL         .OHMM                                               :          
SP          .MV                                                 :          
SP_NORM     .MV                                                 :SP Normalized
VSH_GR      .V/V                                                :Volume of Shale from GR
VSH_SP      .V/V                                                :Volume of Shale from SP
~A        DEPTH           DCAL           DPHI           DRHO             GR        GR_NORM            ILD            ILM           NPHI            SFL             SP        SP_NORM         VSH_GR         VSH_SP
# ...
      9163.0000         0.4241        12.9749         0.0041        79.3094       70.70497         0.8915         1.0048        30.4669         1.3964       -46.0192      -8.731064      0.8022335      0.8656759
      9163.5000         0.4141        13.5314         0.0026        84.6005       76.34846         0.9037         0.9759        32.3456         1.1021       -45.1827      -7.894566      0.9223078      0.8785452
      9164.0000         0.4055        13.7547         0.0017        86.3235         78.186         0.9058         0.9492        33.5242         0.9503       -44.0814      -6.793266      0.9614042      0.8954882
      9164.5000         0.4673        13.2827         0.0007        86.7021       78.58949         0.9065         0.9129        33.6793         0.9546       -42.6937      -5.405563      0.9699892      0.9168375
      9165.0000         0.5853        12.6551        -0.0002        87.1522       79.06924         0.9018         0.8834        33.3942         0.9987       -41.5736      -4.285465      0.9801967      0.9340698
      9165.5000         0.7565        11.9478         0.0015        87.5898       79.53568         0.8914         0.8732         33.094          1.022       -40.5786      -3.290466      0.9901208      0.9493774
      9166.0000          0.785        11.6392         0.0027        87.6279       79.57598         0.8812         0.8849         34.403         0.9874       -40.0058      -2.717663      0.9909783      0.9581898
      9166.5000         0.7684        12.0307         0.0009        86.1438       77.99259          0.872         0.8905        36.2785         0.9356       -39.6539      -2.365765      0.9572892      0.9636036
      9167.0000         0.6978        13.0498        -0.0009        84.6267       76.37402         0.8634         0.8921        37.9419           0.88       -39.6662      -2.378063      0.9228514      0.9634144
      9167.5000         0.6274        14.0849        -0.0023        79.8344       71.26189         0.8546         0.8882        38.1253         0.8649       -40.3945      -3.106365      0.8140827      0.9522098
      9168.0000         0.5482        14.8536        -0.0036        75.9711       67.14068         0.8441         0.8797        35.4587         0.8932       -41.9004      -4.612263      0.7263974      0.9290421
      9168.5000         0.4671        15.3671        -0.0049        75.5486       66.68967         0.8337           0.87        33.5354         0.9968       -44.7585      -7.470364      0.7168016      0.8850713
      9169.0000         0.3875        15.7255         -0.005        77.6035       68.88123         0.8189         0.8575        32.0841         1.0768       -47.8646      -10.57647      0.7634304      0.8372852
      9169.5000         0.3947        15.6621        -0.0028        79.0312       70.40376         0.8043         0.8368        30.7269         1.0278       -49.4816      -12.19347      0.7958246      0.8124082
      9170.0000         0.4018        15.1031         0.0032        81.0679        72.5759         0.7728         0.8038        30.7094         0.8995        -49.957      -12.66887      0.8420404      0.8050944
      9170.5000         0.5073        14.4349         0.0047         84.653       76.39967         0.7411         0.7708        32.1351          0.787       -51.8644      -14.57626      0.9233971      0.7757498
      9171.0000          0.623        13.9286          0.003        89.8916       81.98715         0.7049         0.7448        33.7714         0.7263       -58.1081      -20.81997              1      0.6796929
      9171.5000         0.6937        13.8712         0.0002        93.2051       85.52122         0.6651         0.7235        34.7809         0.6872       -63.5251      -26.23697              1      0.5963544
      9172.0000         0.6041        15.2012        -0.0039        87.8865        79.8477         0.6286         0.7038        32.3392         0.7837        -68.204      -30.91587      0.9967596      0.5243713
      9172.5000         0.4671        18.3686        -0.0079        78.4486       69.78027         0.6091         0.6864        30.7811         0.9814       -69.8516      -32.56347      0.7825589      0.4990236
      9173.0000         0.3418        21.1882        -0.0055        71.9503        62.8484         0.6001         0.6697        30.4468         1.1431       -71.5797      -34.29156      0.6350724      0.4724375
      9173.5000         0.2323        22.9346        -0.0023        69.1001       59.80783          0.607          0.654        30.4987         1.2643       -72.5994      -35.31127      0.5703794      0.4567497
      9174.0000         0.1959        20.7895         0.0075        69.9603       60.72504         0.6178         0.6401        30.2652         1.2187       -69.3673      -32.07917      0.5898945      0.5064744
      9174.5000         0.2319        18.2442         0.0163        70.2903        61.0767         0.6391         0.6449        30.0766         1.0782       -66.2927      -29.00457      0.5973766      0.5537759
      9175.0000         0.2719        16.3973         0.0232        70.5819        61.3874         0.6628         0.6807        30.3266         0.9553       -62.7299      -25.44176      0.6039873      0.6085882
      9175.5000         0.3292          15.08         0.0244         72.407       63.33383         0.6843         0.7234        31.1942         0.8463        -58.927      -21.63886      0.6454006      0.6670944
      9176.0000         0.3885        13.9908         0.0222        77.1154       68.35579         0.7065          0.762         32.671         0.8174       -55.2579      -17.96976      0.7522509      0.7235421
      9176.5000          0.455        13.1439         0.0165        83.5612       75.23096         0.7253         0.8008        34.5911         0.8103       -51.4786      -14.19046       0.898531      0.7816852
      9177.0000         0.5257        12.7964         0.0107        89.5189       81.58549         0.7435         0.8308        35.5708         0.8128       -47.8016      -10.51347              1      0.8382544
      9177.5000           0.48        12.6818         0.0083        92.9623       85.25812         0.7617         0.8374        35.8514         0.8181        -44.538      -7.249863              1      0.8884637
      9178.0000         0.4299        12.5962         0.0064        93.9104       86.26907         0.7722         0.8411        36.2091         0.8233       -42.0145      -4.726364              1      0.9272867
      9178.5000         0.3709        12.6621         0.0045        94.4746       86.87055         0.7828         0.8442        36.4073         0.8514       -39.7932      -2.505066              1      0.9614605
      9179.0000         0.3993        12.8054         0.0033        95.0704       87.50572         0.7921         0.8473        36.5925         0.8802       -39.5324      -2.244263              1      0.9654729
      9179.5000         0.4332        13.1487         0.0026        95.5526       88.01972         0.7985         0.8513        36.7721         0.9067       -40.6564      -3.368263              1      0.9481806
      9180.0000         0.4537        13.8153          0.002        95.4686       87.92978         0.8049         0.8555        36.8961         0.9006       -42.0717      -4.783566              1      0.9264067
      9180.5000         0.4719        14.7499         0.0014        93.8599       86.21349          0.811         0.8595        36.7649         0.8903       -43.5381      -6.249966              1      0.9038467
      9181.0000         0.4041         16.021         0.0008        90.0491       82.14829          0.817         0.8631        35.5417         0.9331       -45.0124      -7.724266              1      0.8811651
      9181.5000         0.3322        17.3869         0.0019        86.8209       78.70454          0.823         0.8676        33.7905         1.0186       -46.4868      -9.198666      0.9724371      0.8584821
