#------------------------------------------------------------------------------
# Created by    : vladimir.rabinovich
# Created on    : 09/19/2023 17:22:38
#------------------------------------------------------------------------------
~Version Information Section
VERS.           2.0     :   CWLS log ASCII Standard - VERSION 2.0
WRAP.           NO      :   One line per depth step
~Well Information Section
#MNEM       .UNIT                                         VALUE :DESCRIPTION
#------------------------------------------------------------------------------
STRT        .FT                                             890 :START DEPTH
STOP        .FT                                            9058 :STOP DEPTH
STEP        .FT                                             0.5 :STEP      
NULL        .                                           -999.25 :NULL      
COMP        .                            COASTAL OIL & GAS CORP :COMPANY   
WELL        .                               OCS G01773 ST00BP00 :WELL      
FLD         .                                           WILDCAT :FIELD     
LOC         .                                                   :LOCATION  
CNTY        .                             GALVESTON LARGE BLOCK :LOCATION  
STAT        .                                             TEXAS :STATE     
CTRY        .                                     UNITED STATES :COUNTRY   
SRVC        .                                                   :SERVICE COMPANY
DATE        .                             9/13/2023 11:19:54 AM :LOG DATE  
API         .                                    42706403500000 :API NUMBER
UWI         .                                    42706403500000 :UNIQUE WELL ID
XCOORD      .                                  1074939.13305719 :SURFACE X 
YCOORD      .                                   10531967.363633 :SURFACE Y 
LAT         .                                         29.009472 :LATITUDE  
LON         .                                        -94.769566 :LONGITUDE 
ELEV        .FT                                              83 :ELEVATION VALUE
ELEV_TYPE   .                                                KB :ELEVATION REFERENCE TYPE
~Curve Information Section
#MNEM       .UNIT                                      API CODE :CURVE DESCRIPTION
#------------------------------------------------------------------------------
DEPT        .FT                                                 :DEPTH     
DCAL        .IN                                                 :          
DPSS        .V/V                                                :          
DRHO        .G/CM3                                              :          
DTLF        .US/FT                                              :          
DTLN        .US/FT                                              :          
GR          .GAPI                                               :          
GRS         .GAPI                                               :          
NPSS        .V/V                                                :Neutron Porosity Sandstone
SFL         .OHMM                                               :          
SP          .MV                                                 :          
SP_NORM     .MV                                                 :SP Normalized
SPHI_SAN    .V/V                                                :          
TENS        .LB                                                 :          
VSH_SP      .V/V                                                :Volume of Shale from SP
~A        DEPTH           DCAL           DPSS           DRHO           DTLF           DTLN             GR            GRS           NPSS            SFL             SP        SP_NORM       SPHI_SAN           TENS         VSH_SP
# ...
      7406.0000         1.5385        -999.25        -999.25        -999.25        -999.25        77.6471        -999.25          0.638            0.6        -0.3061       5.099976         0.3348           3080              1
      7406.5000            1.5        -999.25        -999.25        -999.25        -999.25        78.8235        -999.25         0.6467         0.6165        -0.3061       5.092606         0.3324           3080              1
      7407.0000            1.5        -999.25        -999.25        -999.25        -999.25        79.0196        -999.25         0.6454         0.6335            0.3       5.691335         0.3312           3080              1
      7407.5000            1.5        -999.25        -999.25        -999.25        -999.25        79.6078        -999.25         0.6378         0.6569            0.3       5.683965         0.3312           3080              1
      7408.0000         1.4615        -999.25        -999.25        -999.25        -999.25        80.8163        -999.25         0.6203         0.6751              0       5.376595         0.3312           3080              1
      7408.5000         1.4615        -999.25        -999.25        -999.25        -999.25        80.8163        -999.25         0.5976            0.7            0.3       5.669225         0.3252           3080              1
      7409.0000            1.5        -999.25        -999.25        -999.25        -999.25        79.2157        -999.25         0.6039         0.7203            0.3       5.661855         0.3216           3080              1
      7409.5000         1.5385        -999.25        -999.25        -999.25        -999.25        77.0588        -999.25         0.6151         0.7412              0       5.354485          0.318           3080              1
      7410.0000            1.5        -999.25        -999.25        -999.25        -999.25        74.7059        -999.25         0.6175         0.7701        -0.6122       4.734915         0.3168           3080              1
      7410.5000         1.4615        -999.25        -999.25        -999.25        -999.25        74.5098        -999.25         0.6087         0.7627        -0.9184       4.421345          0.318           3080              1
      7411.0000         1.4231        -999.25        -999.25        -999.25        -999.25        75.2941        -999.25         0.6049         0.7412        -1.2245       4.107874          0.318           3080              1
      7411.5000         1.3462        -999.25        -999.25        -999.25        -999.25         77.451        -999.25         0.6261         0.7203        -2.1429       3.182104         0.3204           3080              1
      7412.0000         1.3077        -999.25        -999.25        -999.25        -999.25        79.2157        -999.25          0.651         0.6937         -2.449       2.868634         0.3228           3080              1
      7412.5000         1.3077        -999.25        -999.25        -999.25        -999.25             80        -999.25         0.6535         0.6937        -2.7551       2.555164         0.3252           3080              1
      7413.0000         1.2692        -999.25        -999.25        -999.25        -999.25             80        -999.25         0.6409         0.6937        -3.6735       1.629394         0.3252           3080              1
      7413.5000         1.2308        -999.25        -999.25        -999.25        -999.25        79.8039        -999.25         0.6371         0.6937        -4.5918      0.7037234         0.3252           3080              1
      7414.0000         1.1538        -999.25        -999.25        -999.25        -999.25        79.0196        -999.25         0.6784         0.6937        -5.5102     -0.2220464         0.3252           3080      0.9970394
      7414.5000         1.0769        -999.25        -999.25        -999.25        -999.25        77.0588        -999.25          0.716            0.7        -6.7347      -1.453917         0.3252           3080      0.9806144
      7415.0000         1.1538        -999.25        -999.25        -999.25        -999.25         77.451        -999.25         0.7643         0.7135        -7.6531      -2.379687         0.3228           3080      0.9682708
      7415.5000         1.1923        -999.25        -999.25        -999.25        -999.25        80.4082        -999.25         0.7679         0.7203        -8.2653      -2.999257         0.3216           3080      0.9600099
      7416.0000         1.1538        -999.25        -999.25        -999.25        -999.25        85.3061        -999.25         0.7217         0.7342        -8.8776      -3.618927         0.3204           3080      0.9517477
      7416.5000         1.1538        -999.25        -999.25        -999.25        -999.25        85.9184        -999.25         0.6757         0.7342        -9.7959      -4.544598          0.318           3080      0.9394054
      7417.0000         1.1154        -999.25        -999.25        -999.25        -999.25        83.0612        -999.25         0.6579         0.7342       -10.4082      -5.164268          0.318           3080      0.9311431
      7417.5000         1.0769        -999.25        -999.25        -999.25        -999.25             80        -999.25         0.6291         0.7203       -11.0204      -5.783837          0.318           3080      0.9228821
      7418.0000         1.0769        -999.25        -999.25        -999.25        -999.25        75.4902        -999.25         0.5753         0.7067       -11.3265      -6.097307          0.318           3080      0.9187025
      7418.5000         1.0769        -999.25        -999.25        -999.25        -999.25        73.1373        -999.25         0.5518         0.6937       -11.6327      -6.410878         0.3156           3080      0.9145216
      7419.0000         1.0769        -999.25        -999.25        -999.25        -999.25        72.1569        -999.25         0.5424         0.6874       -11.9388      -6.724348          0.318           3080       0.910342
      7419.5000         1.0769        -999.25        -999.25        -999.25        -999.25        72.1569        -999.25         0.6038         0.6751       -11.9388      -6.731718         0.3216           3080      0.9102437
      7420.0000         1.2308        -999.25        -999.25        -999.25        -999.25        71.9608        -999.25         0.6138         0.6569       -11.9388      -6.739088          0.324           3080      0.9101455
      7420.5000         1.1923        -999.25        -999.25        -999.25        -999.25        71.1765        -999.25         0.6075         0.6629       -11.6327      -6.440358         0.3264           3080      0.9141285
      7421.0000         1.2692        -999.25        -999.25        -999.25        -999.25             70        -999.25            0.6         0.6751       -11.3265      -6.141528         0.3264           3080      0.9181129
      7421.5000         1.3462        -999.25        -999.25        -999.25        -999.25        70.1961        -999.25         0.6025         0.6812       -10.7143      -5.536698          0.324           3080      0.9261774
      7422.0000         1.3846        -999.25        -999.25        -999.25        -999.25        71.1765        -999.25         0.6275         0.6812       -10.4082      -5.237968         0.3204           3080      0.9301604
      7422.5000         1.3846        -999.25        -999.25        -999.25        -999.25        72.7451        -999.25           0.63         0.6751        -9.4898      -4.326939          0.318           3080      0.9423075
      7423.0000         1.3462        -999.25        -999.25        -999.25        -999.25        74.1176        -999.25         0.6425         0.6569        -8.8776      -3.722108         0.3192           3080      0.9503719
      7423.5000         1.3462        -999.25        -999.25        -999.25        -999.25        74.5098        -999.25         0.6225          0.651        -8.2653      -3.117178         0.3228           3080      0.9584376
