#------------------------------------------------------------------------------
# Created by    : vladimir.rabinovich
# Created on    : 09/19/2023 17:21:34
#------------------------------------------------------------------------------
~Version Information Section
VERS.           2.0     :   CWLS log ASCII Standard - VERSION 2.0
WRAP.           NO      :   One line per depth step
~Well Information Section
#MNEM       .UNIT                                         VALUE :DESCRIPTION
#------------------------------------------------------------------------------
STRT        .FT                                            4495 :START DEPTH
STOP        .FT                                            9058 :STOP DEPTH
STEP        .FT                                             0.5 :STEP      
NULL        .                                           -999.25 :NULL      
COMP        .                          SEAGULL ENERGY E & P INC :COMPANY   
WELL        .                               OCS G11322 ST00BP00 :WELL      
FLD         .                                           WILDCAT :FIELD     
LOC         .                                                   :LOCATION  
CNTY        .                             GALVESTON LARGE BLOCK :LOCATION  
STAT        .                                             TEXAS :STATE     
CTRY        .                                     UNITED STATES :COUNTRY   
SRVC        .                                                   :SERVICE COMPANY
DATE        .                             9/13/2023 11:19:34 AM :LOG DATE  
API         .                                    42706402570000 :API NUMBER
UWI         .                                    42706402570000 :UNIQUE WELL ID
XCOORD      .                                  1032943.49501878 :SURFACE X 
YCOORD      .                                  10418025.6284813 :SURFACE Y 
LAT         .                                         28.694364 :LATITUDE  
LON         .                                        -94.895236 :LONGITUDE 
ELEV        .FT                                              97 :ELEVATION VALUE
ELEV_TYPE   .                                                KB :ELEVATION REFERENCE TYPE
~Curve Information Section
#MNEM       .UNIT                                      API CODE :CURVE DESCRIPTION
#------------------------------------------------------------------------------
DEPT        .FT                                                 :DEPTH     
CALI        .IN                                                 :          
DCAL        .IN                                                 :          
DPHI        .%                                                  :          
DRHO        .G/C3                                               :          
GR          .GAPI                                               :          
GR_1        .GAPI                                               :          
GR_NORM     .GAPI                                               :GammaRay Normalized
ILD         .OHMM                                               :          
ILM         .OHMM                                               :          
NPHI        .%                                                  :          
SGRD        .OHMM                                               :          
SP          .MV                                                 :          
SP_NORM     .MV                                                 :SP Normalized
VSH_GR      .V/V                                                :Volume of Shale from GR
VSH_SP      .V/V                                                :Volume of Shale from SP
~A        DEPTH           CALI           DCAL           DPHI           DRHO             GR           GR_1        GR_NORM            ILD            ILM           NPHI           SGRD             SP        SP_NORM         VSH_GR         VSH_SP
# ...
      5107.0000        -999.25         2.4265         25.797         0.0014        -999.25        80.8657       82.13651         0.7256         0.7258        45.1528         0.9293       -44.4576      -2.235374              1      0.9627438
      5107.5000        -999.25         2.4131        25.7491         0.0025        -999.25        80.5073       81.68582         0.7241         0.7239        45.1817         0.9208       -44.5673      -2.345074              1      0.9609154
      5108.0000        -999.25         2.3931        26.0137         0.0026        -999.25        81.2269       82.59071         0.7208         0.7225        45.7576         0.9179       -44.6231      -2.400875              1      0.9599854
      5108.5000        -999.25         2.3865        26.3487         0.0027        -999.25        80.4346       81.59441         0.7178         0.7209        46.6132           0.92       -44.6928      -2.470573              1      0.9588238
      5109.0000        -999.25         2.3838         26.584         0.0015        -999.25         80.095       81.16737          0.713         0.7192        47.0534         0.9238          -44.8      -2.577774              1      0.9570371
      5109.5000        -999.25          2.388        26.7788         0.0003        -999.25        80.9937       82.29746         0.7083         0.7165        47.1593         0.9269       -44.9022      -2.679974              1      0.9553338
      5110.0000        -999.25         2.3923        27.0172        -0.0001        -999.25        82.1223       83.71666         0.7037         0.7134        47.1541         0.9213       -44.8782      -2.655975              1      0.9557337
      5110.5000        -999.25         2.3973        27.3522        -0.0005        -999.25        84.7937        87.0759         0.6986         0.7071         47.072          0.915       -44.8514      -2.629173              1      0.9561805
      5111.0000        -999.25         2.3944        27.6899        -0.0004        -999.25        86.7083       89.48347         0.6984         0.7008        46.9841          0.909       -44.7556      -2.533375              1      0.9577771
      5111.5000        -999.25         2.3839        27.8438        -0.0004        -999.25        86.4047       89.10171         0.6979         0.6974        46.9831         0.9056       -44.5931      -2.370876              1      0.9604854
      5112.0000        -999.25         2.3692        27.6084        -0.0012        -999.25         85.184       87.56669         0.6973         0.6957        46.9963          0.904        -44.345      -2.122776              1      0.9646204
      5112.5000        -999.25         2.3519        27.2953        -0.0024        -999.25        79.1595       79.99099         0.6989         0.6959        47.2798         0.9031       -44.0059      -1.783676      0.9998083      0.9702721
      5113.0000        -999.25         2.3289        27.1927        -0.0038        -999.25        77.3834       77.75758         0.6993         0.6992        47.6996         0.9013       -43.7522      -1.529976      0.9522889      0.9745004
      5113.5000        -999.25         2.3063        27.2191        -0.0054        -999.25        78.9841       79.77043         0.6982            0.7        47.9057         0.8993       -43.7368      -1.514576      0.9951156      0.9747571
      5114.0000        -999.25          2.321        27.3101        -0.0067        -999.25        82.8475       84.62859         0.6938         0.6972        48.2134         0.8974       -43.7047      -1.482475              1      0.9752921
      5114.5000        -999.25         2.3527        27.4389        -0.0079        -999.25         86.674       89.44035          0.687         0.6902        47.7841         0.8958       -43.6552      -1.432976              1      0.9761171
      5115.0000        -999.25         2.3874        27.5734        -0.0081        -999.25        86.8071       89.60771         0.6789         0.6835         47.142         0.8947       -43.5979      -1.375675              1      0.9770721
      5115.5000        -999.25         2.4216        27.7061        -0.0076        -999.25        85.3896       87.82523         0.6737          0.678        46.9637          0.892       -43.5454      -1.323174              1      0.9779471
      5116.0000        -999.25          2.456        27.8187        -0.0068        -999.25        83.0742       84.91367         0.6676         0.6734        46.9406         0.8894       -43.4619      -1.239674              1      0.9793388
      5116.5000        -999.25         2.4907        27.8673        -0.0059        -999.25         80.606       81.80994         0.6607         0.6693        46.9095         0.8894       -43.3381      -1.115875              1      0.9814021
      5117.0000        -999.25         2.5092        27.8663        -0.0059        -999.25        83.5094       85.46091         0.6548          0.662        46.8638         0.8858       -43.2549      -1.032677              1      0.9827887
      5117.5000        -999.25         2.5174        27.7399        -0.0063        -999.25        85.9922       88.58298         0.6501         0.6563        47.2308         0.8801       -43.2319      -1.009674              1      0.9831721
      5118.0000        -999.25         2.5205        27.5855        -0.0067        -999.25        86.5236       89.25121         0.6473         0.6535        47.7454         0.8739       -43.2991      -1.076874              1      0.9820521
      5118.5000        -999.25         2.5369         27.517        -0.0071        -999.25        86.4829       89.20004         0.6491         0.6566        47.5267         0.8716       -43.4465      -1.224274              1      0.9795954
      5119.0000        -999.25         2.5522        27.6973        -0.0059        -999.25        84.6855       86.93983         0.6516         0.6582        47.6245         0.8731       -43.5485      -1.326275              1      0.9778954
      5119.5000        -999.25         2.5579         27.923        -0.0047        -999.25        81.6871       83.16941         0.6543         0.6595        47.9139         0.8783       -43.6251      -1.402874              1      0.9766188
      5120.0000        -999.25         2.5548        28.1114        -0.0051        -999.25        80.7529       81.99466         0.6579         0.6624        48.1487         0.8846       -43.6898      -1.467575              1      0.9755404
      5120.5000        -999.25         2.5512        28.2026        -0.0058        -999.25        81.1311       82.47025         0.6623         0.6654        48.2324         0.8948       -43.7546      -1.532375              1      0.9744604
      5121.0000        -999.25         2.5513        28.0933        -0.0056        -999.25        80.9392       82.22893         0.6702         0.6722        47.9971         0.8959       -43.8209      -1.598675              1      0.9733554
      5121.5000        -999.25         2.5514        27.8347        -0.0051        -999.25         80.427       81.58485         0.6773         0.6815        47.4448         0.8972       -43.8963      -1.674076              1      0.9720987
      5122.0000        -999.25         2.5516         27.565        -0.0046        -999.25        80.3707       81.51405         0.6838         0.6885         46.845          0.899       -43.9878      -1.765575              1      0.9705737
      5122.5000        -999.25         2.5572        27.5039         -0.004        -999.25        81.3246       82.71356         0.6866         0.6898        46.3088         0.9015       -44.0867      -1.864475              1      0.9689254
      5123.0000        -999.25           2.56        27.5226        -0.0034        -999.25        82.8765       84.66505         0.6885         0.6925         46.171         0.9005       -44.1905      -1.968273              1      0.9671955
      5123.5000        -999.25         2.5601        27.5341        -0.0032        -999.25        84.9453       87.26652         0.6921         0.6962        46.2641         0.9004       -44.2167      -1.994476              1      0.9667587
