#------------------------------------------------------------------------------
# Created by    : vladimir.rabinovich
# Created on    : 09/19/2023 17:22:41
#------------------------------------------------------------------------------
~Version Information Section
VERS.           2.0     :   CWLS log ASCII Standard - VERSION 2.0
WRAP.           NO      :   One line per depth step
~Well Information Section
#MNEM       .UNIT                                         VALUE :DESCRIPTION
#------------------------------------------------------------------------------
STRT        .FT                                            4470 :START DEPTH
STOP        .FT                                            9513 :STOP DEPTH
STEP        .FT                                             0.5 :STEP      
NULL        .                                           -999.25 :NULL      
COMP        .                 FAIRWAYS SPEC SALES & SERVICE INC :COMPANY   
WELL        .                               OCS G11315 ST00BP00 :WELL      
FLD         .                              GALVESTON BLOCK 0319 :FIELD     
LOC         .                                                   :LOCATION  
CNTY        .                             GALVESTON LARGE BLOCK :LOCATION  
STAT        .                                             TEXAS :STATE     
CTRY        .                                     UNITED STATES :COUNTRY   
SRVC        .                                                   :SERVICE COMPANY
DATE        .                             9/13/2023 11:19:34 AM :LOG DATE  
API         .                                    42706402650000 :API NUMBER
UWI         .                                    42706402650000 :UNIQUE WELL ID
XCOORD      .                                  1065572.18570413 :SURFACE X 
YCOORD      .                                  10465680.9820926 :SURFACE Y 
LAT         .                                         28.826802 :LATITUDE  
LON         .                                        -94.795723 :LONGITUDE 
ELEV        .FT                                              86 :ELEVATION VALUE
ELEV_TYPE   .                                                KB :ELEVATION REFERENCE TYPE
~Curve Information Section
#MNEM       .UNIT                                      API CODE :CURVE DESCRIPTION
#------------------------------------------------------------------------------
DEPT        .FT                                                 :DEPTH     
DCAL        .IN                                                 :          
DPHI        .%                                                  :          
DRHO        .G/C3                                               :          
GR          .GAPI                                               :          
GR_NORM     .GAPI                                               :GammaRay Normalized
ILD         .OHMM                                               :          
ILM         .OHMM                                               :          
NPHI        .%                                                  :          
SFL         .OHMM                                               :          
SP          .MV                                                 :          
SP_NORM     .MV                                                 :SP Normalized
VSH_GR      .V/V                                                :Volume of Shale from GR
VSH_SP      .V/V                                                :Volume of Shale from SP
~A        DEPTH           DCAL           DPHI           DRHO             GR        GR_NORM            ILD            ILM           NPHI            SFL             SP        SP_NORM         VSH_GR         VSH_SP
# ...
      5553.0000         3.2386        20.6678         0.0013        98.7773       82.27593         0.8421         0.8412        41.5198         0.8566        -39.532      -1.007446              1      0.9845008
      5553.5000         3.2328        20.4181         0.0006        95.3383       79.10835         0.8454         0.8467        40.7112         0.8472       -39.5339      -1.009968      0.9810288       0.984462
      5554.0000          3.308        20.3681        -0.0001        92.9277       76.88853         0.8486         0.8522        41.4293         0.8032       -39.4219     -0.8985863      0.9337986      0.9861756
      5554.5000         3.4385        20.2824        -0.0017        92.4841       76.48151         0.8521         0.8587        42.6782         0.7715       -39.2133     -0.6906052      0.9251384      0.9893753
      5555.0000         3.5527        20.1448        -0.0035        93.5353       77.45209         0.8588         0.8652        43.4281         0.7775       -39.2637     -0.7416267      0.9457891      0.9885904
      5555.5000         3.5776        19.9101        -0.0046        93.2444       77.18578         0.8655         0.8719        43.3472         0.8165       -39.7731      -1.251648       0.940123      0.9807439
      5556.0000         3.5235        19.5231         -0.005        91.3573       75.44843         0.8741         0.8788        42.4267         0.8543       -40.4365      -1.915668      0.9031581      0.9705282
      5556.5000           3.43         19.403        -0.0054        89.2112       73.47238         0.8842         0.8858        41.1881         0.8839       -41.0789      -2.558689      0.8611145      0.9606355
      5557.0000         3.4005        19.5153        -0.0054        86.9236       71.36592         0.8944         0.8938        39.7455         0.9075        -41.709      -3.189407      0.8162962      0.9509322
      5557.5000         3.4527        19.8232        -0.0048        84.4137       69.05459         0.9047         0.9026        38.0507         0.9259       -42.4619      -3.942928      0.7671189      0.9393396
      5558.0000            3.5        19.7908        -0.0042        82.8367       67.60302         0.9152         0.9182        36.4986         0.9425       -43.2568      -4.738453      0.7362345      0.9271007
      5558.5000         3.5103         19.643        -0.0035        81.7937       66.64359          0.926         0.9334        35.3203         0.9573       -43.5118      -4.994068       0.715821      0.9231682
      5559.0000         3.4967        19.0967        -0.0028        80.4327       65.39108         0.9376          0.947        34.6411         0.9721       -43.6652       -5.14809       0.689172      0.9207986
      5559.5000         3.4703        18.6659        -0.0029        80.5165       65.47011         0.9493         0.9607        34.3638         0.9857       -43.6951      -5.178612      0.6908534       0.920329
      5560.0000         3.4835        18.2801        -0.0041        81.6112       66.48077         0.9624         0.9708         34.403         0.9995       -43.4983      -4.982433      0.7123569      0.9233472
      5560.5000         3.5397        18.2201        -0.0055        82.3551       67.16815         0.9764         0.9809        34.8529         1.0075       -43.3015      -4.786251      0.7269819      0.9263654
      5561.0000         3.6145        18.1601        -0.0071        82.7886       67.56945         0.9873         0.9886        35.6972         1.0145       -42.9614      -4.446774      0.7355202      0.9315881
      5561.5000         3.7081        18.1189        -0.0087        86.2144       70.72847          0.995         0.9921        36.9763         1.0067       -42.5909      -4.076897      0.8027334      0.9372785
      5562.0000         3.7843        18.0796        -0.0101        91.6112       75.70395         1.0011         0.9945        37.8846         0.9805       -42.3163      -3.802914      0.9085947      0.9414936
      5562.5000          3.751        18.0503        -0.0117        97.5525       81.18124         1.0019         0.9911        37.6785         0.9559       -42.0975      -3.584736              1      0.9448502
      5563.0000         3.5603        18.0414        -0.0133         98.767       82.30231         1.0028         0.9877        36.7636         0.9468       -41.9111      -3.398956              1      0.9477084
      5563.5000         3.4395        18.0324        -0.0145        96.3171       80.04629         0.9953         0.9805        35.5528         0.9502       -41.7846      -3.273075              1       0.949645
      5564.0000         3.4064        18.0337        -0.0156        92.8257        76.8304         0.9878         0.9728        34.6732         0.9648       -41.6581      -3.147198      0.9325617      0.9515816
      5564.5000         3.4527        18.0452        -0.0161        89.9427       74.17523         0.9822         0.9652         34.794         0.9454       -41.4178       -2.90752      0.8760688      0.9552689
      5565.0000         3.5756        18.1477        -0.0162        88.2166       72.58625         0.9775          0.955        34.8876         0.9206        -41.166      -2.656338      0.8422607      0.9591333
      5565.5000         3.5756        18.4667        -0.0163        86.7142       71.20344         0.9727         0.9436        34.9366         0.9241       -40.5843       -2.07526      0.8128391      0.9680729
      5566.0000         3.5735        18.8385        -0.0161        86.1947       70.72646         0.9676         0.9323        34.9369         0.9357       -40.0178       -1.50938      0.8026906      0.9767787
      5566.5000         3.4785        19.3296        -0.0159        86.7469       71.23716         0.9625         0.9222        34.8753         0.9214       -39.9795      -1.471699      0.8135566      0.9773585
      5567.0000         3.4045        19.7769        -0.0144        87.8574       72.26238         0.9569         0.9124        35.4631         0.9015        -40.441      -1.933823      0.8353698      0.9702489
      5567.5000         3.3741        20.0324         -0.013        88.6779       73.02035         0.9493         0.9052        36.4137         0.8844       -41.3743      -2.867741      0.8514968      0.9558809
      5568.0000         3.3625         20.288        -0.0111        89.4572       73.74034         0.9419         0.9003        37.5952         0.9087        -42.191      -3.685066      0.8668157      0.9433067
      5568.5000         3.3828        20.3348         -0.009        90.3458       74.56108         0.9337         0.8955        38.7552         0.9138       -42.4171      -3.911781      0.8842783      0.9398187
      5569.0000         3.4148        20.3588         -0.007        92.0221       76.10776         0.9235         0.8953        39.7527         0.9147        -42.419      -3.914303      0.9171863      0.9397799
      5569.5000         3.4762        20.2679         -0.005        93.7731       77.72327         0.9134         0.8953        40.3867         0.9012       -41.9313      -3.427227      0.9515589      0.9472734
      5570.0000            3.6        20.1457        -0.0031        95.5071       79.32312         0.9069         0.8933        40.9326         0.8858        -40.898      -2.394543      0.9855983      0.9631609
      5570.5000         3.7463          20.09        -0.0018        96.1018       79.87299         0.9027         0.8882        41.4095         0.8662       -40.3962      -1.893364      0.9972976      0.9708713
      5571.0000         3.6743        20.1007        -0.0004        95.5712       79.38577         0.8984         0.8831        41.6548         0.8514       -40.0892      -1.586987      0.9869313      0.9755848
      5571.5000         3.5135        20.1326         0.0004        94.8619       78.73388         0.8914         0.8798        41.6195         0.8471       -39.8977      -1.396107      0.9730613      0.9785214
