#------------------------------------------------------------------------------
# Created by    : vladimir.rabinovich
# Created on    : 09/19/2023 17:22:44
#------------------------------------------------------------------------------
~Version Information Section
VERS.           2.0     :   CWLS log ASCII Standard - VERSION 2.0
WRAP.           NO      :   One line per depth step
~Well Information Section
#MNEM       .UNIT                                         VALUE :DESCRIPTION
#------------------------------------------------------------------------------
STRT        .FT                                            3420 :START DEPTH
STOP        .FT                                           11707 :STOP DEPTH
STEP        .FT                                             0.5 :STEP      
NULL        .                                           -999.25 :NULL      
COMP        .                        TRI-UNION DEVELOPMENT CORP :COMPANY   
WELL        .                               OCS G08154 ST00BP00 :WELL      
FLD         .                                           WILDCAT :FIELD     
LOC         .                                                   :LOCATION  
CNTY        .                           HIGH ISLAND LARGE BLOCK :LOCATION  
STAT        .                                             TEXAS :STATE     
CTRY        .                                     UNITED STATES :COUNTRY   
SRVC        .                                                   :SERVICE COMPANY
DATE        .                             9/13/2023 11:19:57 AM :LOG DATE  
API         .                                    42708403520000 :API NUMBER
UWI         .                                    42708403520000 :UNIQUE WELL ID
XCOORD      .                                  1180527.91159004 :SURFACE X 
YCOORD      .                                  10524923.1623167 :SURFACE Y 
LAT         .                                        28.9940426 :LATITUDE  
LON         .                                       -94.4389714 :LONGITUDE 
ELEV        .FT                                             100 :ELEVATION VALUE
ELEV_TYPE   .                                                KB :ELEVATION REFERENCE TYPE
~Curve Information Section
#MNEM       .UNIT                                      API CODE :CURVE DESCRIPTION
#------------------------------------------------------------------------------
DEPT        .FT                                                 :DEPTH     
DCAL        .IN                                                 :          
DPHI        .%                                                  :          
DRHO        .G/C3                                               :          
GR          .GAPI                                               :          
GR_NORM     .GAPI                                               :GammaRay Normalized
ILD         .OHMM                                               :          
ILM         .OHMM                                               :          
NPHI        .%                                                  :          
SFL         .OHMM                                               :          
SP          .MV                                                 :          
SP_NORM     .MV                                                 :SP Normalized
VSH_GR      .V/V                                                :Volume of Shale from GR
VSH_SP      .V/V                                                :Volume of Shale from SP
~A        DEPTH           DCAL           DPHI           DRHO             GR        GR_NORM            ILD            ILM           NPHI            SFL             SP        SP_NORM         VSH_GR         VSH_SP
# ...
      3496.0000        -999.25        -999.25        -999.25        20.9131       51.02198        -999.25        -999.25        64.8313        -999.25        -999.25        -999.25      0.3834463        -999.25
      3496.5000        -999.25        -999.25        -999.25         20.126       51.02198        -999.25        -999.25        66.1395        -999.25        -999.25        -999.25      0.3834463        -999.25
      3497.0000        -999.25        -999.25        -999.25        -999.25       51.02198        -999.25        -999.25        67.6252        -999.25        -999.25        -999.25      0.3834463        -999.25
      3497.5000        -999.25        -999.25        -999.25        -999.25       51.02198        -999.25        -999.25        68.8065        -999.25        -999.25        -999.25      0.3834463        -999.25
      3498.0000        -999.25        -999.25        -999.25        -999.25       51.02198        -999.25        -999.25        67.1012        -999.25        -999.25        -999.25      0.3834463        -999.25
      3498.5000        -999.25        -999.25        -999.25        20.7289       51.02198        -999.25        -999.25        63.9884        -999.25        -999.25        -999.25      0.3834463        -999.25
      3499.0000        -999.25        -999.25        -999.25        20.3802       51.02198        -999.25        -999.25        63.1536        -999.25        -999.25        -999.25      0.3834463        -999.25
      3499.5000        -999.25        -999.25        -999.25        20.1359       51.02198        -999.25        -999.25        63.3516        -999.25        -999.25        -999.25      0.3834463        -999.25
      3500.0000        -999.25        -999.25        -999.25        21.8443       51.02198        -999.25        -999.25        63.6083        -999.25        -999.25        -999.25      0.3834463        -999.25
      3500.5000        -999.25        -999.25        -999.25        24.2014       53.24725        -999.25        -999.25        66.2393        -999.25        -999.25        -999.25      0.4307925        -999.25
      3501.0000        -999.25        -999.25        -999.25        26.5574       53.98901        -999.25        -999.25        66.8262        -999.25        -999.25        -999.25      0.4465747        -999.25
      3501.5000        -999.25        -999.25        -999.25        28.9133       56.41264        -999.25        -999.25        65.3528        -999.25        -999.25        -999.25      0.4981413        -999.25
      3502.0000        -999.25        -999.25        -999.25        29.4399       56.85696        -999.25        -999.25        64.1368        -999.25        -999.25        -999.25       0.507595        -999.25
      3502.5000        -999.25        -999.25        -999.25        27.9768       55.26925        -999.25        -999.25        63.5433        -999.25        -999.25        -999.25      0.4738137        -999.25
      3503.0000        -999.25        -999.25        -999.25        27.0478       54.22699        -999.25        -999.25        64.6754        -999.25        -999.25        -999.25       0.451638        -999.25
      3503.5000        -999.25        -999.25        -999.25        26.5983       53.67443        -999.25        -999.25        66.4022        -999.25        -999.25        -999.25      0.4398816        -999.25
      3504.0000        -999.25        -999.25        -999.25        28.0548       55.06843        -999.25        -999.25        67.7878        -999.25        -999.25        -999.25      0.4695411        -999.25
      3504.5000        -999.25        -999.25        -999.25        30.5168       57.48933        -999.25        -999.25        66.3018        -999.25        -999.25        -999.25      0.5210495        -999.25
      3505.0000        -999.25        -999.25        -999.25        36.0571       63.05402        -999.25        -999.25        63.9155        -999.25        -999.25        -999.25      0.6394472        -999.25
      3505.5000        -999.25        -999.25        -999.25        43.1149       70.16849        -999.25        -999.25        60.8369        -999.25        -999.25        -999.25      0.7908189        -999.25
      3506.0000         1.6558        52.4781        -0.3277        46.2117       73.23769        20.0356       1774.344        57.7583         0.2013       -78.7822         0.4631       0.856121              1
      3506.5000         2.6897        51.0419         -0.135        52.2138       79.27399       1370.102       1243.625        57.6735         0.2833       -60.2728        14.8717      0.9845531              1
      3507.0000         3.7242        47.2469        -0.0459        55.6993       82.74017       1359.334       1020.876        54.1008         0.5752       -52.6456        -3.4818              1       0.955097
      3507.5000           4.16        43.1339         0.0246        58.3098       85.31273        77.0226       331.0581        50.5282         0.6222       -46.4658        -5.1157              1      0.9055849
      3508.0000         4.0324        39.0613          0.036         60.512       87.46829         1.7103         4.8086        46.9555         0.6347       -43.5737        -2.4495              1      0.9863788
      3508.5000         3.9313        38.1557         0.0398        59.9962       86.84803         0.2365         0.2348        44.1397         0.6976        -42.251        -1.3528              1              1
      3509.0000         4.1532        39.7993         0.0352        57.3733       84.07583         0.2809          0.284         43.413         0.7812       -41.7329        -1.0606              1              1
      3509.5000         4.9831        43.0289         0.0231        54.7491       81.30231         0.4048         0.3589        46.8095         0.8748       -41.2012        -0.7548              1              1
      3510.0000         5.8681        45.9764         0.0119        52.6357       79.05045         0.5834         0.4536        50.8671          0.923        -40.742        -0.5215      0.9797969              1
      3510.5000         6.9226        44.5408         0.0041        52.5812        78.9013         0.7147         0.5733        51.1088         0.8976       -40.7961        -0.8015      0.9766234              1
      3511.0000         6.6612        40.6978         0.0023        53.7024       79.95287         0.7273         0.6419        51.7707         0.8408       -41.0769        -1.3083      0.9989973              1
      3511.5000         5.4266        40.7046         0.0013        54.4846       80.65823         0.7303         0.6396        52.9961         0.7674       -41.2227          -1.68              1              1
      3512.0000         4.9448        42.1584          0.001        54.3647       80.44228         0.7336         0.6009        54.0245            0.7       -41.2761        -1.9593              1              1
      3512.5000         5.1909        42.4753         0.0011        52.4548       78.39826         0.7296         0.5848        54.6521         0.6409       -41.3305        -2.2396      0.9659204      0.9927394
      3513.0000         5.6662        40.4923         0.0012        52.2939       78.14044         0.7159         0.6534        50.5789         0.6242       -41.3461        -2.4811      0.9604349      0.9854212
      3513.5000          5.976        38.6503         0.0011        53.9528       79.74116         0.6992         0.6976        48.5135          0.635       -41.2037        -2.5647      0.9944927      0.9828879
      3514.0000         5.7315        38.8622         0.0007        54.3826        80.0866         0.7536         0.7228        48.8163         0.6693       -41.0009        -2.5878              1      0.9821879
      3514.5000         5.1557        39.3652         0.0003        53.6893       79.28506         0.8112         0.7425        50.2302         0.6782       -40.6575        -2.4703      0.9847885      0.9857485
