#------------------------------------------------------------------------------
# Created by    : vladimir.rabinovich
# Created on    : 09/19/2023 17:22:53
#------------------------------------------------------------------------------
~Version Information Section
VERS.           2.0     :   CWLS log ASCII Standard - VERSION 2.0
WRAP.           NO      :   One line per depth step
~Well Information Section
#MNEM       .UNIT                                         VALUE :DESCRIPTION
#------------------------------------------------------------------------------
STRT        .FT                                             411 :START DEPTH
STOP        .FT                                           10036 :STOP DEPTH
STEP        .FT                                             0.5 :STEP      
NULL        .                                           -999.25 :NULL      
COMP        .                          HUMBLE OIL & REFINING CO :COMPANY   
WELL        .                                     ST TR 00278-L :WELL      
FLD         .                                           WILDCAT :FIELD     
LOC         .                                                   :LOCATION  
CNTY        .                             GALVESTON LARGE BLOCK :LOCATION  
STAT        .                                             TEXAS :STATE     
CTRY        .                                     UNITED STATES :COUNTRY   
SRVC        .                                                   :SERVICE COMPANY
DATE        .                             9/13/2023 11:19:42 AM :LOG DATE  
API         .                                    42706000220000 :API NUMBER
UWI         .                                    42706000220000 :UNIQUE WELL ID
XCOORD      .                                  941560.719964966 :SURFACE X 
YCOORD      .                                  10497824.1170516 :SURFACE Y 
LAT         .                                        28.9094621 :LATITUDE  
LON         .                                       -95.1847519 :LONGITUDE 
ELEV        .FT                                              10 :ELEVATION VALUE
ELEV_TYPE   .                                                KB :ELEVATION REFERENCE TYPE
~Curve Information Section
#MNEM       .UNIT                                      API CODE :CURVE DESCRIPTION
#------------------------------------------------------------------------------
DEPT        .FT                                                 :DEPTH     
LAT         .OHMM                                               :          
LN          .OHMM                                               :          
SN          .OHMM                                               :          
SP          .MV                                                 :          
SP_NORM     .MV                                                 :SP Normalized
VSH_SP      .V/V                                                :Volume of Shale from SP
~A        DEPTH            LAT             LN             SN             SP        SP_NORM         VSH_SP
# ...
      1057.0000         3.0495         2.4327         2.2294        78.7585       -8.97039      0.5805058
      1057.5000         2.9932         2.4026         2.1182        79.0868      -9.285416      0.5639255
      1058.0000         2.9601         2.3643         2.0455        79.1711      -9.356438      0.5601875
      1058.5000         2.9271          2.326         2.1264        77.8662      -8.038269      0.6295648
      1059.0000         2.8941         2.2876         2.2434        76.5612      -6.719994      0.6989477
      1059.5000         2.8611         2.2493         2.3603        75.2562      -5.401718      0.7683306
      1060.0000         2.8281          2.211         2.4773        73.7621      -3.894341      0.8476663
      1060.5000          2.795         2.1727         2.5703        72.0493      -2.168266      0.9385123
      1061.0000          2.762         2.1246         2.6363        70.4053     -0.5109863              1
      1061.5000          2.729         2.0666         2.7024        69.0173      0.8902817              1
      1062.0000          2.696         2.0252         2.7684        67.8356       2.085258              1
      1062.5000         2.6494         2.0278         2.7898        67.7037       2.230438              1
      1063.0000         2.6012         2.0304         2.7359        67.6587       2.288712              1
      1063.5000          2.553          2.056         2.6819        67.6888       2.271889              1
      1064.0000         2.5049         2.0954          2.628        67.7189       2.255058              1
      1064.5000         2.4567         2.1347         2.5759        68.9447       1.042534              1
      1065.0000         2.4085         2.1741         2.5369        70.3173     -0.3167877              1
      1065.5000         2.3603         2.2135         2.4978        71.5062      -1.492416      0.9740834
      1066.0000         2.3222         2.2987         2.4588        72.6676      -2.640541      0.9136558
      1066.5000         2.2903         2.3875         2.4197         73.829      -3.788666      0.8532281
      1067.0000         2.5209         2.4763         2.3807        74.9904       -4.93679      0.7928005
      1067.5000         2.6822         2.5651         2.3622        76.0347      -5.967812      0.7385362
      1068.0000         2.8435         2.6539          2.405        76.6361      -6.555939      0.7075822
      1068.5000         3.0047         2.7528         2.4479        77.2378      -7.144363      0.6766124
      1069.0000         2.9984         2.8542         2.4928        77.1909       -7.08419      0.6797795
      1069.5000         2.8033         2.9557         2.5392        76.9547      -6.834709        0.69291
      1070.0000         2.7364         2.9895         2.6416        76.0535      -5.920235      0.7410403
      1070.5000         2.6695         2.8361          2.998        75.1107      -4.964165      0.7913597
      1071.0000         2.6025         2.7574         3.1163        74.1681      -4.008286      0.8416692
      1071.5000         2.5997         2.6787         3.2347        73.2423      -3.069214       0.891094
      1072.0000         2.6396            2.6          3.353        72.3356      -2.149239      0.9395137
      1072.5000         2.6795         2.5213          3.463        71.4288      -1.229164      0.9879387
      1073.0000         2.7194         2.4426         3.5583        70.5222      -0.309288              1
      1073.5000         2.7593         2.3639         3.6537        69.6156      0.6105881              1
      1074.0000         2.7992         2.3454         3.7435        69.2803      0.9591675              1
      1074.5000         2.8391         2.3612         3.7633        68.9589       1.293839              1
      1075.0000          2.879         2.3663         3.7657        68.6376        1.62841              1
      1075.5000         2.9114         2.3551         3.7585        68.3162       1.963089              1
      1076.0000         2.9171         2.3438         3.6598        68.3878       1.904762              1
      1076.5000         2.9228         2.3326         3.1734         68.866       1.439842              1
      1077.0000         2.8412         2.3078         2.8955        69.6013      0.7178116              1
      1077.5000         2.7345         2.2711         2.6649        70.3368    -0.00440979              1
      1078.0000         2.6278         2.2345         2.4641        71.0723     -0.7266388              1
      1078.5000         2.5211         2.1978         2.3406        71.8077      -1.448761       0.976381
      1079.0000         2.4144         2.1612         2.2172        72.5079      -2.135681      0.9402273
      1079.5000         2.3285         2.1246         2.1089         73.071      -2.685509       0.911289
      1080.0000         2.2813         2.1588         2.0425        73.6342      -3.235435      0.8823455
      1080.5000         2.2341         2.2045         2.1159        74.1973      -3.785263      0.8534072
      1081.0000         2.1869         2.2502         2.2642        74.7603      -4.334984      0.8244745
      1081.5000         2.1398         2.3059         2.3713        75.2178      -4.779205      0.8010945
      1082.0000         2.0926         2.3687         2.4488        74.9598      -4.507935      0.8153719
      1082.5000         2.0748         2.4316         2.5264        74.7019      -4.236755      0.8296444
      1083.0000         2.1339         2.4944         2.6039        74.1669      -3.688484      0.8585008
      1083.5000          2.193         2.5572         2.6815        73.5972      -3.105507      0.8891838
      1084.0000         2.2521           2.62          2.759        73.0275       -2.52253      0.9198669
      1084.5000         2.3113         2.6718         2.8012        72.4578       -1.93956      0.9505495
      1085.0000         2.3704         2.6881         2.7955        71.8881      -1.356583      0.9812325
      1085.5000         2.4234         2.7045         2.7898        71.3184     -0.7736053              1
      1086.0000         2.4359         2.7208         2.7841        70.7487     -0.1906357              1
      1086.5000         2.4484         2.7274         2.8237        70.5728   -0.001457214              1
      1087.0000         2.4609         2.7312         2.8985        70.5275     0.05712128              1
      1087.5000         2.4734          2.735         2.9733        70.4822      0.1156921              1
      1088.0000         2.4859         2.7355         3.0279        70.9724     -0.3612289              1
      1088.5000         2.4984         2.7095         3.0801         71.694      -1.069557      0.9963391
      1089.0000          2.511         2.6836         3.0488        72.4156      -1.777885      0.9590586
      1089.5000         2.5089         2.6619         3.0025        73.2339      -2.582909       0.916689
      1090.0000         2.5031         2.7009         2.9586        74.1693      -3.505028      0.8681564
      1090.5000         2.4973         2.7398         2.9232         75.105       -4.42746      0.8196074
      1091.0000         2.4914         2.7788         2.8878        76.0405      -5.349678      0.7710696
      1091.5000         2.4856         2.8178         2.8524        76.9761      -6.272003      0.7225261
      1092.0000         2.4798         2.8568          2.926        77.9115       -7.19413      0.6739932
      1092.5000         2.4894         2.8614         3.0319         77.783      -7.052353      0.6814551
      1093.0000         2.5147         2.8645         3.1377         77.632      -6.900299       0.689458
      1093.5000           2.54         2.8675         3.2405        77.4528      -6.721092      0.6988899
      1094.0000         2.5653         2.8706         3.3007         77.083      -6.351295      0.7183529
      1094.5000         2.5906         2.8693         3.3609        76.7133      -5.981598      0.7378106
