#------------------------------------------------------------------------------
# Created by    : vladimir.rabinovich
# Created on    : 09/19/2023 17:20:12
#------------------------------------------------------------------------------
~Version Information Section
VERS.           2.0     :   CWLS log ASCII Standard - VERSION 2.0
WRAP.           NO      :   One line per depth step
~Well Information Section
#MNEM       .UNIT                                         VALUE :DESCRIPTION
#------------------------------------------------------------------------------
STRT        .FT                                             309 :START DEPTH
STOP        .FT                                            9124 :STOP DEPTH
STEP        .FT                                             0.5 :STEP      
NULL        .                                           -999.25 :NULL      
COMP        .                         SONAT EXPLORATION GOM INC :COMPANY   
WELL        .                               OCS G03084 ST00BP00 :WELL      
FLD         .                                           WILDCAT :FIELD     
LOC         .                                                   :LOCATION  
CNTY        .                      MATAGORDA ISLAND LARGE BLOCK :LOCATION  
STAT        .                                             TEXAS :STATE     
CTRY        .                                     UNITED STATES :COUNTRY   
SRVC        .                                                   :SERVICE COMPANY
DATE        .                             9/13/2023 11:12:09 AM :LOG DATE  
API         .                                    42703400260000 :API NUMBER
UWI         .                                    42703400260000 :UNIQUE WELL ID
XCOORD      .                                  563826.313549269 :SURFACE X 
YCOORD      .                                  10238444.2560225 :SURFACE Y 
LAT         .                                         28.172716 :LATITUDE  
LON         .                                        -96.341662 :LONGITUDE 
ELEV        .FT                                              97 :ELEVATION VALUE
ELEV_TYPE   .                                                KB :ELEVATION REFERENCE TYPE
~Curve Information Section
#MNEM       .UNIT                                      API CODE :CURVE DESCRIPTION
#------------------------------------------------------------------------------
DEPT        .FT                                                 :DEPTH     
ASFL        .OHMM                                               :          
CILD        .MMHO                                               :          
DT          .US/F                                               :          
GR          .GAPI                                               :          
GR_NORM     .GAPI                                               :GammaRay Normalized
ILD         .OHMM                                               :          
SP          .MV                                                 :          
SP_NORM     .MV                                                 :SP Normalized
VSH_GR      .V/V                                                :Volume of Shale from GR
VSH_SP      .V/V                                                :Volume of Shale from SP
~A        DEPTH           ASFL           CILD             DT             GR        GR_NORM            ILD             SP        SP_NORM         VSH_GR         VSH_SP
# ...
      2073.0000         0.6011       1538.154       154.8884         50.534       72.70523         0.5513      -101.8268      -3.031616      0.8447921      0.8930728
      2073.5000         0.6046        1526.49       152.6611        49.8226       71.54328         0.5507      -101.8755      -3.080322      0.8200698      0.8905094
      2074.0000         0.6081       1514.826       150.8015        50.4461       72.57124         0.5502      -101.9243       -3.12912      0.8419414      0.8879411
      2074.5000          0.613       1503.162       150.8674        51.0696       73.59919         0.5497       -101.973      -3.177818      0.8638126       0.885378
      2075.0000          0.616        1504.32       151.8828         51.693       74.62703         0.5491      -102.0217      -3.226517      0.8856815      0.8828149
      2075.5000         0.6131       1506.434       152.7158        52.3165       75.65497         0.5486      -102.0028      -3.207619      0.9075525      0.8838096
      2076.0000         0.6171       1508.547       152.3669        52.9399       76.68276         0.5481      -101.9603      -3.165115      0.9294205      0.8860466
      2076.5000         0.6252       1504.496       150.5393        53.5634       77.71072         0.5543      -101.9178       -3.12262      0.9512919      0.8882832
      2077.0000         0.6333       1496.967        146.176        53.9557       78.35941          0.561      -101.8754      -3.080215      0.9650937       0.890515
      2077.5000         0.6414       1471.223       139.8298        53.7947       78.10039         0.5678      -101.8329       -3.03772      0.9595827      0.8927516
      2078.0000         0.6495       1445.479       137.4353        52.5253       76.02303         0.5745      -101.7904      -2.995216      0.9153837      0.8949886
      2078.5000         0.6555       1419.734       140.1013        51.6777       74.63764         0.5812         -101.8      -3.004822      0.8859073      0.8944831
      2079.0000         0.6583       1395.875       144.5022        51.3376       74.08483          0.588      -101.8121      -3.016922      0.8741453      0.8938462
      2079.5000           0.66       1373.264        147.856        51.7306       74.73466         0.6011      -101.8242      -3.029022      0.8879715      0.8932093
      2080.0000         0.6613       1350.654       149.5203        52.1236       75.38448         0.6145      -101.7238      -2.928619      0.9017975      0.8984937
      2080.5000         0.6602       1323.961       150.3093        52.5165       76.03414         0.6165      -101.6188      -2.823616        0.91562      0.9040202
      2081.0000         0.6591       1307.166       150.8228        52.9095       76.68396         0.6099      -101.5138       -2.71862       0.929446      0.9095463
      2081.5000         0.6578        1319.66       151.7397        53.3024       77.33363         0.6033      -101.4088      -2.613617      0.9432688      0.9150728
      2082.0000         0.6561       1340.229       152.7073        53.5786       77.79184         0.5968      -101.3038      -2.508621      0.9530179      0.9205989
      2082.5000         0.6544       1360.805       153.0288        53.5972       77.82745         0.5936      -101.3582      -2.563019      0.9537756      0.9177359
      2083.0000         0.6523       1381.379       153.7893        53.6157       77.86292         0.5905      -101.4169      -2.621719      0.9545301      0.9146463
      2083.5000         0.6498       1401.805       154.6418        53.6343       77.89853         0.5875      -101.4755      -2.680321      0.9552879      0.9115621
      2084.0000         0.6473       1417.668       154.5923        53.6528       77.93401         0.5867      -101.5342      -2.739021      0.9560426      0.9084725
      2084.5000         0.6452       1433.523       152.8049        52.9578       76.79894         0.5961      -101.4779      -2.682716      0.9318924       0.911436
      2085.0000         0.6436       1431.326       148.5554        51.9907       75.21752         0.6055      -101.4197      -2.624519      0.8982452       0.914499
      2085.5000         0.6545       1388.521       139.6384        51.7484       74.82514         0.6173      -101.3278      -2.532616      0.8898966       0.919336
      2086.0000         0.6912       1323.648       125.5875        52.9217       76.75505         0.6392      -101.0908      -2.295616      0.9309585      0.9318097
      2086.5000          0.728        1276.93       120.5111         54.108       78.70629          0.661      -100.8539      -2.058716      0.9724743      0.9442781
      2087.0000         0.7647       1220.049       116.2515        55.3209       80.70116         0.6794      -101.1853      -2.390121              1      0.9268357
      2087.5000         0.8014       1152.467       113.6357        56.6242       82.84435         0.6972      -101.5208      -2.725616              1      0.9091781
      2088.0000          0.837       1134.363          122.4         58.114       85.29347         0.7149      -101.8561      -3.060921              1      0.8915305
      2088.5000         0.7893       1162.254         135.25        59.1746        87.0385         0.7326      -102.1898      -3.394615              1      0.8739676
      2089.0000         0.7415       1190.146       145.0376        60.0829       88.53366         0.7503      -102.5171      -3.721916              1      0.8567412
      2089.5000         0.6938        1243.07       158.0876         59.955       88.32896         0.7353      -102.8442      -4.049019              1      0.8395253
      2090.0000          0.646       1303.473       168.0505        58.5234       85.98552         0.7147      -102.9795      -4.184319              1      0.8324043
      2090.5000          0.603       1355.049       163.2144        56.8489       83.24361         0.6942      -102.8474      -4.052216              1      0.8393571
      2091.0000         0.6042       1402.953       157.7092        53.7474        78.1607         0.6736      -102.7153       -3.92012      0.9608659      0.8463095
      2091.5000         0.6055       1450.846       157.2583        53.2131       77.28928          0.653      -102.5831      -3.787918       0.942325      0.8532675
      2092.0000          0.609       1483.482       157.6824        52.8143       76.64015         0.6351       -102.451      -3.655815      0.9285139      0.8602203
      2092.5000         0.6147       1459.549       164.0674        52.5411       76.19708         0.6177       -102.319      -3.523819      0.9190869      0.8671674
      2093.0000         0.6203       1435.609       171.6284        52.3062       75.81682         0.6004      -102.1877      -3.392517      0.9109961       0.874078
      2093.5000         0.6254       1411.668       174.1343        52.0713       75.43657          0.583      -102.0868      -3.291618      0.9029057      0.8793885
      2094.0000         0.6305       1393.057       173.5901        51.8364       75.05634         0.5656      -101.9857      -3.190521      0.8948156      0.8847094
      2094.5000         0.6348       1380.129       173.3572        51.4244       74.38555         0.5482      -101.8848      -3.089622      0.8805436      0.8900199
      2095.0000         0.6351       1367.199       173.2603        50.7253       73.24377          0.536      -101.7838      -2.988617      0.8562505       0.895336
      2095.5000         0.6353       1354.271       174.1619        50.7409       73.27448         0.5419      -101.6829      -2.887718      0.8569039      0.9006464
      2096.0000         0.6355       1346.863       174.7363        51.7807        74.9854         0.5478      -101.5665      -2.771317      0.8933063      0.9067728
      2096.5000         0.6358       1344.514        175.031        52.4811       76.13949         0.5537      -101.4475      -2.652321      0.9178615      0.9130358
      2097.0000         0.6368       1342.166       175.1829        53.2061         77.334         0.5596      -101.3284      -2.533218      0.9432766      0.9193043
