#------------------------------------------------------------------------------
# Created by    : vladimir.rabinovich
# Created on    : 09/19/2023 17:20:01
#------------------------------------------------------------------------------
~Version Information Section
VERS.           2.0     :   CWLS log ASCII Standard - VERSION 2.0
WRAP.           NO      :   One line per depth step
~Well Information Section
#MNEM       .UNIT                                         VALUE :DESCRIPTION
#------------------------------------------------------------------------------
STRT        .FT                                            3496 :START DEPTH
STOP        .FT                                           13495 :STOP DEPTH
STEP        .FT                                             0.5 :STEP      
NULL        .                                           -999.25 :NULL      
COMP        .                      TEXAS EASTERN EXPLORATION CO :COMPANY   
WELL        .                                ST TR 00798-L NE/4 :WELL      
FLD         .                                           WILDCAT :FIELD     
LOC         .                                                   :LOCATION  
CNTY        .                        MUSTANG ISLAND LARGE BLOCK :LOCATION  
STAT        .                                             TEXAS :STATE     
CTRY        .                                     UNITED STATES :COUNTRY   
SRVC        .                                                   :SERVICE COMPANY
DATE        .                             9/13/2023 11:18:55 AM :LOG DATE  
API         .                                    42702302040000 :API NUMBER
UWI         .                                    42702302040000 :UNIQUE WELL ID
XCOORD      .                                  329124.923046376 :SURFACE X 
YCOORD      .                                  10022065.1107101 :SURFACE Y 
LAT         .                                        27.5591082 :LATITUDE  
LON         .                                       -97.0466418 :LONGITUDE 
ELEV        .FT                                              82 :ELEVATION VALUE
ELEV_TYPE   .                                                KB :ELEVATION REFERENCE TYPE
~Curve Information Section
#MNEM       .UNIT                                      API CODE :CURVE DESCRIPTION
#------------------------------------------------------------------------------
DEPT        .FT                                                 :DEPTH     
ASFL        .OHMM                                               :          
CILD        .MMHO                                               :          
GR          .GAPI                                               :          
GR_NORM     .GAPI                                               :GammaRay Normalized
ILD         .OHMM                                               :          
SFL         .OHMM                                               :          
SP          .MV                                                 :          
SP_NORM     .MV                                                 :SP Normalized
VSH_GR      .V/V                                                :Volume of Shale from GR
VSH_SP      .V/V                                                :Volume of Shale from SP
~A        DEPTH           ASFL           CILD             GR        GR_NORM            ILD            SFL             SP        SP_NORM         VSH_GR         VSH_SP
# ...
      7489.5000           0.88       1287.406        77.4026       77.15987         0.7852         0.8816       -45.4452      -2.765823      0.9395716      0.9744083
      7490.0000         0.8798       1284.408         77.651       77.46327         0.7804         0.8844       -45.8049      -3.126736       0.946027      0.9691777
      7490.5000         0.8795       1293.342        77.9264       77.80129         0.7745         0.8872       -46.0999      -3.422951       0.953219      0.9648848
      7491.0000         0.8793       1315.877         78.271       78.22794         0.7686           0.89       -46.3372      -3.661469      0.9622965       0.961428
      7491.5000         0.8763       1338.945         78.244       78.17863         0.7627         0.8896       -46.5628      -3.888283      0.9612474      0.9581409
      7492.0000         0.8731       1357.594        77.9121       77.73878         0.7569         0.8825       -46.4177        -3.7444       0.951889      0.9602261
      7492.5000         0.8703       1375.248        77.5697        77.2855         0.7519         0.8753       -46.2537      -3.581612      0.9422446      0.9625853
      7493.0000         0.8647       1392.928        77.0121       76.55659         0.7468         0.8682       -45.9284      -3.257526      0.9267359      0.9672822
      7493.5000         0.8537        1410.16        77.4048       77.04483         0.7418         0.8618       -45.6033      -2.933643      0.9371241      0.9719762
      7494.0000         0.8337       1424.736        78.2186       78.07242          0.736         0.8554        -45.374      -2.705559      0.9589876      0.9752818
      7494.5000         0.8198       1439.287        79.0337       79.10168         0.7284          0.849       -45.2797      -2.612476      0.9808869      0.9766308
      7495.0000         0.8137       1453.863        80.6328       81.13512         0.7208         0.8415       -45.2457      -2.579693              1      0.9771059
      7495.5000         0.8102       1468.117        82.3994       83.38309         0.7129          0.832       -45.3551      -2.690304              1      0.9755028
      7496.0000         0.8094       1482.146         83.934       85.33392         0.7034         0.8225       -45.4644      -2.800823              1      0.9739011
      7496.5000         0.8085       1496.201        84.3881       85.90079         0.6939         0.8151       -45.5936       -2.93124              1       0.972011
      7497.0000         0.8077       1510.082        83.8049       85.13908         0.6846           0.81       -45.7515      -3.090351              1       0.969705
      7497.5000          0.803       1523.951        83.8993       85.24525         0.6757         0.8049       -45.9095      -3.249569              1      0.9673976
      7498.0000         0.7976       1535.447        84.5897       86.11481         0.6668         0.7996       -45.8774      -3.218685              1      0.9678451
      7498.5000         0.7913       1543.643        85.3905       87.12576         0.6618         0.7942       -45.8253      -3.167797              1      0.9685826
      7499.0000         0.7843       1548.359        86.2378       88.19627         0.6733         0.7901       -45.6555      -2.999214              1      0.9710259
      7499.5000          0.775       1544.324        86.8737       88.99603         0.6963         0.7902       -45.4064      -2.751331              1      0.9746184
      7500.0000         0.7656       1487.162        84.8682        86.4126         0.7331         0.7902       -45.1573      -2.503445              1      0.9782109
      7500.5000         0.7898        1420.02        82.7418       83.67432         0.7682            0.8          -44.9      -2.247364              1      0.9819223
      7501.0000         0.8223       1352.975        81.5012        82.0706         0.7997         0.8196       -44.5526      -1.901176              1      0.9869395
      7501.5000         0.8548        1285.93        80.4368       80.69257         0.8312         0.8391       -44.2052      -1.554993              1      0.9919567
      7502.0000         0.8873       1218.885         79.448       79.41137         0.8627         0.8589       -43.8572       -1.20821      0.9874759      0.9969825
      7502.5000         0.9198        1151.74        78.4822       78.15961         0.8927         0.8857       -43.4466     -0.7988243      0.9608428              1
      7503.0000         0.9522       1084.695         77.865       77.35435         0.9186         0.9124       -43.0607     -0.4141388      0.9437097              1
      7503.5000         0.9847       1035.133        77.6309       77.03979         0.9444         0.9391       -42.7515     -0.1061554      0.9370167              1
      7504.0000         1.0172       1022.084        77.7515       77.17953         0.9703         0.9658       -42.4423      0.2018318      0.9399899              1
      7504.5000         1.0373       1011.394        77.8986        77.3532         0.9914         0.9886       -42.2296      0.4133148      0.9436852              1
      7505.0000           1.05        1002.07        78.1506       77.66122         1.0062          1.006       -42.0233      0.6183968      0.9502388              1
      7505.5000         1.0613       995.4707        78.4344          78.01         1.0211         1.0235       -41.9667      0.6737823      0.9576596              1
      7506.0000         1.0699       992.2744        78.7549       78.40576         1.0211         1.0409       -41.9453      0.6939659        0.96608              1
      7506.5000         1.0634         996.29        79.3196       79.11432         1.0157         1.0425       -41.8968      0.7412491      0.9811557              1
      7507.0000          1.057       1000.307        80.1787       80.19994         1.0103         1.0392       -41.8446      0.7922363              1              1
      7507.5000         1.0497       1004.323        80.8593       81.05693         1.0048          1.036       -41.7924      0.8432198              1              1
      7508.0000         1.0423       1010.315        81.4479        81.7961         1.0021          1.032       -41.6182       1.016209              1              1
      7508.5000         1.0349       1016.771        80.6985       80.82152         1.0023         1.0265        -41.412       1.221191              1              1
      7509.0000         1.0275       1023.227        79.7111        79.5421         1.0024          1.021       -41.1369       1.495071      0.9902574              1
      7509.5000         1.0202       1029.322        78.5126       77.99231         1.0026         1.0154       -41.0994       1.531361      0.9572832              1
      7510.0000         1.0127       1029.793         77.282       76.40138           1.01         1.0219       -41.3248       1.304745      0.9234337              1
      7510.5000         1.0108       1018.396         75.983       74.72288          1.019         1.0309       -41.7321       0.896225      0.8877208              1
      7511.0000         1.0227       1006.986        74.5142       72.82686         1.0292         1.0415       -42.2625      0.3646126        0.84738              1
      7511.5000         1.0642       988.5742        72.5789       70.33337         1.0471         1.0634       -42.5422     0.08369827       0.794327              1
      7512.0000         1.0965       968.4355        71.2551       68.62308         1.0651         1.0852        -42.822      -0.197319      0.7579378              1
      7512.5000         1.1271       947.8008        70.1498       67.19267         1.0851         1.1071       -43.0334      -0.409935      0.7275035              1
      7513.0000         1.1577       926.7187        69.2441        66.0179         1.1118         1.1318       -42.8762      -0.253952      0.7025085              1
      7513.5000         1.1883       902.6084        68.4651        65.0054         1.1383         1.1579       -42.6014     0.01963425       0.680966              1
