#------------------------------------------------------------------------------
# Created by    : vladimir.rabinovich
# Created on    : 09/19/2023 17:22:38
#------------------------------------------------------------------------------
~Version Information Section
VERS.           2.0     :   CWLS log ASCII Standard - VERSION 2.0
WRAP.           NO      :   One line per depth step
~Well Information Section
#MNEM       .UNIT                                         VALUE :DESCRIPTION
#------------------------------------------------------------------------------
STRT        .FT                                             597 :START DEPTH
STOP        .FT                                            8696 :STOP DEPTH
STEP        .FT                                             0.5 :STEP      
NULL        .                                           -999.25 :NULL      
COMP        .                MURPHY EXPLORATION & PRODUCTION CO :COMPANY   
WELL        .                               OCS G13308 ST00BP00 :WELL      
FLD         .                                           WILDCAT :FIELD     
LOC         .                                                   :LOCATION  
CNTY        .                             GALVESTON LARGE BLOCK :LOCATION  
STAT        .                                             TEXAS :STATE     
CTRY        .                                     UNITED STATES :COUNTRY   
SRVC        .                                                   :SERVICE COMPANY
DATE        .                             9/13/2023 11:19:54 AM :LOG DATE  
API         .                                    42706403460000 :API NUMBER
UWI         .                                    42706403460000 :UNIQUE WELL ID
XCOORD      .                                  1110706.35492259 :SURFACE X 
YCOORD      .                                  10520329.8149831 :SURFACE Y 
LAT         .                                         28.978895 :LATITUDE  
LON         .                                        -94.657168 :LONGITUDE 
ELEV        .FT                                              71 :ELEVATION VALUE
ELEV_TYPE   .                                                KB :ELEVATION REFERENCE TYPE
~Curve Information Section
#MNEM       .UNIT                                      API CODE :CURVE DESCRIPTION
#------------------------------------------------------------------------------
DEPT        .FT                                                 :DEPTH     
DCAL        .IN                                                 :          
DPHI        .%                                                  :          
DRHO        .G/C3                                               :          
DTLN        .US/F                                               :          
GR          .GAPI                                               :          
GR_1        .GAPI                                               :          
GR_NORM     .GAPI                                               :GammaRay Normalized
ILD         .OHMM                                               :          
ILM         .OHMM                                               :          
NPHI        .%                                                  :          
SFL         .OHMM                                               :          
SP          .MV                                                 :          
VSH_GR      .V/V                                                :Volume of Shale from GR
~A        DEPTH           DCAL           DPHI           DRHO           DTLN             GR           GR_1        GR_NORM            ILD            ILM           NPHI            SFL             SP         VSH_GR
# ...
      1243.0000        -999.25        -999.25        -999.25        161.575        81.5397        -999.25       81.60401         1.2659         1.2366        -999.25         1.1217      -101.8868              1
      1243.5000        -999.25        -999.25        -999.25       162.3564        81.4473        -999.25       81.50977         1.2684         1.2378        -999.25         1.1121      -101.5214              1
      1244.0000        -999.25        -999.25        -999.25       163.2412        79.8672        -999.25       79.95317         1.2697         1.2377        -999.25         1.1027      -100.5039      0.9990036
      1244.5000        -999.25        -999.25        -999.25       163.9646        79.6655        -999.25       79.75148         1.2666         1.2297        -999.25         1.0925       -98.9684      0.9947124
      1245.0000        -999.25        -999.25        -999.25       164.4727        81.6077        -999.25       81.65714         1.2613         1.2175        -999.25          1.085       -97.8927              1
      1245.5000        -999.25        -999.25        -999.25       164.3489        83.9836        -999.25       83.98911         1.2533         1.2052        -999.25         1.0843       -98.2551              1
      1246.0000        -999.25        -999.25        -999.25       164.0154        84.1862        -999.25       84.18481         1.2344         1.1935        -999.25         1.0917       -98.9639              1
      1246.5000        -999.25        -999.25        -999.25       164.2317        83.2682        -999.25       83.27905         1.2137         1.1823        -999.25         1.0903        -99.684              1
      1247.0000        -999.25        -999.25        -999.25       166.7986        83.9272        -999.25       83.92338         1.1953         1.1612        -999.25          1.071       -99.8508              1
      1247.5000        -999.25        -999.25        -999.25       170.2605        86.2354        -999.25        86.1888         1.1842         1.1389        -999.25         1.0449       -99.6517              1
      1248.0000        -999.25        -999.25        -999.25       172.8726        87.5671        -999.25       87.49436         1.1824         1.1198        -999.25         1.0209       -99.3438              1
      1248.5000        -999.25        -999.25        -999.25       173.8633        88.1146        -999.25        88.0291         1.1821         1.1063        -999.25         1.0072       -98.9774              1
      1249.0000        -999.25        -999.25        -999.25       173.7727         88.783        -999.25       88.68267          1.181         1.1011        -999.25         1.0037       -98.5796              1
      1249.5000        -999.25        -999.25        -999.25       172.3257        89.8997        -999.25        89.7769          1.175          1.106        -999.25         1.0139       -98.1381              1
      1250.0000        -999.25        -999.25        -999.25        171.311        89.3406        -999.25       89.22391         1.1682         1.1147        -999.25         1.0395       -97.7363              1
      1250.5000        -999.25        -999.25        -999.25       171.1821          87.58        -999.25       87.48989         1.1611         1.1184        -999.25         1.0678       -97.9026              1
      1251.0000        -999.25        -999.25        -999.25       171.0537        86.5629        -999.25        86.4867         1.1465         1.1124        -999.25         1.0707       -97.7859              1
      1251.5000        -999.25        -999.25        -999.25       171.5586         86.667        -999.25        86.5856         1.1358         1.0996        -999.25         1.0415        -98.084              1
      1252.0000        -999.25        -999.25        -999.25       172.3281        86.7532        -999.25        86.6669         1.1317         1.0833        -999.25         1.0135       -98.6934              1
      1252.5000        -999.25        -999.25        -999.25       172.8152        85.8422        -999.25       85.76799         1.1242          1.066        -999.25         1.0009       -99.0966              1
      1253.0000        -999.25        -999.25        -999.25       172.8904          85.02        -999.25       84.95639          1.113         1.0542        -999.25         0.9989      -101.1949              1
      1253.5000        -999.25        -999.25        -999.25        172.281        84.5935        -999.25       84.53373         1.0961         1.0436        -999.25         0.9899      -101.7244              1
      1254.0000        -999.25        -999.25        -999.25       171.5862        85.4741        -999.25       85.39588         1.0808         1.0303        -999.25          0.966      -101.4164              1
      1254.5000        -999.25        -999.25        -999.25       171.2322        85.3358        -999.25       85.25652         1.0701         1.0169        -999.25         0.9473      -100.0958              1
      1255.0000        -999.25        -999.25        -999.25       171.3345        81.7046        -999.25        81.6838         1.0646         1.0121        -999.25         0.9517      -100.2333              1
      1255.5000        -999.25        -999.25        -999.25       171.8469        79.8662        -999.25       79.87331         1.0607         1.0029        -999.25         0.9558      -101.8844      0.9973044
      1256.0000        -999.25        -999.25        -999.25       172.2517        81.7849        -999.25       81.75586         1.0583         0.9943        -999.25         0.9546      -101.9327              1
      1256.5000        -999.25        -999.25        -999.25       172.6604        85.8864        -999.25         85.784         1.0571          0.992        -999.25         0.9473      -101.3457              1
      1257.0000        -999.25        -999.25        -999.25       173.3813        86.6844        -999.25       86.56498         1.0555         0.9929        -999.25         0.9417      -100.8188              1
      1257.5000        -999.25        -999.25        -999.25        174.209        85.2301        -999.25       85.13205          1.057         0.9957        -999.25         0.9373      -100.9835              1
      1258.0000        -999.25        -999.25        -999.25         174.71        84.1288        -999.25       84.04609         1.0657         0.9983        -999.25         0.9265      -100.7227              1
      1258.5000        -999.25        -999.25        -999.25       175.1848        84.7028        -999.25       84.60686         1.0862          1.004        -999.25         0.9177      -100.0494              1
      1259.0000        -999.25        -999.25        -999.25       174.6465        86.0199        -999.25       85.89807         1.1208         1.0123        -999.25         0.9145       -99.3837              1
      1259.5000        -999.25        -999.25        -999.25       170.7146        85.1232        -999.25       85.01323         1.1676         1.0512        -999.25         0.9266       -99.2562              1
      1260.0000        -999.25        -999.25        -999.25       163.2712        81.7874        -999.25       81.73088          1.218         1.1538        -999.25         1.0025       -99.0338              1
      1260.5000        -999.25        -999.25        -999.25       156.4294        77.5498        -999.25        77.5621         1.2614         1.2848        -999.25          1.143       -98.4076      0.9481297
      1261.0000        -999.25        -999.25        -999.25       153.5515        73.3883        -999.25       73.46811          1.289         1.3468        -999.25         1.3742       -98.1893      0.8610236
      1261.5000        -999.25        -999.25        -999.25       153.7854        70.5367        -999.25       70.66171         1.3112         1.4194        -999.25          1.503       -98.9163      0.8013129
