#------------------------------------------------------------------------------
# Created by    : vladimir.rabinovich
# Created on    : 09/19/2023 17:22:30
#------------------------------------------------------------------------------
~Version Information Section
VERS.           2.0     :   CWLS log ASCII Standard - VERSION 2.0
WRAP.           NO      :   One line per depth step
~Well Information Section
#MNEM       .UNIT                                         VALUE :DESCRIPTION
#------------------------------------------------------------------------------
STRT        .FT                                             456 :START DEPTH
STOP        .FT                                           11667 :STOP DEPTH
STEP        .FT                                             0.5 :STEP      
NULL        .                                           -999.25 :NULL      
COMP        .                              PATRICK PETROLEUM CO :COMPANY   
WELL        .                                     ST TR 00693-L :WELL      
FLD         .                                           WILDCAT :FIELD     
LOC         .                                                   :LOCATION  
CNTY        .                      MATAGORDA ISLAND LARGE BLOCK :LOCATION  
STAT        .                                             TEXAS :STATE     
CTRY        .                                     UNITED STATES :COUNTRY   
SRVC        .                                                   :SERVICE COMPANY
DATE        .                             9/13/2023 11:12:01 AM :LOG DATE  
API         .                                    42703302660000 :API NUMBER
UWI         .                                    42703302660000 :UNIQUE WELL ID
XCOORD      .                                  384413.417453263 :SURFACE X 
YCOORD      .                                  10143960.4717662 :SURFACE Y 
LAT         .                                        27.8986234 :LATITUDE  
LON         .                                       -96.8882217 :LONGITUDE 
ELEV        .FT                                              92 :ELEVATION VALUE
ELEV_TYPE   .                                                KB :ELEVATION REFERENCE TYPE
~Curve Information Section
#MNEM       .UNIT                                      API CODE :CURVE DESCRIPTION
#------------------------------------------------------------------------------
DEPT        .FT                                                 :DEPTH     
CILD        .MMHO                                               :          
DPHI        .%                                                  :          
DT          .US/F                                               :          
GR          .GAPI                                               :          
GR_NORM     .GAPI                                               :GammaRay Normalized
ILD         .OHMM                                               :          
SN          .OHMM                                               :          
SP          .MV                                                 :          
SP_NORM     .MV                                                 :SP Normalized
VSH_GR      .V/V                                                :Volume of Shale from GR
VSH_SP      .V/V                                                :Volume of Shale from SP
~A        DEPTH           CILD           DPHI             DT             GR        GR_NORM            ILD             SN             SP        SP_NORM         VSH_GR         VSH_SP
# ...
      1941.0000           1420        -999.25       170.9905          54.28       84.58096         0.6863          0.953         -21.87      -6.063398              1      0.8794429
      1941.5000         1436.8        -999.25          172.7          56.64       88.00288          0.682          0.959          -21.9      -6.097851              1      0.8786226
      1942.0000         1444.8        -999.25       169.9333           57.7       89.54043         0.6756         0.9506         -21.81      -6.012304              1      0.8806594
      1942.5000           1452        -999.25         166.28          57.08       88.64273          0.669         0.9557         -21.22      -5.426759              1       0.894601
      1943.0000         1445.6        -999.25       161.8401           56.7       88.09291         0.6763         0.9729         -20.73      -4.941213              1      0.9061616
      1943.5000         1422.8        -999.25       157.1782          56.88       88.35484          0.684         0.9827         -20.32      -4.535667              1      0.9158174
      1944.0000         1380.7        -999.25        152.582        57.3273       89.00422         0.7033         0.9918       -19.9825      -4.202621              1      0.9237471
      1944.5000        1323.05        -999.25       150.0352           58.8       91.13998         0.7396         1.0055       -19.9309      -4.155477              1      0.9248696
      1945.0000        1252.85        -999.25       149.6812           59.9       92.73551         0.7808         1.0184       -19.6238       -3.85283              1      0.9320755
      1945.5000       1197.508        -999.25       149.0262          57.05       88.60531         0.8145         1.0301       -19.4059      -3.639382              1      0.9371576
      1946.0000       1152.215        -999.25       146.5338           55.8       86.79439         0.8506         1.0449       -20.4274      -4.665339              1        0.91273
      1946.5000       1116.832        -999.25         143.66           56.4       87.66511         0.8857          1.062         -21.29      -5.532393              1      0.8920859
      1947.0000        1099.01        -999.25       140.2034           55.7       86.65145         0.8991          1.065         -22.26      -6.506846              1      0.8688846
      1947.5000       1098.614        -999.25       137.5049           53.8       83.89832         0.9021         1.0491         -22.46      -6.711299              1      0.8640167
      1948.0000       1116.814        -999.25       135.8602           51.9        81.1452         0.8893         1.0333         -21.97      -6.225753              1      0.8755773
      1948.5000       1150.386        -999.25       134.2138          52.26       81.66804         0.8563         1.0287         -22.08      -6.340208              1      0.8728522
      1949.0000       1188.067        -999.25       132.3886          53.44       83.37952          0.826         1.0231         -22.43      -6.694662              1      0.8644128
      1949.5000        1217.07        -999.25       130.7209          54.61       85.07651         0.7958         1.0232         -22.71      -6.979115              1      0.8576401
      1950.0000       1240.717        -999.25       133.0756          54.19        84.4687         0.7708         1.0233       -22.7909      -7.064469              1      0.8556079
      1950.5000        1270.39        -999.25         135.95          52.65       82.23743         0.7746         1.0241         -22.53      -6.808025              1      0.8617137
      1951.0000       1267.304        -999.25          137.4          50.98       79.81768         0.7832         1.0207         -22.13      -6.412477      0.9961209      0.8711315
      1951.5000       1259.691        -999.25         138.23          49.35       77.45591         0.7825         1.0219         -21.79      -6.076933      0.9458704      0.8791206
      1952.0000        1245.21        -999.25          138.3           48.1         75.645          0.789         1.0233         -21.15      -5.441386      0.9073403      0.8942527
      1952.5000           1230        -999.25       138.2455           48.8       76.66071         0.7989         1.0277         -20.38      -4.675839      0.9289513        0.91248
      1953.0000         1212.4        -999.25         138.04           49.9       78.25621         0.8083          1.032        -19.568      -3.868296      0.9628981      0.9317073
      1953.5000       1202.004        -999.25         137.68          50.98       79.82275         0.8183         1.0339       -19.0198      -3.324549      0.9962286      0.9446536
      1954.0000       1191.719        -999.25         137.18        50.6909       79.40468         0.8249         1.0452       -18.8119      -3.121101      0.9873336      0.9494976
      1954.5000       1183.366        -999.25         136.66          49.33       77.43301         0.8307         1.0558       -17.8515      -2.165156      0.9453831      0.9722582
      1955.0000       1175.446        -999.25         136.26          48.25       75.86851          0.841         1.0562       -17.2772      -1.595311      0.9120959      0.9858259
      1955.5000       1166.337        -999.25            136          47.01       74.07207         0.8426         1.0562       -17.7426      -2.065165      0.8738739      0.9746389
      1956.0000       1160.396        -999.25         136.66           46.2       72.89895         0.8473         1.0611       -18.1188      -2.445818      0.8489138      0.9655758
      1956.5000       1162.772        -999.25       137.4636        47.0364       74.11237         0.8473         1.0514       -17.5941      -1.925574      0.8747314      0.9779625
      1957.0000       1168.713        -999.25         138.69           47.2       74.35052          0.839         1.0514       -16.6634     -0.9993277      0.8797984              1
      1957.5000       1182.178        -999.25          139.6          45.55       71.95978         0.8272         1.0505       -16.1386     -0.4789801      0.8289315              1
      1958.0000       1192.079        -999.25         139.11           45.3       71.59841         0.8226         1.0486       -16.9802      -1.325035      0.8212428      0.9922611
      1958.5000       1199.208        -999.25         138.23          45.31       71.61391         0.8191         1.0515       -18.1188      -2.468088      0.8215725      0.9650455
      1959.0000       1195.644        -999.25         137.36          45.54       71.94832         0.8226         1.0516       -19.3267      -3.680444      0.8286876      0.9361799
      1959.5000       1192.079        -999.25         136.83          46.32       73.07999         0.8229         1.0517        -19.901      -4.259196      0.8527657      0.9224001
      1960.0000       1194.455        -999.25       136.8909        47.4454       74.71231         0.8194         1.0518       -18.8119       -3.17455       0.887496       0.948225
      1960.5000           1218        -999.25         136.94           48.5       76.24202         0.8095         1.0365       -17.8614      -2.228506       0.920043      0.9707499
      1961.0000           1258        -999.25         137.16          47.56       74.88046         0.7894         1.0256       -17.4753      -1.846859      0.8910736      0.9798367
      1961.5000         1296.4        -999.25         137.48           46.8        73.7798         0.7647         1.0209       -17.4456      -1.821614      0.8676553      0.9804378
      1962.0000       1327.273        -999.25         137.91        48.2182       75.83657         0.7423         1.0151       -17.5842      -1.964667      0.9114164      0.9770317
      1962.5000           1344        -999.25          138.8          50.54       79.20315         0.7236         1.0092       -17.8317      -2.216621      0.9830457      0.9710328
      1963.0000           1352        -999.25          140.3          53.42       83.37886          0.718         1.0051       -18.0891      -2.478476              1      0.9647982
