#------------------------------------------------------------------------------
# Created by    : vladimir.rabinovich
# Created on    : 09/19/2023 17:19:45
#------------------------------------------------------------------------------
~Version Information Section
VERS.           2.0     :   CWLS log ASCII Standard - VERSION 2.0
WRAP.           NO      :   One line per depth step
~Well Information Section
#MNEM       .UNIT                                         VALUE :DESCRIPTION
#------------------------------------------------------------------------------
STRT        .FT                                            3127 :START DEPTH
STOP        .FT                                           13892 :STOP DEPTH
STEP        .FT                                             0.5 :STEP      
NULL        .                                           -999.25 :NULL      
COMP        .                                       MONSANTO CO :COMPANY   
WELL        .                                     ST TR 00010-L :WELL      
FLD         .                                           WILDCAT :FIELD     
LOC         .                                                   :LOCATION  
CNTY        .                           HIGH ISLAND LARGE BLOCK :LOCATION  
STAT        .                                             TEXAS :STATE     
CTRY        .                                     UNITED STATES :COUNTRY   
SRVC        .                                                   :SERVICE COMPANY
DATE        .                             9/13/2023 11:19:15 AM :LOG DATE  
API         .                                    42708300750000 :API NUMBER
UWI         .                                    42708300750000 :UNIQUE WELL ID
XCOORD      .                                  1327265.43976741 :SURFACE X 
YCOORD      .                                  10725214.5969587 :SURFACE Y 
LAT         .                                        29.5491158 :LATITUDE  
LON         .                                       -93.9851741 :LONGITUDE 
ELEV        .FT                                              54 :ELEVATION VALUE
ELEV_TYPE   .                                                KB :ELEVATION REFERENCE TYPE
~Curve Information Section
#MNEM       .UNIT                                      API CODE :CURVE DESCRIPTION
#------------------------------------------------------------------------------
DEPT        .FT                                                 :DEPTH     
ASFL        .OHMM                                               :          
CILD        .MMHO                                               :          
ILD         .OHMM                                               :          
SP          .MV                                                 :          
SP_NORM     .MV                                                 :SP Normalized
VSH_SP      .V/V                                                :Volume of Shale from SP
~A        DEPTH           ASFL           CILD            ILD             SP        SP_NORM         VSH_SP
# ...
      5977.0000         0.9151       5298.781        -999.25      -126.8077      -84.12099     0.06605633
      5977.5000         0.9086       5192.094        -999.25      -127.7103      -85.02254     0.05592655
      5978.0000         0.9022       5142.977        -999.25      -128.6128      -85.92398     0.04579797
      5978.5000         0.8958       5101.703        -999.25      -129.2261      -86.53625     0.03891857
      5979.0000          0.893       5094.352        -999.25      -129.2227       -86.5318     0.03896855
      5979.5000         0.8991       5217.922        -999.25      -129.0012      -86.30925      0.0414691
      5980.0000         0.9052       4944.961        -999.25      -128.4116      -85.71861     0.04810556
      5980.5000         0.9113           4672        -999.25      -127.6284      -84.93436     0.05691734
      5981.0000         0.9174       4432.609        -999.25      -126.2892       -83.5941     0.07197639
      5981.5000         0.9234       4265.336        -999.25      -124.9501      -82.25396     0.08703416
      5982.0000         0.9295       4098.063        -999.25      -123.6108       -80.9136      0.1020943
      5982.5000         0.9297       3930.984        -999.25       -119.691      -76.99276      0.1461488
      5983.0000         0.9167       3763.711        -999.25      -113.1444      -70.44511      0.2197178
      5983.5000         0.9037       3596.438        -999.25      -103.7463      -61.04596      0.3253263
      5984.0000         0.8907       3542.203        -999.25      -106.6678      -63.96641      0.2925122
      5984.5000         0.8432       3754.773        -999.25      -108.9537      -66.25127      0.2668397
      5985.0000         0.7987       3967.145        -999.25      -107.1357      -64.43221      0.2872785
      5985.5000         0.7857       4179.508        -999.25      -105.0579      -62.35337      0.3106363
      5986.0000         0.7727       4391.883        -999.25       -103.214      -60.50842      0.3313661
      5986.5000         0.7717       4639.813        -999.25      -109.8822      -67.17557      0.2564543
      5987.0000           0.78       5052.234        -999.25      -111.6965      -68.98882      0.2360806
      5987.5000         0.7883       5032.172        -999.25       -113.511      -70.80228      0.2157048
      5988.0000         0.7996        4949.43        -999.25      -116.9979      -74.28813      0.1765378
      5988.5000         0.8126       4833.313        -999.25      -117.2816      -74.57078       0.173362
      5989.0000         0.8256       4638.227        -999.25      -113.7633      -71.05142      0.2129054
      5989.5000         0.8385       4899.344        -999.25      -107.2426      -64.52968      0.2861834
      5990.0000         0.8477       4926.828        -999.25       -99.8007      -57.08673       0.369812
      5990.5000         0.8437        4807.68        -999.25       -92.2631      -49.54808      0.4545159
      5991.0000         0.8379        4326.32        -999.25       -79.6046      -36.88853      0.5967581
      5991.5000         0.8274       3884.895        -999.25       -72.6049      -29.88778      0.6754181
      5992.0000         0.8169       3443.863        -999.25        -67.285      -24.56684       0.735204
      5992.5000         0.8064       3002.438        -999.25       -40.1592       2.560013              1
      5993.0000         0.7959       2563.391        -999.25       -38.6855       4.034756              1
      5993.5000         0.7992       1988.463        -999.25       -37.2138       5.507507              1
      5994.0000         0.8072       1742.814        -999.25       -36.1758       6.546555              1
      5994.5000         0.8153       1640.703        -999.25       -35.2704       7.453003              1
      5995.0000         0.8233       1588.256        -999.25       -35.4565       7.267952              1
      5995.5000         0.8313       1540.379        -999.25       -36.8362       5.889301              1
      5996.0000         0.8393       1509.635        -999.25       -38.2159       4.510647              1
      5996.5000         0.8465       1576.584        -999.25       -39.5937       3.133896              1
      5997.0000         0.8488       1643.533        -999.25        -42.727    0.001644135              1
      5997.5000         0.8512       1695.285        -999.25       -44.5571      -1.827404      0.9907033
      5998.0000         0.8535       1737.551        -999.25       -45.2479      -2.517155      0.9829533
      5998.5000         0.8559       1779.816        -999.25       -46.0648      -3.333008      0.9737864
      5999.0000         0.8616       1811.404        -999.25       -47.3597      -4.626862      0.9592487
      5999.5000         0.8688       1834.027        -999.25       -48.6566      -5.922714      0.9446886
      6000.0000          0.876       1856.674        -999.25       -50.7841      -8.049164      0.9207959
      6000.5000         0.8833       1879.322        -999.25       -54.1808      -11.44482      0.8826425
      6001.0000         0.8905       1901.348        -999.25       -57.0857      -14.34867       0.850015
      6001.5000         0.8952       1919.998        -999.25       -59.5743      -16.83622      0.8220649
      6002.0000         0.8994       1938.646        -999.25        -64.021      -21.28188      0.7721137
      6002.5000          0.903       1957.297        -999.25       -69.3076      -26.56742      0.7127256
      6003.0000         0.9013       1984.041        -999.25       -82.0066      -39.26537       0.570052
      6003.5000         0.8995       2047.316        -999.25        -93.873      -51.13073      0.4367334
      6004.0000         0.8977       2117.094        -999.25       -98.8575      -56.11417      0.3807396
      6004.5000         0.9215       2201.625        -999.25      -103.8385      -61.09413      0.3247851
      6005.0000         0.9532        2306.52        -999.25      -108.8193      -66.07388      0.2688328
      6005.5000         0.9734       2679.012        -999.25      -113.8002      -71.05373      0.2128794
      6006.0000         0.9936       3286.922        -999.25      -118.7811      -76.03358       0.156926
      6006.5000         1.0076       3894.035        -999.25      -122.0101      -79.26154      0.1206569
      6007.0000         1.0198       4474.125        -999.25      -124.2998      -81.55019     0.09494173
      6007.5000         1.0319       4774.906        -999.25      -125.9779      -83.22723     0.07609849
      6008.0000         1.0338        5075.68        -999.25      -127.6412      -84.88949     0.05742148
      6008.5000         1.0342       5376.852        -999.25      -128.4922      -85.73944     0.04787145
      6009.0000         1.0322       5544.625        -999.25      -129.2834      -86.52959     0.03899332
      6009.5000         1.0258       5639.883        -999.25      -129.8696      -87.11475     0.03241858
      6010.0000         1.0195       5817.883        -999.25      -130.0562      -87.30029     0.03033379
      6010.5000         1.0131       5971.797        -999.25      -130.1514      -87.39445     0.02927587
      6011.0000         1.0113        6008.25        -999.25       -129.853        -87.095     0.03264043
      6011.5000         1.0225        6019.43        -999.25      -129.5547      -86.79565     0.03600388
      6012.0000         1.0338       5890.594        -999.25      -129.2561        -86.496     0.03937076
      6012.5000         1.0565       5495.852        -999.25      -128.9575      -86.19636     0.04273755
      6013.0000         1.0883       5115.414        -999.25      -128.5618      -85.79961     0.04719543
      6013.5000         1.1201        3985.32        -999.25      -127.9987      -85.23546     0.05353418
      6014.0000          1.152       3914.895        -999.25      -127.4354      -84.67111     0.05987515
      6014.5000         1.1838        3768.68        -999.25      -126.9012      -84.13586     0.06588916
