#------------------------------------------------------------------------------
# Created by    : vladimir.rabinovich
# Created on    : 09/19/2023 17:22:17
#------------------------------------------------------------------------------
~Version Information Section
VERS.           2.0     :   CWLS log ASCII Standard - VERSION 2.0
WRAP.           NO      :   One line per depth step
~Well Information Section
#MNEM       .UNIT                                         VALUE :DESCRIPTION
#------------------------------------------------------------------------------
STRT        .FT                                            2222 :START DEPTH
STOP        .FT                                            8603 :STOP DEPTH
STEP        .FT                                             0.5 :STEP      
NULL        .                                           -999.25 :NULL      
COMP        .                                    HRUBETZ OIL CO :COMPANY   
WELL        .                                     ST TR 00028-L :WELL      
FLD         .                                           WILDCAT :FIELD     
LOC         .                                                   :LOCATION  
CNTY        .                           HIGH ISLAND LARGE BLOCK :LOCATION  
STAT        .                                             TEXAS :STATE     
CTRY        .                                     UNITED STATES :COUNTRY   
SRVC        .                                                   :SERVICE COMPANY
DATE        .                             9/13/2023 11:19:15 AM :LOG DATE  
API         .                                    42708303040000 :API NUMBER
UWI         .                                    42708303040000 :UNIQUE WELL ID
XCOORD      .                                  1211101.11829014 :SURFACE X 
YCOORD      .                                  10709910.5532953 :SURFACE Y 
LAT         .                                         29.503814 :LATITUDE  
LON         .                                       -94.3499952 :LONGITUDE 
ELEV        .FT                                              60 :ELEVATION VALUE
ELEV_TYPE   .                                                KB :ELEVATION REFERENCE TYPE
~Curve Information Section
#MNEM       .UNIT                                      API CODE :CURVE DESCRIPTION
#------------------------------------------------------------------------------
DEPT        .FT                                                 :DEPTH     
CALI        .IN                                                 :          
GR          .GAPI                                               :          
GR_NORM     .GAPI                                               :GammaRay Normalized
ILD         .OHMM                                               :          
ILM         .OHMM                                               :          
RHOB        .G/C3                                               :          
SFL         .OHMM                                               :          
SP          .MV                                                 :          
SP_NORM     .MV                                                 :SP Normalized
VSH_GR      .V/V                                                :Volume of Shale from GR
VSH_SP      .V/V                                                :Volume of Shale from SP
~A        DEPTH           CALI             GR        GR_NORM            ILD            ILM           RHOB            SFL             SP        SP_NORM         VSH_GR         VSH_SP
# ...
      4337.0000        18.3742        67.8542       80.53487         0.5771         0.6039         2.1436         1.2192       -79.5103       1.372971              1              1
      4337.5000        18.3703        67.7339       80.36835         0.6561         0.6597         2.1576         1.2494       -77.3075       3.572922              1              1
      4338.0000        18.4153        67.3738       79.86938         0.7351         0.7207         2.1739         1.2804       -76.9261       3.951477      0.9972208              1
      4338.5000         18.541        67.0138       79.37054         0.8204         0.7687         2.1896           1.31       -76.8005       4.074234      0.9866073              1
      4339.0000        18.7666        66.6538       78.87172         0.8686         0.8022         2.1992         1.3339        -76.675       4.196884      0.9759941              1
      4339.5000        18.9806        66.2938        78.3729         0.9197         0.8341         2.1999         1.3583       -76.8514       4.017639      0.9653809              1
      4340.0000        19.1338        65.8719       77.78825         0.9636         0.8625         2.1979         1.3831        -77.094       3.772186      0.9529416              1
      4340.5000         19.279        65.3929       77.12444         0.9888         0.8678         2.1932         1.4068       -77.3364       3.526939      0.9388179              1
      4341.0000        19.3665        64.9141       76.46091         1.0147         0.8695         2.1904         1.4251       -77.6681       3.192398      0.9247003              1
      4341.5000        19.3931        64.4351        75.7971         1.0271         0.8756         2.1946         1.4437       -78.1407       2.716949      0.9105765              1
      4342.0000        19.3799        63.9539       75.13025         1.0263         0.8829         2.1989         1.4625       -78.6138       2.241005      0.8963883              1
      4342.5000        19.3666        63.4529       74.43594         1.0254         0.8899         2.2059         1.4796       -79.0629       1.789063      0.8816158              1
      4343.0000        19.3533        62.9519       73.74162         1.0246         0.8946          2.213         1.4912       -79.4988       1.350304       0.866843              1
      4343.5000        19.3489        62.4175       73.00102         1.0207         0.8993           2.22         1.5028       -79.9379      0.9083633      0.8510856              1
      4344.0000        19.3572        61.6828       71.98271         1.0163          0.904         2.2269         1.5145       -80.3911      0.4523163      0.8294194              1
      4344.5000        19.3654        63.5315       74.54598         1.0118         0.9088         2.2336         1.5204        -80.844   -0.003433228      0.8839571              1
      4345.0000        19.3737        66.6636       78.88851         0.9925         0.9015         2.2414         1.5184        -81.322     -0.4842758      0.9763513              1
      4345.5000         19.382         67.776       80.43098         0.9655         0.8924         2.2499         1.5165       -82.1608       -1.32592              1      0.9955957
      4346.0000        19.3903        68.0244       80.77561          0.928         0.8833         2.2585         1.4864        -82.999      -2.166977              1        0.98423
      4346.5000        19.3986        67.6436       80.24795         0.8776         0.8744         2.2671         1.4543       -83.8376      -3.008423              1      0.9728591
      4347.0000        19.4073        65.9185       77.85658         0.8281         0.8534         2.2744         1.4306       -84.6764      -3.850067      0.9543954      0.9614856
      4347.5000        19.4385        64.1946       75.46689         0.7783          0.827          2.259         1.4097       -86.3428       -5.51931      0.9035508      0.9389282
      4348.0000        19.4697        62.5698       73.21458         0.7316         0.8015         2.2381          1.389       -88.3505      -7.529861      0.8556293      0.9117586
      4348.5000        19.5009        61.3684       71.54925         0.6868         0.7767         2.1819         1.3687       -90.3564      -9.538605      0.8201967      0.8846135
      4349.0000        19.5321        60.1669       69.88377         0.6444         0.7527         2.1166           1.36       -92.8707      -12.05576      0.7847611      0.8505979
      4349.5000          19.55         58.826       68.02505         0.6059         0.7311         2.0624         1.3577       -95.9226       -15.1105      0.7452139      0.8093175
      4350.0000        19.5561        56.4916       64.78899         0.5885         0.7105         2.0444         1.3554       -99.1527      -18.34345      0.6763614       0.765629
      4350.5000        19.5622        52.8945       59.80231         0.5715         0.6904          2.029         1.3531      -104.0894        -23.283       0.570262      0.6988784
      4351.0000        19.5683         48.698       53.98466         0.5704         0.6709          2.016         1.3508      -109.0298      -28.22624      0.4464822      0.6320778
      4351.5000        19.6093        45.7702        49.9259         0.5721         0.6587         1.9926         1.3484      -114.9062      -34.10548      0.3601255      0.5526286
      4352.0000        19.6592        46.4015       50.80139         0.5739         0.6472         1.9743          1.342      -119.0997      -38.30184      0.3787529       0.495921
      4352.5000        19.7091        47.7792       52.71167         0.5754         0.6358         1.9862         1.3348      -120.7761      -39.98109      0.4193972      0.4732285
      4353.0000         19.604        49.3917       54.94746         0.5704         0.6246          1.998         1.3277      -120.7791      -39.98693      0.4669673      0.4731496
      4353.5000        19.5859         51.233       57.50046         0.5654         0.6137         2.0099          1.372       -120.782      -39.99268      0.5212863       0.473072
      4354.0000        19.5677        53.0732       60.05193         0.5605         0.6031         2.0241         1.4414      -120.7849      -39.99842       0.575573      0.4729943
      4354.5000        19.5608        54.9145       62.60493         0.5556         0.5926          2.043         1.4434      -120.7878      -40.00417      0.6298922      0.4729166
      4355.0000        19.6107        56.7192       65.10719         0.5489         0.5824         2.0618         1.4028      -120.8423      -40.06152      0.6831316      0.4721416
      4355.5000        19.6607        58.2962       67.29375         0.5314         0.5723         2.1451         1.3633      -122.4343      -41.65637      0.7296544      0.4505896
      4356.0000        19.7244        57.6441       66.38997         0.5144         0.5624         2.2013          1.345      -124.0264      -43.25131      0.7104248      0.4290363
      4356.5000        19.8423        54.9965       62.71967          0.498         0.5514         2.2057          1.329      -126.9857      -46.21346      0.6323333      0.3890073
      4357.0000        19.9603        51.8864       58.40817         0.4731         0.5378         2.1858         1.3132      -129.9973      -49.22791      0.5405993      0.3482715
      4357.5000        20.0782        48.7763       54.09668         0.4459         0.5247         2.1613          1.334      -133.0566      -52.29005      0.4488654      0.3068913
      4358.0000        20.1539        45.8412       50.02781         0.4202         0.5118         2.1338         1.3783      -137.4575      -56.69381      0.3622938       0.247381
      4358.5000        20.1853        43.5777       46.89001         0.3939         0.4993         2.0912          1.424      -141.8582      -61.09735      0.2955322      0.1878736
      4359.0000        20.2168         41.313       43.75056         0.3694          0.487          2.045         1.4695      -146.7217      -65.96369      0.2287353      0.1221123
