#------------------------------------------------------------------------------
# Created by    : vladimir.rabinovich
# Created on    : 09/19/2023 17:21:52
#------------------------------------------------------------------------------
~Version Information Section
VERS.           2.0     :   CWLS log ASCII Standard - VERSION 2.0
WRAP.           NO      :   One line per depth step
~Well Information Section
#MNEM       .UNIT                                         VALUE :DESCRIPTION
#------------------------------------------------------------------------------
STRT        .FT                                            1924 :START DEPTH
STOP        .FT                                            6497 :STOP DEPTH
STEP        .FT                                             0.5 :STEP      
NULL        .                                           -999.25 :NULL      
COMP        .                                ATP OIL & GAS CORP :COMPANY   
WELL        .                               OCS G12451 ST00BP00 :WELL      
FLD         .                                           WILDCAT :FIELD     
LOC         .                                                   :LOCATION  
CNTY        .                                BRAZOS LARGE BLOCK :LOCATION  
STAT        .                                             TEXAS :STATE     
CTRY        .                                     UNITED STATES :COUNTRY   
SRVC        .                                                   :SERVICE COMPANY
DATE        .                             9/13/2023 11:09:51 AM :LOG DATE  
API         .                                    42704402900000 :API NUMBER
UWI         .                                    42704402900000 :UNIQUE WELL ID
XCOORD      .                                  861130.254262163 :SURFACE X 
YCOORD      .                                  10349158.9913488 :SURFACE Y 
LAT         .                                        28.4964901 :LATITUDE  
LON         .                                       -95.4265639 :LONGITUDE 
ELEV        .FT                                              91 :ELEVATION VALUE
ELEV_TYPE   .                                                KB :ELEVATION REFERENCE TYPE
~Curve Information Section
#MNEM       .UNIT                                      API CODE :CURVE DESCRIPTION
#------------------------------------------------------------------------------
DEPT        .FT                                                 :DEPTH     
CALI        .IN                                                 :          
DPHI        .G/C3                                               :          
DRHO        .G/C3                                               :          
GR          .GAPI                                               :          
GR_NORM     .GAPI                                               :GammaRay Normalized
ILD         .OHMM                                               :          
ILM         .OHMM                                               :          
NPHI        .%                                                  :          
SFL         .OHMM                                               :          
SP          .MV                                                 :          
SP_NORM     .MV                                                 :SP Normalized
VSH_GR      .V/V                                                :Volume of Shale from GR
VSH_SP      .V/V                                                :Volume of Shale from SP
~A        DEPTH           CALI           DPHI           DRHO             GR        GR_NORM            ILD            ILM           NPHI            SFL             SP        SP_NORM         VSH_GR         VSH_SP
# ...
      6465.0000         8.0765        27.9888         0.2143        -999.25        -999.25         0.8031         0.7835        -999.25         0.9894       -45.5875     -0.3359528        -999.25              1
      6465.5000         8.0883        28.1048         0.2149        -999.25        -999.25          0.805         0.7808        -999.25         0.9913       -45.5735     -0.2776489        -999.25              1
      6466.0000         8.0887        28.2828         0.2162        -999.25        -999.25         0.8061         0.7844        -999.25          0.979       -45.5786     -0.2384453        -999.25              1
      6466.5000         8.0881         28.435         0.2172        -999.25        -999.25          0.806         0.7927        -999.25         0.9804       -45.5046     -0.1201439        -999.25              1
      6467.0000         8.0891        28.3938         0.2178        -999.25        -999.25         0.8115         0.8002        -999.25         1.0361       -45.4187     0.01005936        -999.25              1
      6467.5000         8.1122        28.4011         0.2181        -999.25        -999.25         0.8138         0.7994        -999.25         1.0515       -45.3733     0.09976196        -999.25              1
      6468.0000          8.144        28.5524         0.2178        -999.25        -999.25         0.8119         0.7916        -999.25         1.0011       -45.5211   -0.003734589        -999.25              1
      6468.5000         8.1356        28.6536         0.2176        -999.25        -999.25         0.8118         0.7827        -999.25         0.9586       -45.5474     0.01426315        -999.25              1
      6469.0000         8.1233        28.6705         0.2171        -999.25        -999.25          0.816         0.7806        -999.25         0.9731       -45.4479      0.1580696        -999.25              1
      6469.5000         8.1035        28.6201         0.2163        -999.25        -999.25         0.8262         0.7864        -999.25         0.9903       -45.2955      0.3547707        -999.25              1
      6470.0000         8.0977        28.5186         0.2151        -999.25        -999.25         0.8376         0.7973        -999.25          1.005        -45.092      0.6025734        -999.25              1
      6470.5000         8.0799        28.4162         0.2138        -999.25        -999.25         0.8462         0.8128        -999.25         0.9838       -44.9608      0.7780762        -999.25              1
      6471.0000         8.0592        28.3964         0.2123        -999.25        -999.25         0.8592         0.8258        -999.25         0.9912       -44.8611      0.9220772        -999.25              1
      6471.5000         8.0393         28.485         0.2108        -999.25        -999.25         0.8718         0.8375        -999.25         1.0721       -44.7929        1.03458        -999.25              1
      6472.0000         8.0364        28.6157          0.211        -999.25        -999.25         0.8832         0.8436        -999.25         1.2295       -45.0986      0.7731857        -999.25              1
      6472.5000         8.0391        28.6648         0.2113        -999.25        -999.25         0.8872         0.8409        -999.25         1.1664       -45.5087       0.407383        -999.25              1
      6473.0000         8.0429        28.6717         0.2117        -999.25        -999.25         0.8736          0.823        -999.25         1.0671       -45.4518      0.5085869        -999.25              1
      6473.5000         8.0389        28.6503          0.212        -999.25        -999.25          0.855         0.8095        -999.25         1.0221       -45.2432      0.7614899        -999.25              1
      6474.0000          8.042        28.6031         0.2132        -999.25        -999.25         0.8326         0.7961        -999.25         1.0046       -45.0348       1.014191        -999.25              1
      6474.5000         8.0346         28.563         0.2144        -999.25        -999.25         0.8123         0.7856        -999.25         0.9927       -45.0999      0.9933929        -999.25              1
      6475.0000         8.0266        28.5089         0.2156        -999.25        -999.25         0.8005         0.7782        -999.25         0.9821       -45.4862      0.6513977        -999.25              1
      6475.5000         8.0325         28.464         0.2169        -999.25        -999.25         0.7981         0.7746        -999.25         0.9812       -45.6003      0.5816002        -999.25              1
      6476.0000         8.0309        28.4504         0.2181        -999.25        -999.25         0.7981         0.7744        -999.25          0.978       -45.4855      0.7406998        -999.25              1
      6476.5000         8.0255        28.5293         0.2194        -999.25        -999.25         0.8019         0.7767        -999.25          0.964        -45.348      0.9225044        -999.25              1
      6477.0000         8.0308        28.8374         0.2204        -999.25        -999.25         0.8044         0.7806        -999.25         0.9412       -45.2329       1.081905        -999.25              1
      6477.5000         8.0423        29.6571         0.2211        -999.25        -999.25         0.8055         0.7862        -999.25         0.9264       -45.3635      0.9956093        -999.25              1
      6478.0000           8.05        30.5818         0.2218        -999.25        -999.25         0.8069         0.7924        -999.25         0.9842       -45.5543      0.8491135        -999.25              1
      6478.5000         8.0451        31.1689         0.2224        -999.25        -999.25         0.8096         0.7998        -999.25         1.0217       -45.5818      0.8659134        -999.25              1
      6479.0000         8.0334        31.7284         0.2231        -999.25        -999.25         0.8149         0.8133        -999.25         0.9749        -45.542       0.950016        -999.25              1
      6479.5000          8.022        32.3677         0.2238        -999.25        -999.25          0.828         0.8152        -999.25          0.966       -45.5259      0.9857254        -999.25              1
      6480.0000         8.0045        33.1639         0.2245        -999.25        -999.25         0.8379         0.8194        -999.25         0.9792       -45.4844       1.027225        -999.25              1
      6480.5000        -999.25        -999.25        -999.25        -999.25        -999.25         0.8488         0.8195        -999.25          1.036       -45.3538       1.157825        -999.25              1
      6481.0000        -999.25        -999.25        -999.25        -999.25        -999.25         0.8589         0.8222        -999.25         1.0282       -45.1339       1.377728        -999.25              1
      6481.5000        -999.25        -999.25        -999.25        -999.25        -999.25         0.8651         0.8261        -999.25         1.0215       -44.9911       1.520527        -999.25              1
      6482.0000        -999.25        -999.25        -999.25        -999.25        -999.25          0.869         0.8268        -999.25         0.9803       -44.9977       1.513927        -999.25              1
      6482.5000        -999.25        -999.25        -999.25        -999.25        -999.25         0.8756          0.818        -999.25         0.9413       -45.2469       1.264729        -999.25              1
      6483.0000        -999.25        -999.25        -999.25        -999.25        -999.25         0.8748         0.8134        -999.25         0.9794       -45.6882      0.8234253        -999.25              1
      6483.5000        -999.25        -999.25        -999.25        -999.25        -999.25         0.8734         0.8129        -999.25         1.0146       -45.8913       0.620327        -999.25              1
