#------------------------------------------------------------------------------
# Created by    : vladimir.rabinovich
# Created on    : 09/19/2023 17:20:04
#------------------------------------------------------------------------------
~Version Information Section
VERS.           2.0     :   CWLS log ASCII Standard - VERSION 2.0
WRAP.           NO      :   One line per depth step
~Well Information Section
#MNEM       .UNIT                                         VALUE :DESCRIPTION
#------------------------------------------------------------------------------
STRT        .FT                                             723 :START DEPTH
STOP        .FT                                            8219 :STOP DEPTH
STEP        .FT                                             0.5 :STEP      
NULL        .                                           -999.25 :NULL      
COMP        .                                    MOBIL OIL CORP :COMPANY   
WELL        .                               OCS G02338 ST00BP00 :WELL      
FLD         .                                           WILDCAT :FIELD     
LOC         .                                                   :LOCATION  
CNTY        .                             GALVESTON LARGE BLOCK :LOCATION  
STAT        .                                             TEXAS :STATE     
CTRY        .                                     UNITED STATES :COUNTRY   
SRVC        .                                                   :SERVICE COMPANY
DATE        .                             9/13/2023 11:18:53 AM :LOG DATE  
API         .                                    42706400200000 :API NUMBER
UWI         .                                    42706400200000 :UNIQUE WELL ID
XCOORD      .                                  941616.333010477 :SURFACE X 
YCOORD      .                                  10405518.1254327 :SURFACE Y 
LAT         .                                         28.655687 :LATITUDE  
LON         .                                        -95.179294 :LONGITUDE 
ELEV        .FT                                              84 :ELEVATION VALUE
ELEV_TYPE   .                                                KB :ELEVATION REFERENCE TYPE
~Curve Information Section
#MNEM       .UNIT                                      API CODE :CURVE DESCRIPTION
#------------------------------------------------------------------------------
DEPT        .FT                                                 :DEPTH     
ASFL        .OHMM                                               :          
CALI        .IN                                                 :          
CILD        .MMHO                                               :          
DPHI        .%                                                  :          
DT          .US/F                                               :          
GR          .GAPI                                               :          
GR_1        .GAPI                                               :          
GR_NORM     .GAPI                                               :GammaRay Normalized
ILD         .OHMM                                               :          
NPHI        .DEC                                                :          
SP          .MV                                                 :          
SP_NORM     .MV                                                 :SP Normalized
VSH_GR      .V/V                                                :Volume of Shale from GR
VSH_SP      .V/V                                                :Volume of Shale from SP
~A        DEPTH           ASFL           CALI           CILD           DPHI             DT             GR           GR_1        GR_NORM            ILD           NPHI             SP        SP_NORM         VSH_GR         VSH_SP
# ...
       741.0000         1.3448         14.566       637.5098        -999.25       147.7187        -999.25        -999.25        -999.25         1.7586        -999.25          44.37      -5.845402        -999.25      0.7981083
       741.5000         1.3442        14.5816       639.1289        -999.25       178.5881        -999.25        -999.25        -999.25          1.753        -999.25        43.1622      -6.535072        -999.25       0.769372
       742.0000         1.3435        14.5367       640.9492        -999.25       175.1458        -999.25        -999.25        -999.25         1.7475        -999.25        42.8276      -6.351551        -999.25      0.7770187
       742.5000         1.3429        14.4812       643.4678        -999.25       175.0671        -999.25        -999.25        -999.25         1.7419        -999.25        43.5948       -6.20023        -999.25      0.7833238
       743.0000         1.3436        14.4682       645.9854        -999.25       181.0476        -999.25        -999.25        -999.25         1.7363        -999.25         43.322      -7.440197        -999.25      0.7316585
       743.5000         1.3453        14.6554       648.5029        -999.25       180.9431        -999.25        -999.25        -999.25         1.7309        -999.25         40.639      -11.09037        -999.25      0.5795681
       744.0000         1.3469        14.8548       651.0205        -999.25       177.2764        -999.25        -999.25        -999.25         1.7363        -999.25        38.1472      -14.54933        -999.25      0.4354445
       744.5000         1.3486        14.8698       652.9268        -999.25       175.0986        -999.25        -999.25        -999.25         1.7417        -999.25        36.8893       -16.7744        -999.25      0.3427334
       745.0000         1.3502        14.8148       654.1475        -999.25       175.0547        -999.25        -999.25        -999.25          1.747        -999.25         37.712      -16.91887        -999.25      0.3367138
       745.5000         1.3536        14.7916       645.0879        -999.25       175.9058        -999.25        -999.25        -999.25         1.7524        -999.25        38.6531      -16.94494        -999.25      0.3356276
       746.0000         1.3572        14.7683       628.2217        -999.25       180.9829        -999.25        -999.25        -999.25         1.7646        -999.25        38.5137      -18.05151        -999.25      0.2895206
       746.5000         1.3607        14.5872       615.1328        -999.25         181.75        -999.25        -999.25        -999.25         1.7796        -999.25        40.6995      -16.83287        -999.25      0.3402969
       747.0000         1.3643        14.4124       607.1182        -999.25       175.2502        -999.25        -999.25        -999.25         1.7947        -999.25         48.062      -10.43754        -999.25      0.6067691
       747.5000         1.3679        14.3147       599.1045        -999.25       173.4324        -999.25        -999.25        -999.25         1.8097        -999.25        62.6272       3.160492        -999.25              1
       748.0000         1.3719        14.3079       591.0889        -999.25       168.7424        -999.25        -999.25        -999.25         1.8248        -999.25        65.7644       5.330517        -999.25              1
       748.5000         1.3762        14.3963       580.0752        -999.25       175.3594        -999.25        -999.25        -999.25         1.8396        -999.25        66.1593       4.758255        -999.25              1
       749.0000         1.3804        14.4469       564.6504        -999.25       174.8816        -999.25        -999.25        -999.25         1.8535        -999.25        66.0032       3.634983        -999.25              1
       749.5000         1.3847        14.4296       553.3379        -999.25        171.031        -999.25        -999.25        -999.25         1.8674        -999.25        66.0188       2.683414        -999.25              1
       750.0000          1.389        14.4645       549.2393        -999.25       165.0603        -999.25        -999.25        -999.25         1.8813        -999.25        66.9958       2.693245        -999.25              1
       750.5000         1.3933         14.547       545.1406        -999.25       166.6445        -999.25        -999.25        -999.25         1.8952        -999.25        68.9647       3.694977        -999.25              1
       751.0000         1.3978        14.6374        541.042        -999.25       172.1436        -999.25        -999.25        -999.25         1.9091        -999.25        70.7991       4.562218        -999.25              1
       751.5000         1.4027        14.7409       537.1211        -999.25       174.7339        -999.25        -999.25        -999.25         1.9231        -999.25        71.3213       4.117241        -999.25              1
       752.0000         1.4077        14.7533       534.1426        -999.25       170.5117        -999.25        -999.25        -999.25         1.9366        -999.25         70.704       2.532776        -999.25              1
       752.5000         1.4126        14.7453       531.1631        -999.25       172.0896        -999.25        -999.25        -999.25         1.9485        -999.25        71.1158       1.977409        -999.25              1
       753.0000         1.4175        14.7373       528.1855        -999.25       174.8611        -999.25        -999.25        -999.25         1.9604        -999.25        72.0314       1.925842        -999.25              1
       753.5000         1.4225        14.7293       525.2061        -999.25       167.4829        -999.25        -999.25        -999.25         1.9723        -999.25        72.5242       1.451469        -999.25              1
       754.0000         1.4268        14.7213       522.1152        -999.25       167.5061        -999.25        -999.25        -999.25         1.9842        -999.25        71.9589    -0.08099365        -999.25              1
       754.5000         1.4295        14.7145       519.0195        -999.25       161.4255        -999.25        -999.25        -999.25          1.996        -999.25        71.2318      -1.775269        -999.25      0.9676971
       755.0000         1.4323        14.7111       515.9248        -999.25       160.7163        -999.25        -999.25        -999.25         2.0079        -999.25        72.2721      -1.702133        -999.25      0.9707444
       755.5000          1.435        14.7077       512.8291        -999.25       165.4995        -999.25        -999.25        -999.25         2.0198        -999.25        72.9203      -2.021095        -999.25      0.9574544
       756.0000         1.4377        14.7043       510.1714        -999.25       167.0701        -999.25        -999.25        -999.25         2.0309        -999.25         72.486       -2.99099        -999.25      0.9170421
       756.5000         1.4405        14.7009       509.7749        -999.25       164.5789        -999.25        -999.25        -999.25         2.0418        -999.25        72.4525      -3.036201        -999.25      0.9151583
       757.0000         1.4432        14.7008       509.3784        -999.25       173.1763        -999.25        -999.25        -999.25         2.0528        -999.25         72.874      -2.626411        -999.25      0.9322329
       757.5000          1.446        14.7017       508.9819        -999.25       171.2661        -999.25        -999.25        -999.25         2.0638        -999.25        73.4324      -2.079712        -999.25       0.955012
       758.0000         1.4477        14.7027       508.5854        -999.25       169.2278        -999.25        -999.25        -999.25         2.0748        -999.25        74.0164      -1.507423        -999.25      0.9788573
       758.5000         1.4492         14.704        508.189        -999.25       163.4709        -999.25        -999.25        -999.25         2.0858        -999.25        74.7689     -0.7666397        -999.25              1
