#------------------------------------------------------------------------------
# Created by    : vladimir.rabinovich
# Created on    : 09/19/2023 17:20:37
#------------------------------------------------------------------------------
~Version Information Section
VERS.           2.0     :   CWLS log ASCII Standard - VERSION 2.0
WRAP.           NO      :   One line per depth step
~Well Information Section
#MNEM       .UNIT                                         VALUE :DESCRIPTION
#------------------------------------------------------------------------------
STRT        .FT                                             254 :START DEPTH
STOP        .FT                                            9030 :STOP DEPTH
STEP        .FT                                             0.5 :STEP      
NULL        .                                           -999.25 :NULL      
COMP        .                                    MOBIL OIL CORP :COMPANY   
WELL        .                                OCS 00724 ST00BP00 :WELL      
FLD         .                                           WILDCAT :FIELD     
LOC         .                                                   :LOCATION  
CNTY        .                             GALVESTON LARGE BLOCK :LOCATION  
STAT        .                                             TEXAS :STATE     
CTRY        .                                     UNITED STATES :COUNTRY   
SRVC        .                                                   :SERVICE COMPANY
DATE        .                             9/13/2023 11:19:25 AM :LOG DATE  
API         .                                    42706000340000 :API NUMBER
UWI         .                                    42706000340000 :UNIQUE WELL ID
XCOORD      .                                  1011870.95166473 :SURFACE X 
YCOORD      .                                   10400634.765487 :SURFACE Y 
LAT         .                                         28.645607 :LATITUDE  
LON         .                                        -94.960058 :LONGITUDE 
ELEV        .FT                                              34 :ELEVATION VALUE
ELEV_TYPE   .                                                KB :ELEVATION REFERENCE TYPE
~Curve Information Section
#MNEM       .UNIT                                      API CODE :CURVE DESCRIPTION
#------------------------------------------------------------------------------
DEPT        .FT                                                 :DEPTH     
ASN         .OHMM                                               :          
CALI        .IN                                                 :          
CILD        .MMHO                                               :          
DT          .US/F                                               :          
ILD         .OHMM                                               :          
SP          .MV                                                 :          
SP_NORM     .MV                                                 :SP Normalized
VSH_SP      .V/V                                                :Volume of Shale from SP
~A        DEPTH            ASN           CALI           CILD             DT            ILD             SP        SP_NORM         VSH_SP
# ...
      6095.0000         0.7099         10.423       1760.598       114.6378         0.6429       -53.1158      -6.471798      0.8390648
      6095.5000         0.7033        10.4118       1764.576       110.6447         0.6425       -53.5637      -6.920963       0.825854
      6096.0000         0.6974        10.4459       1766.979       106.6515         0.6424       -53.3733      -6.731823       0.831417
      6096.5000         0.6946          10.48       1768.848       102.6537          0.643        -53.028      -6.387787      0.8415357
      6097.0000         0.6936        10.5143       1770.721        105.412         0.6436       -52.5156      -5.876648      0.8565692
      6097.5000         0.6939        10.5491       1771.016       108.5669         0.6442       -52.0038      -5.366108      0.8715851
      6098.0000         0.6952        10.5742       1770.154       111.7218         0.6448       -51.4916      -4.855171      0.8866126
      6098.5000         0.6973        10.5778       1769.295       111.3511         0.6454       -51.1292      -4.494034      0.8972343
      6099.0000         0.6995        10.5815       1766.178       109.9799         0.6459       -51.0488      -4.414898      0.8995618
      6099.5000         0.7007         10.529       1759.193       109.7928         0.6461       -51.0797       -4.44706      0.8986159
      6100.0000         0.6993        10.4632       1752.203       114.4666         0.6451       -51.1105      -4.479122      0.8976729
      6100.5000          0.698        10.4066       1743.391       118.0651          0.644       -50.8871      -4.256985      0.9042063
      6101.0000         0.6967        10.4531       1732.637       117.9406          0.643       -50.6363      -4.007442      0.9115458
      6101.5000         0.6955        10.5144       1727.713       117.2823          0.642       -50.3252      -3.697605      0.9206586
      6102.0000         0.6974        10.6292       1724.184       115.7714          0.641       -49.9974      -3.371067      0.9302627
      6102.5000         0.7035        10.8942       1725.527       113.8401          0.639       -49.6697      -3.044632      0.9398637
      6103.0000         0.7095        11.0598       1728.283       108.7291         0.6368       -49.6103      -2.986492      0.9415737
      6103.5000         0.7124         11.137       1731.041       113.2272         0.6346       -49.5993      -2.976757      0.9418601
      6104.0000         0.7083        11.2284       1733.797       115.7229         0.6324       -49.5818      -2.960518      0.9423377
      6104.5000         0.7032        11.1924       1737.504       112.8396         0.6302       -49.5559      -2.935883      0.9430623
      6105.0000         0.6982        11.1264       1744.307       112.2601          0.628         -49.53       -2.91124      0.9437871
      6105.5000         0.6931         11.043       1751.105       114.4644         0.6229       -49.5041      -2.886604      0.9445117
      6106.0000          0.689         10.982       1757.908       114.8336         0.6177       -49.5479      -2.931667      0.9431863
      6106.5000         0.6877        10.9642       1764.723       115.0116         0.6125       -49.6075      -2.992527      0.9413962
      6107.0000          0.687        10.9783       1771.617       115.3444         0.6144       -49.7004      -3.086693      0.9386267
      6107.5000         0.6872         11.016       1778.506       116.5217         0.6163       -49.9075      -3.295055      0.9324984
      6108.0000         0.6873        11.0625       1782.318       119.2417         0.6183       -50.0499      -3.438717       0.928273
      6108.5000         0.6874        11.1091         1780.9       121.9595         0.6202        -50.018      -3.408077      0.9291742
      6109.0000         0.6876        11.1622       1773.916       124.6771         0.6225       -49.9785      -3.369839      0.9302989
      6109.5000         0.6877        11.2209       1767.311       126.9813         0.6269       -49.9167      -3.309299      0.9320794
      6110.0000         0.6879        11.2653       1764.078       126.9191         0.6313        -49.855      -3.248863       0.933857
      6110.5000         0.6887        11.2474       1769.484       125.8365         0.6357       -49.7933      -3.188427      0.9356345
      6111.0000         0.6904        11.2366       1773.389       121.6553         0.6375       -49.6708      -3.067188      0.9392003
      6111.5000         0.6921        11.2709       1775.092       114.5702         0.6339       -49.4609      -2.858551      0.9453368
      6112.0000         0.6932        11.3101       1776.902       107.4762         0.6302       -49.2512      -2.650112      0.9514673
      6112.5000         0.6908         11.359        1779.08       109.8063         0.6266       -49.0413      -2.441475      0.9576037
      6113.0000         0.6883         11.408        1781.26       114.4485          0.623       -48.7099      -2.111336      0.9673136
      6113.5000          0.685        11.4013       1792.859       119.0907         0.6224        -48.326      -1.728699      0.9785677
      6114.0000         0.6816        11.3112       1805.855       123.7329         0.6221       -47.9099      -1.313862      0.9907688
      6114.5000         0.6782        11.1986       1817.324       123.5256         0.6218       -47.6162      -1.021423      0.9993699
      6115.0000         0.6753        11.0303       1824.354       121.2902         0.6215       -47.7215      -1.127987      0.9962357
      6115.5000         0.6738        11.0371       1805.131       119.0524         0.6219       -47.8495      -1.257248      0.9924339
      6116.0000         0.6722        11.1878       1781.291        116.817         0.6275       -47.9982      -1.407207      0.9880233
      6116.5000          0.688        11.3778       1760.258       114.5815         0.6332        -48.147       -1.55727      0.9836097
      6117.0000         0.6996        11.5489       1743.957       112.3461         0.6388       -48.2957      -1.707233       0.979199
      6117.5000          0.711         11.705       1730.043       116.2197         0.6445       -48.4459      -1.858696      0.9747443
      6118.0000         0.7207        11.8131        1717.15       120.5105         0.6501       -48.5965      -2.010559      0.9702777
      6118.5000         0.7276        11.7065       1707.313       124.8011         0.6536       -48.7473      -2.162621      0.9658053
      6119.0000         0.7344        11.5632       1697.486        126.989          0.656       -48.8978      -2.314384      0.9613416
      6119.5000         0.7326        11.4471        1714.41       127.0074         0.6584       -48.8736      -2.291443      0.9620164
      6120.0000         0.7292        11.3107       1767.707       124.7966         0.6608       -48.8181      -2.237206      0.9636116
      6120.5000         0.7259        11.1952       1823.266       121.5336         0.6558       -48.7625      -2.182869      0.9652097
      6121.0000         0.7188         11.275       1882.857       119.2688         0.6467       -48.6923       -2.11393      0.9672374
      6121.5000         0.7038        11.3549       1922.908       120.0879         0.6376       -48.5677      -1.990593      0.9708649
      6122.0000         0.6888        11.4146       1970.701       121.6079         0.6286       -48.4431      -1.867256      0.9744925
      6122.5000         0.6739         11.471           2006       122.3966         0.6196       -48.3185      -1.743919        0.97812
      6123.0000         0.6568        11.5294       2030.313       124.9182         0.6122       -48.1938      -1.620483      0.9817505
      6123.5000         0.6413        11.4864       2055.512       127.4399         0.6048        -48.162      -1.589939      0.9826488
      6124.0000         0.6322        11.4411        2064.09       129.9614         0.5974        -48.166      -1.595203       0.982494
