#------------------------------------------------------------------------------
# Created by    : vladimir.rabinovich
# Created on    : 09/19/2023 17:20:40
#------------------------------------------------------------------------------
~Version Information Section
VERS.           2.0     :   CWLS log ASCII Standard - VERSION 2.0
WRAP.           NO      :   One line per depth step
~Well Information Section
#MNEM       .UNIT                                         VALUE :DESCRIPTION
#------------------------------------------------------------------------------
STRT        .FT                                             546 :START DEPTH
STOP        .FT                                            8737 :STOP DEPTH
STEP        .FT                                             0.5 :STEP      
NULL        .                                           -999.25 :NULL      
COMP        .                                      SHELL OIL CO :COMPANY   
WELL        .                                OCS 00702 ST00BP00 :WELL      
FLD         .                                           WILDCAT :FIELD     
LOC         .                                                   :LOCATION  
CNTY        .                             GALVESTON LARGE BLOCK :LOCATION  
STAT        .                                             TEXAS :STATE     
CTRY        .                                     UNITED STATES :COUNTRY   
SRVC        .                                                   :SERVICE COMPANY
DATE        .                             9/13/2023 11:19:42 AM :LOG DATE  
API         .                                    42706000140000 :API NUMBER
UWI         .                                    42706000140000 :UNIQUE WELL ID
XCOORD      .                                  1138683.88536091 :SURFACE X 
YCOORD      .                                  10533063.1188688 :SURFACE Y 
LAT         .                                         29.014964 :LATITUDE  
LON         .                                        -94.570199 :LONGITUDE 
ELEV        .FT                                              72 :ELEVATION VALUE
ELEV_TYPE   .                                                KB :ELEVATION REFERENCE TYPE
~Curve Information Section
#MNEM       .UNIT                                      API CODE :CURVE DESCRIPTION
#------------------------------------------------------------------------------
DEPT        .FT                                                 :DEPTH     
ASN         .OHMM                                               :          
CILD        .MMHO                                               :          
ILD         .OHMM                                               :          
SP          .MV                                                 :          
SP_NORM     .MV                                                 :SP Normalized
VSH_SP      .V/V                                                :Volume of Shale from SP
~A        DEPTH            ASN           CILD            ILD             SP        SP_NORM         VSH_SP
# ...
      2712.0000         0.7912        -999.25         0.7439       -46.1092      -1.459351              1
      2712.5000         0.7905        -999.25         0.7443       -46.2634      -1.621727              1
      2713.0000         0.7899        -999.25         0.7447       -45.8185      -1.185001              1
      2713.5000         0.7878        -999.25         0.7451       -45.3737     -0.7483788              1
      2714.0000         0.7839        -999.25         0.7456       -44.9289     -0.3117561              1
      2714.5000           0.78        -999.25          0.746       -44.4838      0.1251678              1
      2715.0000         0.7762        -999.25         0.7464       -44.0389      0.5618935              1
      2715.5000         0.7723        -999.25         0.7468       -44.2619      0.3307152              1
      2716.0000         0.7684        -999.25         0.7473       -44.8383     -0.2538605              1
      2716.5000         0.7645        -999.25         0.7477       -45.4146     -0.8383369              1
      2717.0000         0.7619        -999.25         0.7486       -45.9907      -1.422615              1
      2717.5000         0.7617        -999.25         0.7499       -47.1155      -2.555592      0.9884252
      2718.0000         0.7615        -999.25         0.7512       -47.1917      -2.639965      0.9866674
      2718.5000         0.7639        -999.25         0.7524       -46.7701      -2.226543      0.9952803
      2719.0000         0.7685        -999.25         0.7537       -46.3486      -1.813217              1
      2719.5000         0.7732        -999.25          0.755       -45.9816      -1.454399              1
      2720.0000         0.7779        -999.25         0.7563       -45.7369      -1.217873              1
      2720.5000         0.7826        -999.25         0.7576       -45.4923     -0.9814453              1
      2721.0000         0.7826        -999.25         0.7588       -45.2476     -0.7449265              1
      2721.5000         0.7782        -999.25         0.7595       -45.0031     -0.5086021              1
      2722.0000         0.7734        -999.25         0.7601       -44.7585     -0.2721748              1
      2722.5000         0.7685        -999.25         0.7607       -44.5138    -0.03565598              1
      2723.0000         0.7649        -999.25         0.7613       -44.6096     -0.1396294              1
      2723.5000         0.7646        -999.25         0.7619       -44.7376     -0.2758064              1
      2724.0000         0.7642        -999.25         0.7625       -45.1052     -0.6515846              1
      2724.5000         0.7623        -999.25         0.7644       -45.5823      -1.136856              1
      2725.0000         0.7605        -999.25         0.7677       -46.0596      -1.622337              1
      2725.5000         0.7586        -999.25          0.771       -46.5367      -2.107613      0.9977581
      2726.0000         0.7569        -999.25         0.7743        -47.014       -2.59309       0.987644
      2726.5000         0.7551        -999.25         0.7776       -47.2202      -2.807465      0.9831778
      2727.0000         0.7534        -999.25          0.781        -47.342      -2.937439        0.98047
      2727.5000         0.7517        -999.25         0.7896        -47.447      -3.050617      0.9781122
      2728.0000         0.7499        -999.25         0.7981       -47.4387      -3.050495      0.9781147
      2728.5000         0.7482        -999.25         0.8067       -47.4305      -3.050472      0.9781151
      2729.0000         0.7586        -999.25         0.8153       -47.4223      -3.050446      0.9781157
      2729.5000           0.77        -999.25         0.8238       -47.4141      -3.050423      0.9781162
      2730.0000         0.7843        -999.25         0.8324       -47.3605      -3.005001      0.9790625
      2730.5000         0.7986        -999.25         0.8409       -47.3017      -2.954376      0.9801171
      2731.0000         0.8129        -999.25         0.8495       -47.1451       -2.80595      0.9832094
      2731.5000         0.8262        -999.25          0.858       -46.8841      -2.553131      0.9884765
      2732.0000         0.8388        -999.25         0.8666       -46.6229      -2.300102      0.9937479
      2732.5000         0.8514        -999.25         0.8752       -46.3617      -2.047081      0.9990191
      2733.0000          0.854        -999.25         0.8837       -46.1006      -1.794159              1
      2733.5000         0.8514        -999.25         0.8857       -45.8394      -1.541134              1
      2734.0000         0.8488        -999.25         0.8874       -45.9034      -1.613312              1
      2734.5000         0.8462        -999.25         0.8892       -46.3043      -2.022385      0.9995337
      2735.0000         0.8455        -999.25         0.8909        -46.705      -2.431267      0.9910153
      2735.5000         0.8461        -999.25         0.8927       -47.1058       -2.84024       0.982495
      2736.0000         0.8466        -999.25         0.8944       -47.5066      -3.249214      0.9739747
      2736.5000         0.8472        -999.25           0.89       -47.9073      -3.658092      0.9654564
      2737.0000         0.8488        -999.25         0.8832       -48.3082      -4.067169       0.956934
      2737.5000         0.8507        -999.25         0.8764        -48.554      -4.321148      0.9516428
      2738.0000         0.8513        -999.25         0.8696       -48.7454      -4.520721       0.947485
      2738.5000         0.8456        -999.25         0.8628        -48.502      -4.285496      0.9523855
      2739.0000           0.84        -999.25          0.856       -47.8353      -3.626976      0.9661047
      2739.5000         0.8343        -999.25         0.8492       -47.1689       -2.96875      0.9798177
      2740.0000         0.8287        -999.25         0.8424       -46.5609      -2.368927       0.992314
      2740.5000          0.823        -999.25         0.8355       -46.0579      -1.874104              1
      2741.0000         0.8173        -999.25         0.8297        -45.555      -1.379379              1
      2741.5000         0.8113        -999.25         0.8249       -45.4694      -1.301956              1
      2742.0000         0.8051        -999.25         0.8202       -46.0457      -1.886433              1
      2742.5000         0.7989        -999.25         0.8155       -46.6221      -2.471008      0.9901873
      2743.0000         0.7992        -999.25         0.8107       -47.5782      -3.435287      0.9700982
      2743.5000         0.8006        -999.25          0.806       -49.4309      -5.296162        0.93133
      2744.0000         0.8021        -999.25         0.8013       -50.3791      -6.252541      0.9114054
      2744.5000         0.8027        -999.25         0.7966        -50.665      -6.546616      0.9052789
      2745.0000          0.802        -999.25         0.7918       -50.9585      -6.848289       0.898994
      2745.5000         0.8008        -999.25         0.7898       -51.2521       -7.15007      0.8927069
      2746.0000         0.7971        -999.25         0.7899       -51.5455      -7.451645      0.8864241
      2746.5000         0.7934        -999.25         0.7899        -51.839      -7.753323      0.8801391
      2747.0000         0.7897        -999.25           0.79       -52.1165      -8.038998      0.8741875
      2747.5000          0.786        -999.25         0.7901       -52.3857      -8.316372      0.8684089
      2748.0000         0.7823        -999.25         0.7901       -52.6462      -8.585049      0.8628115
      2748.5000         0.7787        -999.25         0.7902       -52.3124      -8.259426      0.8695953
      2749.0000         0.7752        -999.25         0.7902       -51.9787      -7.933899      0.8763771
      2749.5000         0.7729        -999.25         0.7903        -51.645      -7.608379      0.8831587
