#------------------------------------------------------------------------------
# Created by    : vladimir.rabinovich
# Created on    : 09/19/2023 17:22:26
#------------------------------------------------------------------------------
~Version Information Section
VERS.           2.0     :   CWLS log ASCII Standard - VERSION 2.0
WRAP.           NO      :   One line per depth step
~Well Information Section
#MNEM       .UNIT                                         VALUE :DESCRIPTION
#------------------------------------------------------------------------------
STRT        .FT                                            3450 :START DEPTH
STOP        .FT                                            9344 :STOP DEPTH
STEP        .FT                                             0.5 :STEP      
NULL        .                                           -999.25 :NULL      
COMP        .                                  W&T OFFSHORE INC :COMPANY   
WELL        .                               OCS G04565 ST00BP00 :WELL      
FLD         .                              GALVESTON BLOCK 0303 :FIELD     
LOC         .                                                   :LOCATION  
CNTY        .                             GALVESTON LARGE BLOCK :LOCATION  
STAT        .                                             TEXAS :STATE     
CTRY        .                                     UNITED STATES :COUNTRY   
SRVC        .                                                   :SERVICE COMPANY
DATE        .                             9/13/2023 11:19:39 AM :LOG DATE  
API         .                                    42706403900000 :API NUMBER
UWI         .                                    42706403900000 :UNIQUE WELL ID
XCOORD      .                                  983096.827540607 :SURFACE X 
YCOORD      .                                  10485968.3003259 :SURFACE Y 
LAT         .                                        28.8789082 :LATITUDE  
LON         .                                       -95.0543314 :LONGITUDE 
ELEV        .FT                                              90 :ELEVATION VALUE
ELEV_TYPE   .                                                KB :ELEVATION REFERENCE TYPE
~Curve Information Section
#MNEM       .UNIT                                      API CODE :CURVE DESCRIPTION
#------------------------------------------------------------------------------
DEPT        .FT                                                 :DEPTH     
CDER        .MMHO                                               :          
DCAL        .IN                                                 :          
DPHI        .DEC                                                :          
DRHO        .G/CC                                               :          
DTLN        .US/F                                               :          
GR          .GAPI                                               :          
GR_NORM     .GAPI                                               :GammaRay Normalized
IDER        .OHMM                                               :          
IMER        .OHMM                                               :          
NPOR        .DEC                                                :          
RWA         .OHMM                                               :          
SFLA        .OHMM                                               :          
SP          .MV                                                 :          
SP_NORM     .MV                                                 :SP Normalized
TENS        .LB                                                 :          
VSH_GR      .V/V                                                :Volume of Shale from GR
VSH_SP      .V/V                                                :Volume of Shale from SP
~A        DEPTH           CDER           DCAL           DPHI           DRHO           DTLN             GR        GR_NORM           IDER           IMER           NPOR            RWA           SFLA             SP        SP_NORM           TENS         VSH_GR         VSH_SP
# ...
      3540.0000        -999.25        -999.25        -999.25        -999.25        -999.25         32.013       39.49737        -999.25        -999.25          0.803        -999.25        -999.25        -999.25        -999.25        -999.25      0.1382419        -999.25
      3540.5000        -999.25        -999.25        -999.25        -999.25        -999.25         30.653       38.16739        -999.25        -999.25          0.805        -999.25        -999.25        -999.25        -999.25        -999.25      0.1099444        -999.25
      3541.0000        -999.25        -999.25        -999.25        -999.25        -999.25         27.639       35.21992        -999.25        -999.25          0.793        -999.25        -999.25        -999.25        -999.25        -999.25     0.04723228        -999.25
      3541.5000        -999.25        -999.25        -999.25        -999.25        -999.25         25.575       33.20148        -999.25        -999.25          0.784        -999.25        -999.25        -999.25        -999.25        -999.25    0.004286746        -999.25
      3542.0000        -999.25        -999.25          0.418        -999.25        -999.25           28.8       36.35529        -999.25        -999.25          0.852        -999.25        -999.25        -999.25        -999.25        -999.25     0.07138922        -999.25
      3542.5000        -999.25        -999.25          0.551        -999.25        -999.25         33.479       40.93101        -999.25        -999.25          0.914        -999.25        -999.25        -999.25        -999.25        -999.25      0.1687449        -999.25
      3543.0000        -999.25        -999.25          0.585        -999.25        -999.25         39.909       47.21907        -999.25        -999.25          0.771        -999.25          0.171         12.984       5.291692        -999.25      0.3025334              1
      3543.5000        -999.25        -999.25          0.538        -999.25        -999.25         46.449       53.61471        -999.25        -999.25          0.698        -999.25          0.237          9.484       1.791692        -999.25      0.4386108              1
      3544.0000        -999.25           2.48          0.461          -0.13        -999.25         51.398       58.45446        -999.25        -999.25          0.573        -999.25          0.385          7.172      -0.520308        -999.25      0.5415842       0.992567
      3544.5000        -999.25           2.64          0.416         -0.001        -999.25         51.984       59.02752        -999.25        -999.25          0.522        -999.25          0.646            6.4      -1.292308        -999.25      0.5537771      0.9815385
      3545.0000       1467.567            2.8          0.392              0        -999.25         51.911       58.95613          0.681          0.955          0.503          0.178          0.751            6.4      -1.292308        -999.25      0.5522582      0.9815385
      3545.5000       2402.691           2.87          0.387              0        -999.25         51.349       58.40654          0.416          0.379          0.487          0.142          0.832          6.296      -1.396308        -999.25      0.5405647      0.9800528
      3546.0000       2648.305              3          0.382          0.001        153.348         50.306       57.38657          0.378          0.311           0.49          0.113          0.852            5.8      -1.892308        -999.25      0.5188631       0.972967
      3546.5000       2596.054           2.84          0.376          0.001        148.745           49.1       56.20718          0.385            0.3          0.487          0.116          0.865            5.4      -2.292308        -999.25      0.4937699      0.9672527
      3547.0000        1745.81           2.66          0.368              0        145.631           48.3       55.42485          0.573          0.473          0.482          0.156          0.868            5.1      -2.592308        -999.25      0.4771244       0.962967
      3547.5000       1179.384           2.46          0.362         -0.002        146.107         50.511       57.58704          0.848          0.669          0.479          0.273          0.854            5.1      -2.592308        -999.25      0.5231286       0.962967
      3548.0000        576.535            2.2          0.355         -0.004        146.153         55.905       62.86197          1.735          0.909          0.488          0.502          0.826            5.2      -2.492308        -999.25      0.6353611      0.9643956
      3548.5000        463.349            2.1          0.347         -0.005        145.238         62.458       69.27032          2.158          0.993          0.525          0.508          0.793            5.3      -2.392308        -999.25       0.771709      0.9658242
      3549.0000        455.913            2.1          0.345         -0.004        145.596         67.313       74.01816          2.193          0.948          0.618          0.502          0.758            5.4      -2.292308        -999.25      0.8727267      0.9672527
      3549.5000       1071.811           2.15          0.352         -0.002        147.935         66.793       73.50963          0.933          0.644          0.634          0.349          0.723          5.592      -2.100308        -999.25       0.861907      0.9699956
      3550.0000       1615.248           2.22          0.362              0        148.065         64.468       71.23595          0.619          0.549          0.653          0.226          0.708          5.689      -2.003308        -999.25      0.8135309      0.9713813
      3550.5000       1725.923          2.284          0.371          0.001        147.117         62.302       69.11776          0.579           0.53          0.638          0.186          0.707          5.708      -1.984308        -999.25       0.768463      0.9716527
      3551.0000       1668.613          2.348          0.367          0.002        146.203         63.416       70.20718          0.599          0.567           0.59          0.182          0.714            5.7      -1.992308        -999.25      0.7916421      0.9715385
      3551.5000       1519.064          2.405          0.363          0.001        145.286         64.408       71.17727          0.658          0.659          0.539          0.195          0.715          5.503      -2.189308        -999.25      0.8122823      0.9687242
      3552.0000       1409.046          2.365          0.358         -0.003        144.335           64.5       71.26724           0.71          0.719           0.52          0.206          0.715            5.2      -2.492308        -999.25      0.8141966      0.9643956
      3552.5000       1352.082          2.285          0.348         -0.011         143.67         64.486       71.25356           0.74          0.742          0.512          0.197           0.71          4.675      -3.017308        -999.25      0.8139056      0.9568956
      3553.0000       1348.982           2.17          0.339         -0.011        143.001         63.775       70.55825          0.741          0.705          0.493          0.179          0.702           4.25      -3.442308        -999.25      0.7991117      0.9508242
      3553.5000       1428.571           2.12          0.328         -0.011        142.062         62.163       68.98183            0.7          0.654          0.472          0.176          0.692          3.425      -4.267308        -999.25      0.7655709      0.9390385
      3554.0000        1460.92          2.085           0.32         -0.008        140.615         61.658       68.48798          0.684          0.628          0.485          0.188           0.69            2.3      -5.392308        -999.25      0.7550635       0.922967
      3554.5000       1442.377           2.08          0.314         -0.005        136.958         64.514       71.28093          0.693          0.629          0.525          0.199          0.694            1.1      -6.592308        -999.25      0.8144879      0.9058242
