#------------------------------------------------------------------------------
# Created by    : vladimir.rabinovich
# Created on    : 09/19/2023 17:20:04
#------------------------------------------------------------------------------
~Version Information Section
VERS.           2.0     :   CWLS log ASCII Standard - VERSION 2.0
WRAP.           NO      :   One line per depth step
~Well Information Section
#MNEM       .UNIT                                         VALUE :DESCRIPTION
#------------------------------------------------------------------------------
STRT        .FT                                             723 :START DEPTH
STOP        .FT                                            8219 :STOP DEPTH
STEP        .FT                                             0.5 :STEP      
NULL        .                                           -999.25 :NULL      
COMP        .                                    MOBIL OIL CORP :COMPANY   
WELL        .                               OCS G02338 ST00BP00 :WELL      
FLD         .                                           WILDCAT :FIELD     
LOC         .                                                   :LOCATION  
CNTY        .                             GALVESTON LARGE BLOCK :LOCATION  
STAT        .                                             TEXAS :STATE     
CTRY        .                                     UNITED STATES :COUNTRY   
SRVC        .                                                   :SERVICE COMPANY
DATE        .                             9/13/2023 11:18:53 AM :LOG DATE  
API         .                                    42706400200000 :API NUMBER
UWI         .                                    42706400200000 :UNIQUE WELL ID
XCOORD      .                                  941616.333010477 :SURFACE X 
YCOORD      .                                  10405518.1254327 :SURFACE Y 
LAT         .                                         28.655687 :LATITUDE  
LON         .                                        -95.179294 :LONGITUDE 
ELEV        .FT                                              84 :ELEVATION VALUE
ELEV_TYPE   .                                                KB :ELEVATION REFERENCE TYPE
~Curve Information Section
#MNEM       .UNIT                                      API CODE :CURVE DESCRIPTION
#------------------------------------------------------------------------------
DEPT        .FT                                                 :DEPTH     
ASFL        .OHMM                                               :          
CALI        .IN                                                 :          
CILD        .MMHO                                               :          
DPHI        .%                                                  :          
DT          .US/F                                               :          
GR          .GAPI                                               :          
GR_1        .GAPI                                               :          
GR_NORM     .GAPI                                               :GammaRay Normalized
ILD         .OHMM                                               :          
NPHI        .DEC                                                :          
SP          .MV                                                 :          
SP_NORM     .MV                                                 :SP Normalized
VSH_GR      .V/V                                                :Volume of Shale from GR
VSH_SP      .V/V                                                :Volume of Shale from SP
~A        DEPTH           ASFL           CALI           CILD           DPHI             DT             GR           GR_1        GR_NORM            ILD           NPHI             SP        SP_NORM         VSH_GR         VSH_SP
# ...
      6213.0000         0.6656        10.8305       1914.068        35.9559       111.9369        -999.25        86.7419       72.27332         0.3225         0.3596        24.4445      -55.49565      0.8356025       0.207205
      6213.5000         0.6809         10.592       1900.998         33.798        111.335        -999.25        92.4701        77.4287          0.351          0.338        46.1708      -33.77201      0.9452914      0.5175427
      6214.0000         0.6963        10.3319       1873.697        29.7375       111.1238        -999.25        96.7664       81.29537         0.3795         0.2974        64.0081      -15.93737              1      0.7723233
      6214.5000         0.7116        10.2627       1843.855        26.7116       112.2491        -999.25       100.6417       84.78314          0.408         0.2671        70.2853      -9.662827              1      0.8619596
      6215.0000          0.727        10.2089       1694.768        26.7664       114.1123        -999.25       103.6042       87.44939           0.44         0.2677        71.1744       -8.77639              1       0.874623
      6215.5000         0.7423        10.0685       1418.709         26.984       114.5197        -999.25       105.4214       89.08487         0.4743         0.2698        72.3165      -7.636955              1      0.8909006
      6216.0000         0.7578         9.8981       1142.256        26.6851       114.2466        -999.25       106.5237       90.07693         0.5086         0.2669        77.7531      -2.203011              1      0.9685284
      6216.5000         0.7735         9.7242       866.1963        26.1592       116.1993        -999.25       107.1309       90.62341         0.5429         0.2616        80.5209      0.5621262              1              1
      6217.0000         0.7893         9.5489        665.002        25.6502       117.8772        -999.25       107.6494       91.09007         0.5772         0.2565        83.0779        3.11647              1              1
      6217.5000          0.805         9.4723       618.4746        25.2191       118.9164        -999.25       107.8616       91.28105         0.6114         0.2522        84.7892       4.825111              1              1
      6218.0000         0.8207         9.4194       579.8447        25.0987       118.6226        -999.25       105.9221       89.53549         0.6399          0.251        86.0426       6.075851              1              1
      6218.5000         0.8363         9.3822       534.1064        25.1504       119.7241        -999.25       102.8193       86.74297         0.6683         0.2515        86.3188       6.349388              1              1
      6219.0000         0.8496         9.3599       511.7437        24.9396       121.8958        -999.25        99.4089       83.67361         0.6969         0.2494         86.459       6.486931              1              1
      6219.5000         0.8629         9.3329       498.0444        25.4621       123.3112        -999.25        97.1403       81.63187         0.7067         0.2546        86.4644        6.48967              1              1
      6220.0000         0.8762         9.3169       487.7881        25.8894       121.8809        -999.25        93.4543       78.31448         0.6786         0.2589        85.9937       6.016304      0.9641378              1
      6220.5000         0.8895         9.3715       480.3955        26.1059        112.876        -999.25        87.5588       73.00853         0.6505         0.2611        85.2952       5.315147      0.8512453              1
      6221.0000         0.9051         9.5412       472.4844        26.0454       103.8811        -999.25        79.7637       65.99294         0.6223         0.2605        83.1201        3.13739      0.7019775              1
      6221.5000         0.9231         9.7517       468.5288        25.9467        96.6771        -999.25        70.9155       58.02956         0.5942         0.2595         76.379      -3.606377      0.5325438      0.9484803
      6222.0000          0.941        10.0233        471.707         26.637        90.5081        -999.25        61.6047       49.64984         0.5661         0.2664        59.9208      -20.06723      0.3542519      0.7133253
      6222.5000          0.959        10.2755       484.8262        28.8986        92.2842        -999.25        48.5341        37.8863         0.5309          0.289        32.3413      -47.64939      0.1039638      0.3192944
      6223.0000         0.9777        10.4778       519.2471        34.3085        98.7567        -999.25        46.1301        35.7227         0.4915         0.3431        21.2798      -58.71355     0.05792975      0.1612349
      6223.5000         0.9967        10.6007       602.6768        38.3959       102.6074        -999.25        45.1533       34.84358         0.4521          0.384        14.4843      -65.51171     0.03922507     0.06411842
      6224.0000         1.0158         10.752       686.1563         41.189       106.1696        -999.25        43.2045       33.08966         0.4127         0.4119         10.759      -69.23967    0.001907592     0.01086186
      6224.5000         1.0168        10.8748       878.4395        41.6028       108.5751        -999.25        42.4258       32.38883         0.3738          0.416         8.8369      -71.16444              0              0
      6225.0000         1.0112        10.6716       1208.604        41.9921       107.5638        -999.25        42.6469       32.58782         0.3607         0.4199         7.6761      -72.32789              0              0
      6225.5000         1.0057        10.3879       1538.375        39.1721       108.5725        -999.25        43.2003       33.08588         0.3479         0.3917         7.0145      -72.99215    0.001827159              0
      6226.0000         0.9992        10.1143       1868.539        39.5663        109.927        -999.25         43.776       33.60401         0.3354         0.3957         6.9955      -73.01382     0.01285123              0
      6226.5000         0.9923          9.936        2180.34         39.632       109.9246        -999.25        44.2017       33.98714         0.3229         0.3963         7.0212      -72.99077     0.02100291              0
      6227.0000         0.9854        10.0077       2304.152        37.6569       108.7292        -999.25        44.5554       34.30547         0.3104         0.3766         6.4479      -73.56673     0.02777595              0
      6227.5000         0.9786        10.4747       2611.211        36.4977       109.3574        -999.25        43.2009       33.08642         0.2979          0.365         5.7609      -74.25639    0.001838684              0
      6228.0000         0.9717        10.8812       2630.602        36.0372       109.9662        -999.25        41.8839       31.90112         0.2866         0.3604         5.4232      -74.59675              0              0
      6228.5000         0.9648        10.8182       2617.828        39.5364       108.9694        -999.25        41.1026       31.19795         0.2777         0.3954         5.1832      -74.83942              0              0
      6229.0000         0.9579        10.7131       2392.371        40.5847       108.0116        -999.25        40.7168       30.85073         0.2688         0.4058         5.0865      -74.93877              0              0
      6229.5000         0.9516        10.7743       2353.172        39.6961       107.5994        -999.25        41.3136       31.38785         0.2599          0.397         5.2354      -74.79253              0              0
      6230.0000         0.9491        10.8555       2335.484        39.9962       107.3894        -999.25        42.2953       32.27138         0.2509            0.4          5.384      -74.64659              0              0
      6230.5000         0.9465        10.8302       2324.391         39.829       107.8263        -999.25        42.7213       32.65478          0.242         0.3983         5.5328      -74.50046              0              0
