#------------------------------------------------------------------------------
# Created by    : vladimir.rabinovich
# Created on    : 09/19/2023 17:21:24
#------------------------------------------------------------------------------
~Version Information Section
VERS.           2.0     :   CWLS log ASCII Standard - VERSION 2.0
WRAP.           NO      :   One line per depth step
~Well Information Section
#MNEM       .UNIT                                         VALUE :DESCRIPTION
#------------------------------------------------------------------------------
STRT        .FT                                             682 :START DEPTH
STOP        .FT                                            8542 :STOP DEPTH
STEP        .FT                                             0.5 :STEP      
NULL        .                                           -999.25 :NULL      
COMP        .                       CORPUS CHRISTI OIL & GAS CO :COMPANY   
WELL        .                               OCS G08551 ST00BP00 :WELL      
FLD         .                                           WILDCAT :FIELD     
LOC         .                                                   :LOCATION  
CNTY        .                             GALVESTON LARGE BLOCK :LOCATION  
STAT        .                                             TEXAS :STATE     
CTRY        .                                     UNITED STATES :COUNTRY   
SRVC        .                                                   :SERVICE COMPANY
DATE        .                             9/13/2023 11:19:36 AM :LOG DATE  
API         .                                    42706401950000 :API NUMBER
UWI         .                                    42706401950000 :UNIQUE WELL ID
XCOORD      .                                   976199.22633255 :SURFACE X 
YCOORD      .                                  10415950.2633902 :SURFACE Y 
LAT         .                                         28.686063 :LATITUDE  
LON         .                                        -95.072067 :LONGITUDE 
ELEV        .FT                                              81 :ELEVATION VALUE
ELEV_TYPE   .                                                KB :ELEVATION REFERENCE TYPE
~Curve Information Section
#MNEM       .UNIT                                      API CODE :CURVE DESCRIPTION
#------------------------------------------------------------------------------
DEPT        .FT                                                 :DEPTH     
CALI        .IN                                                 :          
DPHI        .%                                                  :          
DRHO        .G/C3                                               :          
DT          .US/F                                               :          
GR          .GAPI                                               :          
GR_1        .GAPI                                               :          
GR_NORM     .GAPI                                               :GammaRay Normalized
ILD         .OHMM                                               :          
ILM         .OHMM                                               :          
NPHI        .%                                                  :          
SFL         .OHMM                                               :          
SP_NORM     .MV                                                 :SP Normalized
SPS         .MV                                                 :          
VSH_GR      .V/V                                                :Volume of Shale from GR
VSH_SP      .V/V                                                :Volume of Shale from SP
~A        DEPTH           CALI           DPHI           DRHO             DT             GR           GR_1        GR_NORM            ILD            ILM           NPHI            SFL        SP_NORM            SPS         VSH_GR         VSH_SP
# ...
      2212.0000        -999.25        -999.25        -999.25       155.7727        58.9853        -999.25       58.71692         0.4786         0.5189        -999.25         0.5315      -10.85081       -90.2375      0.5471686     0.01657613
      2212.5000        -999.25        -999.25        -999.25       155.5259        59.8802        -999.25       59.98723         0.4766         0.5181        -999.25         0.5307      -10.90414       -90.2871      0.5741965     0.01065148
      2213.0000        -999.25        -999.25        -999.25       154.9702        58.5942        -999.25       58.17228          0.475         0.5181        -999.25         0.5313      -10.98746       -90.3667      0.5355804    0.001393636
      2213.5000        -999.25        -999.25        -999.25       154.4683        56.7997        -999.25       55.63797         0.4761          0.518        -999.25         0.5332      -11.01658       -90.3921       0.481659              0
      2214.0000        -999.25        -999.25        -999.25       154.1497        55.9852        -999.25       54.49003         0.4777         0.5147        -999.25         0.5398      -11.04731       -90.4191      0.4572347              0
      2214.5000        -999.25        -999.25        -999.25       154.0786        55.3694        -999.25        53.6232         0.4766         0.5113        -999.25         0.5429      -10.98493        -90.353      0.4387915    0.001674228
      2215.0000        -999.25        -999.25        -999.25        154.688        55.1503        -999.25       53.31756         0.4734         0.5077        -999.25         0.5312      -10.86406       -90.2284      0.4322886     0.01510451
      2215.5000        -999.25        -999.25        -999.25       154.8613        54.2793        -999.25       52.08969         0.4708         0.5033        -999.25         0.5197      -10.75048       -90.1111      0.4061637     0.02772437
      2216.0000        -999.25        -999.25        -999.25       155.0146        53.2535        -999.25       50.64285         0.4695         0.4989        -999.25          0.509      -10.96041       -90.3173      0.3753798     0.00439877
      2216.5000        -999.25        -999.25        -999.25        155.657        52.4202        -999.25       49.46831         0.4687         0.4934        -999.25         0.5027      -11.00903       -90.3622      0.3503895              0
      2217.0000        -999.25        -999.25        -999.25       156.0159        51.8815        -999.25       48.71054         0.4681         0.4886        -999.25         0.4986      -10.81696       -90.1664      0.3342669     0.02033827
      2217.5000        -999.25        -999.25        -999.25       155.8076        52.1314        -999.25       49.06838         0.4661         0.4862        -999.25         0.4968      -10.57948       -89.9252      0.3418804     0.04672411
      2218.0000        -999.25        -999.25        -999.25       155.8301          54.09        -999.25       51.84346         0.4649         0.4853        -999.25         0.4974      -10.18081       -89.5228      0.4009248     0.09102122
      2218.5000        -999.25        -999.25        -999.25       155.7783        56.6268        -999.25        55.4365         0.4645         0.4866        -999.25         0.5034      -10.09933       -89.4376      0.4773723      0.1000739
      2219.0000        -999.25        -999.25        -999.25       155.5042         58.733        -999.25       58.42039         0.4657         0.4903        -999.25         0.5111      -10.12056       -89.4551      0.5408593     0.09771559
      2219.5000        -999.25        -999.25        -999.25       155.6677        60.5039        -999.25       60.92992         0.4673         0.4972        -999.25         0.5215      -10.16528       -89.4961      0.5942537     0.09274631
      2220.0000        -999.25        -999.25        -999.25       155.9556        61.8181        -999.25        62.7934         0.4701         0.5022        -999.25         0.5325      -10.23821       -89.5653      0.6339022     0.08464304
      2220.5000        -999.25        -999.25        -999.25       156.1663         61.578        -999.25       62.45804         0.4729         0.5054        -999.25         0.5305      -10.45654       -89.7799      0.6267668     0.06038496
      2221.0000        -999.25        -999.25        -999.25       156.0496         60.814        -999.25       61.38155         0.4757          0.508        -999.25         0.5267      -10.75636        -90.076      0.6038628     0.02707163
      2221.5000        -999.25        -999.25        -999.25       155.9329        60.3885        -999.25       60.78393         0.4768         0.5124        -999.25         0.5239      -10.83298       -90.1489      0.5911475     0.01855723
      2222.0000        -999.25        -999.25        -999.25       156.0212        62.5447        -999.25       63.83855         0.4775         0.5169        -999.25          0.527      -10.72981        -90.042      0.6561393     0.03002082
      2222.5000        -999.25        -999.25        -999.25        156.228        66.2284        -999.25       69.05408         0.4778         0.5216        -999.25         0.5393      -10.38844       -89.6969       0.767108     0.06795163
      2223.0000        -999.25        -999.25        -999.25       156.3655         68.705        -999.25       72.56194         0.4784         0.5265        -999.25         0.5392      -10.11336       -89.4181      0.8417435     0.09851583
      2223.5000        -999.25        -999.25        -999.25       156.2307        68.8751        -999.25       72.80689         0.4807         0.5285        -999.25         0.5343      -10.16488       -89.4659      0.8469552     0.09279124
      2224.0000        -999.25        -999.25        -999.25       155.9158        67.9187        -999.25       71.45821         0.4839         0.5249        -999.25         0.5302      -10.30412       -89.6014      0.8182599     0.07732052
      2224.5000        -999.25        -999.25        -999.25       155.0503        67.3929        -999.25        70.7187         0.4892         0.5219        -999.25         0.5423      -10.39654       -89.6901      0.8025255     0.06705136
      2225.0000        -999.25        -999.25        -999.25       154.4016        67.4219        -999.25       70.76402         0.4954         0.5192        -999.25          0.547      -10.26436       -89.5542      0.8034899     0.08173794
      2225.5000        -999.25        -999.25        -999.25       154.3552        66.2084        -999.25       69.05165         0.5013         0.5191        -999.25          0.539      -9.696182       -88.9823      0.7670564      0.1448686
      2226.0000        -999.25        -999.25        -999.25       154.8218        64.2208        -999.25       66.24417         0.5067         0.5196        -999.25         0.5329      -9.385605        -88.668      0.7073228      0.1793772
      2226.5000        -999.25        -999.25        -999.25        155.457        63.0472        -999.25       64.58823         0.5107         0.5201        -999.25         0.5321      -9.502838       -88.7815      0.6720899      0.1663513
      2227.0000        -999.25        -999.25        -999.25       156.0925        63.7001        -999.25       65.51617         0.5137         0.5218        -999.25         0.5449      -9.454659       -88.7296      0.6918335      0.1717046
      2227.5000        -999.25        -999.25        -999.25        156.031        64.4512        -999.25       66.58305         0.5148         0.5242        -999.25         0.5646      -9.071182       -88.3424      0.7145329      0.2143131
      2228.0000        -999.25        -999.25        -999.25       155.9226        61.4474        -999.25       62.33797         0.5136         0.5239        -999.25         0.5817      -8.612305       -87.8798      0.6242122      0.2652995
      2228.5000        -999.25        -999.25        -999.25       155.3264        57.7812        -999.25       57.15583         0.5095         0.5226        -999.25         0.5795      -8.939934       -88.2037      0.5139539      0.2288962
