#------------------------------------------------------------------------------
# Created by    : vladimir.rabinovich
# Created on    : 09/19/2023 17:22:48
#------------------------------------------------------------------------------
~Version Information Section
VERS.           2.0     :   CWLS log ASCII Standard - VERSION 2.0
WRAP.           NO      :   One line per depth step
~Well Information Section
#MNEM       .UNIT                                         VALUE :DESCRIPTION
#------------------------------------------------------------------------------
STRT        .FT                                             306 :START DEPTH
STOP        .FT                                           13139 :STOP DEPTH
STEP        .FT                                             0.5 :STEP      
NULL        .                                           -999.25 :NULL      
COMP        .                                    CITIES SERVICE :COMPANY   
WELL        .                                          SL 77337 :WELL      
FLD         .                                           WILDCAT :FIELD     
LOC         .                                                   :LOCATION  
CNTY        .                                BRAZOS LARGE BLOCK :LOCATION  
STAT        .                                             TEXAS :STATE     
CTRY        .                                     UNITED STATES :COUNTRY   
SRVC        .                                                   :SERVICE COMPANY
DATE        .                             9/13/2023 11:18:52 AM :LOG DATE  
API         .                                    42704301950000 :API NUMBER
UWI         .                                    42704301950000 :UNIQUE WELL ID
XCOORD      .                                   673900.18951543 :SURFACE X 
YCOORD      .                                   10333530.060148 :SURFACE Y 
LAT         .                                        28.4418955 :LATITUDE  
LON         .                                       -96.0077528 :LONGITUDE 
ELEV        .FT                                              82 :ELEVATION VALUE
ELEV_TYPE   .                                                KB :ELEVATION REFERENCE TYPE
~Curve Information Section
#MNEM       .UNIT                                      API CODE :CURVE DESCRIPTION
#------------------------------------------------------------------------------
DEPT        .FT                                                 :DEPTH     
DT          .US/F                                               :          
SP          .MV                                                 :          
SP_NORM     .MV                                                 :SP Normalized
VSH_SP      .V/V                                                :Volume of Shale from SP
~A        DEPTH             DT             SP        SP_NORM         VSH_SP
# ...
      7143.0000       104.9048       -51.7285      0.4083138              1
      7143.5000       105.8761        -51.605      0.5336952              1
      7144.0000       107.2876       -51.4163      0.7242775              1
      7144.5000       108.3995       -51.1287       1.013763              1
      7145.0000       108.7783       -50.8107       1.333649              1
      7145.5000       108.0338       -51.3004      0.8458328              1
      7146.0000        107.167       -51.9296      0.2185173              1
      7146.5000       106.3213       -52.5156     -0.3655968              1
      7147.0000       105.5228       -52.7316     -0.5797157              1
      7147.5000       104.7673       -52.5892     -0.4354324              1
      7148.0000       104.1445       -52.4064     -0.2507477              1
      7148.5000       103.8995       -52.2779     -0.1203651              1
      7149.0000        103.887        -52.439     -0.2795792              1
      7149.5000       104.0806       -52.7571     -0.5957947              1
      7150.0000       104.6182        -53.109     -0.9458122              1
      7150.5000       106.0166       -53.4825      -1.317425      0.9935219
      7151.0000       107.4045       -53.6323      -1.465343      0.9905032
      7151.5000       108.6158       -53.3622      -1.193363      0.9960538
      7152.0000       109.6121        -52.649     -0.4782753              1
      7152.5000       110.3695        -51.761      0.4116058              1
      7153.0000       110.6997       -51.3792      0.7952919              1
      7153.5000       110.2072       -51.5451      0.6312752              1
      7154.0000       109.6028       -51.6782       0.500061              1
      7154.5000       109.1737       -51.6986      0.4815445              1
      7155.0000        109.451       -51.6597      0.5223312              1
      7155.5000       109.8776       -51.8143      0.3696098              1
      7156.0000       110.1539       -52.8176     -0.6318054              1
      7156.5000       110.2627       -53.9055      -1.717819      0.9853506
      7157.0000       110.2926       -54.2568      -2.067238      0.9782196
      7157.5000       110.2104       -54.4958      -2.304352      0.9733806
      7158.0000       110.0502       -54.7171      -2.523766      0.9689028
      7158.5000       109.7557       -54.9341      -2.738884      0.9645126
      7159.0000       109.1743       -55.1024        -2.9053      0.9611163
      7159.5000       108.7465        -55.288      -3.089012      0.9573671
      7160.0000       109.7277         -55.57      -3.369133      0.9516503
      7160.5000       111.3619       -55.8404       -3.63765      0.9461704
      7161.0000        113.098       -55.9705      -3.765865      0.9435537
      7161.5000       113.6863       -55.3607      -3.154179      0.9560372
      7162.0000       113.3567       -54.4733      -2.264896      0.9741858
      7162.5000       112.6771       -53.5684      -1.358112      0.9926916
      7163.0000       112.3767       -52.9705     -0.7583275              1
      7163.5000       112.1671       -52.7037     -0.4896431              1
      7164.0000       112.6814       -52.8041     -0.5881615              1
      7164.5000       113.4413       -52.8373     -0.6194763              1
      7165.0000       113.9161       -52.5149     -0.2951927              1
      7165.5000       113.9467       -52.3803     -0.1587067              1
      7166.0000       113.7435        -52.686     -0.4625244              1
      7166.5000       113.5253       -53.3629      -1.137539      0.9971931
      7167.0000       113.5203       -54.2214      -1.994156      0.9797111
      7167.5000       113.9662       -54.6224      -2.393269       0.971566
      7168.0000       114.8441       -54.7244      -2.493389      0.9695227
      7168.5000       115.0189       -54.7191      -2.486206      0.9696693
      7169.0000       113.4712       -54.6638       -2.42902      0.9708363
      7169.5000       111.1505        -54.644      -2.407337      0.9712788
      7170.0000       108.8099       -54.6466      -2.408051      0.9712643
      7170.5000       107.2056       -54.6396      -2.399166      0.9714456
      7171.0000       106.4388        -54.596      -2.353683      0.9723738
      7171.5000       106.0713       -54.4332      -2.188999      0.9757347
      7172.0000       105.6273       -54.2484      -2.002319      0.9795445
      7172.5000       104.8774       -54.1354      -1.887432      0.9818891
      7173.0000       103.6213       -54.4617      -2.211849      0.9752684
      7173.5000        102.114       -54.9803      -2.728565      0.9647232
      7174.0000       100.6041       -55.3461       -3.09248      0.9572963
      7174.5000         99.835        -54.912      -2.656494       0.966194
      7175.0000       100.8529       -54.4031       -2.14571      0.9766182
      7175.5000       104.6212       -53.8924      -1.633125      0.9870791
      7176.0000       105.1908        -53.489      -1.227844      0.9953501
      7176.5000       105.6852       -53.6453      -1.382263      0.9921987
      7177.0000       106.5253        -53.765      -1.500076      0.9897944
      7177.5000       107.8398       -53.8131      -1.546291      0.9888512
      7178.0000       109.5461       -53.8247      -1.556007      0.9886529
      7178.5000       110.5914       -53.7889      -1.518322       0.989422
      7179.0000       110.8079       -53.7524      -1.479939      0.9902053
      7179.5000       110.7976       -53.7141      -1.439754      0.9910254
      7180.0000       110.6603       -53.5931      -1.316872      0.9935333
      7180.5000       110.7526       -53.3773       -1.09919      0.9979757
      7181.0000        111.444       -53.2455     -0.9655037              1
      7181.5000       112.5148       -53.0969     -0.8150215              1
      7182.0000       113.5818       -52.8323     -0.5485344              1
      7182.5000        114.619       -52.4372     -0.1515503              1
      7183.0000        115.313       -51.9227      0.3648338              1
      7183.5000       115.3192       -51.9391      0.3503189              1
      7184.0000       114.7571       -52.0185      0.2728004              1
      7184.5000       113.9586       -51.9462       0.346981              1
      7185.0000       113.1478       -51.6858      0.6092682              1
      7185.5000       112.3319       -51.4235      0.8734512              1
      7186.0000       111.5671       -51.5718      0.7270355              1
      7186.5000       111.1527       -52.4065     -0.1057816              1
      7187.0000       112.0459       -52.8796     -0.5769958              1
      7187.5000       113.3842       -53.1322     -0.8277092              1
      7188.0000       114.6079       -53.3406      -1.034225      0.9993015
      7188.5000       115.5605       -53.5342      -1.225945      0.9953889
      7189.0000       116.4012       -53.4319      -1.121761      0.9975151
      7189.5000       117.4061       -53.4575      -1.145477      0.9970311
      7190.0000       117.7307       -53.3967      -1.082794      0.9983103
      7190.5000       117.1064       -53.4536       -1.13781      0.9971876
      7191.0000       116.1189        -53.448      -1.130325      0.9973403
      7191.5000       115.0419       -53.3658      -1.046238      0.9990563
      7192.0000       113.9742       -53.0639     -0.7424545              1
      7192.5000       113.4905        -52.639     -0.3156738              1
      7193.0000       112.9718       -52.1698      0.1554108              1
      7193.5000       112.1877       -52.2382     0.08889389              1
      7194.0000       111.2512       -52.5977     -0.2687187              1
      7194.5000       110.2761       -52.9401     -0.6092377              1
      7195.0000       109.6892       -52.9833     -0.6505508              1
      7195.5000       111.0983       -52.7474     -0.4127655              1
