#------------------------------------------------------------------------------
# Created by    : vladimir.rabinovich
# Created on    : 09/19/2023 17:21:33
#------------------------------------------------------------------------------
~Version Information Section
VERS.           2.0     :   CWLS log ASCII Standard - VERSION 2.0
WRAP.           NO      :   One line per depth step
~Well Information Section
#MNEM       .UNIT                                         VALUE :DESCRIPTION
#------------------------------------------------------------------------------
STRT        .FT                                            3683 :START DEPTH
STOP        .FT                                            9328 :STOP DEPTH
STEP        .FT                                             0.5 :STEP      
NULL        .                                           -999.25 :NULL      
COMP        .                                SHELL OFFSHORE INC :COMPANY   
WELL        .                               OCS G11316 ST00BP00 :WELL      
FLD         .                                           WILDCAT :FIELD     
LOC         .                                                   :LOCATION  
CNTY        .                             GALVESTON LARGE BLOCK :LOCATION  
STAT        .                                             TEXAS :STATE     
CTRY        .                                     UNITED STATES :COUNTRY   
SRVC        .                                                   :SERVICE COMPANY
DATE        .                             9/13/2023 11:19:34 AM :LOG DATE  
API         .                                    42706402670000 :API NUMBER
UWI         .                                    42706402670000 :UNIQUE WELL ID
XCOORD      .                                  1097534.45360284 :SURFACE X 
YCOORD      .                                  10461685.9172371 :SURFACE Y 
LAT         .                                         28.817107 :LATITUDE  
LON         .                                        -94.695737 :LONGITUDE 
ELEV        .FT                                              91 :ELEVATION VALUE
ELEV_TYPE   .                                                KB :ELEVATION REFERENCE TYPE
~Curve Information Section
#MNEM       .UNIT                                      API CODE :CURVE DESCRIPTION
#------------------------------------------------------------------------------
DEPT        .FT                                                 :DEPTH     
CALI        .IN                                                 :          
CALI_1      .IN                                                 :          
CILD        .MMHO                                               :          
DRHO        .G/C3                                               :          
DT          .US/F                                               :          
GR          .GAPI                                               :          
GR_1        .GAPI                                               :          
GR_NORM     .GAPI                                               :GammaRay Normalized
ILD         .OHMM                                               :          
ILM         .OHMM                                               :          
NPHI        .%                                                  :          
RHOB        .G/C3                                               :          
SFL         .OHMM                                               :          
SP          .MV                                                 :          
SP_NORM     .MV                                                 :SP Normalized
VSH_GR      .V/V                                                :Volume of Shale from GR
VSH_SP      .V/V                                                :Volume of Shale from SP
~A        DEPTH           CALI         CALI_1           CILD           DRHO             DT             GR           GR_1        GR_NORM            ILD            ILM           NPHI           RHOB            SFL             SP        SP_NORM         VSH_GR         VSH_SP
# ...
      3968.0000        17.4642        17.1306      -203.3967        -0.0296       136.4111        51.4436        51.6166       101.5096        19.3691         0.2191        45.1145         1.9525        13.4141       -10.3597      -11.50158              1      0.8356917
      3968.5000        19.3897        19.1932       493.1304        -0.0454       136.7124        51.4017        50.8994        100.389          7.852         0.1879        46.2686         1.9184         0.5064       -10.8598      -11.25883              1      0.8391596
      3969.0000        21.1035        20.1094       1251.873         -0.061       137.2664         49.316          47.68       95.35864         1.0508         0.1774        49.2586         1.8845         0.4695       -11.1736      -10.77897              1      0.8460147
      3969.5000        22.3155        22.2869       1761.646         -0.081       137.8872        45.3245        43.6526       89.06583          0.735         0.1607        53.2829         1.8498         0.5425       -11.1614      -9.884195              1      0.8587972
      3970.0000         23.776        23.7961       1991.578        -0.1061       136.3835        40.6279        40.1046       83.52209         0.5298          0.154        57.8065          1.827         0.7727       -11.1773      -9.025189              1      0.8710687
      3970.5000        24.3844        24.4585        2006.99        -0.1176       134.1592        38.8775        38.0397       80.29568         0.5077         0.1504        61.1676          1.807         1.0045       -11.7246      -8.842508              1      0.8736784
      3971.0000         24.598        24.6219       1996.561        -0.1206       133.2979        37.6805        36.9828       78.64426         0.5024         0.1478        62.8885         1.7914         1.2171       -12.2365      -8.614773      0.9711546      0.8769318
      3971.5000        24.6097        24.6153       2229.398        -0.1226       132.6987        36.4565        35.7462        76.7121         0.4825         0.1408        65.5828         1.7819         1.0975       -12.6365      -8.244621      0.9300446      0.8822197
      3972.0000         24.601        24.6095       2559.059        -0.1263       132.9006        35.1017        34.2847       74.42849         0.3834         0.1272        68.5713         1.7776         1.0017       -12.8678      -7.659759      0.8814572      0.8905749
      3972.5000        24.6019        24.6007       2885.852         -0.132       135.8828        33.4697        32.6528       71.87865         0.3566         0.1205        71.2046         1.7718         1.0045        -12.881      -6.797314      0.8272054      0.9028955
      3973.0000        24.6133        24.5978        3044.32        -0.1376       140.0923        31.6009        30.6811       68.79787         0.3437          0.116        73.6432         1.7708          0.754       -12.9521      -6.530826      0.7616568      0.9067025
      3973.5000        24.6166        24.6041       2911.105          -0.14       144.7358        30.0905         29.434       66.84927         0.3323         0.1131        75.6434         1.7826         0.6702       -12.8833      -6.091564      0.7201973      0.9129776
      3974.0000        24.6194        24.6131       2557.086        -0.1362       148.3633        29.4505        29.1982       66.48083         0.3566         0.1134        78.6514          1.807         0.6333       -12.7197      -5.531649      0.7123581      0.9209765
      3974.5000        24.6191        24.6211       2059.934        -0.1192       145.6311        29.3655        29.2655       66.58599         0.4496         0.1196        85.4011         1.8402          0.621        -13.056      -5.607969      0.7145956      0.9198862
      3975.0000         24.618         24.625       1683.918        -0.0837       138.8076        29.4396         29.446       66.86802         0.5818         0.1279        86.9479         1.8758         0.6176       -13.3206      -5.593035      0.7205961      0.9200995
      3975.5000        24.6153        24.6229       1130.545        -0.0744       131.9717        29.9102        29.7521       67.34631         0.7223         0.1358        81.8969         1.9087         0.6105       -13.6689      -5.684628      0.7307724      0.9187911
      3976.0000        24.6198        24.6161       948.8984        -0.0702       125.8241        30.8009        30.1592       67.98239         0.9539          0.144        74.2228         1.9171         0.5812       -14.0963      -5.876895      0.7443062      0.9160444
      3976.5000        24.6212        24.6069       959.1084        -0.0809       125.4209         31.882        30.8442        69.0527         1.0412         0.1499        65.6838         1.9079         0.5422       -14.4174      -5.933872      0.7670786      0.9152304
      3977.0000        24.6222        24.5941       1068.205        -0.1047         126.48        33.3168        32.8628       72.20676         0.9741         0.1513        59.2465         1.8753         0.5307       -14.7086      -5.952792      0.8341865      0.9149601
      3977.5000        24.6196        24.5837       1251.676        -0.1168        130.031        34.6376        34.6325       74.97192         0.8519         0.1493        52.0673         1.8447         0.5276       -14.8358      -5.762985      0.8930197      0.9176716
      3978.0000         24.617        24.5768       1404.322        -0.1255        132.761        34.6863        34.4045       74.61567         0.7548         0.1465        50.6689         1.8243         0.5259       -14.4682      -4.943433      0.8854398      0.9293795
      3978.5000        24.6105        24.5747       1547.795        -0.1236       133.8694        34.0219        33.7575       73.60474         0.6842         0.1429        51.7983         1.8192         0.4871       -14.5747      -4.727282      0.8639306      0.9324674
      3979.0000        24.6032        24.5725       1728.504        -0.1086       134.0801        33.6639         33.532        73.2524         0.6427         0.1388        54.7452         1.8147         0.4654       -14.9123      -4.805256      0.8564339      0.9313535
      3979.5000        24.5844        24.5734         1848.5        -0.1055       133.9917        33.9572         34.344       74.52114         0.5843          0.135        60.2269         1.8099         0.4745       -15.3567      -5.019158      0.8834285      0.9282978
      3980.0000        24.5688        24.5777       1846.084        -0.1126       132.8015        34.6487         34.699       75.07584         0.5485         0.1319        62.2941         1.8036         0.5056       -15.9114      -5.373443      0.8952305      0.9232365
      3980.5000        24.5638        24.5832       1773.539        -0.1222       131.8359        34.7338        34.5006       74.76584         0.5519         0.1324        62.7209         1.7978         0.5368       -16.4535      -5.711691      0.8886349      0.9184044
      3981.0000        24.5691        24.5908       1588.426        -0.1262       129.9907        34.2537        33.5027       73.20662         0.6186         0.1343        59.9844         1.7955         0.5293       -16.3939      -5.284138        0.85546      0.9245123
      3981.5000        24.5766        24.5991       1501.709        -0.1187       128.8042        32.2209        31.7053       70.39817         0.6636         0.1365          56.42         1.7948         0.5106       -16.0085      -4.441931      0.7957057      0.9365438
      3982.0000        24.5807        24.6047       1478.691         -0.113       127.4904        31.0727        30.3123        68.2216         0.6445         0.1384        54.8611         1.7954         0.4941       -15.3182      -3.211671      0.7493958       0.954119
      3982.5000        24.5882        24.6053        2137.09        -0.1159       126.1383        30.2671         29.463       66.89459         0.4752         0.1303        56.1971         1.7908         0.4782       -14.6078      -1.955827      0.7211615      0.9720596
