#------------------------------------------------------------------------------
# Created by    : vladimir.rabinovich
# Created on    : 09/19/2023 17:22:39
#------------------------------------------------------------------------------
~Version Information Section
VERS.           2.0     :   CWLS log ASCII Standard - VERSION 2.0
WRAP.           NO      :   One line per depth step
~Well Information Section
#MNEM       .UNIT                                         VALUE :DESCRIPTION
#------------------------------------------------------------------------------
STRT        .FT                                            2600 :START DEPTH
STOP        .FT                                            8208 :STOP DEPTH
STEP        .FT                                             0.5 :STEP      
NULL        .                                           -999.25 :NULL      
COMP        .                          SEAGULL ENERGY E & P INC :COMPANY   
WELL        .                               OCS G09039 ST00BP00 :WELL      
FLD         .                              GALVESTON BLOCK 0273 :FIELD     
LOC         .                                                   :LOCATION  
CNTY        .                             GALVESTON LARGE BLOCK :LOCATION  
STAT        .                                             TEXAS :STATE     
CTRY        .                                     UNITED STATES :COUNTRY   
SRVC        .                                                   :SERVICE COMPANY
DATE        .                             9/13/2023 11:19:54 AM :LOG DATE  
API         .                                    42706403220000 :API NUMBER
UWI         .                                    42706403220000 :UNIQUE WELL ID
XCOORD      .                                  1018306.80056624 :SURFACE X 
YCOORD      .                                  10490966.5196098 :SURFACE Y 
LAT         .                                         28.894284 :LATITUDE  
LON         .                                        -94.944599 :LONGITUDE 
ELEV        .FT                                             103 :ELEVATION VALUE
ELEV_TYPE   .                                                KB :ELEVATION REFERENCE TYPE
~Curve Information Section
#MNEM       .UNIT                                      API CODE :CURVE DESCRIPTION
#------------------------------------------------------------------------------
DEPT        .FT                                                 :DEPTH     
DCAL        .IN                                                 :          
DPHI        .%                                                  :          
DTL         .US/F                                               :          
GR          .GAPI                                               :          
GR_1        .GAPI                                               :          
GR_NORM     .GAPI                                               :GammaRay Normalized
ILD         .OHMM                                               :          
ILM         .OHMM                                               :          
NPHI        .%                                                  :          
SFL         .OHMM                                               :          
SP          .MV                                                 :          
SP_NORM     .MV                                                 :SP Normalized
VSH_GR      .V/V                                                :Volume of Shale from GR
VSH_SP      .V/V                                                :Volume of Shale from SP
~A        DEPTH           DCAL           DPHI            DTL             GR           GR_1        GR_NORM            ILD            ILM           NPHI            SFL             SP        SP_NORM         VSH_GR         VSH_SP
# ...
      4166.0000        -999.25        -999.25        -999.25        42.0858        -999.25       58.03387         0.4622         0.6058        -999.25         0.5866       -61.1526      -24.80979      0.5326356      0.5038042
      4166.5000        -999.25        -999.25        -999.25        34.5019        -999.25       48.28091          0.416         0.5461        -999.25          0.604       -62.9189      -26.71154      0.3251258      0.4657693
      4167.0000        -999.25        -999.25        -999.25        31.2852        -999.25       44.14421         0.3692         0.4278        -999.25         0.6409       -65.5651      -29.56087      0.2371109      0.4087825
      4167.5000        -999.25        -999.25        -999.25        30.2412        -999.25       42.80162         0.3227         0.3751        -999.25          0.628       -68.5737      -32.80048       0.208545      0.3439903
      4168.0000        -999.25        -999.25        -999.25        31.5043        -999.25       44.42597         0.2885         0.3241        -999.25          0.604       -70.9078      -35.31371      0.2431057      0.2937258
      4168.5000        -999.25        -999.25        -999.25        31.8232        -999.25       44.83608         0.2645         0.2992        -999.25         0.5504       -71.9127      -36.39549      0.2518315      0.2720902
      4169.0000        -999.25        -999.25        -999.25        29.8116        -999.25       42.24915         0.2546         0.2856        -999.25         0.4946       -72.4583      -36.98264      0.1967903      0.2603472
      4169.5000        -999.25        -999.25        -999.25         26.869        -999.25       38.46494         0.2522         0.2828        -999.25         0.4506       -72.6846      -37.22593      0.1162752      0.2554814
      4170.0000        -999.25        -999.25        -999.25        26.2406        -999.25       37.65681         0.2604         0.3102        -999.25         0.4278       -72.6021      -37.13666     0.09908116      0.2572668
      4170.5000        -999.25        -999.25        -999.25        29.7552        -999.25       42.17662         0.2982         0.3731        -999.25         0.4899       -72.3668      -36.88284      0.1952472      0.2623432
      4171.0000        -999.25        -999.25        -999.25        32.5019        -999.25       45.70889         0.3441          0.416        -999.25          0.702        -72.177      -36.67802      0.2704019      0.2664395
      4171.5000        -999.25        -999.25        -999.25         33.504        -999.25        46.9976         0.3687         0.4319        -999.25         0.9004       -72.1152      -36.61105      0.2978214      0.2677791
      4172.0000        -999.25        -999.25        -999.25        32.0441        -999.25       45.12016         0.3575         0.4238        -999.25         0.9542       -72.2214      -36.72499      0.2578758      0.2655001
      4172.5000        -999.25        -999.25        -999.25        29.0588        -999.25       41.28104         0.3292         0.3944        -999.25         0.8115       -72.6848      -37.22362      0.1761923      0.2555276
      4173.0000        -999.25        -999.25        -999.25        27.8164        -999.25        39.6833         0.2979          0.347        -999.25         0.5308       -73.0027      -37.56556      0.1421979      0.2486888
      4173.5000        -999.25        -999.25        -999.25        29.2497        -999.25       41.52654         0.2824         0.3209        -999.25         0.4745        -71.701       -36.1633      0.1814157      0.2767339
      4174.0000        -999.25        -999.25        -999.25        33.5472        -999.25       47.05316         0.2829         0.3251        -999.25         0.4491       -69.6018      -33.90221      0.2990034      0.3219558
      4174.5000        -999.25        -999.25        -999.25         40.191        -999.25       55.59715          0.296         0.3537        -999.25         0.4942       -66.0228      -30.04748      0.4807903      0.3990504
      4175.0000        -999.25        -999.25        -999.25        49.4777        -999.25       67.53991         0.3277         0.4063        -999.25         0.5878       -62.5761      -26.33523      0.7348917      0.4732954
      4175.5000        -999.25        -999.25        -999.25        48.0417        -999.25        65.6932         0.3509         0.4315        -999.25         0.6522       -61.3041      -24.96497         0.6956      0.5007007
      4176.0000        -999.25        -999.25        -999.25        41.0234        -999.25       56.66761         0.3421         0.4342        -999.25         0.6561       -61.5504      -25.22979      0.5035661      0.4954041
      4176.5000        -999.25        -999.25        -999.25        37.8495        -999.25       52.58595         0.3273          0.412        -999.25         0.6277       -63.5015      -27.33056      0.4167224      0.4533888
      4177.0000        -999.25        -999.25        -999.25        36.0405        -999.25       50.25956         0.3102          0.372        -999.25         0.5879        -65.499      -29.48129      0.3672248      0.4103741
      4177.5000        -999.25        -999.25        -999.25         35.497        -999.25       49.56062         0.3002          0.355        -999.25         0.5402       -67.5762      -31.71786      0.3523536      0.3656428
      4178.0000        -999.25        -999.25        -999.25        35.9903        -999.25         50.195         0.2999         0.3611        -999.25         0.5207       -69.3865      -33.66699      0.3658511      0.3266602
      4178.5000        -999.25        -999.25        -999.25        35.6622        -999.25       49.77307           0.33         0.3999        -999.25         0.5094       -70.3987      -34.75663      0.3568738      0.3048674
      4179.0000        -999.25        -999.25        -999.25        33.2877        -999.25       46.71944         0.3792         0.4523        -999.25         0.5188       -70.7065      -35.08769       0.291903      0.2982462
      4179.5000        -999.25        -999.25        -999.25        30.3526        -999.25       42.94488         0.4511         0.5527        -999.25         0.7312       -70.5798      -34.95083      0.2115931      0.3009834
      4180.0000        -999.25        -999.25        -999.25        28.1555        -999.25       40.11939         0.4801         0.6221        -999.25         1.9083       -70.3678      -34.72209      0.1514764      0.3055582
      4180.5000        -999.25        -999.25        -999.25          27.54        -999.25       39.32785         0.4748          0.623        -999.25         3.6571       -70.1812      -34.52072      0.1346351      0.3095856
      4181.0000        -999.25        -999.25        -999.25        27.3812        -999.25       39.12363         0.4236         0.5132        -999.25         2.1391       -70.0128      -34.33895      0.1302901       0.313221
      4181.5000        -999.25        -999.25        -999.25        28.7589        -999.25       40.89536         0.3385          0.401        -999.25         0.9769       -70.1899      -34.52926      0.1679864      0.3094148
      4182.0000        -999.25        -999.25        -999.25        31.4664        -999.25       44.37723         0.2867         0.3222        -999.25         0.5672       -70.5635      -34.93117      0.2420687      0.3013766
      4182.5000        -999.25        -999.25        -999.25        34.5447        -999.25       48.33595         0.2684         0.3015        -999.25         0.4654       -70.3571      -34.70848      0.3262969      0.3058304
      4183.0000        -999.25        -999.25        -999.25        35.3231        -999.25       49.33698         0.2792         0.3066        -999.25         0.4344        -69.824      -34.13394      0.3475953      0.3173212
      4183.5000        -999.25        -999.25        -999.25        33.8079        -999.25       47.38842         0.3536         0.3801        -999.25         0.4619       -69.0155      -33.26284      0.3061365      0.3347433
