#------------------------------------------------------------------------------
# Created by    : vladimir.rabinovich
# Created on    : 09/19/2023 17:20:25
#------------------------------------------------------------------------------
~Version Information Section
VERS.           2.0     :   CWLS log ASCII Standard - VERSION 2.0
WRAP.           NO      :   One line per depth step
~Well Information Section
#MNEM       .UNIT                                         VALUE :DESCRIPTION
#------------------------------------------------------------------------------
STRT        .FT                                             396 :START DEPTH
STOP        .FT                                           11006 :STOP DEPTH
STEP        .FT                                             0.5 :STEP      
NULL        .                                           -999.25 :NULL      
COMP        .                                 CALIFORNIA CO THE :COMPANY   
WELL        .                                OCS 00507 ST00BP00 :WELL      
FLD         .                            HIGH ISLAND BLOCK 0052 :FIELD     
LOC         .                                                   :LOCATION  
CNTY        .                           HIGH ISLAND LARGE BLOCK :LOCATION  
STAT        .                                             TEXAS :STATE     
CTRY        .                                     UNITED STATES :COUNTRY   
SRVC        .                                                   :SERVICE COMPANY
DATE        .                             9/13/2023 11:19:15 AM :LOG DATE  
API         .                                    42708000170000 :API NUMBER
UWI         .                                    42708000170000 :UNIQUE WELL ID
XCOORD      .                                  1293108.02889945 :SURFACE X 
YCOORD      .                                   10685731.628563 :SURFACE Y 
LAT         .                                         29.439677 :LATITUDE  
LON         .                                        -94.091453 :LONGITUDE 
ELEV        .FT                                              70 :ELEVATION VALUE
ELEV_TYPE   .                                                KB :ELEVATION REFERENCE TYPE
~Curve Information Section
#MNEM       .UNIT                                      API CODE :CURVE DESCRIPTION
#------------------------------------------------------------------------------
DEPT        .FT                                                 :DEPTH     
ASN         .OHMM                                               :          
CILD        .MMHO                                               :          
ILM         .OHMM                                               :          
SP          .MV                                                 :          
SP_NORM     .MV                                                 :SP Normalized
VSH_SP      .V/V                                                :Volume of Shale from SP
~A        DEPTH            ASN           CILD            ILM             SP        SP_NORM         VSH_SP
# ...
      1802.0000         0.6942       1063.252          0.832       -66.1953        -4.6208         0.9064
      1802.5000         0.6836       1093.775         0.8322        -66.468        -4.8861       0.896925
      1803.0000         0.6739       1156.172         0.8177       -67.5187        -5.9294      0.8596643
      1803.5000         0.6642       1254.752         0.7913       -69.0183        -7.4216      0.8063715
      1804.0000         0.6546        1322.27         0.7649       -71.0105        -9.4063      0.7354893
      1804.5000         0.6455       1384.654         0.7385       -73.1694       -11.5578        0.65865
      1805.0000         0.6385           1445         0.7121       -74.8062       -13.1872      0.6004571
      1805.5000         0.6314       1503.789         0.6857       -76.0811       -14.4547      0.5551893
      1806.0000         0.6244       1563.279         0.6594       -76.7194       -15.0855      0.5326607
      1806.5000         0.6173       1594.021         0.6522       -77.3574       -15.7161      0.5101393
      1807.0000         0.6116       1612.996          0.645       -77.5024       -15.8537       0.505225
      1807.5000          0.606       1614.766         0.6379       -77.3722       -15.7161      0.5101393
      1808.0000         0.6004       1608.248         0.6307       -76.7224       -15.0588      0.5336143
      1808.5000         0.5949       1583.695         0.6235       -75.3273       -13.6563      0.5837036
      1809.0000         0.5892       1558.156         0.6164       -73.9315       -12.2531      0.6338179
      1809.5000         0.5833       1514.713         0.6092       -72.5363       -10.8505      0.6839107
      1810.0000         0.5773       1471.625          0.602       -70.7935        -9.1003      0.7464179
      1810.5000         0.5714       1457.916         0.5991       -69.0276        -7.3269      0.8097536
      1811.0000         0.5655       1444.211         0.6002       -67.6664        -5.9583      0.8586321
      1811.5000         0.5596       1438.203         0.6012       -67.3719        -5.6564      0.8694143
      1812.0000         0.5564        1436.49         0.6023       -67.0776        -5.3547      0.8801893
      1812.5000         0.5531       1434.777         0.6033       -66.7833        -5.0529      0.8909678
      1813.0000         0.5499       1434.207         0.6044       -66.4889        -4.7511      0.9017465
      1813.5000         0.5466       1438.436         0.6054       -66.1946        -4.4494      0.9125214
      1814.0000         0.5434       1442.664         0.6065       -65.9001        -4.1475      0.9233035
      1814.5000          0.545       1446.891         0.6075       -65.6334        -3.8733      0.9330964
      1815.0000         0.5469       1453.818         0.6045       -66.5883        -4.8208      0.8992571
      1815.5000         0.5488       1467.484         0.6009       -67.5427        -5.7678      0.8654357
      1816.0000         0.5506       1481.156         0.5973       -68.8083         -7.026         0.8205
      1816.5000         0.5525       1494.822         0.5937       -70.2156        -8.4259      0.7705036
      1817.0000         0.5543       1525.221         0.5901       -71.5485        -9.7513      0.7231678
      1817.5000         0.5521       1562.391         0.5865       -72.7148       -10.9102      0.6817786
      1818.0000         0.5488       1603.432         0.5829       -73.8812       -12.0692      0.6403857
      1818.5000         0.5454       1648.533         0.5793       -75.0516       -13.2322        0.59885
      1819.0000          0.542       1710.227         0.5757       -76.2235       -14.3966      0.5572643
      1819.5000         0.5368       1811.197         0.5636       -77.3768       -15.5425      0.5163393
      1820.0000         0.5274       2053.535         0.5496       -78.5172       -16.6755       0.475875
      1820.5000          0.518       2096.449         0.5356       -79.6576       -17.8085      0.4354107
      1821.0000         0.5086       2169.914         0.5216       -80.3436        -18.487      0.4111786
      1821.5000         0.4992       2262.266         0.5075       -80.7328       -18.8688      0.3975429
      1822.0000         0.4913        2357.84         0.4935       -81.1221       -19.2507      0.3839036
      1822.5000          0.484       2409.223         0.4795       -81.5112       -19.6324      0.3702714
      1823.0000         0.4768        2451.25         0.4655       -81.3613       -19.4751      0.3758893
      1823.5000         0.4695        2460.18         0.4596       -81.1346       -19.2409      0.3842536
      1824.0000         0.4622        2323.18         0.4624       -80.9081        -19.007      0.3926072
      1824.5000         0.4594       2218.262         0.4651       -80.6815        -18.773      0.4009643
      1825.0000         0.4599       2128.785         0.4678        -80.455       -18.5391      0.4093178
      1825.5000         0.4604        2080.25         0.4705       -79.7659       -17.8425      0.4341964
      1826.0000          0.461       1914.559         0.4733       -78.9786       -17.0478      0.4625786
      1826.5000         0.4615       1872.311          0.476       -78.1912        -16.253      0.4909643
      1827.0000          0.462       1832.025         0.4787       -77.4038       -15.4582        0.51935
      1827.5000         0.4658       1793.297         0.4813       -76.6591       -14.7061      0.5462107
      1828.0000         0.4708       1757.219         0.4816       -76.3763       -14.4158      0.5565786
      1828.5000         0.4757        1739.67         0.4818       -76.0939        -14.126      0.5669286
      1829.0000         0.4807       1722.115         0.4821       -75.8099       -13.8346      0.5773357
      1829.5000         0.4856       1704.563         0.4823       -75.5072       -13.5245      0.5884107
      1830.0000         0.4891       1692.383         0.4825       -75.2045       -13.2143      0.5994893
      1830.5000         0.4918       1680.289         0.4828       -74.9017       -12.9041      0.6105679
      1831.0000         0.4944       1672.488          0.483        -74.599        -12.594      0.6216429
      1831.5000          0.497       1664.773         0.4833       -74.1279       -12.1155      0.6387321
      1832.0000         0.4858       1670.137         0.4802       -73.6224       -11.6025      0.6570536
      1832.5000         0.4715       1675.502         0.4727       -73.1417       -11.1144      0.6744857
      1833.0000         0.4573       1721.008         0.4651       -73.3636       -11.3289       0.666825
      1833.5000          0.443       1905.236         0.4575       -74.8943       -12.8522      0.6124215
      1834.0000         0.4255       1972.996         0.4499       -76.7656        -14.716      0.5458571
      1834.5000          0.408       2047.205         0.4423       -78.9852       -16.9282        0.46685
      1835.0000         0.3905       2185.816         0.4348       -81.0992       -19.0348      0.3916143
      1835.5000         0.3799       2439.484         0.4272       -82.8843       -20.8125       0.328125
      1836.0000          0.374       2536.898         0.4196       -84.0238       -21.9446      0.2876929
      1836.5000         0.3682       2686.129          0.412       -84.4683       -22.3816      0.2720857
      1837.0000         0.3623       2881.227         0.4044       -84.5209       -22.4268      0.2704714
      1837.5000         0.3565       2938.457         0.4004       -84.3257       -22.2242      0.2777072
      1838.0000         0.3506       2956.871         0.3979       -84.1305       -22.0216      0.2849428
      1838.5000         0.3468       2975.289         0.3954       -83.9353       -21.8189      0.2921822
      1839.0000         0.3455       3001.414         0.3929       -84.2633       -22.1395      0.2807322
      1839.5000         0.3442        3036.84         0.3903        -84.991       -22.8598      0.2550071
