#------------------------------------------------------------------------------
# Created by    : vladimir.rabinovich
# Created on    : 09/19/2023 17:19:45
#------------------------------------------------------------------------------
~Version Information Section
VERS.           2.0     :   CWLS log ASCII Standard - VERSION 2.0
WRAP.           NO      :   One line per depth step
~Well Information Section
#MNEM       .UNIT                                         VALUE :DESCRIPTION
#------------------------------------------------------------------------------
STRT        .FT                                            3127 :START DEPTH
STOP        .FT                                           13892 :STOP DEPTH
STEP        .FT                                             0.5 :STEP      
NULL        .                                           -999.25 :NULL      
COMP        .                                       MONSANTO CO :COMPANY   
WELL        .                                     ST TR 00010-L :WELL      
FLD         .                                           WILDCAT :FIELD     
LOC         .                                                   :LOCATION  
CNTY        .                           HIGH ISLAND LARGE BLOCK :LOCATION  
STAT        .                                             TEXAS :STATE     
CTRY        .                                     UNITED STATES :COUNTRY   
SRVC        .                                                   :SERVICE COMPANY
DATE        .                             9/13/2023 11:19:15 AM :LOG DATE  
API         .                                    42708300750000 :API NUMBER
UWI         .                                    42708300750000 :UNIQUE WELL ID
XCOORD      .                                  1327265.43976741 :SURFACE X 
YCOORD      .                                  10725214.5969587 :SURFACE Y 
LAT         .                                        29.5491158 :LATITUDE  
LON         .                                       -93.9851741 :LONGITUDE 
ELEV        .FT                                              54 :ELEVATION VALUE
ELEV_TYPE   .                                                KB :ELEVATION REFERENCE TYPE
~Curve Information Section
#MNEM       .UNIT                                      API CODE :CURVE DESCRIPTION
#------------------------------------------------------------------------------
DEPT        .FT                                                 :DEPTH     
ASFL        .OHMM                                               :          
CILD        .MMHO                                               :          
ILD         .OHMM                                               :          
SP          .MV                                                 :          
SP_NORM     .MV                                                 :SP Normalized
VSH_SP      .V/V                                                :Volume of Shale from SP
~A        DEPTH           ASFL           CILD            ILD             SP        SP_NORM         VSH_SP
# ...
      8143.0000         0.8914       2073.164        -999.25       -53.8358     -0.5893364              1
      8143.5000         0.8914       2071.949        -999.25       -53.7137     -0.4781876              1
      8144.0000         0.8913        2069.66        -999.25       -53.6033     -0.3787384              1
      8144.5000         0.8961       2067.371        -999.25       -53.5602     -0.3465958              1
      8145.0000          0.902       2065.082        -999.25       -54.6448      -1.442146      0.9947364
      8145.5000         0.9137       2065.188        -999.25       -56.5765        -3.3848      0.9716095
      8146.0000         0.9355       2065.992        -999.25       -61.8726      -8.691856      0.9084303
      8146.5000         0.9648       2071.641        -999.25       -67.8109      -14.64111      0.8376059
      8147.0000         0.9917       2083.938        -999.25       -71.5558      -18.39697      0.7928933
      8147.5000         0.9959        2096.25        -999.25       -76.6838      -23.53592      0.7317153
      8148.0000         0.9818        2121.82        -999.25       -68.6508      -15.51387      0.8272159
      8148.5000         0.9667       2158.395        -999.25       -62.9397      -9.813725      0.8950747
      8149.0000         0.9365       2274.488        -999.25       -62.1542      -9.039177      0.9042955
      8149.5000         0.9064       2330.543        -999.25       -64.0167      -10.91263      0.8819925
      8150.0000          0.921       2371.344        -999.25       -81.4958      -28.40268      0.6737776
      8150.5000         0.9645       2415.676        -999.25       -85.3395      -32.25734      0.6278889
      8151.0000         0.9856       2448.227        -999.25       -88.9657      -35.89449      0.5845895
      8151.5000          1.002       2471.707        -999.25       -91.2556      -38.19534      0.5571983
      8152.0000         0.9892       2495.188        -999.25       -92.9539       -39.9046        0.53685
      8152.5000         0.9674       2514.371        -999.25       -83.8326      -30.79425      0.6453065
      8153.0000         0.9365       2530.324        -999.25       -78.4772      -25.44981      0.7089309
      8153.5000         0.8971       2465.223        -999.25        -63.004      -9.987556      0.8930053
      8154.0000         0.8521       2397.336        -999.25        -58.528      -5.522511      0.9461606
      8154.5000         0.8908       2343.168        -999.25       -66.1064      -13.11186      0.8558112
      8155.0000         0.9242       2322.641        -999.25       -72.0597      -19.07611      0.7848082
      8155.5000         0.9552       2306.145        -999.25       -83.2002      -30.22757      0.6520527
      8156.0000         1.0163       2289.668        -999.25       -84.3749      -31.41322      0.6379378
      8156.5000         1.0687       2273.543        -999.25       -82.2838      -29.33307      0.6627015
      8157.0000         1.0949       2257.641        -999.25       -79.4554      -26.51563      0.6962425
      8157.5000         1.0901       2241.762        -999.25       -75.6217      -22.69288      0.7417514
      8158.0000         1.0758       2225.859        -999.25       -72.7513      -19.83344      0.7757924
      8158.5000         1.0616       2206.305        -999.25       -69.8735      -16.96659      0.8099216
      8159.0000         1.0275       2180.512        -999.25       -67.3416      -14.44564      0.8399329
      8159.5000         0.9826       2154.719        -999.25       -55.7811      -2.896099      0.9774274
      8160.0000         0.9062       2139.973        -999.25       -53.7852     -0.9111481              1
      8160.5000         0.8784       2130.641        -999.25       -53.0157     -0.1526031              1
      8161.0000         0.8706       2121.324        -999.25       -52.4636      0.3885422              1
      8161.5000         0.8884       2112.004        -999.25       -52.3889      0.4522896              1
      8162.0000         0.9055        2098.66        -999.25       -52.8638    -0.03356171              1
      8162.5000         0.9225       2080.621        -999.25       -56.0658      -3.246517      0.9732558
      8163.0000         0.9396       2062.582        -999.25       -56.5345       -3.72617      0.9675456
      8163.5000         0.9515       2044.121        -999.25       -57.1323      -4.334927      0.9602985
      8164.0000         0.9588       2025.111        -999.25       -57.8548      -5.068378      0.9515669
      8164.5000         0.9576       2006.104        -999.25       -58.1265      -5.351028       0.948202
      8165.0000         0.9564       1991.219        -999.25       -57.4509      -4.686386      0.9561145
      8165.5000          0.951       1977.752        -999.25       -56.7753      -4.021736      0.9640269
      8166.0000         0.9428       1973.943        -999.25       -56.1056      -3.362988      0.9718692
      8166.5000         0.9346       1979.279        -999.25       -55.8824      -3.150745      0.9743959
      8167.0000         0.9264       1990.051        -999.25        -55.631      -2.910297      0.9772584
      8167.5000         0.9188       2009.855        -999.25        -55.342      -2.632248      0.9805685
      8168.0000         0.9116       2029.658        -999.25        -55.053      -2.354206      0.9838785
      8168.5000         0.9043       2049.461        -999.25       -54.5886      -1.900757      0.9892767
      8169.0000          0.902       2059.699        -999.25       -54.0939      -1.417011      0.9950356
      8169.5000         0.9016       2068.422        -999.25       -53.5993     -0.9333649              1
      8170.0000          0.903       2055.277        -999.25       -53.2145     -0.5595169              1
      8170.5000         0.9078       2042.107        -999.25       -52.8533     -0.2092705              1
      8171.0000         0.9126       2028.963        -999.25        -52.577     0.05607605              1
      8171.5000         0.9174       2016.887        -999.25       -52.4796      0.1425247              1
      8172.0000         0.9221       2005.035        -999.25        -52.584     0.02716827              1
      8172.5000         0.9297       1993.182        -999.25        -53.159     -0.5587845              1
      8173.0000         0.9374        1981.33        -999.25       -53.9161      -1.326836      0.9961091
      8173.5000         0.9444       1969.488        -999.25       -54.6559      -2.077591      0.9871715
      8174.0000         0.9494       1957.637        -999.25       -55.2234      -2.656044      0.9802852
      8174.5000         0.9544       1941.721        -999.25        -55.271        -2.7146      0.9795881
      8175.0000         0.9604       1925.744        -999.25       -54.7393      -2.193851      0.9857875
      8175.5000         0.9676       1909.766        -999.25       -54.2988      -1.764305      0.9909011
      8176.0000         0.9748       1900.834        -999.25       -54.1725       -1.64896      0.9922743
      8176.5000         0.9732       1898.277        -999.25       -54.0486      -1.536011      0.9936189
      8177.0000         0.9666       1916.053        -999.25       -53.9587      -1.457062      0.9945588
      8177.5000           0.96       1940.727        -999.25       -53.8688       -1.37812      0.9954985
      8178.0000         0.9534       1965.402        -999.25       -53.4443     -0.9645729              1
      8178.5000         0.9347       1995.393        -999.25       -52.9706     -0.5018234              1
      8179.0000         0.9169       2029.436        -999.25       -52.3568      0.1010208              1
      8179.5000         0.9012        2050.27        -999.25       -51.8535      0.5933685              1
      8180.0000         0.8991       2060.508        -999.25       -51.5215      0.9144135              1
      8180.5000         0.9057       2060.234        -999.25       -51.2643        1.16066              1
