#------------------------------------------------------------------------------
# Created by    : vladimir.rabinovich
# Created on    : 09/19/2023 17:22:40
#------------------------------------------------------------------------------
~Version Information Section
VERS.           2.0     :   CWLS log ASCII Standard - VERSION 2.0
WRAP.           NO      :   One line per depth step
~Well Information Section
#MNEM       .UNIT                                         VALUE :DESCRIPTION
#------------------------------------------------------------------------------
STRT        .FT                                            3744 :START DEPTH
STOP        .FT                                            9989 :STOP DEPTH
STEP        .FT                                             0.5 :STEP      
NULL        .                                           -999.25 :NULL      
COMP        .                          SEAGULL ENERGY E & P INC :COMPANY   
WELL        .                               OCS G07243 ST00BP00 :WELL      
FLD         .                                           WILDCAT :FIELD     
LOC         .                                                   :LOCATION  
CNTY        .                             GALVESTON LARGE BLOCK :LOCATION  
STAT        .                                             TEXAS :STATE     
CTRY        .                                     UNITED STATES :COUNTRY   
SRVC        .                                                   :SERVICE COMPANY
DATE        .                             9/13/2023 11:19:34 AM :LOG DATE  
API         .                                    42706403030000 :API NUMBER
UWI         .                                    42706403030000 :UNIQUE WELL ID
XCOORD      .                                   1005609.3052046 :SURFACE X 
YCOORD      .                                  10500547.7567395 :SURFACE Y 
LAT         .                                          28.92005 :LATITUDE  
LON         .                                        -94.984771 :LONGITUDE 
ELEV        .FT                                              96 :ELEVATION VALUE
ELEV_TYPE   .                                                KB :ELEVATION REFERENCE TYPE
~Curve Information Section
#MNEM       .UNIT                                      API CODE :CURVE DESCRIPTION
#------------------------------------------------------------------------------
DEPT        .FT                                                 :DEPTH     
DCAL        .IN                                                 :          
DPHI        .%                                                  :          
GR          .GAPI                                               :          
GR_NORM     .GAPI                                               :GammaRay Normalized
ILD         .OHMM                                               :          
ILM         .OHMM                                               :          
NPHI        .%                                                  :          
SFL         .OHMM                                               :          
SP          .MV                                                 :          
SP_NORM     .MV                                                 :SP Normalized
VSH_GR      .V/V                                                :Volume of Shale from GR
VSH_SP      .V/V                                                :Volume of Shale from SP
~A        DEPTH           DCAL           DPHI             GR        GR_NORM            ILD            ILM           NPHI            SFL             SP        SP_NORM         VSH_GR         VSH_SP
# ...
      9566.0000         8.1503        17.7265         71.754       93.33213         0.4268         0.4542        41.6887         0.5423       -40.6537       -2.70021              1      0.9879274
      9566.5000         8.3678        17.2328         70.606       91.62687         0.4257         0.4532        40.9377         0.5451       -40.3538      -2.318519              1      0.9945083
      9567.0000         8.5737        17.1521        69.6293       90.17158         0.4224         0.4487        40.4447         0.5501       -40.2695      -2.211227              1      0.9963582
      9567.5000         8.7677        17.7769        68.6196       88.66811         0.4184         0.4427        40.6596          0.556       -40.2416      -2.175717              1      0.9969704
      9568.0000         8.9565          18.41         67.668       87.24944         0.4155         0.4377        42.0785         0.5427       -40.2828      -2.228152              1      0.9960663
      9568.5000         9.0536        18.1212        67.1731       86.49724          0.413         0.4334        43.2578         0.5185       -40.3384      -2.298919              1      0.9948462
      9569.0000         8.9944        17.7234         66.682       85.75056         0.4111         0.4299         43.511         0.5017       -40.3323      -2.291151              1      0.9949802
      9569.5000         8.7872        17.5707        66.3314       85.20894         0.4094         0.4271        43.1707         0.4986       -40.3215      -2.277406              1      0.9952171
      9570.0000         8.2853        18.7308        67.3015       86.59459         0.4079         0.4252        43.7291         0.4987       -40.3776       -2.34881              1       0.993986
      9570.5000         7.9852        19.4498        69.0229       89.07665         0.4065         0.4232        44.8093         0.4995       -40.4474      -2.437643              1      0.9924544
      9571.0000         7.9121        17.8552        68.9807       88.98507         0.4064          0.421        45.9166         0.5008        -40.486      -2.486771              1      0.9916074
      9571.5000         7.9403        15.6597        66.0231       84.63905         0.4064         0.4184        46.0907         0.5024       -40.5193      -2.529151              1      0.9908767
      9572.0000          8.241        16.7559        62.9045       80.05807          0.406         0.4157        44.8779         0.5033       -40.5676      -2.590626              1      0.9898168
      9572.5000         8.6211        19.8077         61.539        78.0354         0.4054         0.4135          43.36         0.5039       -40.5953      -2.625879         0.9582       0.989209
      9573.0000         8.7941        21.2298        63.0047        80.1443         0.4042         0.4117        43.9288         0.5027       -40.6146      -2.650445              1      0.9887854
      9573.5000         8.8884        20.6274         65.103       83.17634         0.4027         0.4106        44.7189         0.5017       -40.6819      -2.736099              1      0.9873086
      9574.0000         8.8422        19.7965        65.3818       83.55319         0.4008         0.4102        44.1349         0.4974       -40.7547      -2.828753              1      0.9857112
      9574.5000         8.8025        18.8842        65.2009        83.2592         0.3972         0.4096        43.2865         0.4881       -40.8233      -2.916061              1      0.9842058
      9575.0000           8.75        18.2578        64.9838        82.9124         0.3934         0.4022        43.1027         0.4788       -40.8553      -2.956791              1      0.9835036
      9575.5000         8.7264        21.4152        64.5981       82.31955         0.3896         0.3933        44.1733         0.4675       -40.8516      -2.952081              1      0.9835848
      9576.0000         8.7322         23.911        64.5903       82.27816         0.3857         0.3886        45.1272         0.4542       -40.6916      -2.748445              1      0.9870958
      9576.5000         8.7809         24.058        64.8104       82.56935         0.3815         0.3823         45.436         0.4439       -40.5209       -2.53119              1      0.9908416
      9577.0000         8.8644        21.8913         64.562       82.17687         0.3762         0.3748         45.907         0.4393       -40.3565      -2.321951              1      0.9944491
      9577.5000         8.9646        18.5646        65.1558        83.0134         0.3701         0.3687        47.2204         0.4372       -40.1736       -2.08917              1      0.9984626
      9578.0000         9.0736        19.1782        66.1074       84.37206         0.3651         0.3651        48.0808         0.4312       -39.9868      -1.851427              1              1
      9578.5000         9.1614        24.0101        66.6392        85.1181         0.3605          0.363        46.9903          0.424       -39.9434      -1.796191              1              1
      9579.0000         9.2481        22.8596        65.6302       83.61568         0.3598         0.3613        45.2454         0.4186       -39.9001      -1.741081              1              1
      9579.5000         9.3366        16.3148        64.3201       81.67385         0.3581         0.3597        42.9669         0.4173       -39.8933      -1.732425              1              1
      9580.0000         9.2238        20.0474        63.9009       81.03213         0.3565         0.3584        41.1071         0.4172       -39.8895      -1.727589              1              1
      9580.5000         9.1033        23.8823        65.6118       83.49884          0.355         0.3568        42.2095         0.4173       -39.9122      -1.756482              1              1
      9581.0000         8.9987        23.0753        68.0212       86.98487         0.3535         0.3549         43.932         0.4172       -39.9618      -1.819607              1              1
      9581.5000         9.0263        22.2892        70.3252       90.31711         0.3522         0.3513        45.3525         0.4168       -40.4099      -2.389918              1      0.9932773
      9582.0000         9.0802        23.6154        71.9821       92.70502         0.3499         0.3478        46.4071         0.4175       -40.8804      -2.988737              1      0.9829528
      9582.5000         9.1239        25.0263        70.3516       90.29562         0.3477         0.3465        46.5964         0.4173       -41.2732      -3.488663              1      0.9743334
      9583.0000         9.1025        23.3901        68.8793       88.11711         0.3459         0.3449        45.7408         0.4172       -41.5497      -3.840573              1       0.968266
      9583.5000         8.9965        21.1499        68.7844       87.94862         0.3442         0.3434        44.6255          0.422       -41.7698      -4.120697              1      0.9634362
      9584.0000         8.8729        23.0706        69.9957       89.68626         0.3425         0.3425        44.8779         0.4148       -41.8243      -4.190061              1      0.9622403
      9584.5000         8.9373        25.9946        70.9236       91.01035         0.3406         0.3409        46.4694          0.409       -41.7526       -4.09881              1      0.9638136
      9585.0000         9.0462        23.6585        69.5422       88.96446         0.3387         0.3391        46.8625         0.4077       -41.6282      -3.940481              1      0.9665434
      9585.5000         9.2069        20.4181        68.2281        87.0168         0.3375          0.337        46.1978           0.41       -41.4063      -3.658062              1      0.9714127
      9586.0000         9.5295        23.0993        67.6957       86.20987         0.3358         0.3366        45.4276         0.4051       -41.2422      -3.449206              1      0.9750137
