#------------------------------------------------------------------------------
# Created by    : vladimir.rabinovich
# Created on    : 09/19/2023 17:21:20
#------------------------------------------------------------------------------
~Version Information Section
VERS.           2.0     :   CWLS log ASCII Standard - VERSION 2.0
WRAP.           NO      :   One line per depth step
~Well Information Section
#MNEM       .UNIT                                         VALUE :DESCRIPTION
#------------------------------------------------------------------------------
STRT        .FT                                            6712 :START DEPTH
STOP        .FT                                           10254 :STOP DEPTH
STEP        .FT                                             0.5 :STEP      
NULL        .                                           -999.25 :NULL      
COMP        .                                SHELL OFFSHORE INC :COMPANY   
WELL        .                               OCS G17145 ST00BP00 :WELL      
FLD         .                                           WILDCAT :FIELD     
LOC         .                                                   :LOCATION  
CNTY        .                           HIGH ISLAND LARGE BLOCK :LOCATION  
STAT        .                                             TEXAS :STATE     
CTRY        .                                     UNITED STATES :COUNTRY   
SRVC        .                                                   :SERVICE COMPANY
DATE        .                             9/13/2023 11:19:48 AM :LOG DATE  
API         .                                    42708404610000 :API NUMBER
UWI         .                                    42708404610000 :UNIQUE WELL ID
XCOORD      .                                  1236256.25309123 :SURFACE X 
YCOORD      .                                  10648843.7308139 :SURFACE Y 
LAT         .                                         29.336637 :LATITUDE  
LON         .                                        -94.268822 :LONGITUDE 
ELEV        .FT                                             110 :ELEVATION VALUE
ELEV_TYPE   .                                                KB :ELEVATION REFERENCE TYPE
~Curve Information Section
#MNEM       .UNIT                                      API CODE :CURVE DESCRIPTION
#------------------------------------------------------------------------------
DEPT        .FT                                                 :DEPTH     
CALI        .IN                                                 :          
CPCHM       .MMHO                                               :          
CPCM        .MMHO                                               :          
DFL         .OHMM                                               :          
DPHI        .%                                                  :          
DRHO        .G/C3                                               :          
DT          .US/F                                               :          
GR          .GAPI                                               :          
GR_NORM     .GAPI                                               :GammaRay Normalized
GRAM        .GAPI                                               :          
HDCN        .MMHO                                               :          
HDRS        .OHMM                                               :          
HMRS        .OHMM                                               :          
NPHI        .%                                                  :          
PE          .G/C3                                               :          
RACHM       .OHMM                                               :          
RACM        .OHMM                                               :          
RHOB        .G/C3                                               :          
ROPS        .F/HR                                               :          
RPCHM       .OHMM                                               :          
RPCM        .OHMM                                               :          
RPTHM       .MINS                                               :          
RPTM        .MINS                                               :          
SP01        .MV                                                 :          
TENS        .LBS                                                :          
VSH_GR      .V/V                                                :Volume of Shale from GR
~A        DEPTH           CALI          CPCHM           CPCM            DFL           DPHI           DRHO             DT             GR        GR_NORM           GRAM           HDCN           HDRS           HMRS           NPHI             PE          RACHM           RACM           RHOB           ROPS          RPCHM           RPCM          RPTHM           RPTM           SP01           TENS         VSH_GR
# ...
     10202.0000        -999.25       1795.299        -999.25         0.6539        -999.25        -999.25        119.064        -999.25       75.11368        82.8369       1737.867         0.5754         0.5831        -999.25        -999.25          0.562        -999.25        -999.25         20.926          0.557        -999.25       127.0095        -999.25       473.6626       4528.727      0.8960357
     10202.5000        -999.25       1762.838        -999.25         0.6393        -999.25        -999.25       116.6094        -999.25       74.83918        82.5929       1751.148         0.5711         0.5786        -999.25        -999.25          0.566        -999.25        -999.25         22.864          0.567        -999.25       127.4036        -999.25       473.4961       4518.148      0.8901953
     10203.0000        -999.25       1798.268        -999.25         0.6367        -999.25        -999.25       118.1593        -999.25        75.0563        82.7859       1768.586         0.5654         0.5723        -999.25        -999.25          0.565        -999.25        -999.25         22.864          0.556        -999.25       128.2676        -999.25       473.4468       4527.656      0.8948148
     10203.5000        -999.25       1818.051        -999.25         0.6339        -999.25        -999.25       122.1437        -999.25       74.34991         82.158       1785.199         0.5602         0.5666        -999.25        -999.25          0.563        -999.25        -999.25         17.273           0.55        -999.25       128.5698        -999.25       473.5508       4548.531      0.8797852
     10204.0000        -999.25       1789.713        -999.25         0.6171        -999.25        -999.25       123.5765        -999.25       74.78517        82.5449       1792.557         0.5579         0.5638        -999.25        -999.25          0.562        -999.25        -999.25         17.273          0.559        -999.25       127.7634        -999.25       474.0459       4567.648      0.8890462
     10204.5000        -999.25       1790.047        -999.25         0.6085        -999.25        -999.25       124.8156        -999.25       75.35443        83.0509       1801.408         0.5551         0.5609        -999.25        -999.25          0.561        -999.25        -999.25         20.121          0.559        -999.25       127.4546        -999.25       474.3984       4581.445      0.9011581
     10205.0000        -999.25       1834.357        -999.25         0.5889        -999.25        -999.25       125.3312        -999.25       74.94054         82.683       1823.223         0.5485         0.5544        -999.25        -999.25          0.553        -999.25        -999.25         20.121          0.545        -999.25       127.2169        -999.25       474.4956       4582.344      0.8923519
     10205.5000        -999.25       1860.213        -999.25         0.5639        -999.25        -999.25       123.5984        -999.25       74.57829         82.361       1840.383         0.5434         0.5494        -999.25        -999.25          0.551        -999.25        -999.25         19.365          0.538        -999.25       126.9941        -999.25       474.4673         4579.5      0.8846444
     10206.0000        -999.25       1780.529        -999.25         0.5723        -999.25        -999.25       121.4484        -999.25       75.17892        82.8949       1826.938         0.5474         0.5535        -999.25        -999.25          0.561        -999.25        -999.25         19.365          0.562        -999.25       126.8308        -999.25       474.2881       4569.211      0.8974239
     10206.5000        -999.25       1742.467        -999.25         0.6149        -999.25        -999.25       123.0125        -999.25       75.96755        83.5959       1796.584         0.5566         0.5633        -999.25        -999.25          0.576        -999.25        -999.25         19.479          0.574        -999.25       126.7068        -999.25       473.8281       4553.898      0.9142032
     10207.0000        -999.25       1725.232        -999.25         0.6254        -999.25        -999.25        127.625        -999.25        75.6953        83.3539       1780.188         0.5617         0.5689        -999.25        -999.25          0.581        -999.25        -999.25         19.479           0.58        -999.25        126.505        -999.25       473.6035       4541.898      0.9084106
     10207.5000        -999.25       1721.172        -999.25         0.6212        -999.25        -999.25       124.9578        -999.25       75.12043        82.8429       1783.895         0.5606         0.5679        -999.25        -999.25          0.583        -999.25        -999.25          19.35          0.581        -999.25        126.235        -999.25       473.5933       4536.211      0.8961794
     10208.0000        -999.25           1726        -999.25         0.6012        -999.25        -999.25       119.8281        -999.25        74.6738        82.4459       1792.713         0.5578         0.5647        -999.25        -999.25          0.583        -999.25        -999.25          19.35          0.579        -999.25       126.1481        -999.25        473.729       4540.711      0.8866765
     10208.5000        -999.25        -999.25        -999.25         0.6078        -999.25        -999.25       119.2328        -999.25       73.86043        81.7229       1806.707         0.5535         0.5596        -999.25        -999.25        -999.25        -999.25        -999.25         20.807        -999.25        -999.25        -999.25        -999.25       474.0513       4549.758      0.8693708
     10209.0000        -999.25        -999.25        -999.25         0.6002        -999.25        -999.25       120.3031        -999.25       73.57805        81.4719       1831.613          0.546         0.5515        -999.25        -999.25        -999.25        -999.25        -999.25         20.807        -999.25        -999.25        -999.25        -999.25       474.6553       4561.008      0.8633627
     10209.5000        -999.25        -999.25        -999.25         0.5814        -999.25        -999.25       121.5093        -999.25       74.17329         82.001       1850.709         0.5403         0.5462        -999.25        -999.25        -999.25        -999.25        -999.25         22.149        -999.25        -999.25        -999.25        -999.25       475.0493       4563.758      0.8760273
     10210.0000        -999.25        -999.25        -999.25         0.5987        -999.25        -999.25       121.6124        -999.25        75.4883        83.1699       1838.865         0.5438         0.5506        -999.25        -999.25        -999.25        -999.25        -999.25         22.149        -999.25        -999.25        -999.25        -999.25       475.3633       4560.703      0.9040063
     10210.5000        -999.25        -999.25        -999.25         0.6017        -999.25        -999.25       123.3546        -999.25       74.85954         82.611         1803.4         0.5545         0.5618        -999.25        -999.25        -999.25        -999.25        -999.25         20.121        -999.25        -999.25        -999.25        -999.25         475.52       4552.594      0.8906284
     10211.0000        -999.25        -999.25        -999.25         0.6234        -999.25        -999.25       123.5765        -999.25       73.63892         81.526       1771.057         0.5646         0.5721        -999.25        -999.25        -999.25        -999.25        -999.25         20.121        -999.25        -999.25        -999.25        -999.25       475.5933       4551.539      0.8646578
     10211.5000        -999.25        -999.25        -999.25         0.6361        -999.25        -999.25       119.3484        -999.25       72.99868        80.9569       1750.744         0.5712         0.5784        -999.25        -999.25        -999.25        -999.25        -999.25         22.289        -999.25        -999.25        -999.25        -999.25       475.4458       4554.648      0.8510358
