#------------------------------------------------------------------------------
# Created by    : vladimir.rabinovich
# Created on    : 09/19/2023 17:22:50
#------------------------------------------------------------------------------
~Version Information Section
VERS.           2.0     :   CWLS log ASCII Standard - VERSION 2.0
WRAP.           NO      :   One line per depth step
~Well Information Section
#MNEM       .UNIT                                         VALUE :DESCRIPTION
#------------------------------------------------------------------------------
STRT        .FT                                            2472 :START DEPTH
STOP        .FT                                            8382 :STOP DEPTH
STEP        .FT                                             0.5 :STEP      
NULL        .                                           -999.25 :NULL      
COMP        .                                 EPL OIL & GAS LLC :COMPANY   
WELL        .                               OCS G07215 ST00BP00 :WELL      
FLD         .                                 BRAZOS BLOCK 0376 :FIELD     
LOC         .                                                   :LOCATION  
CNTY        .                                BRAZOS LARGE BLOCK :LOCATION  
STAT        .                                             TEXAS :STATE     
CTRY        .                                     UNITED STATES :COUNTRY   
SRVC        .                                                   :SERVICE COMPANY
DATE        .                             9/13/2023 11:19:08 AM :LOG DATE  
API         .                                    42704402290000 :API NUMBER
UWI         .                                    42704402290000 :UNIQUE WELL ID
XCOORD      .                                  871225.230552878 :SURFACE X 
YCOORD      .                                  10399792.7272756 :SURFACE Y 
LAT         .                                         28.636239 :LATITUDE  
LON         .                                        -95.398308 :LONGITUDE 
ELEV        .FT                                              95 :ELEVATION VALUE
ELEV_TYPE   .                                                KB :ELEVATION REFERENCE TYPE
~Curve Information Section
#MNEM       .UNIT                                      API CODE :CURVE DESCRIPTION
#------------------------------------------------------------------------------
DEPT        .FT                                                 :DEPTH     
DT          .US/F                                               :          
GR          .GAPI                                               :          
GR_NORM     .GAPI                                               :GammaRay Normalized
ILD         .OHMM                                               :          
ILM         .OHMM                                               :          
SFL         .OHMM                                               :          
SP          .MV                                                 :          
SP_NORM     .MV                                                 :SP Normalized
VSH_GR      .V/V                                                :Volume of Shale from GR
VSH_SP      .V/V                                                :Volume of Shale from SP
~A        DEPTH             DT             GR        GR_NORM            ILD            ILM            SFL             SP        SP_NORM         VSH_GR         VSH_SP
# ...
      7568.0000       116.6201        76.7673        81.7536         0.6871         0.6753         0.7117       -28.9394       2.561068              1              1
      7568.5000       117.2565        78.3011       83.45761         0.6813         0.6664         0.7051       -28.8516       2.648287              1              1
      7569.0000       117.7903        79.3525       84.62562         0.6751         0.6595         0.7011       -28.9187       2.580606              1              1
      7569.5000       118.1661        77.3484       82.39862         0.6686         0.6555         0.6952       -28.8616       2.637125              1              1
      7570.0000       118.7401         72.623       77.14797         0.6622         0.6546          0.688       -28.6751       2.823044      0.9393185              1
      7570.5000       118.6438        70.5468       74.84087         0.6592         0.6543         0.6839       -28.2072       3.290365      0.8902312              1
      7571.0000       118.5035        70.1432       74.39223         0.6568         0.6546         0.6818       -27.9933       3.503683      0.8806857              1
      7571.5000       118.3613        70.1932       74.44756         0.6593         0.6585          0.683        -28.011       3.485403      0.8818631              1
      7572.0000       118.2396        70.1422       74.39069         0.6649         0.6647          0.686       -28.1465       3.349321      0.8806529              1
      7572.5000       118.0408        69.7083       73.90836         0.6738         0.6784          0.698       -27.7218       3.773441      0.8703907              1
      7573.0000       117.6572         68.736       72.82782         0.6851         0.6937         0.7162       -27.5699       3.924759      0.8474004              1
      7573.5000       116.9128        69.4736       73.64716          0.697         0.7075         0.7434       -27.7603        3.73378      0.8648332              1
      7574.0000       116.1222        71.5909        75.9995         0.7094         0.7178         0.7736       -27.9899       3.503597      0.9148831              1
      7574.5000       115.3492        74.0426        78.7234         0.7207         0.7262         0.7983       -28.0947       3.398218      0.9728384              1
      7575.0000       114.6741        75.5283       80.37397         0.7309         0.7294         0.8071       -28.3922       3.100136              1              1
      7575.5000       114.3342        74.2134       78.91276         0.7389         0.7234         0.8017       -28.4911       3.000656      0.9768672              1
      7576.0000       114.2612        72.7362       77.27121         0.7436         0.7178         0.7941       -28.6555       2.835674      0.9419406              1
      7576.5000        114.322        74.3674       79.08345         0.7483         0.7144           0.79       -28.7932       2.697395       0.980499              1
      7577.0000       114.4175        76.8768       81.87146         0.7464         0.7128         0.7881       -28.8964       2.593613              1              1
      7577.5000       114.5187        78.9724       84.19968         0.7445         0.7131         0.7875       -28.9377       2.551733              1              1
      7578.0000       114.6359        80.6758       86.09214         0.7426         0.7166          0.777       -28.7979       2.690952              1              1
      7578.5000       114.8562        80.3365       85.71494         0.7409          0.718          0.747       -28.5934       2.894873              1              1
      7579.0000       115.1398        78.0172       83.13772         0.7392         0.7194         0.7382       -28.2821       3.205589              1              1
      7579.5000       115.4779        75.6208       80.47484         0.7381         0.7167         0.7263       -27.8776        3.60951              1              1
      7580.0000       115.8344        75.8158       80.69131         0.7379          0.711         0.7092       -27.4012       4.085329              1              1
      7580.5000       116.3062        77.2775        82.3152         0.7378         0.7037         0.6946       -26.9615       4.524448              1              1
      7581.0000       116.9012        77.9697       83.08411         0.7376         0.6961         0.6986       -27.2827       4.202667              1              1
      7581.5000       117.4689        77.0453       82.05679         0.7374         0.7064         0.7231       -27.8475       3.637287              1              1
      7582.0000       117.6079        76.2164       81.13557         0.7371         0.7156         0.7713       -28.4559       3.028307              1              1
      7582.5000       116.4672        75.4891       80.32724         0.7367         0.7221         0.8315       -28.7783       2.705326              1              1
      7583.0000       114.4924        75.6888       80.54892         0.7392         0.7254          0.844       -29.1136       2.369446              1              1
      7583.5000       113.0084         76.748        81.7256         0.7438          0.729         0.7966       -29.4661       2.016363              1              1
      7584.0000       112.2955        77.5319       82.59638         0.7478         0.7327         0.7612       -29.7142       1.767685              1              1
      7584.5000       113.7832        76.5376       81.49139         0.7476         0.7343         0.7467       -29.9004       1.580902              1              1
      7585.0000       115.4276        75.5968       80.44585         0.7473         0.7352         0.7761       -29.5142       1.966522              1              1
      7585.5000       115.8162        75.6895       80.54864         0.7477         0.7347         0.7844       -29.0042       2.475941              1              1
      7586.0000       115.2976        76.7589       81.73666         0.7479         0.7337         0.7715       -28.4857        2.99386              1              1
      7586.5000       114.0917        76.4799       81.42644         0.7463         0.7364         0.7534       -28.6682        2.81078              1              1
      7587.0000       113.1069        74.9232       79.69656         0.7448         0.7402         0.7354       -29.0938         2.3846      0.9935439              1
      7587.5000       113.0176        73.6528       78.28479         0.7428         0.7433         0.7229       -29.6057       1.872118      0.9635062              1
      7588.0000       113.5458        74.1219        78.8058         0.7409         0.7462         0.7241       -29.9738       1.503437      0.9745915              1
      7588.5000        114.688        75.7509        80.6156         0.7385         0.7441         0.7746       -30.4303       1.046356              1              1
      7589.0000       114.0625        77.2329       82.26205         0.7357          0.741         0.8402       -30.9807      0.4953766              1              1
      7589.5000       112.0587        78.2422       83.38329         0.7347         0.7357         0.8294       -31.7602     -0.2847061              1              1
      7590.0000       110.3658        78.2744       83.41885         0.7358         0.7325          0.789       -32.6576      -1.182686              1      0.9964868
      7590.5000       109.7197        77.8705       82.96986         0.7375         0.7325           0.75       -33.5009      -2.026567              1      0.9802583
      7591.0000       111.4199         78.158       83.28909         0.7393         0.7277          0.732       -33.7929      -2.319147              1      0.9746318
      7591.5000       113.2319        78.7059       83.89766         0.7444         0.7225         0.7292       -33.5406      -2.067429              1      0.9794725
      7592.0000       114.4585        77.4446       82.49601         0.7501          0.727         0.7162       -33.1538       -1.68121              1      0.9868998
