#------------------------------------------------------------------------------
# Created by    : vladimir.rabinovich
# Created on    : 09/19/2023 17:20:39
#------------------------------------------------------------------------------
~Version Information Section
VERS.           2.0     :   CWLS log ASCII Standard - VERSION 2.0
WRAP.           NO      :   One line per depth step
~Well Information Section
#MNEM       .UNIT                                         VALUE :DESCRIPTION
#------------------------------------------------------------------------------
STRT        .FT                                             502 :START DEPTH
STOP        .FT                                           11475 :STOP DEPTH
STEP        .FT                                             0.5 :STEP      
NULL        .                                           -999.25 :NULL      
COMP        .                                      SHELL OIL CO :COMPANY   
WELL        .                                OCS 00730 ST00BP00 :WELL      
FLD         .                                           WILDCAT :FIELD     
LOC         .                                                   :LOCATION  
CNTY        .                             GALVESTON LARGE BLOCK :LOCATION  
STAT        .                                             TEXAS :STATE     
CTRY        .                                     UNITED STATES :COUNTRY   
SRVC        .                                                   :SERVICE COMPANY
DATE        .                             9/13/2023 11:19:42 AM :LOG DATE  
API         .                                    42706000250000 :API NUMBER
UWI         .                                    42706000250000 :UNIQUE WELL ID
XCOORD      .                                  958538.282477158 :SURFACE X 
YCOORD      .                                   10357465.718335 :SURFACE Y 
LAT         .                                         28.524406 :LATITUDE  
LON         .                                        -95.123893 :LONGITUDE 
ELEV        .FT                                              80 :ELEVATION VALUE
ELEV_TYPE   .                                                KB :ELEVATION REFERENCE TYPE
~Curve Information Section
#MNEM       .UNIT                                      API CODE :CURVE DESCRIPTION
#------------------------------------------------------------------------------
DEPT        .FT                                                 :DEPTH     
ASN         .OHMM                                               :          
CILD        .MMHO                                               :          
ILD         .OHMM                                               :          
LAT         .OHMM                                               :          
LN          .OHMM                                               :          
SP          .MV                                                 :          
SP_NORM     .MV                                                 :SP Normalized
VSH_SP      .V/V                                                :Volume of Shale from SP
~A        DEPTH            ASN           CILD            ILD            LAT             LN             SP        SP_NORM         VSH_SP
# ...
      7788.5000         0.8831       1446.547         0.8084        -999.25        -999.25       -46.3648     -0.0233345              1
      7789.0000         0.8944       1422.426          0.816        -999.25        -999.25       -46.1936      0.1478653              1
      7789.5000         0.9057       1400.238         0.8235        -999.25        -999.25       -46.0226      0.3188667              1
      7790.0000          0.917       1392.746          0.831        -999.25        -999.25       -45.9758      0.3656654              1
      7790.5000         0.9333        1387.51         0.8384        -999.25        -999.25       -46.5551     -0.2136345              1
      7791.0000         0.9507       1369.031         0.8331        -999.25        -999.25       -47.1337     -0.7922363              1
      7791.5000         0.9681       1350.529         0.8278        -999.25        -999.25       -47.7266      -1.385136      0.9886725
      7792.0000         0.9699       1335.426         0.8225        -999.25        -999.25       -48.3433      -2.001835      0.9705343
      7792.5000         0.9684       1328.324         0.8172        -999.25        -999.25        -48.961      -2.619534      0.9523667
      7793.0000         0.9569       1331.873         0.8119        -999.25        -999.25       -49.5776      -3.236134      0.9342313
      7793.5000         0.9454       1352.418         0.8065        -999.25        -999.25       -50.3539      -4.012436      0.9113989
      7794.0000         0.9339       1373.207         0.7941        -999.25        -999.25       -50.2845      -3.943035      0.9134402
      7794.5000         0.9224       1392.842         0.7818        -999.25        -999.25       -49.5633      -3.221836      0.9346519
      7795.0000         0.9109       1411.609         0.7695        -999.25        -999.25       -48.8608      -2.519337      0.9553136
      7795.5000         0.8994       1430.355         0.7572        -999.25        -999.25       -48.2375      -1.896034       0.973646
      7796.0000         0.8881       1451.678         0.7448        -999.25        -999.25       -47.6143      -1.272835      0.9919754
      7796.5000         0.8814       1475.266         0.7325        -999.25        -999.25       -46.9911     -0.6496353              1
      7797.0000         0.8747        1499.41         0.7265        -999.25        -999.25       -46.3679    -0.02643585              1
      7797.5000         0.8681       1524.773          0.729        -999.25        -999.25       -45.7446      0.5968666              1
      7798.0000         0.8614       1538.479         0.7314        -999.25        -999.25       -45.1214       1.220066              1
      7798.5000         0.8547       1546.529         0.7339        -999.25        -999.25       -44.4982       1.843266              1
      7799.0000         0.8543       1547.963         0.7363        -999.25        -999.25       -44.3605       1.980965              1
      7799.5000         0.8572       1541.877         0.7388        -999.25        -999.25       -44.2278       2.113667              1
      7800.0000         0.8601       1535.791         0.7412        -999.25        -999.25       -44.0952       2.246265              1
      7800.5000         0.8631       1529.705         0.7437        -999.25        -999.25       -44.1282       2.213264              1
      7801.0000          0.866       1523.607         0.7461        -999.25        -999.25       -44.3168       2.024666              1
      7801.5000         0.8689       1512.857         0.7502        -999.25        -999.25       -44.5053       1.836166              1
      7802.0000         0.8685       1501.641         0.7556        -999.25        -999.25       -44.6939       1.647564              1
      7802.5000         0.8673       1490.414         0.7609        -999.25        -999.25       -44.8824       1.459064              1
      7803.0000         0.8661       1479.186         0.7663        -999.25        -999.25        -45.071       1.270466              1
      7803.5000         0.8681       1467.959         0.7716        -999.25        -999.25       -45.3069       1.034565              1
      7804.0000         0.8707       1457.619          0.777        -999.25        -999.25        -45.547      0.7944641              1
      7804.5000         0.8733       1447.658         0.7824        -999.25        -999.25        -45.787      0.5544662              1
      7805.0000         0.8784       1437.686         0.7877        -999.25        -999.25        -46.027      0.3144646              1
      7805.5000         0.8918       1427.713         0.7931        -999.25        -999.25       -46.2668     0.07466507              1
      7806.0000         0.9052        1417.74         0.7984        -999.25        -999.25       -46.5069     -0.1654358              1
      7806.5000         0.9186       1401.682         0.8038        -999.25        -999.25        -46.947     -0.6055336              1
      7807.0000          0.932        1383.09         0.8034        -999.25        -999.25       -47.7905      -1.449036       0.986793
      7807.5000         0.9454         1364.5         0.8015        -999.25        -999.25       -48.6251      -2.283634      0.9622461
      7808.0000         0.9448       1349.852         0.7996        -999.25        -999.25       -49.4003      -3.058834       0.939446
      7808.5000         0.9341       1344.383         0.7977        -999.25        -999.25       -49.2803      -2.938835      0.9429755
      7809.0000         0.9183       1338.908         0.7957        -999.25        -999.25       -48.7953      -2.453835      0.9572402
      7809.5000         0.9088       1340.756         0.7938        -999.25        -999.25       -48.3108      -1.969334      0.9714902
      7810.0000         0.9005       1359.369         0.7919        -999.25        -999.25       -47.8552      -1.513737      0.9848901
      7810.5000         0.8923       1377.982         0.7912        -999.25        -999.25       -47.5722      -1.230736      0.9932137
      7811.0000         0.8908       1398.482         0.7908        -999.25        -999.25       -47.2892     -0.9477348              1
      7811.5000         0.8906       1420.717         0.7905        -999.25        -999.25       -47.0062     -0.6647339              1
      7812.0000         0.8903       1442.949         0.7901        -999.25        -999.25       -46.7233     -0.3818359              1
      7812.5000           0.89       1465.182         0.7897        -999.25        -999.25         -46.44    -0.09853363              1
      7813.0000         0.8898       1464.428         0.7893        -999.25        -999.25        -46.157      0.1844635              1
      7813.5000         0.9007       1462.273          0.789        -999.25        -999.25        -45.874      0.4674644              1
      7814.0000         0.9133       1442.416         0.7918        -999.25        -999.25        -45.591      0.7504654              1
      7814.5000          0.926       1421.516         0.7994        -999.25        -999.25        -45.308       1.033466              1
      7815.0000         0.9387       1400.615         0.8069        -999.25        -999.25       -45.2166       1.124866              1
      7815.5000         0.9516       1379.715         0.8145        -999.25        -999.25       -45.7501      0.5913658              1
      7816.0000         0.9666       1358.814          0.822        -999.25        -999.25       -46.7797     -0.4382362              1
      7816.5000         0.9695       1342.445         0.8295        -999.25        -999.25       -47.8092      -1.467735      0.9862431
      7817.0000         0.9577       1330.096         0.8371        -999.25        -999.25       -48.8387      -2.497234      0.9559637
      7817.5000         0.9458       1317.746         0.8451        -999.25        -999.25       -49.4499      -3.108437      0.9379871
