#------------------------------------------------------------------------------
# Created by    : vladimir.rabinovich
# Created on    : 09/19/2023 17:22:54
#------------------------------------------------------------------------------
~Version Information Section
VERS.           2.0     :   CWLS log ASCII Standard - VERSION 2.0
WRAP.           NO      :   One line per depth step
~Well Information Section
#MNEM       .UNIT                                         VALUE :DESCRIPTION
#------------------------------------------------------------------------------
STRT        .FT                                             494 :START DEPTH
STOP        .FT                                            6854 :STOP DEPTH
STEP        .FT                                             0.5 :STEP      
NULL        .                                           -999.25 :NULL      
COMP        .                          HUMBLE OIL & REFINING CO :COMPANY   
WELL        .                                     ST TR 00247-L :WELL      
FLD         .                                           WILDCAT :FIELD     
LOC         .                                                   :LOCATION  
CNTY        .                             GALVESTON LARGE BLOCK :LOCATION  
STAT        .                                             TEXAS :STATE     
CTRY        .                                     UNITED STATES :COUNTRY   
SRVC        .                                                   :SERVICE COMPANY
DATE        .                             9/13/2023 11:19:42 AM :LOG DATE  
API         .                                    42706000180000 :API NUMBER
UWI         .                                    42706000180000 :UNIQUE WELL ID
XCOORD      .                                  979775.061814126 :SURFACE X 
YCOORD      .                                  10543201.0009156 :SURFACE Y 
LAT         .                                        29.0361078 :LATITUDE  
LON         .                                       -95.0678326 :LONGITUDE 
ELEV        .FT                                              11 :ELEVATION VALUE
ELEV_TYPE   .                                                KB :ELEVATION REFERENCE TYPE
~Curve Information Section
#MNEM       .UNIT                                      API CODE :CURVE DESCRIPTION
#------------------------------------------------------------------------------
DEPT        .FT                                                 :DEPTH     
LAT         .OHMM                                               :          
LN          .OHMM                                               :          
SN          .OHMM                                               :          
SP          .MV                                                 :          
SP_NORM     .MV                                                 :SP Normalized
VSH_SP      .V/V                                                :Volume of Shale from SP
~A        DEPTH            LAT             LN             SN             SP        SP_NORM         VSH_SP
       494.0000         0.0403         0.0452         0.0289       -59.1801      -3.082539      0.9281883
       494.5000         0.0424         0.0485         0.0292       -59.1776       -3.08004      0.9282745
       495.0000         0.0444         0.0518         0.0295       -59.1912      -3.093639      0.9278055
       495.5000         0.0464         0.0552         0.0298       -59.2066      -1.626724      0.9783888
       496.0000         0.0484         0.0623         0.1569       -59.2661       2.263165              1
       496.5000         0.0504         0.5293         1.1606       -59.6486       5.830059              1
       497.0000         0.0524         1.4519         1.3303       -64.5736       4.854446              1
       497.5000         0.0458         1.6592            1.5       -79.4263      -6.048866      0.8259012
       498.0000         0.0377          1.845         1.6565       -83.9253      -6.598473      0.8069492
       498.5000         0.0297         1.9739         1.7993       -88.2834      -7.007187      0.7928556
       499.0000         0.0216         2.1138         1.9442       -90.6981      -5.472488      0.8457763
       499.5000         0.0135         2.2803         2.0995       -92.3571      -3.182106       0.924755
       500.0000         0.0063         2.3678         2.1959       -93.4961     -0.3717117              1
       500.5000          0.002         2.4229         2.2728       -94.5076       2.566177              1
       501.0000              0         2.4535         2.2986       -95.2478       2.639023              1
       501.5000              0         2.4681         2.3009       -95.9883       2.270241              1
       502.0000              0         2.4827         2.2759        -96.705        1.92524              1
       502.5000              0         2.4914         2.2477       -97.4061       1.595856              1
       503.0000              0         2.4989         2.2194       -98.1073       1.266357              1
       503.5000              0         2.5065         2.1912       -98.6956       1.049767              1
       504.0000              0          2.514         2.1774       -99.2324      0.8846741              1
       504.5000              0         2.5216         2.1732       -99.6918      0.7969742              1
       505.0000              0         2.5291         2.2615       -100.042      0.8184891              1
       505.5000              0         2.5323         2.3169      -100.3922      0.8399963              1
       506.0000              0          2.535         2.3035      -100.6843      0.9196014              1
       506.5000              0         2.5377         2.2901      -100.9303       1.045311              1
       507.0000         0.0108         2.5404         2.2725      -101.0216       1.325722              1
       507.5000         0.0234         2.5431          2.253       -100.974       1.465027              1
       508.0000          0.036         2.5458         2.2336      -100.9323       1.506729              1
       508.5000         0.0398         2.5515         2.2179      -100.9297       1.509323              1
       509.0000         0.0411         2.5574         2.2765      -100.9271       1.511925              1
       509.5000         0.0424         2.5634          2.335      -100.9954       1.443626              1
       510.0000         0.0188         2.5814         2.3936      -101.1268       1.312225              1
       510.5000              0         2.6038         2.4521      -101.2582       1.180824              1
       511.0000              0         2.6261         2.5052      -101.3851       1.053925              1
       511.5000              0         2.6484         2.5523      -101.5018      0.9372253              1
       512.0000              0         2.6762         2.5173      -101.6558       0.783226              1
       512.5000              0         2.7046         2.4769       -101.849      0.5900269              1
       513.0000              0         2.7245         2.4365      -102.1075      0.3315277              1
       513.5000          0.071         2.7443         2.3961      -102.4421   -0.003074646              1
       514.0000         0.4782         2.7638         2.3557      -102.8204     -0.3813705              1
       514.5000           0.76         2.7811         2.3153      -103.3561     -0.9170761              1
       515.0000         1.0026         2.7984         2.2749      -103.8916      -1.452621      0.9843923
       515.5000         1.1408          2.805         2.2257      -104.4324      -2.001648      0.9654604
       516.0000         1.2614         2.7928         2.1679      -104.8151      -2.392563      0.9519806
       516.5000         1.3825         2.7136           2.11      -103.5605      -1.146187      0.9949591
       517.0000         1.5082         2.4958         2.0521      -102.8854     -0.4793091              1
       517.5000         1.6038         2.2935         1.9943      -103.3906     -0.9927368              1
       518.0000         1.6598         2.2375         1.9363      -104.1719      -1.782257      0.9730256
       518.5000         1.7157         2.1825         1.8762      -104.6871      -2.305687      0.9549763
       519.0000         1.7802         2.1435         1.8161      -103.6329      -1.259705      0.9910446
       519.5000         1.8455         2.1045         1.7559      -102.0968      0.2681656              1
       520.0000         1.9107         2.0753         1.6958      -101.3008       1.055946              1
       520.5000         1.9759          2.053         1.6513      -100.6882       1.660324              1
       521.0000         2.1794         2.0306         1.6152      -101.0142       1.326103              1
       521.5000          2.359         2.0083         1.5792      -101.3184        1.01368              1
       522.0000         2.4638         2.0014         1.5431      -101.3943      0.9295502              1
       522.5000         2.5215         1.9957         1.5071      -101.4701      0.8455276              1
       523.0000         2.5555           1.99         1.4761      -101.5399      0.7675018              1
       523.5000         2.5822         1.9897         1.4571      -101.5193      0.7798767              1
       524.0000         2.5513          2.001         1.4381      -101.4988      0.7921524              1
       524.5000         2.4911         2.0123         1.4191      -101.4783      0.8044357              1
       525.0000         2.4309         2.0236         1.4001      -101.4724      0.8021164              1
       525.5000         2.3706         2.0349         1.4015      -101.6815      0.5847855              1
       526.0000         2.3242         2.0462         1.4145      -101.8906      0.3674622              1
       526.5000         2.2786         2.0576         1.4276      -102.0997      0.1501389              1
       527.0000         2.2329         2.0853         1.4406       -102.309    -0.06738281              1
       527.5000         2.1872         2.1174         1.4537       -102.415     -0.1816101              1
       528.0000         2.1415         2.1495         1.4667      -102.4968      -0.271637              1
       528.5000         2.0996         2.1817         1.5021      -102.5785      -0.361557              1
       529.0000         2.0607         2.2138         1.5465      -102.6245     -0.4157715              1
       529.5000         2.0219         2.2274         1.5908      -102.6145     -0.4140015              1
       530.0000          1.983         2.2396         1.6352      -102.6045     -0.4122238              1
       530.5000         1.9441         2.2517         1.6796      -102.5945     -0.4104462              1
       531.0000         1.9052         2.2639         1.7105      -102.5845     -0.4086761              1
       531.5000         1.8818         2.2712         1.7398      -102.6731     -0.5055008              1
