#------------------------------------------------------------------------------
# Created by    : vladimir.rabinovich
# Created on    : 09/19/2023 17:21:35
#------------------------------------------------------------------------------
~Version Information Section
VERS.           2.0     :   CWLS log ASCII Standard - VERSION 2.0
WRAP.           NO      :   One line per depth step
~Well Information Section
#MNEM       .UNIT                                         VALUE :DESCRIPTION
#------------------------------------------------------------------------------
STRT        .FT                                            3376 :START DEPTH
STOP        .FT                                            7813 :STOP DEPTH
STEP        .FT                                             0.5 :STEP      
NULL        .                                           -999.25 :NULL      
COMP        .                                MARINER ENERGY INC :COMPANY   
WELL        .                               OCS G27491 ST00BP00 :WELL      
FLD         .                                           WILDCAT :FIELD     
LOC         .                                                   :LOCATION  
CNTY        .                             GALVESTON LARGE BLOCK :LOCATION  
STAT        .                                             TEXAS :STATE     
CTRY        .                                     UNITED STATES :COUNTRY   
SRVC        .                                                   :SERVICE COMPANY
DATE        .                             9/13/2023 11:19:33 AM :LOG DATE  
API         .                                    42706404580000 :API NUMBER
UWI         .                                    42706404580000 :UNIQUE WELL ID
XCOORD      .                                  1038987.60828679 :SURFACE X 
YCOORD      .                                  10490484.8642062 :SURFACE Y 
LAT         .                                         28.893877 :LATITUDE  
LON         .                                         -94.87996 :LONGITUDE 
ELEV        .FT                                             110 :ELEVATION VALUE
ELEV_TYPE   .                                                KB :ELEVATION REFERENCE TYPE
~Curve Information Section
#MNEM       .UNIT                                      API CODE :CURVE DESCRIPTION
#------------------------------------------------------------------------------
DEPT        .FT                                                 :DEPTH     
CALI        .IN                                                 :          
DPSS        .%                                                  :          
DRHO        .G/CM3                                              :          
GR          .GAPI                                               :          
GR_NORM     .GAPI                                               :GammaRay Normalized
M2R1        .OHMM                                               :          
M2R2        .OHMM                                               :          
M2R3        .OHMM                                               :          
M2R6        .OHMM                                               :          
M2R9        .OHMM                                               :          
M2RX        .OHMM                                               :          
NPSS        .%                                                  :Neutron Porosity Sandstone
SP          .MV                                                 :          
SP_NORM     .MV                                                 :SP Normalized
TENS        .LB                                                 :          
VSH_GR      .V/V                                                :Volume of Shale from GR
VSH_SP      .V/V                                                :Volume of Shale from SP
~A        DEPTH           CALI           DPSS           DRHO             GR        GR_NORM           M2R1           M2R2           M2R3           M2R6           M2R9           M2RX           NPSS             SP        SP_NORM           TENS         VSH_GR         VSH_SP
# ...
      4936.0000         10.635          21.12          0.052        98.1633       102.2607         0.6278         0.6222         0.6278         0.6335         0.6278         0.6451           41.4       -43.6735      0.6378784              0              1              1
      4936.5000         10.635          21.84          0.052        95.7143       99.10091         0.6055         0.6165         0.6222         0.6335         0.6278          0.651          41.28        -42.449       1.862377              0              1              1
      4937.0000         10.635          22.68          0.056        92.6531       95.15125         0.6055         0.6165         0.6222         0.6278         0.6393          0.651          41.16       -42.8571       1.454277              0              1              1
      4937.5000         10.635          23.16          0.056        91.2245       93.30804            0.6         0.6165         0.6222         0.6278         0.6393         0.6629          41.52       -43.6735      0.6378784              0              1              1
      4938.0000         10.635          23.28          0.056        91.6327       93.83469            0.6         0.6165         0.6222         0.6278         0.6393         0.6629          41.76       -44.0816      0.2297783              0              1              1
      4938.5000         10.635           22.8          0.056        93.0612        95.6778            0.6         0.6165         0.6222         0.6278         0.6393         0.6569          41.28       -44.0816      0.2297783              0              1              1
      4939.0000         10.635           22.2          0.056        94.0816       96.99435         0.6055         0.6165         0.6278         0.6278         0.6451         0.6569          41.52       -43.6735      0.6378784              0              1              1
      4939.5000         10.635          21.96          0.052        93.4694       96.20447         0.6055         0.6165         0.6278         0.6335         0.6451         0.6629        42.3673       -43.2653       1.046078              0              1              1
      4940.0000         10.635          22.56          0.044        94.0816       96.99435            0.6         0.6165         0.6278         0.6335         0.6451         0.6629        42.9796       -43.2653       1.046078              0              1              1
      4940.5000        10.6362          23.16          0.044        96.3288       99.89376         0.5946         0.6165         0.6278         0.6335         0.6451         0.6629        42.6119       -43.2633       1.048077              0              1              1
      4941.0000        10.7182          23.64          0.044        98.7775       103.0531         0.5946         0.6165         0.6278         0.6335         0.6393         0.6569          41.76         -43.26        1.05138              0              1              1
      4941.5000        10.7202          23.88          0.052         97.761       101.7416         0.6055         0.6165         0.6278         0.6335         0.6451          0.651          41.28       -43.6637      0.6476784              0              1              1
      4942.0000        10.7622          23.64           0.06        94.3066       97.28466         0.6165         0.6451         0.6393         0.6451         0.6569         0.6569          40.92       -44.0667      0.2446785              0              1              1
      4942.5000        10.7642          23.04          0.064        91.0624       93.09888         0.6629          0.669          0.669          0.669         0.6751         0.6812           40.2       -44.8751     -0.5637207              0              1              1
      4943.0000        10.8062           22.2           0.06         86.456       87.15557         0.7063         0.6937         0.6937            0.7         0.6937         0.7063          38.64       -46.4935      -2.182121              0              1      0.9962058
      4943.5000        10.8482          21.72          0.048         82.266       81.74949         0.7254         0.7126         0.7126         0.7126         0.7063            0.7          37.32       -48.9195       -4.60812              0              1      0.9456642
      4944.0000        10.8502          21.84           0.04         78.076       76.34342         0.7319         0.7126         0.7063         0.7063            0.7         0.6874          37.56       -51.7456      -7.434223              0      0.9222004       0.886787
      4944.5000        10.8122          22.32          0.036         76.886       74.80805         0.7319         0.6937         0.6874         0.6812         0.6751          0.669          38.04       -54.5661      -10.25472              0       0.889533      0.8280266
      4945.0000        10.7742          22.92          0.032         75.896       73.53072         0.7384         0.6751         0.6629         0.6569          0.651         0.6451           38.4       -56.5724      -12.26102              0      0.8623558      0.7862287
      4945.5000        10.7362          23.16          0.032         74.106       71.22121         0.7384          0.669          0.651         0.6451         0.6393         0.6278          38.28        -57.767      -13.45562              0      0.8132172      0.7613413
      4946.0000        10.6982          23.64          0.032         72.916       69.68583         0.7384         0.6569         0.6451         0.6393         0.6335         0.6222          37.92       -58.9593      -14.64792              0      0.7805496      0.7365016
      4946.5000        10.7002        24.2449          0.028         71.526       67.89241         0.7384          0.651         0.6335         0.6278         0.6222          0.611          37.32       -60.1491      -15.83772              0      0.7423917      0.7117141
      4947.0000        10.7022        24.9796           0.02         71.136       67.38922         0.7189         0.6222          0.611         0.6055            0.6         0.5892          35.88        -62.928      -18.61662              0      0.7316856      0.6538203
      4947.5000        10.7042        25.9592          0.016         71.146       67.40212         0.6751         0.5892         0.5838         0.5785         0.5733         0.5629          34.56        -65.308      -20.99662              0      0.7319601      0.6500563
      4948.0000        10.6262        26.3265          0.016         72.556       69.22134         0.6335         0.5578         0.5578         0.5527         0.5477         0.5378          33.12        -66.488      -22.17662              0      0.7706669      0.6303896
      4948.5000        10.6282        26.0816          0.016         74.566       71.81472         0.5946         0.5428         0.5281         0.5233         0.5186         0.5186          32.28        -67.268      -22.95662              0      0.8258451      0.6173897
      4949.0000        10.5902        25.7143          0.024         76.376       74.15002         0.5946         0.5477         0.5378         0.5329         0.5281         0.5186          33.72        -66.048      -21.73662              0      0.8755324       0.637723
      4949.5000        10.5522        24.8571          0.028         78.186       76.48535          0.611         0.5785         0.5681         0.5629         0.5578         0.5477          36.48        -63.628      -19.31662              0      0.9252203      0.6780564
      4950.0000        10.5542        24.1224          0.028         82.996       82.69138         0.6278            0.6         0.5946         0.5892         0.5785         0.5733             39       -58.4074      -14.09602              0              1      0.7650663
      4950.5000         10.555          23.52         0.0279           87.4       88.37355         0.6278         0.6055         0.5946         0.5892         0.5892         0.5838          40.32       -52.4046       -8.09322         0.6122              1       0.865113
