#------------------------------------------------------------------------------
# Created by    : vladimir.rabinovich
# Created on    : 09/19/2023 17:21:46
#------------------------------------------------------------------------------
~Version Information Section
VERS.           2.0     :   CWLS log ASCII Standard - VERSION 2.0
WRAP.           NO      :   One line per depth step
~Well Information Section
#MNEM       .UNIT                                         VALUE :DESCRIPTION
#------------------------------------------------------------------------------
STRT        .FT                                            2869 :START DEPTH
STOP        .FT                                           10002 :STOP DEPTH
STEP        .FT                                             0.5 :STEP      
NULL        .                                           -999.25 :NULL      
COMP        .                          SEAGULL ENERGY E & P INC :COMPANY   
WELL        .                               OCS G06145 ST00BP00 :WELL      
FLD         .                                           WILDCAT :FIELD     
LOC         .                                                   :LOCATION  
CNTY        .                           HIGH ISLAND LARGE BLOCK :LOCATION  
STAT        .                                             TEXAS :STATE     
CTRY        .                                     UNITED STATES :COUNTRY   
SRVC        .                                                   :SERVICE COMPANY
DATE        .                             9/13/2023 11:19:59 AM :LOG DATE  
API         .                                    42708402850000 :API NUMBER
UWI         .                                    42708402850000 :UNIQUE WELL ID
XCOORD      .                                  1277324.30822617 :SURFACE X 
YCOORD      .                                   10672684.104362 :SURFACE Y 
LAT         .                                         29.403374 :LATITUDE  
LON         .                                        -94.140646 :LONGITUDE 
ELEV        .FT                                              88 :ELEVATION VALUE
ELEV_TYPE   .                                                KB :ELEVATION REFERENCE TYPE
~Curve Information Section
#MNEM       .UNIT                                      API CODE :CURVE DESCRIPTION
#------------------------------------------------------------------------------
DEPT        .FT                                                 :DEPTH     
CALI        .IN                                                 :          
DPHI        .%                                                  :          
DRHO        .G/C3                                               :          
GR          .GAPI                                               :          
GR_NORM     .GAPI                                               :GammaRay Normalized
ILD         .OHMM                                               :          
ILM         .OHMM                                               :          
NPHI        .%                                                  :          
SFL         .OHMM                                               :          
SP          .MV                                                 :          
SP_NORM     .MV                                                 :SP Normalized
VSH_GR      .V/V                                                :Volume of Shale from GR
VSH_SP      .V/V                                                :Volume of Shale from SP
~A        DEPTH           CALI           DPHI           DRHO             GR        GR_NORM            ILD            ILM           NPHI            SFL             SP        SP_NORM         VSH_GR         VSH_SP
# ...
      3458.0000        14.9282        36.8179        -0.0191        40.9425       48.82178         0.5492         0.6355          38.29         0.7482       -26.4678      -38.88736      0.3366336      0.4444664
      3458.5000        14.9317        41.2784        -0.0197        38.8246       45.93246         0.5048         0.6064        43.0897         0.7434       -28.1518      -40.82052      0.2751588      0.4168497
      3459.0000        14.8237        39.6229        -0.0178        39.0334       46.21799         0.4625         0.5842        45.6235         0.7321       -28.9456      -41.73177      0.2812339      0.4038318
      3459.5000        14.6069        35.6544        -0.0134        40.2214       47.83966         0.4187         0.5623        41.2057         0.7086        -29.451      -42.31195      0.3157375      0.3955436
      3460.0000        14.1835         32.839        -0.0087        39.9773       47.50719         0.3755         0.5305        37.5667         0.6905       -29.8859       -42.8112      0.3086637      0.3884115
      3460.5000        13.8865        31.1617        -0.0047        37.3447       43.91558         0.3351         0.4926        36.3713         0.6827       -30.8683      -43.93895      0.2322463      0.3723007
      3461.0000        13.9666         31.471        -0.0017        33.3301       38.43818         0.3075         0.4525        35.9829         0.7099       -31.9744       -45.2087       0.115706      0.3541614
      3461.5000        14.3132        32.1367         0.0009        30.1214       34.06046         0.2867         0.4053        36.0978         0.7466       -32.5582      -45.87889     0.02256288      0.3445873
      3462.0000        14.5641         32.449         0.0026        28.6116       32.00091         0.2733         0.3692        35.5402         0.7865       -31.9787      -45.21365              0      0.3540908
      3462.5000         14.737        32.2643         0.0034        31.8944       36.48098         0.2696         0.3484        34.8141         0.8325       -28.2537       -40.9375     0.07406341      0.4151786
      3463.0000        14.7283        32.5267         0.0033        35.8885       41.93164         0.2758         0.3627        35.4417         0.8606       -21.0162      -32.62914      0.1900349      0.5338694
      3463.5000        14.7736        34.3538         0.0015        38.8194       45.93153         0.2896         0.3898         38.013         0.8655        -13.675      -24.20174       0.275139      0.6542608
      3464.0000         15.317        35.7667        -0.0013        40.5294       48.26549         0.3145         0.4267        41.6401         0.8312         -5.978       -15.3659      0.3247977      0.7804871
      3464.5000        16.0081        35.9606        -0.0007        40.5166       48.24863         0.3574         0.4658        45.1698         0.7665        -0.4869      -9.062343       0.324439      0.8705379
      3465.0000         15.943        35.1847         0.0013        40.4205       48.11811         0.4309         0.5106        45.5131         0.7114          2.749      -5.347661       0.321662      0.9236048
      3465.5000        15.5181        35.6888         0.0032        42.4634       50.90633         0.5206         0.5566         45.201         0.6755         5.1499      -2.591526      0.3809857      0.9629782
      3466.0000        15.1949        36.5219         0.0048        44.8755       54.19831         0.6392         0.6052        45.0367         0.6534         6.8302     -0.6626102      0.4510278      0.9905341
      3466.5000        15.0934         36.639         0.0054        46.0659       55.82325         0.7109          0.643        45.4983         0.6404          7.701      0.3370327       0.485601              1
      3467.0000        15.1262        36.2173         0.0046        44.8135       54.11493         0.7445         0.6739        45.6037         0.6773         7.9976      0.6775172      0.4492538              1
      3467.5000        15.1485        36.7528          0.003        43.5097       52.33648         0.7564         0.6907         46.239         0.7386         7.8907      0.5548002      0.4114145              1
      3468.0000         15.044         37.233         0.0004        43.4467       52.25113         0.7568         0.6944        49.0349         0.8277         7.5785      0.1964072      0.4095985              1
      3468.5000        14.7943        36.8962        -0.0014        44.7144       53.98156         0.7465         0.6778        50.7668         0.8467         7.6173      0.2409483      0.4464161              1
      3469.0000        14.5754        35.9554        -0.0024        48.3362        58.9242         0.7333         0.6592        49.7358         0.7945         8.0953      0.7896724      0.5515788              1
      3469.5000        14.5229        35.0524        -0.0017        51.9543       63.86179         0.7151         0.6429        46.4113         0.7318          8.496        1.24966      0.6566339              1
      3470.0000        14.5813        34.4135         0.0013        54.8842       67.86032         0.6915         0.6311        43.9586         0.6901          8.741        1.53091      0.7417089              1
      3470.5000        14.8281        33.9657         0.0045        55.6012        68.8393         0.6652          0.621        44.6239         0.6692         8.6089       1.379265      0.7625383              1
      3471.0000         15.074        33.5782         0.0077        53.7477       66.31078          0.638          0.612        45.1621         0.6569         8.2734      0.9941247      0.7087399              1
      3471.5000        15.3028        33.4569         0.0101        51.9692        63.8846         0.6166         0.6048        44.8002         0.6562         7.6614      0.2915731      0.6571191              1
      3472.0000        15.4078        34.6578         0.0097        51.4502       63.17701         0.6039         0.5996        44.0687         0.6722         7.0871     -0.3676997      0.6420641      0.9947472
      3472.5000        15.3219        35.8101         0.0072        51.2091       62.84864         0.5941         0.5959        43.9702         0.6994         7.0235     -0.4407099      0.6350775      0.9937041
      3473.0000        15.3914        36.5832         0.0056        50.3486       61.67508          0.593          0.596        45.9081         0.7133         7.3978    -0.01102881      0.6101081      0.9998425
      3473.5000        15.7449        36.2579         0.0055        49.1829       60.08508         0.5961         0.6022        47.4326         0.6905         8.0137      0.6959987      0.5762784              1
      3474.0000        15.7676        33.6072         0.0073        48.0662       58.56194          0.602         0.6103        46.6748         0.6499         8.0735      0.7646469      0.5438711              1
      3474.5000        15.2881        31.4642         0.0105        47.5392       57.84345           0.61         0.6224        42.1193          0.644          7.315     -0.1060797      0.5285841      0.9984846
      3475.0000        14.9813        29.1116         0.0141         47.621       57.95569         0.6178         0.6433        37.1789         0.6675          6.133      -1.462968      0.5309721      0.9791005
      3475.5000        14.9039        27.7414         0.0166        47.5535       57.86419         0.6278         0.6669        35.3047         0.6955         4.5423      -3.289026      0.5290254      0.9530139
      3476.0000        14.8413        27.1593         0.0144        45.4647       55.01459         0.6461         0.6911        34.2557         0.7075         2.6464      -5.465442      0.4683956      0.9219223
      3476.5000        14.7867        26.9053         0.0076        41.2426       49.25406         0.6688         0.7177        33.8201          0.683         0.4826      -7.949396       0.345831      0.8864372
