#------------------------------------------------------------------------------
# Created by    : vladimir.rabinovich
# Created on    : 09/19/2023 17:22:33
#------------------------------------------------------------------------------
~Version Information Section
VERS.           2.0     :   CWLS log ASCII Standard - VERSION 2.0
WRAP.           NO      :   One line per depth step
~Well Information Section
#MNEM       .UNIT                                         VALUE :DESCRIPTION
#------------------------------------------------------------------------------
STRT        .FT                                            2877 :START DEPTH
STOP        .FT                                            8775 :STOP DEPTH
STEP        .FT                                             0.5 :STEP      
NULL        .                                           -999.25 :NULL      
COMP        .                                       APACHE CORP :COMPANY   
WELL        .                                  HIGH ISLAND 10-L :WELL      
FLD         .                                           WILDCAT :FIELD     
LOC         .                                                   :LOCATION  
CNTY        .                           HIGH ISLAND LARGE BLOCK :LOCATION  
STAT        .                                             TEXAS :STATE     
CTRY        .                                     UNITED STATES :COUNTRY   
SRVC        .                                                   :SERVICE COMPANY
DATE        .                             9/13/2023 11:19:15 AM :LOG DATE  
API         .                                    42708303590000 :API NUMBER
UWI         .                                    42708303590000 :UNIQUE WELL ID
XCOORD      .                                  1323081.96300683 :SURFACE X 
YCOORD      .                                  10736101.4448574 :SURFACE Y 
LAT         .                                        29.5789626 :LATITUDE  
LON         .                                       -93.9986282 :LONGITUDE 
ELEV        .FT                                             100 :ELEVATION VALUE
ELEV_TYPE   .                                                KB :ELEVATION REFERENCE TYPE
~Curve Information Section
#MNEM       .UNIT                                      API CODE :CURVE DESCRIPTION
#------------------------------------------------------------------------------
DEPT        .FT                                                 :DEPTH     
CNCSS       .%                                                  :          
DCAL        .IN                                                 :          
GRR         .GAPI                                               :          
ILD         .OHMM                                               :          
ILM         .OHMM                                               :          
PORZSS      .%                                                  :          
RFOC        .OHMM                                               :          
SP          .MV                                                 :          
SP_NORM     .MV                                                 :SP Normalized
TENR        .LB                                                 :          
VSH_SP      .V/V                                                :Volume of Shale from SP
ZCOR        .G/CM3                                              :          
~A        DEPTH          CNCSS           DCAL            GRR            ILD            ILM         PORZSS           RFOC             SP        SP_NORM           TENR         VSH_SP           ZCOR
# ...
      7981.5000           37.2         0.8416        60.1515         0.3183         0.3651          31.62          0.789        -59.604      -53.14584       1255.446      0.3685699        -0.0337
      7982.0000          35.64         0.8614        62.7273         0.3169         0.3684          31.68         0.8447       -58.8119      -52.34124       1255.446      0.3785032        -0.0297
      7982.5000          34.08         0.8713        63.1818         0.3112         0.3504          33.12         0.9774       -63.0303      -56.54715       1255.446      0.3265784        -0.0455
      7983.0000          33.12         0.8812        61.2121         0.3041         0.3332          34.56         1.0279       -67.2727      -60.77705       1255.446      0.2743575        -0.0614
      7983.5000          33.24         0.8911        58.6547         0.3041         0.3378          35.52         0.9209        -69.697      -63.18885       1255.446      0.2445821        -0.0693
      7984.0000           34.2         0.8812        56.8578         0.3083         0.3425          35.34         0.8073       -69.0909      -62.57025       1245.545      0.2522192        -0.0653
      7984.5000          35.94         0.8812        58.5022         0.3055         0.3488           34.5         0.7746       -66.2626      -59.72946       1245.545      0.2872906        -0.0634
      7985.0000          37.74         0.8812        60.7576         0.3069         0.3536          34.02         0.8601       -64.2424      -57.69675       1255.446      0.3123857        -0.0574
      7985.5000          37.74         0.8713        61.8182         0.3126         0.3618          33.84         0.9684       -62.6263      -56.06816       1255.446      0.3324919        -0.0475
      7986.0000           36.3         0.8713        62.1212         0.3227         0.3718          32.82         0.9684       -60.8081      -54.23746       1255.446      0.3550931        -0.0416
      7986.5000          34.38         0.8713        62.4242         0.3302         0.3804          31.62            0.9       -58.6139      -52.03076       1265.347      0.3823363        -0.0455
      7987.0000          33.42         0.8713        63.7879         0.3332         0.3857          30.48          0.868       -58.8119      -52.21626       1255.446      0.3800461        -0.0376
      7987.5000          34.02         0.8812        65.1515         0.3213         0.3752          30.42            0.9       -61.0101      -54.40197       1265.347      0.3530622        -0.0297
      7988.0000          34.92         0.8812        64.8485         0.3055         0.3601          31.38         0.9954       -64.8485      -58.22787       1265.347      0.3058288        -0.0495
      7988.5000          35.82         0.8812        63.7879         0.2946         0.3472          32.52         1.0911       -68.2828      -61.64967       1265.347      0.2635843        -0.0455
      7989.0000          36.06         0.8911        62.7273         0.2946         0.3394           33.3         1.0911       -67.8788      -61.23317       1265.347      0.2687263        -0.0396
      7989.5000          35.64         0.8911        63.1818         0.2946         0.3347          33.66         0.9293       -63.4343      -56.77617       1265.347      0.3237509        -0.0337
      7990.0000          35.76         0.9208        65.9091         0.2932         0.3394          33.06         0.7675       -55.4455      -48.77488       1265.347      0.4225324        -0.0317
      7990.5000        39.0009         0.9505        69.2398         0.2972         0.3552        31.6217         0.6967       -48.9168      -42.23368       1265.347      0.5032879        -0.0297
      7991.0000        40.8009         0.9703         71.506         0.3125         0.3718        30.6047         0.7743       -46.1544      -39.45878       1255.446      0.5375459        -0.0297
      7991.5000        40.5619              1         70.895         0.3316         0.3892        30.5477         0.8954       -44.5801      -37.87198       1255.446       0.557136        -0.0297
      7992.0000        38.3465         1.0399        68.3184           0.36         0.4055        30.6706         0.9588       -40.2335      -33.51289       1245.545       0.610952        -0.0258
      7992.5000        35.6537         1.0698        66.1979         0.3927         0.4342        29.7164         0.8991       -33.4958      -26.76269       1245.545      0.6942878        -0.0139
      7993.0000        35.8966         1.1496        67.2525         0.4283         0.4649        27.5807          0.821       -26.7511      -20.00549       1245.545        0.77771         -0.006
      7993.5000        37.2156         1.2293        71.4772         0.4691         0.4977        24.7916         0.7842       -21.3906      -14.63249       1245.545      0.8440433          0.004
      7994.0000        37.8755         1.2989         74.792         0.5117         0.5286        23.0089         0.7804       -16.8121      -10.04149       1245.545      0.9007223         0.0099
      7994.5000        38.6542         1.3585        76.1246         0.5261          0.531        22.1761         0.7731       -13.0299      -6.246794       1245.545      0.9475704         0.0317
      7995.0000        40.5668         1.3583        77.0083         0.5236         0.5309        22.2975         0.7623       -11.2419      -4.446297       1245.545      0.9697988         0.0356
      7995.5000        42.7166         1.3681         78.486          0.526         0.5334        22.6579         0.7517       -10.0526      -3.244498       1245.545      0.9846358         0.0317
      7996.0000         43.434         1.3679        79.6668          0.526         0.5358        22.8992         0.7378        -9.8587        -3.0381       1245.545      0.9871839         0.0297
      7996.5000        43.0162         1.3776        81.1445         0.5187         0.5333        22.9614         0.7142         -10.46      -3.626903       1245.545      0.9799148         0.0257
      7997.0000        43.4354         1.3774        82.7708         0.5093         0.5259        22.6052         0.7207       -12.0539      -5.208304       1245.545      0.9603913         0.0257
      7997.5000        44.4533         1.3673        82.6149         0.5046         0.5187        22.1886          0.751       -15.4333      -8.575207       1245.545      0.9188246         0.0337
      7998.0000        44.7538         1.3473        80.0828         0.5023         0.5093        22.2506         0.7826            -20      -13.12941       1255.446      0.8625999         0.0416
      7998.5000        42.8385         1.3372         76.511         0.4691          0.491        23.0912         0.8227       -24.3923      -17.50921       1255.446      0.8085282         0.0416
      7999.0000        40.6915         1.2974        74.8685         0.4482          0.467        24.5867         0.8764         -27.99      -21.09441       1255.446      0.7642665         0.0139
      7999.5000         39.087         1.2873          73.36         0.4462         0.4565        26.3718         0.8841       -29.7927      -22.88461       1255.446      0.7421653         -0.014
      8000.0000        38.2565         1.2674         71.853         0.4362         0.4565        27.7411         0.7964       -26.7983      -19.87772       1255.446      0.7792875          -0.01
      8000.5000         37.604         1.2574        72.5993         0.4283         0.4544         27.505          0.713            -22      -15.06692       1255.446        0.83868          0.002
      8001.0000        39.2079         1.2475        75.1485         0.4263         0.4523         26.198         0.6843       -16.8317       -9.88612       1255.446      0.9026405         0.0099
      8001.5000        40.9307         1.2475        81.8317         0.4263         0.4565        24.7129         0.7163            -20      -13.04192       1255.446      0.8636799         0.0139
