#------------------------------------------------------------------------------
# Created by    : vladimir.rabinovich
# Created on    : 09/19/2023 17:19:47
#------------------------------------------------------------------------------
~Version Information Section
VERS.           2.0     :   CWLS log ASCII Standard - VERSION 2.0
WRAP.           NO      :   One line per depth step
~Well Information Section
#MNEM       .UNIT                                         VALUE :DESCRIPTION
#------------------------------------------------------------------------------
STRT        .FT                                             970 :START DEPTH
STOP        .FT                                            9511 :STOP DEPTH
STEP        .FT                                             0.5 :STEP      
NULL        .                                           -999.25 :NULL      
COMP        .                                SHELL OFFSHORE INC :COMPANY   
WELL        .                               OCS G06097 ST00BP00 :WELL      
FLD         .                                           WILDCAT :FIELD     
LOC         .                                                   :LOCATION  
CNTY        .                             GALVESTON LARGE BLOCK :LOCATION  
STAT        .                                             TEXAS :STATE     
CTRY        .                                     UNITED STATES :COUNTRY   
SRVC        .                                                   :SERVICE COMPANY
DATE        .                             9/13/2023 11:19:27 AM :LOG DATE  
API         .                                    42706401130000 :API NUMBER
UWI         .                                    42706401130000 :UNIQUE WELL ID
XCOORD      .                                  1026820.46089783 :SURFACE X 
YCOORD      .                                  10482391.3243497 :SURFACE Y 
LAT         .                                         28.871086 :LATITUDE  
LON         .                                        -94.917566 :LONGITUDE 
ELEV        .FT                                             107 :ELEVATION VALUE
ELEV_TYPE   .                                                KB :ELEVATION REFERENCE TYPE
~Curve Information Section
#MNEM       .UNIT                                      API CODE :CURVE DESCRIPTION
#------------------------------------------------------------------------------
DEPT        .FT                                                 :DEPTH     
ASFL        .OHMM                                               :          
CALI        .IN                                                 :          
CILD        .MMHO                                               :          
DT          .US/F                                               :          
GR          .GAPI                                               :          
GR_NORM     .GAPI                                               :GammaRay Normalized
ILD         .OHMM                                               :          
ILM         .OHMM                                               :          
RHOB        .G/C3                                               :          
SP          .MV                                                 :          
SP_NORM     .MV                                                 :SP Normalized
VSH_GR      .V/V                                                :Volume of Shale from GR
VSH_SP      .V/V                                                :Volume of Shale from SP
~A        DEPTH           ASFL           CALI           CILD             DT             GR        GR_NORM            ILD            ILM           RHOB             SP        SP_NORM         VSH_GR         VSH_SP
# ...
      6670.0000         0.6306        10.3744        3837.09       109.3226        33.2169       31.08208         0.2544         0.3326         2.2189      -132.2842      -70.30989              0              0
      6670.5000         0.6289        10.9067       3805.121       102.1023        32.9528       30.59003         0.2534         0.3394         2.2151      -132.1343      -70.16392              0              0
      6671.0000         0.6272        11.6666       3779.258        102.042        31.3764       27.65655          0.254         0.3411         2.2318       -132.042      -70.07556              0              0
      6671.5000         0.6253        11.4541       3773.543       103.6107        30.8182       26.61736         0.2545         0.3414          2.243      -131.9824      -70.01988              0              0
      6672.0000         0.6233        10.6324       3781.059       105.8383        31.5002       27.88545         0.2551         0.3403         2.2433      -131.9221      -69.96351              0   0.0005213057
      6672.5000         0.6214        10.2208        3789.52       109.2473        32.1815       29.15226         0.2557         0.3383         2.2434       -131.615      -69.66034              0    0.004852295
      6673.0000         0.6194        10.0984       3817.012       111.9985         32.891       30.47153         0.2562         0.3345         2.2495      -131.3079      -69.35716              0    0.009183393
      6673.5000         0.6175        10.0546       3851.535       111.9039        33.6201       31.82726         0.2568         0.3309         2.2514       -131.011      -69.06418              0     0.01336888
      6674.0000         0.6155        10.1501       3885.836       110.7632        34.3492       33.18299         0.2573         0.3283         2.2398      -130.7146      -68.77171    0.003893345     0.01754695
      6674.5000         0.6143        10.4279       3933.492       109.0487        34.1868       32.88014         0.2586         0.3258         2.2197      -130.7915      -68.85254              0      0.0163923
      6675.0000         0.6132        10.9064       3985.715       106.2832        33.5833       31.75667         0.2601         0.3247         2.2112      -131.0193      -69.08426              0     0.01308201
      6675.5000         0.6121        11.1694       4044.789       103.9149        32.8738       30.43599         0.2617         0.3242          2.214      -131.2268      -69.29569              0     0.01006154
      6676.0000          0.611        11.2952       4106.258       103.4139         33.046       30.75564         0.2632         0.3236         2.2164      -131.3875      -69.46031              0     0.00770983
      6676.5000           0.61        11.4169       4113.938       103.9075        33.5851       31.75789         0.2647         0.3229         2.2204      -131.5479      -69.62463              0    0.005362374
      6677.0000         0.6136        11.6285       4121.625       105.8331        34.1635       32.83326         0.2687         0.3223         2.2248      -131.7085      -69.78916              0    0.003011976
      6677.5000         0.6185        11.8143       4132.531        109.931        34.8657       34.13894         0.2779         0.3216         2.2318       -131.593       -69.6776     0.02423274    0.004605757
      6678.0000         0.6234        11.7536       4144.094       112.1648        34.2621       33.01529         0.2871          0.321         2.2404      -131.4414      -69.52992   0.0003252232    0.006715393
      6678.5000         0.6283        11.4861       4158.563       112.9413        33.2966       31.21833         0.2963         0.3216         2.2411      -131.2356      -69.32803              0    0.009599522
      6679.0000         0.6333        11.4762       4177.875       112.7107        34.9398       34.27468         0.3055         0.3229         2.2356      -129.7124      -67.80878     0.02712079     0.03130319
      6679.5000         0.6502         11.448       4126.797       112.7115        38.1797       40.30157         0.3148         0.3273         2.2324      -127.7544       -65.8547      0.1553525      0.0592186
      6680.0000         0.6677        11.3138       3999.117       114.2502        40.8584       45.28438         0.3254         0.3395          2.246      -125.5585      -63.66272      0.2613698     0.09053252
      6680.5000         0.6851        10.7865       3918.004       116.1901         43.292        49.8112         0.3397         0.3556         2.2609      -123.7817      -61.88985      0.3576851      0.1158593
      6681.0000         0.7034        10.1772       3852.875       115.6606        46.6348       56.02953         0.3541          0.377         2.2587      -122.3223      -60.43438      0.4899901      0.1366518
      6681.5000         0.7233         9.8625       3487.816       113.0636        47.5802       57.78766         0.3684            0.4         2.2379      -121.1667       -59.2827      0.5273971      0.1531042
      6682.0000         0.7432         9.7972       3075.395       108.9858        48.1874       58.91661         0.3827         0.4282         2.2117       -120.092      -58.21193      0.5514174       0.168401
      6682.5000         0.7666         9.7009       2934.117       107.1814        48.8625       60.17188         0.3928         0.4552         2.1987      -119.1376      -57.26146       0.578125      0.1819792
      6683.0000         0.7972         9.6068       2770.598       106.6477        49.7853       61.88797         0.4021         0.4765         2.2023      -118.0665      -56.19427      0.6146377      0.1972246
      6683.5000         0.8256         9.5701        2405.34       105.5466        50.7068       63.60165         0.4114         0.4968          2.222      -115.9467       -54.0784      0.6510988      0.2274514
      6684.0000         0.8497         9.5574       2379.773       102.1777        51.7692       65.57745         0.4205         0.5202         2.2746      -113.9591      -52.09473      0.6931372      0.2557896
      6684.5000         0.8537         9.5622       2362.922        98.8315        52.6857       67.28182         0.4205         0.5383         2.3258      -112.8112      -50.95076      0.7294005       0.272132
      6685.0000         0.8447         9.5722       2351.902        97.0792        52.7323       67.36783         0.4206         0.5512         2.3392      -113.7679      -51.91138      0.7312304      0.2584088
      6685.5000         0.8356         9.5965       2369.922        96.9523        51.4003       64.88902         0.4207         0.5616          2.319      -116.8558       -55.0032      0.6784897      0.2142399
      6686.0000         0.8265         9.6572       2395.512         98.017        49.7571       61.83127         0.4204         0.5568         2.2806      -119.5983      -57.74963      0.6134312      0.1750052
      6686.5000         0.8175         9.7392        2439.84        99.1549         48.066       58.68439         0.4197         0.5392          2.254      -121.0234      -59.17866      0.5464763      0.1545905
      6687.0000         0.8056         9.8181       2473.398        99.2426        46.3775       55.54235          0.419         0.5232         2.2213      -122.2366      -60.39579      0.4796245       0.137203
      6687.5000         0.7924         9.8896       2506.953        98.5663        44.6913        52.4046         0.4183           0.51         2.2001      -123.3369      -61.50001      0.4128638      0.1214284
      6688.0000         0.7792         9.8841       2572.629        97.9419        43.5812       50.33863         0.4176         0.4974         2.1797      -124.2804      -62.44744      0.3689069      0.1078937
      6688.5000          0.772         9.8356       2670.324        98.0287        42.0641       47.51546         0.4183         0.4876         2.1753      -125.0426      -63.21357      0.3088397       0.096949
