#------------------------------------------------------------------------------
# Created by    : vladimir.rabinovich
# Created on    : 09/19/2023 17:20:34
#------------------------------------------------------------------------------
~Version Information Section
VERS.           2.0     :   CWLS log ASCII Standard - VERSION 2.0
WRAP.           NO      :   One line per depth step
~Well Information Section
#MNEM       .UNIT                                         VALUE :DESCRIPTION
#------------------------------------------------------------------------------
STRT        .FT                                             495 :START DEPTH
STOP        .FT                                            9652 :STOP DEPTH
STEP        .FT                                             0.5 :STEP      
NULL        .                                           -999.25 :NULL      
COMP        .                                      SHELL OIL CO :COMPANY   
WELL        .                                OCS 00714 ST00BP00 :WELL      
FLD         .                                FEDERAL BLOCK 0288 :FIELD     
LOC         .                                                   :LOCATION  
CNTY        .                             GALVESTON LARGE BLOCK :LOCATION  
STAT        .                                             TEXAS :STATE     
CTRY        .                                     UNITED STATES :COUNTRY   
SRVC        .                                                   :SERVICE COMPANY
DATE        .                             9/13/2023 11:19:25 AM :LOG DATE  
API         .                                    42706000490000 :API NUMBER
UWI         .                                    42706000490000 :UNIQUE WELL ID
XCOORD      .                                  1093419.85109126 :SURFACE X 
YCOORD      .                                  10468907.9519753 :SURFACE Y 
LAT         .                                         28.836806 :LATITUDE  
LON         .                                        -94.708909 :LONGITUDE 
ELEV        .FT                                              83 :ELEVATION VALUE
ELEV_TYPE   .                                                KB :ELEVATION REFERENCE TYPE
~Curve Information Section
#MNEM       .UNIT                                      API CODE :CURVE DESCRIPTION
#------------------------------------------------------------------------------
DEPT        .FT                                                 :DEPTH     
ASN         .OHMM                                               :          
ASN_1       .OHMM                                               :          
CALI        .IN                                                 :          
CALI_1      .IN                                                 :          
DRHO        .G/C3                                               :          
DT          .US/F                                               :          
ILD         .OHMM                                               :          
LAT         .OHMM                                               :          
LN          .OHMM                                               :          
RHOB        .G/C3                                               :          
SP          .MV                                                 :          
SP_1        .MV                                                 :          
SP_NORM     .MV                                                 :SP Normalized
VSH_SP      .V/V                                                :Volume of Shale from SP
~A        DEPTH            ASN          ASN_1           CALI         CALI_1           DRHO             DT            ILD            LAT             LN           RHOB             SP           SP_1        SP_NORM         VSH_SP
# ...
      9351.0000         1.1968        -999.25        -999.25         7.1751        -999.25       107.1847         0.8846        -999.25        -999.25        -999.25        -999.25        -34.691      0.9906693              1
      9351.5000         1.1553        -999.25        -999.25         7.1396        -999.25       108.0764         0.8637        -999.25        -999.25        -999.25        -999.25       -34.8406      0.8513756              1
      9352.0000         1.1605        -999.25        -999.25         7.1525        -999.25       106.5276         0.8447        -999.25        -999.25        -999.25        -999.25       -34.9468      0.7554779              1
      9352.5000         1.1411        -999.25        -999.25         7.2277        -999.25       106.9574          0.833        -999.25        -999.25        -999.25        -999.25       -34.8959      0.8166809              1
      9353.0000         1.0781        -999.25        -999.25         7.2989        -999.25       106.9136         0.8212        -999.25        -999.25        -999.25        -999.25       -34.4225       1.300385              1
      9353.5000          1.023        -999.25        -999.25         7.3026        -999.25       104.4684         0.8151        -999.25        -999.25        -999.25        -999.25       -33.6592       2.073994              1
      9354.0000         1.0113        -999.25        -999.25         7.3057        -999.25        98.7072         0.8142        -999.25        -999.25        -999.25        -999.25       -32.9973       2.746197              1
      9354.5000         1.0283        -999.25        -999.25         7.3185        -999.25        96.5535         0.8133        -999.25        -999.25        -999.25        -999.25        -32.746       3.007801              1
      9355.0000         1.0923        -999.25        -999.25         7.3427        -999.25        97.0958         0.8252        -999.25        -999.25        -999.25        -999.25       -34.0904       1.673702              1
      9355.5000         1.1635        -999.25        -999.25         7.3862        -999.25        98.1096          0.843        -999.25        -999.25        -999.25        -999.25       -33.9936       1.780807              1
      9356.0000          1.214        -999.25        -999.25         7.4236        -999.25        96.9147         0.8608        -999.25        -999.25        -999.25        -999.25       -34.5812        1.20351              1
      9356.5000         1.2008        -999.25        -999.25         7.4297        -999.25       100.9576         0.8786        -999.25        -999.25        -999.25        -999.25       -34.9576      0.8374138              1
      9357.0000         1.1492        -999.25        -999.25         7.4296        -999.25       100.6335         0.8962        -999.25        -999.25        -999.25        -999.25       -34.9543       0.851017              1
      9357.5000         1.1078        -999.25        -999.25         7.4327        -999.25        96.5737         0.9138        -999.25        -999.25        -999.25        -999.25       -34.6437       1.171925              1
      9358.0000         1.0704        -999.25        -999.25          7.427        -999.25        98.7252         0.9225        -999.25        -999.25        -999.25        -999.25       -34.3398       1.486126              1
      9358.5000         1.0579        -999.25        -999.25         7.4111        -999.25       100.8248         0.9272        -999.25        -999.25        -999.25        -999.25       -34.0544        1.78183              1
      9359.0000         1.1137        -999.25        -999.25         7.3308        -999.25       102.6591         0.9286        -999.25        -999.25        -999.25        -999.25       -33.8837       1.962833              1
      9359.5000         1.1578        -999.25        -999.25         7.1963        -999.25       106.7909         0.9177        -999.25        -999.25        -999.25        -999.25       -33.9517        1.90514              1
      9360.0000         1.1917        -999.25        -999.25         7.1468        -999.25       107.5741         0.9068        -999.25        -999.25        -999.25        -999.25       -34.0958       1.771343              1
      9360.5000          1.195        -999.25        -999.25         7.1928        -999.25        99.3373         0.8973        -999.25        -999.25        -999.25        -999.25       -34.2801       1.597343              1
      9361.0000         1.1479        -999.25        -999.25         7.2981        -999.25        95.5183         0.8878        -999.25        -999.25        -999.25        -999.25       -34.5204       1.367348              1
      9361.5000         1.1165        -999.25        -999.25         7.3611        -999.25        97.5392         0.8949        -999.25        -999.25        -999.25        -999.25       -34.7183       1.179756              1
      9362.0000          1.119        -999.25        -999.25         7.3911        -999.25        97.4154         0.9071        -999.25        -999.25        -999.25        -999.25         -34.84       1.068359              1
      9362.5000         1.1513        -999.25        -999.25         7.3892        -999.25        94.2018         0.9197        -999.25        -999.25        -999.25        -999.25       -34.6049       1.313763              1
      9363.0000          1.196        -999.25        -999.25         7.3527        -999.25        91.8523         0.9392        -999.25        -999.25        -999.25        -999.25        -34.267       1.661968              1
      9363.5000         1.2269        -999.25        -999.25         7.3331        -999.25        95.7816         0.9586        -999.25        -999.25        -999.25        -999.25       -33.8323       2.106972              1
      9364.0000         1.2717        -999.25        -999.25         7.3225        -999.25       100.6415         0.9781        -999.25        -999.25        -999.25        -999.25       -34.2761       1.673473              1
      9364.5000         1.3103        -999.25        -999.25         7.3366        -999.25        99.6838         0.9892        -999.25        -999.25        -999.25        -999.25       -35.0495      0.9103775              1
      9365.0000         1.3175        -999.25        -999.25         7.3577        -999.25        97.2196         0.9987        -999.25        -999.25        -999.25        -999.25       -35.0201      0.9500847              1
      9365.5000         1.2511        -999.25        -999.25         7.3712        -999.25        97.7406         1.0054        -999.25        -999.25        -999.25        -999.25       -34.5778       1.402687              1
      9366.0000          1.258        -999.25        -999.25         7.3801        -999.25        99.3239         0.9915        -999.25        -999.25        -999.25        -999.25       -33.9013       2.089493              1
      9366.5000         1.2853        -999.25        -999.25         7.3663        -999.25       101.0139         0.9776        -999.25        -999.25        -999.25        -999.25       -33.8074       2.193695              1
      9367.0000         1.2828        -999.25        -999.25         7.3113        -999.25       102.4948         0.9517        -999.25        -999.25        -999.25        -999.25       -33.9396       2.071796              1
      9367.5000         1.2408        -999.25        -999.25         7.2576        -999.25       102.3057         0.9235        -999.25        -999.25        -999.25        -999.25       -34.5227       1.499001              1
      9368.0000         1.1689        -999.25        -999.25         7.2277        -999.25        102.344         0.8994        -999.25        -999.25        -999.25        -999.25       -35.2521      0.7799034              1
      9368.5000         1.0877        -999.25        -999.25         7.2308        -999.25       100.7551         0.8802        -999.25        -999.25        -999.25        -999.25       -36.1707     -0.1283913              1
