#------------------------------------------------------------------------------
# Created by    : vladimir.rabinovich
# Created on    : 09/19/2023 17:19:50
#------------------------------------------------------------------------------
~Version Information Section
VERS.           2.0     :   CWLS log ASCII Standard - VERSION 2.0
WRAP.           NO      :   One line per depth step
~Well Information Section
#MNEM       .UNIT                                         VALUE :DESCRIPTION
#------------------------------------------------------------------------------
STRT        .FT                                             816 :START DEPTH
STOP        .FT                                            7470 :STOP DEPTH
STEP        .FT                                             0.5 :STEP      
NULL        .                                           -999.25 :NULL      
COMP        .                                   KERR-MCGEE CORP :COMPANY   
WELL        .                               OCS G05003 ST00BP00 :WELL      
FLD         .                                 BRAZOS BLOCK 0412 :FIELD     
LOC         .                                                   :LOCATION  
CNTY        .                                BRAZOS LARGE BLOCK :LOCATION  
STAT        .                                             TEXAS :STATE     
CTRY        .                                     UNITED STATES :COUNTRY   
SRVC        .                                                   :SERVICE COMPANY
DATE        .                             9/13/2023 11:19:08 AM :LOG DATE  
API         .                                    42704401140000 :API NUMBER
UWI         .                                    42704401140000 :UNIQUE WELL ID
XCOORD      .                                  819493.037302503 :SURFACE X 
YCOORD      .                                  10380289.6446028 :SURFACE Y 
LAT         .                                         28.579682 :LATITUDE  
LON         .                                        -95.558179 :LONGITUDE 
ELEV        .FT                                              90 :ELEVATION VALUE
ELEV_TYPE   .                                                KB :ELEVATION REFERENCE TYPE
~Curve Information Section
#MNEM       .UNIT                                      API CODE :CURVE DESCRIPTION
#------------------------------------------------------------------------------
DEPT        .FT                                                 :DEPTH     
ASFL        .OHMM                                               :          
CALI        .IN                                                 :          
CILD        .MMHO                                               :          
GR          .GAPI                                               :          
GR_NORM     .GAPI                                               :GammaRay Normalized
ILD         .OHMM                                               :          
ILM         .OHMM                                               :          
RHOB        .G/C3                                               :          
SP          .MV                                                 :          
SP_NORM     .MV                                                 :SP Normalized
VSH_GR      .V/V                                                :Volume of Shale from GR
VSH_SP      .V/V                                                :Volume of Shale from SP
~A        DEPTH           ASFL           CALI           CILD             GR        GR_NORM            ILD            ILM           RHOB             SP        SP_NORM         VSH_GR         VSH_SP
# ...
      1287.5000         1.6448        -999.25       559.2832        73.9453       75.47659         2.0007         1.9513        -999.25       -59.8265       0.232151      0.9037572      0.9742054
      1288.0000         1.6289        -999.25        563.458         76.337       78.94211         1.9526         1.9094        -999.25        -59.998     0.05287933      0.9774917      0.9941245
      1288.5000         1.6131        -999.25       567.6318        75.0374       77.06384         1.9051         1.8706        -999.25       -60.1767     -0.1335907      0.9375284              1
      1289.0000         1.5972        -999.25       571.8057        75.0364       77.06548         1.8576         1.8336        -999.25       -60.3552     -0.3198624      0.9375635              1
      1289.5000         1.5634        -999.25       575.9805         76.174       78.71551         1.8101          1.796        -999.25       -60.5338     -0.5062294      0.9726704              1
      1290.0000         1.5338        -999.25       581.9951        76.7097       79.49412         1.7646         1.7666        -999.25       -60.7124     -0.6926003      0.9892365              1
      1290.5000         1.5368        -999.25       589.3447        75.9407       78.38396         1.7202         1.7473        -999.25       -60.8911     -0.8790741      0.9656161              1
      1291.0000         1.5422        -999.25       596.6953        74.8094        76.7493         1.6764          1.729        -999.25       -60.9853      -0.981041      0.9308361              1
      1291.5000         1.5495        -999.25       604.0469        73.5372       74.91065         1.6502         1.7106        -999.25       -61.0754      -1.078915       0.891716              1
      1292.0000          1.557        -999.25       611.8467        75.8096       78.20349          1.624         1.6898        -999.25       -61.1285      -1.139786      0.9617764              1
      1292.5000         1.5645        -999.25       620.3516        78.9458       82.74683         1.6035          1.671        -999.25        -61.162      -1.181053              1              1
      1293.0000         1.5719        -999.25       628.8584        82.3293       87.64822         1.5874         1.6548        -999.25       -61.1956      -1.222424              1              1
      1293.5000         1.5789        -999.25       637.3652        84.6656       91.03356         1.5714         1.6344        -999.25       -61.1881      -1.222694              1              1
      1294.0000         1.5862        -999.25       645.8701        85.0796         91.636         1.5574         1.6126        -999.25       -61.1789      -1.221268              1              1
      1294.5000         1.5862        -999.25       654.1133        82.7084       87.87809         1.5456         1.5856        -999.25       -61.1605      -1.210636              1              1
      1295.0000         1.5707        -999.25       658.8828        80.7368       85.14101         1.5338         1.5549        -999.25       -60.9895      -1.047405              1              1
      1295.5000         1.5553        -999.25       663.6533        80.4063       84.68465          1.522         1.5191        -999.25       -60.7811     -0.8467789              1              1
      1296.0000         1.5398        -999.25       668.4229        80.1947       84.39358         1.5123         1.4856        -999.25       -60.5327     -0.6061478              1              1
      1296.5000         1.5341        -999.25       669.6484        79.5997       83.56962         1.5089         1.4648        -999.25       -60.3127     -0.3939171              1              1
      1297.0000         1.5348        -999.25       668.6865        77.2875       80.35916         1.5055         1.4504        -999.25       -60.1594     -0.2483902              1              1
      1297.5000         1.5377        -999.25       667.7246        75.4078       77.74977         1.5021         1.4398        -999.25        -60.006     -0.1027603      0.9521228              1
      1298.0000         1.5418        -999.25        660.665        75.7179       78.18373         1.4987         1.4349        -999.25       -59.9091    -0.01362991       0.961356              1
      1298.5000         1.5459        -999.25       652.8906        77.0077       79.97926         1.4953         1.4346        -999.25       -59.8585     0.02919769      0.9995588      0.9967558
      1299.0000         1.5513        -999.25       645.1152         76.829       79.73389         1.5021         1.4362        -999.25       -59.8079     0.07202911      0.9943382      0.9919968
      1299.5000           1.56        -999.25       639.1768        74.5266       76.53705         1.5152         1.4404        -999.25       -59.7573      0.1148567      0.9263202      0.9872382
      1300.0000         1.5687        -999.25       634.8711         74.432       76.40855         1.5283         1.4445        -999.25       -59.7067      0.1576881      0.9235862      0.9824791
      1300.5000         1.5775        -999.25       630.5635        78.0022       81.37333         1.5414         1.4444        -999.25       -59.6561      0.2005157              1      0.9777205
      1301.0000         1.5863        -999.25       626.3936        79.2336       83.08768         1.5545         1.4466        -999.25       -59.5494      0.2994461              1      0.9667282
      1301.5000         1.5982        -999.25       627.0732        78.4746       82.03585         1.5649         1.4516        -999.25       -59.3701      0.4709778              1      0.9476691
      1302.0000         1.6089        -999.25       627.7529        75.7793       78.29295         1.5707          1.449        -999.25       -59.1907      0.6426048      0.9636799      0.9285995
      1302.5000         1.6087        -999.25       628.4336        72.3203       73.48869         1.5765         1.3882        -999.25       -59.0113      0.8142357      0.8614616      0.9095294
      1303.0000          1.586        -999.25       629.1133        70.4904       70.94851         1.5824         1.3236        -999.25       -58.8319      0.9858627      0.8074151      0.8904597
      1303.5000         1.5619        -999.25       629.7939         68.005       67.49734         1.5882         1.2808        -999.25       -58.6525       1.157494      0.7339859      0.8713896
      1304.0000         1.5365        -999.25       629.6787        64.2734       62.31422         1.5869         1.2577        -999.25       -58.2526       1.549622      0.6237069      0.8278198
      1304.5000          1.511        -999.25       629.4219        58.7097       54.58488         1.5851         1.2749        -999.25       -57.7493       2.045155      0.4592529      0.7727606
      1305.0000         1.4856        -999.25        629.165        59.0859       55.11071         1.5832         1.3167        -999.25       -57.3439       2.442783      0.4704406      0.7285796
      1305.5000         1.4668        -999.25       628.9072        60.0122       56.40104         1.5814         1.3434        -999.25       -57.0828        2.69611      0.4978945      0.7004322
      1306.0000           1.45        -999.25       628.6484        60.5443       57.14354         1.5796         1.3005        -999.25       -56.8218       2.949341      0.5136923      0.6722955
      1306.5000         1.4676        -999.25       628.3467        58.8961       54.85588          1.586         1.2753        -999.25       -56.5608       3.202572      0.4650188      0.6441587
      1307.0000         1.4919        -999.25       628.0449        57.0315       52.26749         1.6066         1.3029        -999.25       -56.2997       3.455898      0.4099465      0.6160113
      1307.5000          1.523        -999.25       627.7422        56.8411       52.00586         1.6273         1.3525        -999.25       -56.0386       3.709229      0.4043799      0.5878635
