#------------------------------------------------------------------------------
# Created by    : vladimir.rabinovich
# Created on    : 09/19/2023 17:20:57
#------------------------------------------------------------------------------
~Version Information Section
VERS.           2.0     :   CWLS log ASCII Standard - VERSION 2.0
WRAP.           NO      :   One line per depth step
~Well Information Section
#MNEM       .UNIT                                         VALUE :DESCRIPTION
#------------------------------------------------------------------------------
STRT        .FT                                             727 :START DEPTH
STOP        .FT                                            8206 :STOP DEPTH
STEP        .FT                                             0.5 :STEP      
NULL        .                                           -999.25 :NULL      
COMP        .                              PHOENIX RESOURCES CO :COMPANY   
WELL        .                                          BLK 335L :WELL      
FLD         .                                 BRAZOS BLOCK 0309 :FIELD     
LOC         .                                                   :LOCATION  
CNTY        .                                BRAZOS LARGE BLOCK :LOCATION  
STAT        .                                             TEXAS :STATE     
CTRY        .                                     UNITED STATES :COUNTRY   
SRVC        .                                                   :SERVICE COMPANY
DATE        .                             9/13/2023 11:18:52 AM :LOG DATE  
API         .                                    42704300210000 :API NUMBER
UWI         .                                    42704300210000 :UNIQUE WELL ID
XCOORD      .                                  898426.347293712 :SURFACE X 
YCOORD      .                                  10460523.5569112 :SURFACE Y 
LAT         .                                        28.8046676 :LATITUDE  
LON         .                                       -95.3172337 :LONGITUDE 
ELEV        .FT                                              70 :ELEVATION VALUE
ELEV_TYPE   .                                                DF :ELEVATION REFERENCE TYPE
~Curve Information Section
#MNEM       .UNIT                                      API CODE :CURVE DESCRIPTION
#------------------------------------------------------------------------------
DEPT        .FT                                                 :DEPTH     
ASN         .OHMM                                               :          
CALI        .IN                                                 :          
DT          .US/F                                               :          
ILD         .OHMM                                               :          
SP          .MV                                                 :          
SP_NORM     .MV                                                 :SP Normalized
VSH_SP      .V/V                                                :Volume of Shale from SP
~A        DEPTH            ASN           CALI             DT            ILD             SP        SP_NORM         VSH_SP
# ...
      1732.0000         1.4078        -999.25       162.7715         1.0308        -56.756     -0.7659073              1
      1732.5000          1.405        -999.25       162.7632         1.0355       -56.4615     -0.5004425              1
      1733.0000         1.4181        -999.25       163.5337         1.0402        -56.709     -0.7769852              1
      1733.5000         1.4312        -999.25       163.2952         1.0448       -57.1787      -1.275726              1
      1734.0000         1.4444        -999.25       162.2556         1.0495       -56.9601      -1.086163              1
      1734.5000         1.4575        -999.25       161.1099         1.0542       -57.2889      -1.444004              1
      1735.0000         1.4611        -999.25       160.7737         1.0589       -58.1176      -2.301743      0.9868808
      1735.5000         1.4615        -999.25       160.9231         1.0636       -58.6373      -2.850483      0.9630225
      1736.0000         1.4569        -999.25       160.9297         1.0683       -58.6699      -2.912121      0.9603426
      1736.5000         1.4523        -999.25        160.373         1.0734       -58.2875      -2.558762       0.975706
      1737.0000          1.449        -999.25       159.5208         1.0854       -58.0136      -2.313904       0.986352
      1737.5000         1.4593        -999.25       158.7476         1.0975       -57.9112      -2.240543      0.9895416
      1738.0000         1.4695        -999.25       158.4597         1.1095       -57.9425      -2.300884      0.9869181
      1738.5000         1.4798        -999.25       158.3245         1.1215       -58.0421       -2.42952      0.9813252
      1739.0000           1.49        -999.25       158.7952         1.1335       -58.2079      -2.624363      0.9728538
      1739.5000         1.5001        -999.25       159.4077         1.1456       -58.3625      -2.807999      0.9648696
      1740.0000         1.5086        -999.25        159.989         1.1576       -58.4819       -2.95644      0.9584156
      1740.5000         1.5147        -999.25       159.5872         1.1625       -58.4127      -2.916279      0.9601618
      1741.0000         1.5175        -999.25       158.8201         1.1569       -58.1429      -2.675518      0.9706296
      1741.5000         1.5111        -999.25       158.8064         1.1512       -57.7622       -2.32386      0.9859191
      1742.0000         1.5047        -999.25       159.3206         1.1455       -57.4282      -2.018898      0.9991783
      1742.5000         1.4983        -999.25       159.9966         1.1399       -57.1456      -1.765339              1
      1743.0000         1.4919        -999.25       160.4868         1.1342       -56.8752      -1.523975              1
      1743.5000         1.4884        -999.25       159.9995         1.1285       -56.6187      -1.296516              1
      1744.0000          1.485        -999.25        159.342         1.1229       -56.6512      -1.358055              1
      1744.5000         1.4817        -999.25       158.7712         1.1172       -56.5685      -1.304398              1
      1745.0000         1.4756        -999.25        159.113         1.1115       -56.3474      -1.112339              1
      1745.5000         1.4674        -999.25       159.8188         1.1057       -56.1632     -0.9571762              1
      1746.0000         1.4592        -999.25       160.5442         1.0964       -55.8181     -0.6411171              1
      1746.5000         1.4506        -999.25       161.1643         1.0871       -55.2512     -0.1032562              1
      1747.0000         1.4363        -999.25       160.7827         1.0778       -54.6635      0.4554024              1
      1747.5000          1.422        -999.25       159.7859         1.0685       -54.4385      0.6513672              1
      1748.0000         1.4076        -999.25       159.5754         1.0591        -54.502      0.5588264              1
      1748.5000         1.3918        -999.25       159.7156         1.0498       -54.7141       0.317688              1
      1749.0000         1.3777        -999.25       160.3845         1.0405       -54.9589     0.04384613              1
      1749.5000         1.3825        -999.25       161.1653         1.0312       -55.3434     -0.3696938              1
      1750.0000         1.3874        -999.25       161.8462         1.0259       -55.7977     -0.8530312              1
      1750.5000         1.3954        -999.25       161.5537         1.0225       -56.3625      -1.446873              1
      1751.0000         1.4037        -999.25       160.8599          1.019       -56.6092       -1.72261              1
      1751.5000          1.412        -999.25       160.0742         1.0155       -55.8235     -0.9659538              1
      1752.0000         1.4204        -999.25       159.7783         1.0291       -54.5233      0.3052101              1
      1752.5000         1.4287        -999.25       160.0356         1.0446       -54.1552       0.644268              1
      1753.0000         1.4379        -999.25       160.1572         1.0602       -54.8891     -0.1186714              1
      1753.5000         1.4478        -999.25       160.1929         1.0757       -55.5475     -0.8061104              1
      1754.0000         1.4578        -999.25       159.9927         1.0912       -55.8564      -1.144051              1
      1754.5000         1.4704        -999.25       159.8123         1.1068       -55.8862      -1.202888              1
      1755.0000         1.4925        -999.25       159.5115         1.1222        -56.051      -1.396729              1
      1755.5000         1.5146        -999.25       158.1577         1.1375       -56.5197      -1.894466              1
      1756.0000         1.5329        -999.25       156.4167         1.1527       -57.5397      -2.943508      0.9589779
      1756.5000         1.5455        -999.25       154.2852          1.168       -57.7047       -3.13755      0.9505413
      1757.0000         1.5581        -999.25       152.8699         1.1833       -58.0898      -3.551689      0.9325352
      1757.5000         1.5668        -999.25       155.3284         1.1986       -58.6848      -4.175728      0.9054031
      1758.0000         1.5713        -999.25       159.0024           1.21       -59.3744      -4.894367       0.874158
      1758.5000         1.5722        -999.25       162.7334         1.2146       -60.0922      -5.641209      0.8416866
      1759.0000         1.5621        -999.25       167.5359         1.2191        -60.736      -6.314045      0.8124328
      1759.5000          1.552        -999.25       167.7734         1.2217       -60.1744      -5.781487      0.8355876
      1760.0000         1.5394        -999.25       163.7585         1.2135       -59.2416      -4.877724      0.8748816
      1760.5000          1.526        -999.25        160.543         1.2052       -58.3625      -4.027664      0.9118407
      1761.0000         1.5193        -999.25       156.6951         1.1969       -57.4916      -3.185806      0.9484432
      1761.5000         1.5325        -999.25       154.0649         1.1898       -56.8315      -2.554745      0.9758807
      1762.0000         1.5458        -999.25       153.1892         1.1882       -56.5027      -2.254986      0.9889137
      1762.5000         1.5564        -999.25       153.0645         1.1866       -56.5646      -2.345924      0.9849598
      1763.0000         1.5564        -999.25       153.2126          1.185       -56.7339      -2.544262      0.9763364
      1763.5000         1.5362        -999.25         153.55         1.1834       -56.7716         -2.611      0.9734348
      1764.0000          1.516        -999.25       154.0601         1.1818        -56.111      -1.979443              1
      1764.5000         1.4957        -999.25       155.0979         1.1802       -55.5239      -1.421383              1
      1765.0000         1.4753        -999.25       156.8484         1.1743       -55.3491       -1.27562              1
