#------------------------------------------------------------------------------
# Created by    : vladimir.rabinovich
# Created on    : 09/19/2023 17:20:23
#------------------------------------------------------------------------------
~Version Information Section
VERS.           2.0     :   CWLS log ASCII Standard - VERSION 2.0
WRAP.           NO      :   One line per depth step
~Well Information Section
#MNEM       .UNIT                                         VALUE :DESCRIPTION
#------------------------------------------------------------------------------
STRT        .FT                                            3094 :START DEPTH
STOP        .FT                                           15705 :STOP DEPTH
STEP        .FT                                             0.5 :STEP      
NULL        .                                           -999.25 :NULL      
COMP        .                                       MONSANTO CO :COMPANY   
WELL        .                                     ST TR 00011-L :WELL      
FLD         .                                           WILDCAT :FIELD     
LOC         .                                                   :LOCATION  
CNTY        .                           HIGH ISLAND LARGE BLOCK :LOCATION  
STAT        .                                             TEXAS :STATE     
CTRY        .                                     UNITED STATES :COUNTRY   
SRVC        .                                                   :SERVICE COMPANY
DATE        .                             9/13/2023 11:19:15 AM :LOG DATE  
API         .                                    42708300660000 :API NUMBER
UWI         .                                    42708300660000 :UNIQUE WELL ID
XCOORD      .                                  1343190.12128624 :SURFACE X 
YCOORD      .                                   10724936.940093 :SURFACE Y 
LAT         .                                        29.5487141 :LATITUDE  
LON         .                                       -93.9350737 :LONGITUDE 
ELEV        .FT                                              49 :ELEVATION VALUE
ELEV_TYPE   .                                                KB :ELEVATION REFERENCE TYPE
~Curve Information Section
#MNEM       .UNIT                                      API CODE :CURVE DESCRIPTION
#------------------------------------------------------------------------------
DEPT        .FT                                                 :DEPTH     
ASN         .OHMM                                               :          
CILD        .MMHO                                               :          
ILD         .OHMM                                               :          
SP_NORM     .MV                                                 :SP Normalized
VSH_SP      .V/V                                                :Volume of Shale from SP
~A        DEPTH            ASN           CILD            ILD        SP_NORM         VSH_SP
# ...
      6438.0000         0.5546       4188.477         0.2608      -75.42102      0.1140355
      6438.5000         0.5395       4359.758         0.2623      -75.41102      0.1141545
      6439.0000         0.5243       4531.039         0.3235      -73.84471      0.1328011
      6439.5000         0.5091       4702.313         0.3846      -69.46651      0.1849224
      6440.0000         0.4939       4523.898         0.4458      -62.21201      0.2712856
      6440.5000         0.4846       4169.047         0.5069      -50.64342      0.4090069
      6441.0000          0.496       4065.027         0.5681      -39.08461      0.5466118
      6441.5000         0.5074           3240         0.6292      -27.52581      0.6842166
      6442.0000         0.5663       1958.369         0.6904      -15.96711      0.8218201
      6442.5000         0.6195       1878.676         0.7353      -10.22981      0.8901213
      6443.0000          0.672       1799.082         0.7271      -6.122208      0.9390213
      6443.5000         0.6887       1719.391          0.719      -4.809107      0.9546535
      6444.0000         0.6837       1463.561         0.7108      -2.553404      0.9815071
      6444.5000         0.6679       1362.186         0.7027     -0.7474041              1
      6445.0000         0.6544       1368.258         0.6945      0.5853977              1
      6445.5000          0.645       1413.852         0.6863          1.125              1
      6446.0000         0.6367       1462.719         0.6782         1.5294              1
      6446.5000         0.6372       1521.199           0.67       1.803402              1
      6447.0000         0.6512       1562.582         0.6611       1.771503              1
      6447.5000         0.6609       1603.865         0.6488       1.600603              1
      6448.0000           0.67       1626.291         0.6366      0.8952065              1
      6448.5000          0.679       1654.219         0.6243    0.006706238              1
      6449.0000         0.6826       1699.615          0.612     -0.8818932              1
      6449.5000         0.6758       1745.012         0.5997      -2.168289      0.9860918
      6450.0000          0.669       1796.902         0.5875      -3.607889      0.9689537
      6450.5000         0.6629       1835.459         0.5861      -5.301989      0.9487858
      6451.0000         0.6587       1838.459         0.5858      -6.626587      0.9330168
      6451.5000         0.6546       1814.893         0.6056      -7.002485      0.9285418
      6452.0000         0.6569       1791.326         0.6268      -2.695286       0.979818
      6452.5000         0.6676       1744.766          0.648      -2.371183      0.9836764
      6453.0000         0.6837       1704.746         0.6692      -3.372183      0.9717597
      6453.5000         0.6998       1687.994         0.6905       -4.55728      0.9576514
      6454.0000         0.7142       1671.268         0.7117      -6.393379      0.9357931
      6454.5000         0.7284       1657.279         0.7363      -8.236979      0.9138455
      6455.0000         0.7325       1646.996         0.7648      -10.09048        0.89178
      6455.5000         0.7179       1636.711         0.7931      -10.07338      0.8919836
      6456.0000         0.7032       1628.621          0.794      -7.407576      0.9237193
      6456.5000         0.6885       1635.559         0.7598      -4.618073      0.9569277
      6457.0000         0.6791        1655.73         0.7257      -2.999872       0.976192
      6457.5000         0.6701       1676.199         0.6926       -1.96357      0.9885289
      6458.0000         0.6612       1685.318         0.6651      -1.610868      0.9927278
      6458.5000         0.6523         1662.1         0.6375      -1.670668      0.9920158
      6459.0000         0.6568       1633.254         0.6462      -2.079266      0.9871516
      6459.5000         0.6671       1602.305         0.6617      -2.487865      0.9822873
      6460.0000         0.6774       1577.451         0.6772      -4.637165      0.9567004
      6460.5000           0.69       1560.154         0.6928      -7.118261      0.9271635
      6461.0000         0.7126       1677.859         0.6754      -12.95246      0.8577088
      6461.5000         0.7353       1743.377         0.6279      -20.96336       0.762341
      6462.0000         0.7841       1783.719         0.5685      -28.97446      0.6669707
      6462.5000         0.8461       1839.027         0.5092      -36.98546      0.5716017
      6463.0000         1.0089       1953.215         0.4498      -45.22375      0.4735267
      6463.5000         0.9603       2388.703         0.4014      -67.76396      0.2051909
      6464.0000         0.8969       3358.492         0.3635      -80.75636     0.05051958
      6464.5000         0.8334       3966.398         0.3256      -85.97395              0
      6465.0000           0.77       3986.484         0.2939      -87.33325              0
      6465.5000         0.7066        3993.18         0.2817      -87.63435              0
      6466.0000         0.6432       4312.969         0.2694      -87.89894              0
      6466.5000         0.5298       4810.953         0.2572      -88.16375              0
      6467.0000          0.516       5095.031          0.245      -88.30074              0
      6467.5000         0.5064       5344.023         0.2574      -88.10674              0
      6468.0000         0.4969       5170.359         0.2717      -82.79444     0.02625665
      6468.5000         0.4927       4996.898          0.286      -70.06944      0.1777447
      6469.0000         0.4932       4823.438         0.3063      -57.60134      0.3261745
      6469.5000         0.4936       4649.984         0.3703      -45.14314      0.4744864
      6470.0000         0.4942       4476.523         0.4343      -41.46174      0.5183126
      6470.5000          0.495       4121.469         0.4983      -38.80824       0.549902
      6471.0000         0.4957       4044.625         0.5703      -36.15464      0.5814924
      6471.5000         0.4964       4013.656         0.6571      -33.50364       0.613052
      6472.0000         0.5055       3982.688         0.7439      -30.85013      0.6446413
      6472.5000         0.5284       3258.578         0.8307      -28.19653      0.6762317
      6473.0000         0.5958       2096.895         0.9173      -25.54303      0.7078211
      6473.5000          0.774       2044.459         0.9891      -19.45743      0.7802687
      6474.0000         0.8217       2013.211         1.0533      -7.614428      0.9212568
      6474.5000         0.8542           1495         1.0955      -8.049627      0.9160759
      6475.0000         0.8839           1452         1.1219      -10.08593      0.8918342
      6475.5000         0.9065           1870         1.0942      -23.78752      0.7287199
      6476.0000         0.9274       2156.168         0.9688      -38.44042      0.5542807
      6476.5000         0.9448       2366.102         0.8433      -43.31822      0.4962116
      6477.0000         0.9622       2576.039         0.7178      -51.59612      0.3976653
      6477.5000         0.9779       2785.977         0.5924      -58.38652      0.3168271
      6478.0000         0.9742        2995.91          0.487      -61.70271      0.2773487
      6478.5000         0.9524       3343.426         0.4236      -65.01402      0.2379284
      6479.0000         0.7485       3756.957         0.3854      -75.00062      0.1190403
      6479.5000         0.6449       3907.023         0.3498      -76.35872      0.1028724
      6480.0000         0.5904         4081.5         0.3109      -76.65292     0.09937005
      6480.5000         0.6126        4292.75         0.3302      -76.23691      0.1043225
      6481.0000          0.685       4280.461         0.3538      -75.82071      0.1092773
      6481.5000         0.7389       4076.473         0.3775      -75.40461      0.1142308
