#------------------------------------------------------------------------------
# Created by    : vladimir.rabinovich
# Created on    : 09/19/2023 17:20:37
#------------------------------------------------------------------------------
~Version Information Section
VERS.           2.0     :   CWLS log ASCII Standard - VERSION 2.0
WRAP.           NO      :   One line per depth step
~Well Information Section
#MNEM       .UNIT                                         VALUE :DESCRIPTION
#------------------------------------------------------------------------------
STRT        .FT                                             495 :START DEPTH
STOP        .FT                                            7007 :STOP DEPTH
STEP        .FT                                             0.5 :STEP      
NULL        .                                           -999.25 :NULL      
COMP        .                                      SHELL OIL CO :COMPANY   
WELL        .                                OCS 00718 ST00BP00 :WELL      
FLD         .                                           WILDCAT :FIELD     
LOC         .                                                   :LOCATION  
CNTY        .                             GALVESTON LARGE BLOCK :LOCATION  
STAT        .                                             TEXAS :STATE     
CTRY        .                                     UNITED STATES :COUNTRY   
SRVC        .                                                   :SERVICE COMPANY
DATE        .                             9/13/2023 11:19:25 AM :LOG DATE  
API         .                                    42706000330000 :API NUMBER
UWI         .                                    42706000330000 :UNIQUE WELL ID
XCOORD      .                                  1012682.17104467 :SURFACE X 
YCOORD      .                                  10442833.5651685 :SURFACE Y 
LAT         .                                         28.761679 :LATITUDE  
LON         .                                        -94.959691 :LONGITUDE 
ELEV        .FT                                              75 :ELEVATION VALUE
ELEV_TYPE   .                                                KB :ELEVATION REFERENCE TYPE
~Curve Information Section
#MNEM       .UNIT                                      API CODE :CURVE DESCRIPTION
#------------------------------------------------------------------------------
DEPT        .FT                                                 :DEPTH     
ASN         .OHMM                                               :          
CILD        .MMHO                                               :          
DT          .US/F                                               :          
ILD         .OHMM                                               :          
LAT         .OHMM                                               :          
LN          .OHMM                                               :          
SP          .MV                                                 :          
SP_NORM     .MV                                                 :SP Normalized
VSH_SP      .V/V                                                :Volume of Shale from SP
~A        DEPTH            ASN           CILD             DT            ILD            LAT             LN             SP        SP_NORM         VSH_SP
# ...
      4390.5000         0.7049       1703.217        97.0422         0.7255        -999.25        -999.25       -57.9225      -7.650755      0.8822961
      4391.0000         0.7119       1552.902        98.0933         0.7535        -999.25        -999.25       -56.9858      -6.566189      0.8989817
      4391.5000         0.7274       1459.416        97.7555           0.76        -999.25        -999.25       -56.3055      -5.778988      0.9110925
      4392.0000           0.74       1396.152        96.5486         0.7629        -999.25        -999.25       -55.9519      -5.370678      0.9173742
      4392.5000         0.7255       1386.916        95.2238         0.7596        -999.25        -999.25        -55.767      -5.158023      0.9206458
      4393.0000         0.7683       1394.229          93.77          0.752        -999.25        -999.25       -55.5458      -4.903268      0.9245651
      4393.5000         0.7846       1413.576         92.235         0.7446        -999.25        -999.25       -54.7156      -3.942219      0.9393505
      4394.0000         0.7664       1432.926         90.761         0.7347        -999.25        -999.25       -53.5465      -2.588125      0.9601827
      4394.5000         0.7566       1452.285        89.1808         0.7242        -999.25        -999.25       -52.7682      -1.687268      0.9740421
      4395.0000         0.7522       1472.348        87.6989          0.714        -999.25        -999.25       -52.7579       -1.67711      0.9741983
      4395.5000         0.7566       1492.824        86.8953         0.7067        -999.25        -999.25       -52.8599       -1.79719      0.9723509
      4396.0000         0.7681       1513.303        86.9558         0.7056        -999.25        -999.25       -52.9155      -1.863459      0.9713314
      4396.5000         0.7471       1533.779        87.7079         0.7027        -999.25        -999.25       -52.5652      -1.458977      0.9775542
      4397.0000          0.727       1553.988         88.672         0.6978        -999.25        -999.25       -52.7013      -1.618609      0.9750983
      4397.5000         0.7203       1573.637        89.9985         0.6919        -999.25        -999.25       -52.8002      -1.735093      0.9733063
      4398.0000          0.726       1593.275        91.7019         0.6852        -999.25        -999.25       -52.8117      -1.750214      0.9730736
      4398.5000         0.7107       1612.914        93.0935         0.6763        -999.25        -999.25       -52.3893      -1.262116      0.9805828
      4399.0000         0.7025       1605.795        94.1377         0.6667        -999.25        -999.25       -51.6993     -0.4636638      0.9928667
      4399.5000         0.6997       1581.205        94.9352         0.6635        -999.25        -999.25       -51.4365     -0.1606629      0.9975283
      4400.0000         0.7039       1556.613        95.4923         0.6664        -999.25        -999.25       -52.0405     -0.8629473      0.9867239
      4400.5000         0.7599       1529.922        95.9362         0.6786        -999.25        -999.25       -53.1621      -2.165527      0.9666842
      4401.0000         0.7869       1496.592        96.2321          0.714        -999.25        -999.25       -54.6907      -3.940122      0.9393827
      4401.5000         0.7933       1463.238        96.5287         0.7421        -999.25        -999.25       -56.0226      -5.486596      0.9155908
      4402.0000         0.7955       1436.412        96.2634         0.7634        -999.25        -999.25       -56.2543      -5.757097      0.9114293
      4402.5000         0.8119       1424.643        95.0814         0.7761        -999.25        -999.25       -55.0638      -4.378188      0.9326432
      4403.0000         0.8092       1412.861        93.9954         0.7813        -999.25        -999.25       -53.8642      -2.988719      0.9540197
      4403.5000         0.7869        1401.08        93.0217         0.7717        -999.25        -999.25       -52.8337      -1.795367       0.972379
      4404.0000         0.8107       1394.322        92.0345         0.7824        -999.25        -999.25       -52.6372      -1.569258      0.9758576
      4404.5000          0.824       1394.352        91.2078         0.8028        -999.25        -999.25       -53.2006      -2.224456      0.9657776
      4405.0000         0.8158       1394.379        89.9703         0.8054        -999.25        -999.25        -54.503      -3.736713      0.9425121
      4405.5000         0.7923       1396.387        87.8818         0.7797        -999.25        -999.25       -55.7501      -5.184843      0.9202332
      4406.0000         0.7854       1401.268        84.7395         0.7545        -999.25        -999.25       -56.7405      -6.335258      0.9025345
      4406.5000         0.7999        1406.15        82.8092          0.747        -999.25        -999.25       -59.6122      -9.667538      0.8512686
      4407.0000         0.8199       1411.029        81.4391         0.7675        -999.25        -999.25       -60.1928      -10.34268      0.8408818
      4407.5000         0.8256        1415.91        80.3564          0.788        -999.25        -999.25       -60.1595      -10.30584      0.8414485
      4408.0000         0.8181       1420.793        79.6993         0.7943        -999.25        -999.25       -58.8649        -8.8062        0.86452
      4408.5000         0.7994       1427.023        80.1672         0.7792        -999.25        -999.25       -57.2402      -6.923717      0.8934813
      4409.0000         0.7894       1433.578        82.5167         0.7672        -999.25        -999.25       -55.8292       -5.28908      0.9186295
      4409.5000         0.7862       1440.135        85.2207         0.7578        -999.25        -999.25       -54.8173      -4.117296       0.936657
      4410.0000         0.7705       1446.689        85.4396         0.7466        -999.25        -999.25       -54.1573       -3.35364      0.9484056
      4410.5000         0.7522       1453.246        84.9796         0.7282        -999.25        -999.25        -53.769      -2.905089      0.9553064
      4411.0000         0.7495       1459.678        84.4143         0.7116        -999.25        -999.25       -53.6151      -2.728388      0.9580248
      4411.5000         0.7581       1465.676        83.7778         0.7046        -999.25        -999.25       -54.3018       -3.52658      0.9457449
      4412.0000         0.7677       1471.672        82.1519         0.7195        -999.25        -999.25       -55.8405      -5.312895      0.9182631
      4412.5000         0.7781       1477.668        80.8015         0.7313        -999.25        -999.25        -56.676      -6.283663      0.9033282
      4413.0000         0.7766       1483.664        80.9574         0.7401        -999.25        -999.25       -57.1273      -6.808849      0.8952485
      4413.5000         0.7811       1488.818        82.8872         0.7415        -999.25        -999.25       -56.8666      -6.508286      0.8998725
      4414.0000          0.773       1492.799        86.1277         0.7393        -999.25        -999.25       -55.4052      -4.815192      0.9259201
      4414.5000         0.7688       1496.785        88.6838         0.7356        -999.25        -999.25       -54.5403      -3.813897      0.9413247
      4415.0000         0.7838        1500.77        92.1311         0.7315        -999.25        -999.25       -54.5795      -3.861142      0.9405978
      4415.5000         0.7892       1504.754        96.3984         0.7252        -999.25        -999.25       -54.6964      -3.998507      0.9384845
      4416.0000         0.7657       1508.736        98.3887         0.7243        -999.25        -999.25       -54.1378      -3.352445      0.9484239
      4416.5000         0.7715       1512.689        98.7867         0.7263        -999.25        -999.25       -53.3023      -2.385252      0.9633038
