#------------------------------------------------------------------------------
# Created by    : vladimir.rabinovich
# Created on    : 09/19/2023 17:22:42
#------------------------------------------------------------------------------
~Version Information Section
VERS.           2.0     :   CWLS log ASCII Standard - VERSION 2.0
WRAP.           NO      :   One line per depth step
~Well Information Section
#MNEM       .UNIT                                         VALUE :DESCRIPTION
#------------------------------------------------------------------------------
STRT        .FT                                              96 :START DEPTH
STOP        .FT                                            7107 :STOP DEPTH
STEP        .FT                                             0.5 :STEP      
NULL        .                                           -999.25 :NULL      
COMP        .                                  XTO OFFSHORE INC :COMPANY   
WELL        .                               OCS G23162 ST00BP00 :WELL      
FLD         .                                 BRAZOS BLOCK 0398 :FIELD     
LOC         .                                                   :LOCATION  
CNTY        .                                BRAZOS LARGE BLOCK :LOCATION  
STAT        .                                             TEXAS :STATE     
CTRY        .                                     UNITED STATES :COUNTRY   
SRVC        .                                                   :SERVICE COMPANY
DATE        .                             9/13/2023 11:18:28 AM :LOG DATE  
API         .                                    42704403370000 :API NUMBER
UWI         .                                    42704403370000 :UNIQUE WELL ID
XCOORD      .                                  864551.184430364 :SURFACE X 
YCOORD      .                                  10381025.1526549 :SURFACE Y 
LAT         .                                        28.5842785 :LATITUDE  
LON         .                                       -95.4179199 :LONGITUDE 
ELEV        .FT                                             100 :ELEVATION VALUE
ELEV_TYPE   .                                                KB :ELEVATION REFERENCE TYPE
~Curve Information Section
#MNEM       .UNIT                                      API CODE :CURVE DESCRIPTION
#------------------------------------------------------------------------------
DEPT        .FT                                                 :DEPTH     
DCAL        .IN                                                 :          
DPHI        .FRAC                                               :          
DT          .US/F                                               :          
GR          .GAPI                                               :          
GR_NORM     .GAPI                                               :GammaRay Normalized
HT01        .OHMM                                               :          
HT02        .OHMM                                               :          
HT03        .OHMM                                               :          
HT06        .OHMM                                               :          
HT09        .OHMM                                               :          
HT12        .OHMM                                               :          
NPHI        .FRAC                                               :          
RWA         .OHMM                                               :          
SP          .MV                                                 :          
TENS        .LB                                                 :          
VSH_GR      .V/V                                                :Volume of Shale from GR
~A        DEPTH           DCAL           DPHI             DT             GR        GR_NORM           HT01           HT02           HT03           HT06           HT09           HT12           NPHI            RWA             SP           TENS         VSH_GR
# ...
      6624.0000         1.6702         0.1889       110.0828        87.6606       77.25483         0.9094         0.9418         0.9479         0.9762         0.9828         0.9846         0.3927          0.044        -999.25       3784.067      0.9415921
      6624.5000         1.5038         0.1895       112.0234        92.0139         82.086         0.9104          0.943         0.9489         0.9775         0.9842         0.9859         0.3938         0.0463        -999.25       3758.296              1
      6625.0000         1.5235         0.1896        110.625        96.2711       86.81039          0.915         0.9481         0.9542         0.9831         0.9899         0.9916         0.3995         0.0439        -999.25        3731.89              1
      6625.5000         1.6054         0.1811       106.0625         97.634        88.3189         0.9179         0.9517         0.9583         0.9872         0.9941         0.9959         0.3998         0.0385        -999.25       3723.618              1
      6626.0000          1.848         0.1741       107.9875       102.0996       93.27483         0.9198          0.954         0.9613         0.9901         0.9972         0.9991          0.392          0.037        -999.25       3740.162              1
      6626.5000         1.8987         0.1767       113.0531        97.0728       87.68367          0.925         0.9601         0.9684          0.997         1.0044         1.0064         0.3998         0.0428        -999.25       3770.386              1
      6627.0000         2.0154         0.1868       112.6438        88.7589       78.44017         0.9362         0.9726         0.9822         1.0108         1.0187         1.0208         0.4073          0.049        -999.25       3806.337      0.9668121
      6627.5000         2.0296         0.1897       109.7219        84.7263       73.95367         0.9477         0.9857         0.9968         1.0255         1.0338         1.0362         0.3972         0.0446        -999.25       3843.243      0.8713546
      6628.0000          2.021         0.1936       108.1516        84.8145       74.04583         0.9479         0.9864         0.9989         1.0274          1.036         1.0386         0.4085         0.0529        -999.25       3873.149      0.8733155
      6628.5000         1.7873         0.2078       109.4141        92.6633       82.76089         0.9334          0.971         0.9844         1.0122         1.0211         1.0238         0.4169         0.0606        -999.25       3886.512              1
      6629.0000         1.8502         0.2079       110.6844        99.2696       90.09538          0.908         0.9439         0.9574         0.9843         0.9933         0.9962         0.4236         0.0509        -999.25       3875.695              1
      6629.5000         1.8578         0.2027       110.4516        95.7901       86.22343         0.8812         0.9152         0.9282         0.9543         0.9634         0.9663         0.4222         0.0512        -999.25       3844.833              1
      6630.0000         1.9193         0.2069       110.8219        88.1256       77.70149         0.8619         0.8945         0.9068         0.9323         0.9415         0.9446         0.4267         0.0566        -999.25       3810.792      0.9510956
      6630.5000         1.9226         0.2026        113.025        85.2634       74.51543         0.8573         0.8897         0.9011         0.9266         0.9361         0.9393          0.433         0.0456        -999.25       3784.703      0.8833069
      6631.0000         1.9398         0.1908       113.2953        86.7707       76.18437         0.8671         0.9003         0.9113         0.9373         0.9472         0.9506         0.4274         0.0429        -999.25       3765.932      0.9188164
      6631.5000          1.964         0.1892       112.0453        92.1422       82.14687         0.8839         0.9184         0.9297         0.9565          0.967         0.9707         0.4148         0.0446        -999.25       3753.206              1
      6632.0000         1.8526         0.1913       112.2562        97.5779       88.18071         0.9051         0.9414         0.9536         0.9816         0.9927         0.9967         0.4088         0.0455        -999.25       3750.025              1
      6632.5000         1.7847         0.1922       110.0141        94.9643       85.27087         0.9217         0.9596         0.9731         1.0024          1.014         1.0183         0.4048         0.0486        -999.25       3759.569              1
      6633.0000         1.8859         0.2024       109.0281        89.3442       79.02049         0.9289         0.9676         0.9827         1.0134         1.0254         1.0299         0.4005         0.0565        -999.25       3768.159      0.9791594
      6633.5000         1.1356         0.2108       111.8047        87.9813       77.50031         0.9263         0.9653         0.9816         1.0135         1.0257         1.0304         0.4119          0.058        -999.25       3760.523      0.9468152
      6634.0000         0.8483         0.2132       112.3578        91.2683       81.14671          0.917         0.9557         0.9722         1.0055         1.0178         1.0226         0.4284         0.0592        -999.25       3737.298              1
      6634.5000         0.7894          0.214       106.2937        94.2508       84.45476         0.9032         0.9414         0.9571         0.9916          1.004         1.0088         0.4315         0.0573        -999.25       3720.437              1
      6635.0000         0.7713         0.2028       108.4469        93.5372       83.65604         0.8902         0.9279         0.9423         0.9781         0.9905         0.9954         0.4219          0.047        -999.25       3738.253              1
      6635.5000         0.7573         0.1929       115.3391        92.1743       82.13586         0.8832          0.921          0.934         0.9712         0.9837         0.9886         0.4185         0.0458        -999.25       3785.658              1
      6636.0000         0.7719         0.2054          112.4        92.8157       82.84268          0.883         0.9213         0.9334         0.9721         0.9847         0.9897         0.4325         0.0615        -999.25        3828.29              1
      6636.5000         0.9171         0.2238       108.8797        93.7056       83.82565         0.8782         0.9165         0.9283         0.9678         0.9804         0.9856         0.4335          0.066        -999.25       3834.017              1
      6637.0000         1.0452          0.228       108.0469        95.0605       85.32525         0.8643         0.9016         0.9134         0.9528         0.9651         0.9703         0.4332         0.0643        -999.25       3810.155              1
      6637.5000         1.1394         0.2242       108.8812         96.239       86.62886         0.8432         0.8786         0.8904         0.9287         0.9405         0.9456         0.4574         0.0593        -999.25        3804.11              1
      6638.0000         1.1565         0.2201       110.7297        94.9643        85.2067         0.8201         0.8532         0.8646         0.9011         0.9122         0.9173         0.4648         0.0564        -999.25       3830.517              1
      6638.5000         1.1575         0.2177       113.2266        93.8339       83.94485         0.8016         0.8325         0.8436         0.8779         0.8884         0.8934         0.4333         0.0547        -999.25       3862.014              1
      6639.0000         1.1592         0.2141       114.9531        93.1444       83.17291         0.7974         0.8267         0.8377           0.87         0.8801         0.8852         0.4253         0.0528        -999.25       3859.469              1
      6639.5000         1.1719         0.2133        116.825        92.4789       82.42763         0.8108         0.8393         0.8503         0.8809         0.8909         0.8962         0.4249         0.0544        -999.25       3828.926              1
