#------------------------------------------------------------------------------
# Created by    : vladimir.rabinovich
# Created on    : 09/19/2023 17:20:57
#------------------------------------------------------------------------------
~Version Information Section
VERS.           2.0     :   CWLS log ASCII Standard - VERSION 2.0
WRAP.           NO      :   One line per depth step
~Well Information Section
#MNEM       .UNIT                                         VALUE :DESCRIPTION
#------------------------------------------------------------------------------
STRT        .FT                                             727 :START DEPTH
STOP        .FT                                            8206 :STOP DEPTH
STEP        .FT                                             0.5 :STEP      
NULL        .                                           -999.25 :NULL      
COMP        .                              PHOENIX RESOURCES CO :COMPANY   
WELL        .                                          BLK 335L :WELL      
FLD         .                                 BRAZOS BLOCK 0309 :FIELD     
LOC         .                                                   :LOCATION  
CNTY        .                                BRAZOS LARGE BLOCK :LOCATION  
STAT        .                                             TEXAS :STATE     
CTRY        .                                     UNITED STATES :COUNTRY   
SRVC        .                                                   :SERVICE COMPANY
DATE        .                             9/13/2023 11:18:52 AM :LOG DATE  
API         .                                    42704300210000 :API NUMBER
UWI         .                                    42704300210000 :UNIQUE WELL ID
XCOORD      .                                  898426.347293712 :SURFACE X 
YCOORD      .                                  10460523.5569112 :SURFACE Y 
LAT         .                                        28.8046676 :LATITUDE  
LON         .                                       -95.3172337 :LONGITUDE 
ELEV        .FT                                              70 :ELEVATION VALUE
ELEV_TYPE   .                                                DF :ELEVATION REFERENCE TYPE
~Curve Information Section
#MNEM       .UNIT                                      API CODE :CURVE DESCRIPTION
#------------------------------------------------------------------------------
DEPT        .FT                                                 :DEPTH     
ASN         .OHMM                                               :          
CALI        .IN                                                 :          
DT          .US/F                                               :          
ILD         .OHMM                                               :          
SP          .MV                                                 :          
SP_NORM     .MV                                                 :SP Normalized
VSH_SP      .V/V                                                :Volume of Shale from SP
~A        DEPTH            ASN           CALI             DT            ILD             SP        SP_NORM         VSH_SP
# ...
      4211.0000         0.9083        10.6995       110.3948         0.6304       -68.0592      -15.57035      0.7660283
      4211.5000         0.9017        10.7282       110.2314         0.6307       -66.2974       -13.8117      0.7963499
      4212.0000         0.8939        10.7545       114.8336         0.6415       -66.5325      -14.04994      0.7922424
      4212.5000         0.8786        10.7833       116.3973         0.6576       -69.1578      -16.67838      0.7469245
      4213.0000         0.8632        10.8161       116.8906         0.6737       -70.9752      -18.49892      0.7155359
      4213.5000         0.8479        10.8607       116.9474         0.6898       -69.3113      -16.83817      0.7441695
      4214.0000         0.8325        10.9227       114.7568         0.7058       -65.0479       -12.5779      0.8176224
      4214.5000         0.8261        11.0066       112.5177         0.7219       -62.1875      -9.720646      0.8668854
      4215.0000         0.8379         11.124       111.5283         0.7439       -59.3048      -6.841087       0.916533
      4215.5000         0.8588        11.2327       111.1827         0.7688       -56.2885       -3.82793       0.968484
      4216.0000         0.8797         11.215       112.4806         0.7937       -54.0059      -1.548473              1
      4216.5000         0.9005        11.1701       112.5579         0.8186       -52.2292        0.22509              1
      4217.0000         0.9261         11.179       112.8158         0.8435       -49.7635       2.687645              1
      4217.5000         0.9378         11.304       113.9657         0.8654       -47.1419       5.306107              1
      4218.0000         0.9311        11.1961       114.4226          0.875       -44.9298       7.515064              1
      4218.5000         0.9244        11.0692        114.056         0.8846       -44.7034       7.738323              1
      4219.0000         0.9176        11.0991       112.5907         0.8942        -44.507       7.931583              1
      4219.5000         0.9109        11.0988       112.2999         0.9038       -43.8788       8.556641              1
      4220.0000         0.9042        11.0982        113.928         0.9132       -43.2039       9.228401              1
      4220.5000         0.8974        11.1002       113.9045         0.9162       -42.5105       9.918655              1
      4221.0000         0.8881        11.1068       114.9177         0.9192       -42.8445       9.581516              1
      4221.5000         0.8783        11.1924       115.1305         0.9222       -44.3446       8.078274              1
      4222.0000         0.8766        11.1582       112.8381         0.9252       -46.0396       6.380135              1
      4222.5000         0.8864        11.1297       113.7622         0.9282       -46.6296       5.786991              1
      4223.0000         0.9006        11.1352       117.4637         0.9313       -45.9307       6.482754              1
      4223.5000         0.9164        11.1455        119.886         0.9343       -44.7554       7.654911              1
      4224.0000         0.9157        11.1513       121.3235         0.9174       -43.2422        9.16497              1
      4224.5000         0.9109        11.1578       121.1005         0.8992       -43.1173       9.286732              1
      4225.0000         0.9045        11.1641        119.912          0.881        -42.954       9.446888              1
      4225.5000         0.8949        11.1181       118.5048         0.8628       -41.4236       10.97415              1
      4226.0000         0.8852        11.1055       117.8911         0.8386       -40.7982       11.59641              1
      4226.5000         0.8756          11.15        117.501         0.8014        -40.873       11.51846              1
      4227.0000         0.8659        11.1366       118.5623         0.7642        -42.281       10.10732              1
      4227.5000         0.8562        11.0863       118.4744         0.7271       -43.2628       9.122383              1
      4228.0000         0.8436        11.0522       117.3004         0.7024       -43.4655       8.916542              1
      4228.5000         0.8299        11.0381       115.3322         0.6998       -44.7319       7.646999              1
      4229.0000         0.8162        11.0455       113.4567         0.6973       -47.3027       5.073059              1
      4229.5000         0.8025        11.0771       112.3259         0.6947       -49.2885       3.084114              1
      4230.0000         0.7887        11.1001       115.7787         0.7067        -49.701       2.668476              1
      4230.5000         0.7798        11.0723       118.6798         0.7215        -48.861       3.505333              1
      4231.0000         0.7763        11.0148       121.3878         0.7364       -47.8193       4.543892              1
      4231.5000         0.8082        10.9522       122.5736         0.7512       -47.9232       4.436852              1
      4232.0000           0.84        10.8734       122.6246         0.7661       -52.7477      -0.390789              1
      4232.5000         0.8311        10.8105       119.4233         0.7347       -60.4628      -8.109028      0.8946719
      4233.0000         0.8206        10.7805       116.2352          0.677       -70.7463      -18.39567       0.717316
      4233.5000         0.8058        10.7978       117.9016         0.6194       -75.7571      -23.40961      0.6308687
      4234.0000         0.7725        10.8094       115.8827         0.5617        -80.759      -28.41466      0.5445749
      4234.5000         0.7393        10.8092       113.8961         0.5181       -79.3375       -26.9963      0.5690294
      4235.0000         0.7355        10.8132       115.3779         0.4844       -73.6514      -21.31334      0.6670114
      4235.5000         0.7584        10.8834       113.8265         0.4884       -73.2073      -20.87238      0.6746142
      4236.0000         0.7826         10.955       111.6641         0.5088       -76.6503      -24.31852       0.615198
      4236.5000         0.8068        10.9987       109.9642         0.5293       -77.6079      -25.27926      0.5986334
      4237.0000         0.8311        11.1945       107.9143         0.5497       -79.2373       -26.9118      0.5704862
      4237.5000         0.8545        11.4059        107.392         0.5701       -81.7524      -29.43005      0.5270682
      4238.0000         0.8696         11.652       111.0703         0.5906       -84.3741      -32.05488      0.4818124
      4238.5000         0.8848         11.602       115.8456         0.6096       -84.7626      -32.44653      0.4750598
      4239.0000         0.8999        11.1512       117.6257         0.6039       -83.0664      -30.75346      0.5042506
      4239.5000          0.915        10.8768       117.2831         0.5982       -81.1537      -28.84391       0.537174
      4240.0000         0.9142        10.9661        118.243         0.5924       -80.0167      -27.71005      0.5567233
      4240.5000         0.9086        11.1358       116.7969         0.5867       -80.5576      -28.25409      0.5473432
      4241.0000         0.8876        10.9849       115.8629          0.581       -80.7574      -28.45703      0.5438443
      4241.5000         0.8666        10.7575       116.4988         0.5753       -79.5255      -27.22827      0.5650299
      4242.0000         0.8456        10.6311       112.6772         0.5695       -77.1885      -24.89441      0.6052687
      4242.5000         0.8198        10.5758       111.3784         0.5642       -75.9915      -23.70055      0.6258525
      4243.0000         0.7999          10.59       112.9828         0.5662       -76.2723       -23.9845       0.620957
      4243.5000         0.8131        10.5904       116.4814         0.5681       -77.6364      -25.35173      0.5973839
      4244.0000         0.8264        10.5459       117.3851         0.5701       -78.7544      -26.47288      0.5780538
