#------------------------------------------------------------------------------
# Created by    : vladimir.rabinovich
# Created on    : 09/19/2023 17:19:40
#------------------------------------------------------------------------------
~Version Information Section
VERS.           2.0     :   CWLS log ASCII Standard - VERSION 2.0
WRAP.           NO      :   One line per depth step
~Well Information Section
#MNEM       .UNIT                                         VALUE :DESCRIPTION
#------------------------------------------------------------------------------
STRT        .FT                                            4790 :START DEPTH
STOP        .FT                                           12963 :STOP DEPTH
STEP        .FT                                             0.5 :STEP      
NULL        .                                           -999.25 :NULL      
COMP        .                         ATLANTIC RICHFIELD CO THE :COMPANY   
WELL        .                               OCS G06150 ST00BP00 :WELL      
FLD         .                                           WILDCAT :FIELD     
LOC         .                                                   :LOCATION  
CNTY        .                           HIGH ISLAND LARGE BLOCK :LOCATION  
STAT        .                                             TEXAS :STATE     
CTRY        .                                     UNITED STATES :COUNTRY   
SRVC        .                                                   :SERVICE COMPANY
DATE        .                             9/13/2023 11:19:59 AM :LOG DATE  
API         .                                    42708402440000 :API NUMBER
UWI         .                                    42708402440000 :UNIQUE WELL ID
XCOORD      .                                  1291497.32246636 :SURFACE X 
YCOORD      .                                   10652058.279547 :SURFACE Y 
LAT         .                                         29.347015 :LATITUDE  
LON         .                                        -94.095521 :LONGITUDE 
ELEV        .FT                                             105 :ELEVATION VALUE
ELEV_TYPE   .                                                KB :ELEVATION REFERENCE TYPE
~Curve Information Section
#MNEM       .UNIT                                      API CODE :CURVE DESCRIPTION
#------------------------------------------------------------------------------
DEPT        .FT                                                 :DEPTH     
ALL         .OHMM                                               :          
CILD        .MMHO                                               :          
GR          .GAPI                                               :          
GR_NORM     .GAPI                                               :GammaRay Normalized
ILD         .OHMM                                               :          
SP          .MV                                                 :          
SP_NORM     .MV                                                 :SP Normalized
VSH_GR      .V/V                                                :Volume of Shale from GR
VSH_SP      .V/V                                                :Volume of Shale from SP
~A        DEPTH            ALL           CILD             GR        GR_NORM            ILD             SP        SP_NORM         VSH_GR         VSH_SP
# ...
     11309.0000         0.3994       2442.348        -999.25       76.37605         0.3906       -39.9013      -4.243626      0.9858192      0.9347134
     11309.5000         0.3998       2437.188        -999.25       76.69118           0.39       -39.8597      -4.196224      0.9929813      0.9354427
     11310.0000         0.4001       2435.707        -999.25        77.0063         0.3893        -39.818      -4.148724              1      0.9361735
     11310.5000         0.3962       2441.879        -999.25       77.32143         0.1748       -39.6105      -3.935417              1      0.9394551
     11311.0000         0.3957       2438.316        -999.25       77.63656         0.1694       -39.6167      -3.935814              1       0.939449
     11311.5000         0.3952       2434.754        -999.25       77.47899         0.1639       -39.6229      -3.936211              1      0.9394429
     11312.0000         0.3949       2434.742        -999.25       77.32143         0.1584       -39.6291      -3.936611              1      0.9394367
     11312.5000         0.3957       2437.719        -999.25       77.16386         0.1529       -39.6353      -3.937008              1      0.9394307
     11313.0000         0.3964       2440.691        -999.25        77.0063         0.1482       -39.6415      -3.937405              1      0.9394245
     11313.5000         0.3972       2443.664        -999.25       76.84874         0.1569       -39.6477      -3.937801      0.9965622      0.9394184
     11314.0000         0.3979       2446.637        -999.25       76.69118         0.1656       -39.6539      -3.938198      0.9929813      0.9394124
     11314.5000         0.3987       2449.605        -999.25       76.53362         0.1742       -39.6679      -3.946396      0.9894003      0.9392862
     11315.0000         0.3994       2452.582        -999.25       76.37605         0.1829       -39.6846      -3.957294      0.9858192      0.9391186
     11315.5000         0.4002       2455.254        -999.25       76.21849         0.1916       -39.7018      -3.968693      0.9822384      0.9389432
     11316.0000         0.4009       2457.176        -999.25       76.06093         0.2003        -39.726      -3.987087      0.9786575      0.9386602
     11316.5000         0.4022       2459.102        -999.25       76.06093         0.2104       -39.7501      -4.005383      0.9786575      0.9383788
     11317.0000         0.4039       2461.023        -999.25       76.06093         0.2222       -39.7743      -4.023781      0.9786575      0.9380957
     11317.5000         0.4057       2462.953        -999.25       76.06093         0.2342       -39.7985      -4.042179      0.9786575      0.9378126
     11318.0000         0.4074       2464.875        -999.25       76.30333          0.246       -39.8226      -4.060478      0.9841666      0.9375311
     11318.5000         0.4135       2466.801        -999.25       76.54573         0.2579       -39.8468      -4.078876      0.9896757      0.9372481
     11319.0000         0.4203       2468.727        -999.25       76.78814         0.2698       -39.4075       -3.63377       0.995185      0.9440958
     11319.5000         0.4272       2470.648        -999.25       77.03055         0.2817       -38.9682      -3.188667              1      0.9509436
     11320.0000         0.4262       2884.973        -999.25       77.27295         0.3062       -38.5289      -2.743565              1      0.9577913
     11320.5000        -999.25        -999.25        -999.25       77.51535        -999.25        -999.25        -999.25              1        -999.25
     11321.0000        -999.25        -999.25        -999.25       77.75775        -999.25        -999.25        -999.25              1        -999.25
     11321.5000        -999.25        -999.25        -999.25       78.00015        -999.25        -999.25        -999.25              1        -999.25
     11322.0000         0.4466       3223.832        50.0004       78.24256         0.3633       -39.9785      -4.169952              1      0.9358469
     11322.5000         0.4521       3081.063        50.2162       78.48496         0.3767       -39.6365      -3.822151              1      0.9411977
     11323.0000         0.4576       2870.594        50.6266       78.72737         0.3901        -39.336      -3.515846              1        0.94591
     11323.5000         0.4631       2772.703         51.345       78.96977         0.4035       -39.1132      -3.287247              1      0.9494269
     11324.0000          0.468       2739.305        52.1411       79.21218         0.4169       -38.9457      -3.113941              1      0.9520932
     11324.5000         0.4714       2705.906        52.9372       79.21218         0.4285       -38.8248      -2.987236              1      0.9540425
     11325.0000         0.4748       2675.855        53.7321       79.21218         0.4317       -38.7843      -2.940937              1      0.9547548
     11325.5000         0.4782       2650.047        55.8638       79.21218         0.4349       -38.7437      -2.894531              1      0.9554688
     11326.0000         0.4816       2624.238        57.7078       79.21218         0.4381       -38.7203       -2.86533              1       0.955918
     11326.5000         0.4841       2596.832         59.184       79.21218         0.4413       -38.7108      -2.850029              1      0.9561534
     11327.0000         0.4863       2563.984        60.1171       79.21218         0.4445       -38.6696      -2.803024              1      0.9568766
     11327.5000         0.4886       2531.137        60.7676       79.21218         0.4477        -38.617      -2.744621              1      0.9577751
     11328.0000         0.4908       2500.883        61.4181       79.21218         0.4509       -38.5646       -2.68642              1      0.9586704
     11328.5000          0.493       2474.477        62.0673       79.21218         0.4541       -38.5121      -2.628117              1      0.9595674
     11329.0000         0.4946        2448.02        62.8412       79.21218         0.4536       -38.4151      -2.525314              1       0.961149
     11329.5000         0.4958       2436.363        63.7361       79.21218         0.4502       -38.3003      -2.404709              1      0.9630045
     11330.0000         0.4971       2447.219        64.6617       78.42437         0.4468       -38.1852      -2.283806              1      0.9648646
     11330.5000         0.4983       2458.078        65.5085       77.63656         0.4434       -38.0662      -2.159004              1      0.9667845
     11331.0000         0.4996       2467.262        64.9049       80.77399           0.44       -37.9431      -2.030102              1      0.9687676
     11331.5000         0.5005       2475.273        64.2717       79.98248         0.4366        -37.908      -1.989201              1      0.9693969
     11332.0000         0.5007       2483.285        63.6386       79.19112         0.4332       -38.0576      -2.132996              1      0.9671847
     11332.5000         0.5009       2491.313        63.0054       78.39961         0.4298       -38.1526      -2.222191              1      0.9658124
     11333.0000         0.5011       2499.324        62.3722       77.60811         0.4264       -38.2477      -2.311489              1      0.9644386
     11333.5000         0.5014       2507.336        61.9568       77.08885          0.423       -38.3427      -2.400688              1      0.9630663
     11334.0000         0.5013       2511.246        62.8165       78.16349         0.4202       -38.3649      -2.417084              1      0.9628141
     11334.5000         0.4999       2512.223        63.7299       79.30523         0.4173       -38.3021      -2.348484              1      0.9638695
     11335.0000         0.4986       2513.203         64.652       80.45786         0.4144       -38.2393      -2.279877              1       0.964925
