#------------------------------------------------------------------------------
# Created by    : vladimir.rabinovich
# Created on    : 09/19/2023 17:22:54
#------------------------------------------------------------------------------
~Version Information Section
VERS.           2.0     :   CWLS log ASCII Standard - VERSION 2.0
WRAP.           NO      :   One line per depth step
~Well Information Section
#MNEM       .UNIT                                         VALUE :DESCRIPTION
#------------------------------------------------------------------------------
STRT        .FT                                            1705 :START DEPTH
STOP        .FT                                           10298 :STOP DEPTH
STEP        .FT                                             0.5 :STEP      
NULL        .                                           -999.25 :NULL      
COMP        .                            STANOLIND OIL & GAS CO :COMPANY   
WELL        .                                       ST TR 00219 :WELL      
FLD         .                                           WILDCAT :FIELD     
LOC         .                                                   :LOCATION  
CNTY        .                             GALVESTON LARGE BLOCK :LOCATION  
STAT        .                                             TEXAS :STATE     
CTRY        .                                     UNITED STATES :COUNTRY   
SRVC        .                                                   :SERVICE COMPANY
DATE        .                             9/13/2023 11:19:42 AM :LOG DATE  
API         .                                    42706000170000 :API NUMBER
UWI         .                                    42706000170000 :UNIQUE WELL ID
XCOORD      .                                  1024804.26554262 :SURFACE X 
YCOORD      .                                  10549089.4715911 :SURFACE Y 
LAT         .                                        29.0543948 :LATITUDE  
LON         .                                       -94.9272588 :LONGITUDE 
ELEV        .FT                                              60 :ELEVATION VALUE
ELEV_TYPE   .                                                GL :ELEVATION REFERENCE TYPE
~Curve Information Section
#MNEM       .UNIT                                      API CODE :CURVE DESCRIPTION
#------------------------------------------------------------------------------
DEPT        .FT                                                 :DEPTH     
LAT         .OHMM                                               :          
LN          .OHMM                                               :          
SN          .OHMM                                               :          
SP          .MV                                                 :          
SP_NORM     .MV                                                 :SP Normalized
VSH_SP      .V/V                                                :Volume of Shale from SP
~A        DEPTH            LAT             LN             SN             SP        SP_NORM         VSH_SP
# ...
      9685.0000         3.6013         1.5215         2.4485       -117.392      -67.84262      0.4100642
      9685.5000         3.1187         1.4791         2.5557      -126.4113       -76.8606       0.331647
      9686.0000         2.7317         1.4366         2.6712      -147.6482      -98.09616      0.1469899
      9686.5000         2.4801         1.3825         3.2799      -155.4233      -105.8699     0.07939187
      9687.0000         2.2897         1.3283         4.0738      -158.2083      -108.6536       0.055186
      9687.5000         2.3257         1.2773         4.3916      -159.8499      -110.2939     0.04092275
      9688.0000         2.3986         1.3075         4.4096      -160.7319      -111.1746     0.03326463
      9688.5000         2.4712         1.3377         3.7834      -161.0576      -111.4989       0.030444
      9689.0000         2.5433          1.368         3.5105      -161.3833      -111.8233     0.02762332
      9689.5000         2.5059          1.387          3.477      -161.7388      -112.1775     0.02454356
      9690.0000         2.3169         1.4059         3.6998      -162.1782      -112.6156     0.02073417
      9690.5000         2.0953         1.4238         3.5793      -162.6184      -113.0544     0.01691802
      9691.0000         2.0137         1.4031         3.3455      -163.0581      -113.4928     0.01310597
      9691.5000         1.9647          1.379         2.9283      -162.9927      -113.4261     0.01368621
      9692.0000         1.9553         1.3303         2.5647      -162.8215      -113.2536     0.01518641
      9692.5000         2.0505         1.2815         2.3696      -162.6499      -113.0806     0.01669013
      9693.0000         2.1456         1.2342         2.5085      -160.8965      -111.3259     0.03194865
      9693.5000         2.2612         1.1902         2.8996      -159.0706      -109.4987      0.0478375
      9694.0000         2.4586         1.1461         3.2871      -155.5896      -106.0164     0.07811863
      9694.5000         2.6564         1.1021          3.502       -150.177      -100.6024      0.1251962
      9695.0000         2.8494         1.0756         3.3613      -146.5972       -97.0213      0.1563365
      9695.5000         3.0279         1.0528         3.2203      -142.6982      -93.12097      0.1902524
      9696.0000         3.1129         1.0462         3.0075      -140.0752      -90.49664      0.2130727
      9696.5000         2.9573         1.0989         2.5894      -143.5605      -93.98063      0.1827771
      9697.0000          2.707         1.1517          1.691      -148.0435       -98.4623      0.1438061
      9697.5000         2.2801         1.2046         1.5736      -157.8982      -108.3157     0.05812464
      9698.0000         1.7114         1.2573         1.6487      -160.4607      -110.8768     0.03585351
      9698.5000         1.5358         1.2825         1.8368      -161.5344      -111.9492     0.02652853
      9699.0000         1.4398         1.3021         2.0841      -161.7935       -112.207     0.02428695
      9699.5000         1.3438         1.3216         2.3313      -161.9324      -112.3446     0.02309066
      9700.0000         1.3325         1.3214         2.5343       -162.345      -112.7558      0.0195144
      9700.5000           1.34         1.3064         2.2671      -164.0317      -114.4412    0.004859062
      9701.0000         1.3421         1.2913          1.982      -165.8755      -116.2837              0
      9701.5000         1.3261         1.2763         1.7245      -169.4241       -119.831              0
      9702.0000         1.3102         1.2612         1.5844       -173.197      -123.6026              0
      9702.5000         1.2941         1.2462         1.5653      -173.5093      -123.9135              0
      9703.0000         1.2804         1.2244         1.9834      -172.7456      -123.1485              0
      9703.5000         1.4006         1.2002         2.2945       -171.708      -122.1096              0
      9704.0000         1.5993          1.176         2.6424      -170.3359      -120.7361              0
      9704.5000         1.7984         1.1518         3.0097      -168.9636      -119.3625              0
      9705.0000         1.9372         1.1233         3.3001       -167.843      -118.2406              0
      9705.5000         2.0664         1.0552         3.2143      -168.6851      -119.0814              0
      9706.0000          2.121         1.0234         3.0367      -170.1113      -120.5062              0
      9706.5000         2.0966          0.997         3.1882      -170.9399      -121.3335              0
      9707.0000         2.0323         0.9911         4.6915      -169.3904      -119.7827              0
      9707.5000         1.9387         1.0233         5.6319      -167.4116      -117.8026              0
      9708.0000         2.2384         1.0555          6.119      -165.4265      -115.8161              0
      9708.5000          2.522         1.0877         6.2968      -163.3782      -113.7665       0.010726
      9709.0000         2.7111         1.0922         6.4879      -161.0469      -111.4339     0.03100971
      9709.5000         2.8858         1.0705         6.7068      -159.7129      -110.0986     0.04262125
      9710.0000         2.9441         1.0489          7.101      -161.0874      -111.4717     0.03068058
      9710.5000         2.9553         1.0299         7.8095      -163.1311      -113.5141     0.01292081
      9711.0000           2.91         1.0116         8.7158      -162.3923       -112.774     0.01935664
      9711.5000         2.6936         1.0798        11.2495       -160.499      -110.8793     0.03583175
      9712.0000         2.4653         1.1864         8.7032      -159.8477      -110.2267     0.04150669
      9712.5000         2.2561         1.3039         6.2181      -163.3826      -113.7603        0.01078
      9713.0000         2.0635         1.4633          4.722      -165.3411      -115.7175              0
      9713.5000         1.8708         1.6161         2.4842      -167.4116      -117.7867              0
      9714.0000         1.6594         1.7317         1.9834      -169.1792      -119.5529              0
      9714.5000         1.4553         1.8503         1.6496      -168.2473      -118.6197              0
      9715.0000         1.3179         1.9858         1.5712      -166.6257      -116.9968              0
      9715.5000         1.1802         1.9519         1.7986      -157.5659      -107.9357      0.0614291
      9716.0000         1.1457         1.8306         2.3089      -108.1929      -58.56132      0.4907711
      9716.5000         1.1576         1.7152         3.3716       -98.9219      -49.28899         0.5714
      9717.0000         1.1695         1.6152         4.0189      -105.4529      -55.81867      0.5146202
      9717.5000         1.2433         1.5817         4.3997      -112.0917      -62.45614      0.4569031
      9718.0000         1.3309         1.5483         4.5027      -119.7994      -70.16252      0.3898911
      9718.5000         1.4184         1.5149         4.1893      -114.8047      -65.16649      0.4333349
      9719.0000         1.5061         1.5213         3.8935       -97.8619      -48.22237      0.5806751
      9719.5000         1.5997         1.5411         3.6566       -89.5881      -39.94724      0.6526327
      9720.0000         1.7083         1.5609         3.9843       -83.0662      -33.42402      0.7093564
      9720.5000         1.8168         1.6183         4.1666        -83.686      -34.04248      0.7039784
      9721.0000         1.8569         1.6806          4.326       -85.4513      -35.80647      0.6886395
      9721.5000          1.758          1.743         4.3642        -79.302      -29.65584      0.7421231
      9722.0000         1.6606         1.8463         4.1945       -75.9468      -26.29931      0.7713103
      9722.5000         1.5879         1.9751         4.2433       -73.9299      -24.28109      0.7888601
