#------------------------------------------------------------------------------
# Created by    : vladimir.rabinovich
# Created on    : 09/19/2023 17:22:43
#------------------------------------------------------------------------------
~Version Information Section
VERS.           2.0     :   CWLS log ASCII Standard - VERSION 2.0
WRAP.           NO      :   One line per depth step
~Well Information Section
#MNEM       .UNIT                                         VALUE :DESCRIPTION
#------------------------------------------------------------------------------
STRT        .FT                                            3600 :START DEPTH
STOP        .FT                                            7940 :STOP DEPTH
STEP        .FT                                             0.5 :STEP      
NULL        .                                           -999.25 :NULL      
COMP        .                          SEAGULL ENERGY E & P INC :COMPANY   
WELL        .                               OCS G09015 ST00BP00 :WELL      
FLD         .                                 BRAZOS BLOCK 0431 :FIELD     
LOC         .                                                   :LOCATION  
CNTY        .                                BRAZOS LARGE BLOCK :LOCATION  
STAT        .                                             TEXAS :STATE     
CTRY        .                                     UNITED STATES :COUNTRY   
SRVC        .                                                   :SERVICE COMPANY
DATE        .                             9/13/2023 11:09:51 AM :LOG DATE  
API         .                                    42704402370000 :API NUMBER
UWI         .                                    42704402370000 :UNIQUE WELL ID
XCOORD      .                                  876086.487249857 :SURFACE X 
YCOORD      .                                  10366258.6106956 :SURFACE Y 
LAT         .                                        28.5443209 :LATITUDE  
LON         .                                       -95.3810825 :LONGITUDE 
ELEV        .FT                                              90 :ELEVATION VALUE
ELEV_TYPE   .                                                KB :ELEVATION REFERENCE TYPE
~Curve Information Section
#MNEM       .UNIT                                      API CODE :CURVE DESCRIPTION
#------------------------------------------------------------------------------
DEPT        .FT                                                 :DEPTH     
DCAL        .IN                                                 :          
DPHI        .%                                                  :          
GR          .GAPI                                               :          
GR_NORM     .GAPI                                               :GammaRay Normalized
ILD         .OHMM                                               :          
ILM         .OHMM                                               :          
NPHI        .%                                                  :          
SGRD        .OHMM                                               :          
SP          .MV                                                 :          
SP_NORM     .MV                                                 :SP Normalized
VSH_GR      .V/V                                                :Volume of Shale from GR
VSH_SP      .V/V                                                :Volume of Shale from SP
~A        DEPTH           DCAL           DPHI             GR        GR_NORM            ILD            ILM           NPHI           SGRD             SP        SP_NORM         VSH_GR         VSH_SP
# ...
      5322.0000         1.4043        22.1026        54.3541       52.92097         0.6941         0.8412        33.3573           1.02       -58.2438      -7.049446      0.4238504      0.7704797
      5322.5000         1.3842        24.3313        52.2338       50.20247         0.6763         0.7946        33.0172         1.0349       -59.0919      -7.908264      0.3660101      0.7314425
      5323.0000         1.3756        26.0799        50.9576       48.56513         0.6589         0.7509        34.6657         0.9844         -59.47      -8.297081      0.3311729       0.713769
      5323.5000         1.3827        26.8865        52.5495       50.60131         0.6454         0.7166        36.5159         0.9157       -59.5649      -8.402699      0.3744959      0.7089682
      5324.0000         1.3932        27.2997        53.2117        51.4467         0.6347         0.7022        38.6605         0.8635        -59.424      -8.272514      0.3924829      0.7148857
      5324.5000         1.4836        25.9862        58.0271       57.61161          0.627         0.7048        39.2335          0.849       -59.1072      -7.966431      0.5236512      0.7287986
      5325.0000          1.628        24.2001        61.5859       62.16703         0.6276         0.7074        39.4536         0.8572       -58.7526      -7.622551       0.620575      0.7444295
      5325.5000          1.742        23.5819        62.1137       62.84029         0.6404         0.7137        39.3204         0.8709       -58.2424      -7.123066      0.6348997      0.7671334
      5326.0000         1.8161        23.1566        61.7568        62.3804         0.6601         0.7273        39.1163         0.8884       -58.0488      -6.940182      0.6251149      0.7754463
      5326.5000         1.8817        22.8516        61.2303       61.70327         0.6707         0.7475        39.1687         0.9067       -57.8674      -6.769501      0.6107079      0.7832045
      5327.0000         1.8899         23.235        60.6791       60.99453         0.6568         0.7616        40.0082         0.9382       -57.8029      -6.715714      0.5956282      0.7856494
      5327.5000         1.8641        23.9088         61.858       62.50173         0.6199         0.7506        41.4854         0.9482       -57.7636       -6.68713      0.6276963      0.7869486
      5328.0000         1.8421         24.519        66.8749       68.92471         0.5851         0.7192        43.9278         0.9011       -58.3234      -7.257648      0.7643554       0.761016
      5328.5000         1.8478        25.8326        65.8428       67.60002         0.5376         0.6801        45.6851         0.8393       -59.6634      -8.608364      0.7361706      0.6996198
      5329.0000         1.7543        27.8428        63.7865       64.96349         0.4679         0.6131        46.0948         0.7939       -64.5668      -13.52248      0.6800743      0.4762507
      5329.5000         1.5934        31.3799        59.9999       60.11077         0.4141          0.534        45.1537         0.7628       -67.7792       -16.7456      0.5768248      0.3297456
      5330.0000         1.4893        33.2989        53.7734       52.13297         0.3798         0.4442        43.8774         0.7434       -69.8851      -18.86222      0.4070844      0.2335356
      5330.5000         1.4386         35.165        52.5375       50.54724         0.3597         0.4128        42.6874         0.7191       -69.1989      -18.18673      0.3733456      0.2642394
      5331.0000         1.3931        35.0578        57.1777       56.48775         0.3474         0.4102        41.6659         0.6956       -66.8959      -15.89445      0.4997393      0.3684342
      5331.5000         1.3473        31.7864        57.9589       57.48556         0.3493         0.4195        41.1649         0.6804       -64.7964      -13.80567      0.5209693      0.4633787
      5332.0000         1.2653        29.7098         57.342       56.69266         0.3567         0.4362        40.3827         0.6899       -63.6888      -12.70879      0.5040991       0.513237
      5332.5000         1.2811        29.2032        55.1983       53.94419         0.3724         0.4488        38.3708         0.7116       -63.7914       -12.8221      0.4456212      0.5080863
      5333.0000         1.3023        28.8259        51.3478       49.00963          0.397         0.4594        37.0544         0.7793       -63.9229      -12.96432      0.3406304       0.501622
      5333.5000         1.3236        29.1792        51.4365       49.12048         0.4153         0.4657         36.952          0.808       -63.8508      -12.90294      0.3429889      0.5044121
      5334.0000         1.3561        29.8274        52.5913       50.59681         0.4134         0.4661        37.8923         0.7996       -63.6564      -12.71925      0.3744002      0.5127614
      5334.5000         1.4187        30.4184        53.2887       51.48729         0.3885         0.4588        40.8837         0.7447       -64.5486      -13.62217      0.3933465      0.4717197
      5335.0000         1.3452        31.0542        51.4411       49.11807         0.3596         0.4455        41.4786         0.6999       -66.7745      -15.85878      0.3429377      0.3700553
      5335.5000         1.2155        32.4938        49.8434       47.06894         0.3329          0.427        40.5251         0.6917       -68.5647       -17.6597      0.2993391      0.2881955
      5336.0000         1.1101        34.3328        45.6472       41.69159         0.3066          0.391        39.2656         0.6791        -69.345      -18.45072      0.1849275      0.2522401
      5336.5000         1.0227        35.1358        44.1466       39.76683         0.2909         0.3589        37.8459          0.663        -69.786      -18.90244      0.1439752      0.2317073
      5337.0000          0.936        34.3936        44.0825       39.68197          0.286         0.3478        35.7604         0.6487       -69.4517      -18.57885      0.1421696      0.2464159
      5337.5000          0.912        32.9996        44.9843       40.83424         0.2921         0.3523        35.0258         0.6413       -68.3115      -17.44937       0.166686       0.297756
      5338.0000         0.9954        30.7653        48.9561       45.91865         0.3104         0.3717        34.6855          0.643       -67.1816      -16.33019      0.2748649      0.3486278
      5338.5000         1.0715        28.2957        51.7158       49.45057         0.3445         0.3998        34.5912         0.6622        -66.875       -16.0343      0.3500121      0.3620772
      5339.0000         1.1176        28.3918        52.4771       50.42289          0.391         0.4336        34.2568         0.7155       -67.9019      -17.07192      0.3706998      0.3149126
      5339.5000         1.1547        29.1312        50.8794       48.37376         0.4186         0.4751          31.86         0.7404       -68.6932      -17.87394      0.3271013      0.2784575
      5340.0000          1.164        30.1055        47.8914        44.5439         0.4305         0.5249        29.6097         0.7567       -69.4343      -18.62576       0.245615      0.2442839
      5340.5000         1.1451        27.3275        39.1335       33.32384           0.43         0.5523        27.6916         0.7936        -69.615      -18.81717    0.006890155      0.2355832
      5341.0000         1.1047        26.9001         36.643       30.13119         0.4288         0.5224        26.6504         0.8217       -69.6108      -18.82369              0      0.2352869
      5341.5000         1.0625        26.8725        37.9997       31.86611         0.4301         0.5055        27.3643         0.8171       -69.1173       -18.3409              0      0.2572316
      5342.0000          1.064        27.8076        42.0876       37.09921         0.4321         0.5022        29.3857         0.7758       -67.0564      -16.29072     0.08721729      0.3504219
