#------------------------------------------------------------------------------
# Created by    : vladimir.rabinovich
# Created on    : 09/19/2023 17:22:52
#------------------------------------------------------------------------------
~Version Information Section
VERS.           2.0     :   CWLS log ASCII Standard - VERSION 2.0
WRAP.           NO      :   One line per depth step
~Well Information Section
#MNEM       .UNIT                                         VALUE :DESCRIPTION
#------------------------------------------------------------------------------
STRT        .FT                                             873 :START DEPTH
STOP        .FT                                           11612 :STOP DEPTH
STEP        .FT                                             0.5 :STEP      
NULL        .                                           -999.25 :NULL      
COMP        .                                   MARATHON OIL CO :COMPANY   
WELL        .                               OCS G04137 ST00BP04 :WELL      
FLD         .                       MATAGORDA ISLAND BLOCK 0527 :FIELD     
LOC         .                                                   :LOCATION  
CNTY        .                      MATAGORDA ISLAND LARGE BLOCK :LOCATION  
STAT        .                                             TEXAS :STATE     
CTRY        .                                     UNITED STATES :COUNTRY   
SRVC        .                                                   :SERVICE COMPANY
DATE        .                             9/13/2023 11:19:05 AM :LOG DATE  
API         .                                    42703400590000 :API NUMBER
UWI         .                                    42703400590000 :UNIQUE WELL ID
XCOORD      .                                  609906.580547661 :SURFACE X 
YCOORD      .                                  10277311.7025511 :SURFACE Y 
LAT         .                                         28.282909 :LATITUDE  
LON         .                                        -96.202007 :LONGITUDE 
ELEV        .FT                                              95 :ELEVATION VALUE
ELEV_TYPE   .                                                KB :ELEVATION REFERENCE TYPE
~Curve Information Section
#MNEM       .UNIT                                      API CODE :CURVE DESCRIPTION
#------------------------------------------------------------------------------
DEPT        .FT                                                 :DEPTH     
GR          .GAPI                                               :          
GR_NORM     .GAPI                                               :GammaRay Normalized
ILD         .OHMM                                               :          
SP          .MV                                                 :          
SP_NORM     .MV                                                 :SP Normalized
VSH_GR      .V/V                                                :Volume of Shale from GR
VSH_SP      .V/V                                                :Volume of Shale from SP
~A        DEPTH             GR        GR_NORM            ILD             SP        SP_NORM         VSH_GR         VSH_SP
# ...
      3821.0000        49.5829       71.05277         1.0579       -85.4319       -1.11322      0.8096334      0.9912907
      3821.5000        49.1131        70.1994         1.0074       -85.6687       -1.34816      0.7914766      0.9732185
      3822.0000        46.1662       64.84494          0.959       -85.8442       -1.52179      0.6775519      0.9598624
      3822.5000        42.7979       58.72468         0.9084       -85.9446      -1.620331      0.5473336      0.9522822
      3823.0000        40.5746       54.68507         0.8632        -86.639      -2.312866      0.4613844      0.8990103
      3823.5000        39.3168       52.39986         0.8228       -88.1813      -3.853302      0.4127629      0.7805153
      3824.0000        38.9211       51.68117          0.786       -90.4207      -6.090843      0.3974716      0.6083966
      3824.5000        38.7471       51.36533         0.7237       -92.3651      -8.033379      0.3907518      0.4589709
      3825.0000        38.6348       51.16162         0.6636       -93.0619       -8.72831      0.3864174      0.4055147
      3825.5000        39.0432       51.90407         0.5977       -93.4429      -9.107452      0.4022143      0.3763498
      3826.0000        39.4297       52.60672         0.5306       -94.2651      -9.927788      0.4171643      0.3132471
      3826.5000        38.4142       50.76181         0.4799       -95.3654      -11.02623      0.3779108      0.2287516
      3827.0000        36.9633       48.12569          0.446       -95.7423      -11.40127      0.3218232      0.1999025
      3827.5000        35.5302       45.52193         0.4238       -95.7615      -11.41859      0.2664241      0.1985697
      3828.0000        34.9359       44.44238         0.4035       -95.7546      -11.40984      0.2434549      0.1992434
      3828.5000        35.2643       45.03946         0.3842       -95.7137      -11.36707      0.2561586      0.2025328
      3829.0000        35.6124       45.67235         0.3633       -95.6857      -11.33721      0.2696244      0.2048299
      3829.5000        35.4824       45.43647         0.3439       -95.6825      -11.33215      0.2646057       0.205219
      3830.0000        35.3395       45.17714         0.3306       -95.6804      -11.32818       0.259088      0.2055247
      3830.5000         35.988       46.35588         0.3181       -95.8805      -11.52642      0.2841677      0.1902753
      3831.0000        36.8135       47.85624         0.3081       -96.0803      -11.72436      0.3160903      0.1750494
      3831.5000        36.6918       47.63545         0.3006       -96.2635      -11.90569      0.3113925      0.1611005
      3832.0000        36.6376       47.53731         0.2944        -96.439      -12.07934      0.3093045      0.1477432
      3832.5000        35.9969       46.37342         0.2883       -96.5751      -12.21357       0.284541      0.1374177
      3833.0000        35.3967       45.28315         0.2837       -96.6654        -12.302      0.2613436      0.1306152
      3833.5000        34.7061       44.02859         0.2806       -96.7917      -12.42645       0.234651      0.1210427
      3834.0000        34.6826       43.98624         0.2779       -96.9175      -12.55038      0.2337497      0.1115089
      3834.5000        35.2786       45.06959         0.2757       -96.9143      -12.54532      0.2567998      0.1118986
      3835.0000        35.7029       45.84093         0.2759       -96.9111      -12.54026      0.2732113      0.1122877
      3835.5000        35.9576       46.30409         0.2778       -97.0023      -12.62959      0.2830657      0.1054165
      3836.0000        34.8054       44.21076           0.28       -97.5177      -13.14313      0.2385269     0.06591327
      3836.5000        33.4495       41.74728         0.2823       -98.0341      -13.65767      0.1861124     0.02633315
      3837.0000        34.1493       43.01925         0.2836       -98.2389       -13.8606      0.2131754     0.01072282
      3837.5000         34.521       43.69501         0.2839       -98.1661      -13.78594      0.2275534     0.01646599
      3838.0000         34.332       43.35192         0.2835       -97.9528      -13.57077      0.2202536     0.03301767
      3838.5000        34.2262       43.16003         0.2822       -97.8444      -13.46051      0.2161708     0.04149921
      3839.0000        34.3498       43.38496         0.2805       -97.7632      -13.37745      0.2209566     0.04788854
      3839.5000        34.5582       43.76399         0.2786       -97.6003      -13.21269       0.229021     0.06056213
      3840.0000        35.8633       46.13584         0.2812       -97.4093      -13.01983       0.279486     0.07539778
      3840.5000        39.0546       51.93513         0.2852       -97.2047      -12.81335      0.4028752     0.09128042
      3841.0000        43.2224       59.50883         0.3002       -97.0334       -12.6402      0.5640177      0.1046002
      3841.5000        48.8386       69.71445         0.3181       -96.6938      -12.29874      0.7811586      0.1308664
      3842.0000        53.6479       78.45383         0.3426        -95.473      -11.07607      0.9671027      0.2249175
      3842.5000        59.2222       88.58328         0.3707       -93.8728      -9.474014              1      0.3481528
      3843.0000        61.4165       92.57092          0.402       -92.8518      -8.451141              1      0.4268353
      3843.5000        59.4813       89.05479         0.4467       -91.9247      -7.522179              1      0.4982939
      3844.0000        56.1081       82.92567         0.5378        -90.895      -6.490616              1      0.5776449
      3844.5000        53.0804       77.42433         0.6963       -89.8673       -5.46106      0.9451985      0.6568416
      3845.0000        50.7423       73.17609         0.9407        -88.932      -4.523895      0.8548104      0.7289311
      3845.5000        49.6553       71.20123         1.1361       -87.9894      -3.579437       0.812792      0.8015817
      3846.0000        49.4814       70.88558          1.268       -87.1168      -2.704964      0.8060762      0.8688489
      3846.5000        49.8777       71.60606         1.3455       -86.5249      -2.111206      0.8214056      0.9145226
      3847.0000        49.8176       71.49718         1.3846       -86.0431      -1.627541      0.8190891      0.9517276
      3847.5000        49.1008       70.19503          1.397       -85.7786      -1.361183      0.7913836      0.9722167
      3848.0000        47.9453       68.09569         1.3921       -85.3617      -0.942421      0.7467167              1
      3848.5000        46.4351       65.35185         1.3848       -84.4934    -0.07225037      0.6883373              1
      3849.0000        45.0952       62.91743         1.3741       -84.2679      0.1551132      0.6365412              1
      3849.5000        44.0493       61.01729         1.3591       -84.1884      0.2364731      0.5961126              1
      3850.0000        44.6181       62.05119         1.3413       -84.8271     -0.4003677      0.6181104              1
      3850.5000        45.3765       63.42964         1.3252       -85.5715      -1.142906      0.6474392      0.9890072
      3851.0000        46.5573       65.57562         1.3018       -85.9867      -1.556236      0.6930984      0.9572126
      3851.5000         47.511       69.46626         1.2589       -86.4019      -1.969574       0.775878      0.9254174
      3852.0000        48.2667       70.95922         1.1907       -86.7112      -2.277008       0.807643      0.9017686
      3852.5000         49.052       72.51065         1.1204       -86.9146      -2.478546      0.8406522      0.8862657
      3853.0000        49.8737       74.13396         1.0618       -87.0663      -2.628387      0.8751907      0.8747394
      3853.5000        50.4783       75.32852         1.0372       -87.1438      -2.704018      0.9006069      0.8689217
      3854.0000        50.5894       75.54832         1.0409       -86.8142      -2.372559      0.9052835      0.8944186
