#------------------------------------------------------------------------------
# Created by    : vladimir.rabinovich
# Created on    : 09/19/2023 17:22:54
#------------------------------------------------------------------------------
~Version Information Section
VERS.           2.0     :   CWLS log ASCII Standard - VERSION 2.0
WRAP.           NO      :   One line per depth step
~Well Information Section
#MNEM       .UNIT                                         VALUE :DESCRIPTION
#------------------------------------------------------------------------------
STRT        .FT                                             410 :START DEPTH
STOP        .FT                                            7624 :STOP DEPTH
STEP        .FT                                             0.5 :STEP      
NULL        .                                           -999.25 :NULL      
COMP        .                                      SHELL OIL CO :COMPANY   
WELL        .                                     ST TR 00249-L :WELL      
FLD         .                                           WILDCAT :FIELD     
LOC         .                                                   :LOCATION  
CNTY        .                             GALVESTON LARGE BLOCK :LOCATION  
STAT        .                                             TEXAS :STATE     
CTRY        .                                     UNITED STATES :COUNTRY   
SRVC        .                                                   :SERVICE COMPANY
DATE        .                             9/13/2023 11:19:42 AM :LOG DATE  
API         .                                    42706000200000 :API NUMBER
UWI         .                                    42706000200000 :UNIQUE WELL ID
XCOORD      .                                  981084.037319939 :SURFACE X 
YCOORD      .                                  10535303.7769946 :SURFACE Y 
LAT         .                                         29.014458 :LATITUDE  
LON         .                                       -95.0633058 :LONGITUDE 
ELEV        .FT                                              11 :ELEVATION VALUE
ELEV_TYPE   .                                                KB :ELEVATION REFERENCE TYPE
~Curve Information Section
#MNEM       .UNIT                                      API CODE :CURVE DESCRIPTION
#------------------------------------------------------------------------------
DEPT        .FT                                                 :DEPTH     
LAT         .OHMM                                               :          
SN          .OHMM                                               :          
SP          .MV                                                 :          
SP_NORM     .MV                                                 :SP Normalized
VSH_SP      .V/V                                                :Volume of Shale from SP
~A        DEPTH            LAT             SN             SP        SP_NORM         VSH_SP
# ...
      6130.0000         0.6707         1.0062       -69.7507      -2.545448      0.9758524
      6130.5000         0.6649         1.0204       -69.8152      -2.615135      0.9747635
      6131.0000          0.659         1.0346       -69.8798      -2.684929       0.973673
      6131.5000         0.6532         1.0489       -69.9443      -2.754616      0.9725841
      6132.0000         0.6473         1.0492       -69.8921      -2.707611      0.9733186
      6132.5000         0.6415          1.042        -69.797      -2.617699      0.9747235
      6133.0000         0.6297         1.0348       -69.7019      -2.527786      0.9761283
      6133.5000         0.6171         1.0276       -69.6068      -2.437881      0.9775331
      6134.0000         0.6046          1.018       -69.5117      -2.347977      0.9789379
      6134.5000         0.5952         1.0004       -69.4167      -2.258171      0.9803411
      6135.0000         0.6221         0.9827       -69.3217      -2.168358      0.9817444
      6135.5000         0.6489         0.9651       -69.0062      -1.858055      0.9865929
      6136.0000         0.6757         0.9429       -68.6465       -1.50354      0.9921322
      6136.5000          0.701         0.9197       -68.2865      -1.148735       0.997676
      6137.0000         0.7073         0.8966       -67.9268     -0.7942276              1
      6137.5000         0.7136         0.8734       -67.5668     -0.4394226              1
      6138.0000         0.7199         0.8503        -67.147    -0.02481079              1
      6138.5000         0.7261         0.8271       -66.4369      0.6801071              1
      6139.0000         0.7293         0.8241       -65.7273       1.384506              1
      6139.5000         0.7238         0.8216       -65.0172       2.089424              1
      6140.0000         0.7184          0.819       -64.7075       2.393929              1
      6140.5000          0.713         0.8164       -65.1281        1.96814              1
      6141.0000         0.7075         0.8139       -65.5684       1.522644              1
      6141.5000         0.7021         0.8113       -66.1807      0.9051514              1
      6142.0000         0.6984         0.8101       -66.7936       0.287056              1
      6142.5000            0.7         0.8099        -67.406     -0.3305283              1
      6143.0000         0.7016         0.8096       -68.0183     -0.9480286              1
      6143.5000         0.7032         0.8094       -68.6312      -1.566116      0.9911544
      6144.0000         0.7048         0.8092       -68.4583      -1.398399       0.993775
      6144.5000         0.7064          0.809       -68.2606      -1.205894      0.9967829
      6145.0000         0.7069         0.8088       -68.0625      -1.012985      0.9997971
      6145.5000          0.704         0.8086       -67.8645     -0.8201828              1
      6146.0000         0.7011          0.822       -67.6665     -0.6273651              1
      6146.5000         0.6981         0.8363       -67.4685     -0.4345627              1
      6147.0000         0.6948         0.8505       -67.2705     -0.2417526              1
      6147.5000         0.6799         0.8639       -67.0725     -0.0489502              1
      6148.0000         0.6649         0.8756       -66.8748      0.1435623              1
      6148.5000           0.65         0.8874       -66.8329       0.180275              1
      6149.0000          0.635         0.8992        -66.819      0.1889801              1
      6149.5000           0.62          0.911       -66.8079      0.1948929              1
      6150.0000         0.8343         0.9174       -69.7362      -2.738602      0.9728343
      6150.5000         0.8146         0.9227         -69.59      -2.597588      0.9750377
      6151.0000         0.7949          0.928       -69.4497      -2.462486      0.9771487
      6151.5000         0.7752         0.9324       -69.3394      -2.357376       0.978791
      6152.0000         0.7555         0.9311       -69.2292      -2.252373      0.9804317
      6152.5000         0.7365         0.9297       -69.1189      -2.147255      0.9820741
      6153.0000         0.7197         0.9283       -69.0085      -2.042053      0.9837179
      6153.5000          0.703          0.927        -69.119      -2.157745      0.9819102
      6154.0000         0.6862         0.9256       -69.3102      -2.354134      0.9788417
      6154.5000         0.6694         0.9223       -69.0547      -2.103828      0.9827527
      6155.0000         0.6531         0.9146       -68.6057      -1.660011      0.9896873
      6155.5000         0.6445         0.9069       -68.1321      -1.191612      0.9970061
      6156.0000         0.6359         0.8992       -67.4664     -0.5310974              1
      6156.5000         0.6273         0.8915       -66.8003      0.1298065              1
      6157.0000         0.6226         0.8838       -66.3201      0.6048203              1
      6157.5000         0.6258         0.8763       -66.0919      0.8278198              1
      6158.0000         0.6289         0.8689       -66.2146      0.6999359              1
      6158.5000         0.6288         0.8615       -66.2233      0.6860428              1
      6159.0000         0.6196         0.8541       -65.9928      0.9113541              1
      6159.5000         0.6105         0.8446       -65.7622       1.136765              1
      6160.0000         0.6013         0.8332       -69.3397       -2.44593      0.9774073
      6160.5000         0.5823         0.8219       -76.1827      -9.294121      0.8704044
      6161.0000         0.5602         0.8105       -86.1061      -19.22272        0.71527
      6161.5000          0.538         0.8016       -92.8354      -25.95721      0.6100436
      6162.0000         0.5158         0.7948       -99.2061       -32.3331      0.5104203
      6162.5000          0.493          0.788      -108.9806      -42.11279      0.3576127
      6163.0000         0.4676         0.7811      -119.5865      -52.72388      0.1918143
      6163.5000         0.4422         0.7743      -126.4297      -59.57227     0.08480823
      6164.0000         0.4168         0.7674       -129.011      -62.15877     0.04439425
      6164.5000         0.4031         0.7619      -125.9089      -59.06185     0.09278357
      6165.0000         0.4039         0.7592      -119.5865      -52.74464      0.1914899
      6165.5000         0.4048         0.7564      -110.0482      -43.21154      0.3404447
      6166.0000         0.4226         0.7537       -100.965      -34.13352      0.4822887
      6166.5000         0.4454          0.751       -88.5214      -21.69512      0.6766387
      6167.0000         0.4682         0.7483       -81.2451      -14.42401      0.7902498
      6167.5000          0.491         0.7456        -81.127       -14.3111       0.792014
      6168.0000         0.5124         0.7429       -83.5597      -16.74899       0.753922
      6168.5000         0.5304         0.7424        -85.929      -19.12349      0.7168205
      6169.0000         0.5485         0.7423        -88.226      -21.42567      0.6808488
      6169.5000         0.5666         0.7422       -90.4366      -23.64147       0.646227
      6170.0000         0.5846         0.7421       -89.3209      -22.53096      0.6635787
      6170.5000         0.5976         0.7421       -88.2041      -21.41935      0.6809477
      6171.0000         0.6095          0.742       -87.0884      -20.30885      0.6982993
      6171.5000         0.6214         0.7389       -86.0798      -19.30544      0.7139776
      6172.0000         0.6332         0.7338       -85.2869      -18.51773      0.7262855
      6172.5000         0.6451         0.7287       -84.3855      -17.62151      0.7402889
      6173.0000         0.6573         0.7236        -82.969      -16.21021      0.7623404
      6173.5000         0.6722         0.7185       -81.5514       -14.7978      0.7844094
