#------------------------------------------------------------------------------
# Created by    : vladimir.rabinovich
# Created on    : 09/19/2023 17:22:28
#------------------------------------------------------------------------------
~Version Information Section
VERS.           2.0     :   CWLS log ASCII Standard - VERSION 2.0
WRAP.           NO      :   One line per depth step
~Well Information Section
#MNEM       .UNIT                                         VALUE :DESCRIPTION
#------------------------------------------------------------------------------
STRT        .FT                                            2000 :START DEPTH
STOP        .FT                                            7372 :STOP DEPTH
STEP        .FT                                             0.5 :STEP      
NULL        .                                           -999.25 :NULL      
COMP        .                       CORPUS CHRISTI OIL & GAS CO :COMPANY   
WELL        .                                ST TR 00596-L SE/4 :WELL      
FLD         .                                           WILDCAT :FIELD     
LOC         .                                                   :LOCATION  
CNTY        .                      MATAGORDA ISLAND LARGE BLOCK :LOCATION  
STAT        .                                             TEXAS :STATE     
CTRY        .                                     UNITED STATES :COUNTRY   
SRVC        .                                                   :SERVICE COMPANY
DATE        .                             9/13/2023 11:19:13 AM :LOG DATE  
API         .                                    42703300520000 :API NUMBER
UWI         .                                    42703300520000 :UNIQUE WELL ID
XCOORD      .                                  480173.649028781 :SURFACE X 
YCOORD      .                                  10231220.1013933 :SURFACE Y 
LAT         .                                        28.1462983 :LATITUDE  
LON         .                                       -96.6002451 :LONGITUDE 
ELEV        .FT                                              82 :ELEVATION VALUE
ELEV_TYPE   .                                                GL :ELEVATION REFERENCE TYPE
~Curve Information Section
#MNEM       .UNIT                                      API CODE :CURVE DESCRIPTION
#------------------------------------------------------------------------------
DEPT        .FT                                                 :DEPTH     
CILD        .MMHO                                               :          
ILD         .OHMM                                               :          
SN          .OHMM                                               :          
SP          .MV                                                 :          
SP_NORM     .MV                                                 :SP Normalized
VSH_SP      .V/V                                                :Volume of Shale from SP
~A        DEPTH           CILD            ILD             SN             SP        SP_NORM         VSH_SP
# ...
      6978.0000       3139.898         0.2545         1.0125       -91.7756      -63.62833     0.09234309
      6978.5000       3071.396         0.2146         0.8022       -91.5751      -63.38733     0.09583581
      6979.0000       3002.894         0.2145         0.7662       -90.6127      -62.38442      0.1103707
      6979.5000       2934.392         0.2145         0.7222       -89.6502      -61.38142       0.124907
      6980.0000       2865.889         0.2344          0.711       -88.6878      -60.37851      0.1394419
      6980.5000       2797.387         0.2744         0.6303       -87.7254      -59.37561      0.1539766
      6981.0000       2752.325         0.3143         0.6303        -86.763      -58.37271      0.1685114
      6981.5000        2764.32         0.3143         0.6383       -85.8005      -57.36971      0.1830478
      6982.0000       2812.552         0.3091         0.6463       -85.7586       -57.2873       0.184242
      6982.5000       2860.783         0.3039         0.6543       -86.7616      -58.24979      0.1702928
      6983.0000       2909.015         0.2987         0.6782       -86.9768      -58.42449       0.167761
      6983.5000       2957.247         0.2941         0.6862       -87.1921      -58.59929      0.1652276
      6984.0000       3005.479         0.1742         0.6902       -87.4074      -58.77409      0.1626943
      6984.5000       3053.711         0.1942         0.7022       -86.9625      -58.28869      0.1697291
      6985.0000       3072.059         0.2141         0.7142       -79.9644      -51.25008      0.2717379
      6985.5000       2830.652          0.274         0.7221       -72.9663      -44.21148      0.3737467
      6986.0000       2589.245         0.3339         0.7901       -65.9681      -37.17278      0.4757569
      6986.5000       2347.838         0.3539         0.8021       -58.4817      -29.64587      0.5848424
      6987.0000       1999.161         0.3982          0.814        -46.312      -17.43567      0.7618019
      6987.5000       1959.206         0.5137         0.8486       -34.4141      -5.499189      0.9347944
      6988.0000       1785.649         0.5536         0.8832       -33.6123      -4.723372      0.9460381
      6988.5000       1612.092         0.6203         0.9178       -33.2351      -4.372154      0.9511282
      6989.0000       1311.872         0.7623         0.9524       -32.8579      -4.020937      0.9562183
      6989.5000       1275.915         0.7838          0.987       -32.4806      -3.669619      0.9613099
      6990.0000       1238.704         0.8073         1.0216       -32.1034      -3.318405      0.9663999
      6990.5000       1215.996         0.8224         1.0562       -31.8094      -3.050388      0.9702842
      6991.0000       1177.537         0.8492         1.0908       -30.7652      -2.032169       0.985041
      6991.5000       1139.085         0.8779         1.1254        -29.721      -1.013954      0.9997978
      6992.0000       1100.634         0.9086           1.16       -28.6767    0.004362106              1
      6992.5000       1062.183         0.9415         1.1947       -27.6325       1.022581              1
      6993.0000       1023.732         0.9768         1.2293       -26.5883       2.040796              1
      6993.5000       985.2803         1.0149         1.2639       -25.7955       2.807613              1
      6994.0000        946.829         1.0562         1.2985        -25.796       2.781132              1
      6994.5000       888.3695         1.1009         1.3331       -25.7965       2.754648              1
      6995.0000       884.3801         1.0866         1.3014        -25.797       2.728163              1
      6995.5000       930.7125         1.0744         1.3654       -26.1986       2.300581              1
      6996.0000       941.0818         1.0626         1.2447       -27.6029      0.8702984              1
      6996.5000       951.4511          1.051          1.232       -27.8039      0.6433144              1
      6997.0000       961.8205         1.0397         1.1815       -29.6093      -1.188068      0.9972744
      6997.5000       972.1898         1.0286         1.1975       -30.2114      -1.816151      0.9881718
      6998.0000       982.5591         1.0178         1.2494       -32.4179      -4.048635      0.9558169
      6998.5000       992.9284         1.0071         1.3493       -30.5255      -2.182217      0.9828664
      6999.0000       1003.298         0.9967         1.3893       -28.6332     -0.3159008              1
      6999.5000       1013.667         0.9865         1.4532       -26.7408       1.550514              1
      7000.0000       1024.036         0.9765         1.5052       -24.8484       3.416933              1
      7000.5000       1034.406         0.9667         1.4932       -22.1933       6.046049              1
      7001.0000       1044.775         0.9571         1.4397       -22.3938       5.819565              1
      7001.5000       1060.296         0.9431         1.3862       -25.5856       2.601784              1
      7002.0000        1096.26         0.9122         1.3327       -27.4082      0.7532005              1
      7002.5000       1108.255         0.9023         1.2792       -27.0076       1.127815              1
      7003.0000       1128.242         0.8863         1.2257       -25.8153       2.294134              1
      7003.5000       1140.236          0.877         1.1723        -24.623       3.460451              1
      7004.0000       1148.235         0.8709         1.1188       -23.4307       4.626766              1
      7004.5000        1160.23         0.8619         1.0653       -21.7964       6.235085              1
      7005.0000       1208.451         0.8275         0.9337       -30.8203      -2.814798      0.9736986
      7005.5000       1316.613         0.7595         0.9177       -39.8443      -11.86478      0.8425394
      7006.0000       1424.775         0.7019         0.9177       -48.8683      -20.91477      0.7113802
      7006.5000       1532.937         0.6523         0.9177       -74.9353      -47.00775       0.333221
      7007.0000       1749.511         0.5716         0.8777       -74.7348      -46.83324      0.3357502
      7007.5000       1819.874         0.5495         0.8657       -73.9329      -46.05731      0.3469955
      7008.0000       1890.237          0.529         0.8617       -67.5827       -39.7331      0.4386507
      7008.5000       1931.512         0.5177         0.8817       -61.2324      -33.40878      0.5303075
      7009.0000       2003.447         0.4991         0.9808       -54.8822      -27.08456      0.6219628
      7009.5000       1830.318         0.5464         1.0799       -48.5319      -20.76025      0.7136196
      7010.0000       1657.189         0.6034          1.179       -42.1817      -14.43603      0.8052749
      7010.5000       1484.059         0.6738         1.2781       -35.8315      -8.111814      0.8969302
      7011.0000        1310.93         0.7628         1.3772        -31.026      -3.332296      0.9661986
      7011.5000       1137.801         0.8789         1.5531       -37.1984       -9.53068       0.876367
      7012.0000       964.6714         1.0366          1.665       -43.3708      -15.72906      0.7865353
      7012.5000       728.7736         1.3722         1.7048       -49.5432      -21.92745      0.6967037
      7013.0000       728.7785         1.3722         1.7368       -55.7156      -28.12583       0.606872
      7013.5000       736.7723         1.3573         1.6269        -61.888      -34.32421      0.5170404
      7014.0000       837.9033         1.1935         1.5529       -66.7174       -39.1796      0.4466725
      7014.5000       939.0343         1.0649         1.5889       -64.5417      -37.02988      0.4778278
      7015.0000       1080.455         0.9255         1.6384       -62.9084      -35.42257      0.5011222
      7015.5000       1076.459          0.929          1.688       -62.9087      -35.44884      0.5007414
