#------------------------------------------------------------------------------
# Created by    : vladimir.rabinovich
# Created on    : 09/19/2023 17:20:31
#------------------------------------------------------------------------------
~Version Information Section
VERS.           2.0     :   CWLS log ASCII Standard - VERSION 2.0
WRAP.           NO      :   One line per depth step
~Well Information Section
#MNEM       .UNIT                                         VALUE :DESCRIPTION
#------------------------------------------------------------------------------
STRT        .FT                                            2377 :START DEPTH
STOP        .FT                                            9500 :STOP DEPTH
STEP        .FT                                             0.5 :STEP      
NULL        .                                           -999.25 :NULL      
COMP        .                                     SKELLY OIL CO :COMPANY   
WELL        .                                     ST TR 00146-L :WELL      
FLD         .                                           WILDCAT :FIELD     
LOC         .                                                   :LOCATION  
CNTY        .                             GALVESTON LARGE BLOCK :LOCATION  
STAT        .                                             TEXAS :STATE     
CTRY        .                                     UNITED STATES :COUNTRY   
SRVC        .                                                   :SERVICE COMPANY
DATE        .                             9/13/2023 11:19:24 AM :LOG DATE  
API         .                                    42706001330000 :API NUMBER
UWI         .                                    42706001330000 :UNIQUE WELL ID
XCOORD      .                                  1116482.89093459 :SURFACE X 
YCOORD      .                                  10631825.2810539 :SURFACE Y 
LAT         .                                         29.285733 :LATITUDE  
LON         .                                       -94.6439746 :LONGITUDE 
ELEV        .FT                                              61 :ELEVATION VALUE
ELEV_TYPE   .                                                KB :ELEVATION REFERENCE TYPE
~Curve Information Section
#MNEM       .UNIT                                      API CODE :CURVE DESCRIPTION
#------------------------------------------------------------------------------
DEPT        .FT                                                 :DEPTH     
ASN         .OHMM                                               :          
CALI        .IN                                                 :          
CILD        .MMHO                                               :          
DT          .US/F                                               :          
ILD         .OHMM                                               :          
SP          .MV                                                 :          
SP_NORM     .MV                                                 :SP Normalized
VSH_SP      .V/V                                                :Volume of Shale from SP
~A        DEPTH            ASN           CALI           CILD             DT            ILD             SP        SP_NORM         VSH_SP
      2377.0000         0.3451        11.4308        1934.67         112.47         0.2144       -63.3445      0.8979225              1
      2377.5000         0.5161         11.491       1930.363       114.1011         0.1749       -66.0819      -1.839478      0.9828678
      2378.0000         0.6963        11.0906       1920.672       114.8673          0.156        -68.297      -4.054573      0.9376618
      2378.5000         0.8617        10.9699       1743.332       114.5605         0.1671       -71.9703      -7.727875      0.8626964
      2379.0000          0.906        11.3414       1601.379       118.2511         0.1871       -75.8611      -11.61868      0.7832924
      2379.5000         0.9549        11.9469       1604.494       110.4598          0.224       -77.4324      -13.18998      0.7512249
      2380.0000         1.0323        12.6064       1607.611       103.4366         0.2811       -77.9215      -13.67908      0.7412433
      2380.5000         1.1027        12.8763       1610.729        116.746         0.3841       -77.9144      -13.67197      0.7413883
      2381.0000         1.1774        13.2996       1609.928        127.464         0.5035         -77.73      -13.48758      0.7451515
      2381.5000         1.2092        13.9653       1608.984       144.5654         0.5672       -77.5454      -13.30298      0.7489188
      2382.0000         1.2282        15.1686       1608.043       163.7969         0.5727       -77.9694      -13.72697      0.7402658
      2382.5000         1.2398        16.8799       1603.748       172.4609         0.5782       -78.4889      -14.24648      0.7296638
      2383.0000         1.2485        17.1613       1599.439       167.2012         0.5786       -81.7428      -17.50037      0.6632577
      2383.5000         1.2537        16.9846       1594.902       160.9236         0.5784       -82.0997      -17.85728      0.6559739
      2384.0000         1.2569        16.7863        1590.33       150.9824         0.5782       -82.2006      -17.95818      0.6539148
      2384.5000         1.2586        16.5955       1585.027       150.9272          0.578       -82.1057      -17.86327      0.6558515
      2385.0000         1.2484        16.4342       1579.676       152.9316         0.5789       -82.0575      -17.81508      0.6568351
      2385.5000         1.2369        16.4316       1576.623       158.1204         0.5806       -82.2898      -18.04738      0.6520943
      2386.0000         1.2201        16.5877       1584.252       157.4277         0.5822        -82.522      -18.27958      0.6473556
      2386.5000         1.2074        16.7894       1604.197       159.1692         0.5839       -82.7688      -18.52637      0.6423189
      2387.0000          1.195        17.0392       1649.816       161.3101          0.585       -83.0209      -18.77847       0.637174
      2387.5000         1.1812         16.421       1693.891       162.0708         0.5848       -83.7566      -19.51418      0.6221597
      2388.0000         1.1624        16.2674       1721.381       166.8071         0.5846       -85.5835      -21.34108      0.5848759
      2388.5000          1.144        16.5907       1764.939       168.9341         0.5844       -88.3079      -24.06548       0.529276
      2389.0000         1.1245        17.0038       1795.102        172.501         0.5866       -89.8267      -25.58427      0.4982801
      2389.5000         1.1066        17.2174       1812.055       174.9094         0.5903       -91.8146      -27.57217      0.4577107
      2390.0000         1.0896        17.2138       1841.553       174.9231          0.594       -93.0364      -28.79398       0.432776
      2390.5000         1.0733        17.2056       1828.859       174.8799         0.5976       -93.9056      -29.66318      0.4150372
      2391.0000          1.061        17.2002       1788.072       174.8975         0.5993       -94.5657      -30.32327      0.4015658
      2391.5000         1.0559        17.1945       1751.408       174.9167         0.5991       -94.6952      -30.45277       0.398923
      2392.0000         1.0536        17.1815        1732.93       174.9126         0.5989       -94.5518      -30.30938      0.4018494
      2392.5000         1.0516        17.1606       1715.736       174.8831          0.596       -94.3965      -30.15408      0.4050189
      2393.0000         1.0496        17.1111       1692.373       174.8811          0.593       -93.1747      -28.93227      0.4299536
      2393.5000         1.0365        16.7139       1683.729       174.8796         0.5892       -90.1273      -25.88487      0.4921454
      2394.0000         1.0132        15.4178       1680.152       174.8994         0.5816       -87.0664      -22.82397      0.5546128
      2394.5000         0.9597        14.6085       1679.969       174.9165          0.574       -81.3384      -17.09598      0.6715106
      2395.0000         0.8755        14.2704       1682.127       174.9702          0.572        -77.028      -12.78558       0.759478
      2395.5000         0.8233        14.0333       1683.117       174.2004         0.5699       -73.8583      -9.615875      0.8241658
      2396.0000         0.8058        13.8561       1681.012        173.884         0.5679       -70.3418      -6.099373      0.8959312
      2396.5000         0.7954        13.7223       1678.961       172.4697         0.5658       -67.7247      -3.482277      0.9493413
      2397.0000         0.7888        13.7808       1677.225       173.5186          0.568       -66.1437      -1.901276      0.9816066
      2397.5000         0.7921        13.9249       1675.488       174.8955         0.5717       -64.1217      0.1207275              1
      2398.0000         0.7954        13.8084       1673.383       174.9766         0.5755       -62.6751       1.567326              1
      2398.5000         0.7986        13.7531       1671.033       175.0161         0.5792        -62.194       2.048424              1
      2399.0000         0.8019        13.5825       1660.496        174.981          0.583       -61.7129       2.529526              1
      2399.5000         0.8032        13.9316       1656.541       174.9116         0.5867       -61.5834       2.659023              1
      2400.0000         0.8017        13.9061        1655.01       174.7104         0.5862       -61.4655       2.776924              1
      2400.5000         0.7989        13.7111       1651.092       170.9346         0.5838       -61.3477       2.894726              1
      2401.0000         0.7925        13.5324       1656.621       174.7781         0.5813       -61.3342       2.908222              1
      2401.5000         0.7871        13.7318       1670.271        174.731         0.5789       -61.7863       2.456123              1
      2402.0000         0.7827        14.0085       1691.934       174.7581         0.5845       -62.0755       2.166924              1
      2402.5000         0.7783        14.0682       1716.654       174.8242         0.5901       -62.3217       1.920723              1
      2403.0000         0.7747        13.9723       1732.406       174.8872         0.5958       -62.5222       1.720222              1
      2403.5000         0.7711        13.7192       1741.678       172.7751         0.6014       -62.7128       1.529625              1
      2404.0000         0.7675        13.5099       1746.861       164.7869         0.6077       -62.8383       1.404125              1
      2404.5000         0.7604        13.3832        1741.24       158.5444          0.614       -62.7771       1.465324              1
      2405.0000         0.7618        13.2824       1703.617       158.3923         0.6217        -62.716       1.526424              1
      2405.5000         0.7696        13.3201       1654.322       166.6648         0.6302       -62.8921       1.350323              1
      2406.0000         0.7857        13.4171       1596.193       168.9026         0.6374       -63.2025       1.039925              1
