#------------------------------------------------------------------------------
# Created by    : vladimir.rabinovich
# Created on    : 09/19/2023 17:20:39
#------------------------------------------------------------------------------
~Version Information Section
VERS.           2.0     :   CWLS log ASCII Standard - VERSION 2.0
WRAP.           NO      :   One line per depth step
~Well Information Section
#MNEM       .UNIT                                         VALUE :DESCRIPTION
#------------------------------------------------------------------------------
STRT        .FT                                             502 :START DEPTH
STOP        .FT                                           11475 :STOP DEPTH
STEP        .FT                                             0.5 :STEP      
NULL        .                                           -999.25 :NULL      
COMP        .                                      SHELL OIL CO :COMPANY   
WELL        .                                OCS 00730 ST00BP00 :WELL      
FLD         .                                           WILDCAT :FIELD     
LOC         .                                                   :LOCATION  
CNTY        .                             GALVESTON LARGE BLOCK :LOCATION  
STAT        .                                             TEXAS :STATE     
CTRY        .                                     UNITED STATES :COUNTRY   
SRVC        .                                                   :SERVICE COMPANY
DATE        .                             9/13/2023 11:19:42 AM :LOG DATE  
API         .                                    42706000250000 :API NUMBER
UWI         .                                    42706000250000 :UNIQUE WELL ID
XCOORD      .                                  958538.282477158 :SURFACE X 
YCOORD      .                                   10357465.718335 :SURFACE Y 
LAT         .                                         28.524406 :LATITUDE  
LON         .                                        -95.123893 :LONGITUDE 
ELEV        .FT                                              80 :ELEVATION VALUE
ELEV_TYPE   .                                                KB :ELEVATION REFERENCE TYPE
~Curve Information Section
#MNEM       .UNIT                                      API CODE :CURVE DESCRIPTION
#------------------------------------------------------------------------------
DEPT        .FT                                                 :DEPTH     
ASN         .OHMM                                               :          
CILD        .MMHO                                               :          
ILD         .OHMM                                               :          
LAT         .OHMM                                               :          
LN          .OHMM                                               :          
SP          .MV                                                 :          
SP_NORM     .MV                                                 :SP Normalized
VSH_SP      .V/V                                                :Volume of Shale from SP
~A        DEPTH            ASN           CILD            ILD            LAT             LN             SP        SP_NORM         VSH_SP
# ...
     10001.0000         1.2634       1550.449         0.8274        -999.25        -999.25       -88.0076      -45.93699              0
     10001.5000          1.302       1478.131         0.8633        -999.25        -999.25        -87.098       -45.0299              0
     10002.0000         1.3406       1367.076         0.8992        -999.25        -999.25       -84.8959       -42.8303     0.04931129
     10002.5000         1.3793       1283.119         0.9352        -999.25        -999.25        -82.033      -39.96991      0.1143202
     10003.0000          1.438       1235.232         0.9711        -999.25        -999.25       -78.9233      -36.86273       0.184938
     10003.5000         1.4972       1175.975          1.007        -999.25        -999.25       -72.7042      -30.64614      0.3262241
     10004.0000         1.5361       1108.541          1.021        -999.25        -999.25       -68.0532      -25.99765      0.4318717
     10004.5000          1.575       1066.607         0.9972        -999.25        -999.25       -64.8203      -22.76725      0.5052897
     10005.0000          1.608       1027.605         0.9734        -999.25        -999.25       -62.6754      -20.62487      0.5539803
     10005.5000         1.6101       999.5088         0.9312        -999.25        -999.25       -61.2968      -19.24878      0.5852551
     10006.0000         1.5876       1011.191         0.8886        -999.25        -999.25       -62.7811      -20.73559      0.5514639
     10006.5000         1.5651       1052.748         0.8461        -999.25        -999.25       -65.6395       -23.5965      0.4864432
     10007.0000         1.5426       1111.385         0.8035        -999.25        -999.25       -69.3657      -27.32521      0.4016998
     10007.5000         1.5201       1279.299          0.761        -999.25        -999.25       -72.9597      -30.92172       0.319961
     10008.0000         1.4974       1396.217         0.7184        -999.25        -999.25       -75.1179      -33.08242       0.270854
     10008.5000         1.4004       1506.205         0.6815        -999.25        -999.25       -77.2805      -35.24754      0.2216468
     10009.0000         1.3676       1601.623         0.6468        -999.25        -999.25       -79.4387      -37.40825      0.1725399
     10009.5000         1.3434       1677.586         0.6413        -999.25        -999.25       -81.7158      -39.68785      0.1207306
     10010.0000          1.309       1732.402         0.6358        -999.25        -999.25       -83.9973      -41.97187     0.06882121
     10010.5000         1.3011       1787.129         0.6483        -999.25        -999.25       -86.2788      -44.25588     0.01691185
     10011.0000         1.3165       1841.945         0.6833        -999.25        -999.25       -88.5603      -46.53989              0
     10011.5000         1.3319       1800.102         0.7183        -999.25        -999.25       -90.8374       -48.8195              0
     10012.0000         1.3564       1656.352         0.7533        -999.25        -999.25       -92.1257      -50.11031              0
     10012.5000         1.3819       1576.836         0.7883        -999.25        -999.25       -91.9869      -49.97402              0
     10013.0000         1.4075        1513.49         0.8233        -999.25        -999.25       -90.1415      -48.13113              0
     10013.5000         1.4331       1370.186         0.8583        -999.25        -999.25        -88.296      -46.28814              0
     10014.0000         1.4788       1315.902         0.8933        -999.25        -999.25       -86.4506      -44.44525     0.01260801
     10014.5000         1.5258       1261.707         0.9274        -999.25        -999.25       -74.2371      -32.23426      0.2901305
     10015.0000         1.5684       1207.514         0.9472        -999.25        -999.25       -75.2302      -33.22987       0.267503
     10015.5000         1.5512        1153.23          0.967        -999.25        -999.25       -76.2212      -34.22338      0.2449232
     10016.0000         1.5232       1099.035         0.9868        -999.25        -999.25       -77.2145      -35.21919      0.2222912
     10016.5000         1.4952        1044.84         1.0065        -999.25        -999.25       -78.2076      -36.21481      0.1996635
     10017.0000         1.4671       992.8232         1.0263        -999.25        -999.25       -78.3794      -36.38911      0.1957019
     10017.5000         1.4397       976.4756         1.0461        -999.25        -999.25       -78.0144      -36.02662      0.2039405
     10018.0000          1.413       960.1729         1.0618        -999.25        -999.25       -77.6488      -35.66354      0.2121924
     10018.5000         1.3861       944.9805         1.0669        -999.25        -999.25       -72.3431      -30.36034      0.3327194
     10019.0000         1.3594       933.5645          1.072        -999.25        -999.25       -63.4858      -21.50555      0.5339647
     10019.5000         1.3417       922.1475         1.0771        -999.25        -999.25       -60.9268      -18.94906      0.5920668
     10020.0000         1.3272        910.709         1.0821        -999.25        -999.25        -57.368      -15.39277      0.6728916
     10020.5000         1.3152        899.293         1.0872        -999.25        -999.25       -53.3511      -11.37838      0.7641277
     10021.0000         1.3165        887.876         1.0923        -999.25        -999.25       -51.5447      -9.574493      0.8051252
     10021.5000         1.3178       877.7148         1.0974        -999.25        -999.25       -51.0961      -9.128403      0.8152636
     10022.0000         1.3191       873.1172         1.1025        -999.25        -999.25       -50.6418      -8.676613      0.8255315
     10022.5000         1.3204       868.5137          1.106        -999.25        -999.25       -50.1805      -8.217823      0.8359585
     10023.0000         1.3217        863.916         1.1059        -999.25        -999.25       -49.7191      -7.758934      0.8463879
     10023.5000         1.3223       859.3184         1.1059        -999.25        -999.25       -49.2578      -7.300144      0.8568149
     10024.0000           1.32       857.1729         1.1058        -999.25        -999.25       -48.7716      -6.816452      0.8678079
     10024.5000         1.3177       859.0684         1.1058        -999.25        -999.25       -48.2023      -6.249664      0.8806894
     10025.0000         1.3154       860.9648         1.1057        -999.25        -999.25        -47.632      -5.681873      0.8935938
     10025.5000         1.3131       862.8613         1.1057        -999.25        -999.25       -47.0627      -5.115082      0.9064754
     10026.0000         1.3107       864.7578         1.1057        -999.25        -999.25       -46.6823      -4.737194      0.9150638
     10026.5000         1.3084       866.6543         1.1056        -999.25        -999.25       -46.3431      -4.400505      0.9227158
     10027.0000         1.3061       869.8799         1.1056        -999.25        -999.25       -46.0259      -4.085815      0.9298678
     10027.5000         1.3075       873.4336         1.1055        -999.25        -999.25       -45.7853      -3.847725       0.935279
     10028.0000         1.3097       876.9873         1.1043        -999.25        -999.25       -45.5448      -3.609734      0.9406879
     10028.5000         1.3118       880.5469          1.102        -999.25        -999.25       -45.3042      -3.371643       0.946099
     10029.0000          1.314       884.1006         1.0997        -999.25        -999.25       -45.0636      -3.133553      0.9515102
     10029.5000         1.3162       887.6543         1.0975        -999.25        -999.25       -44.7922      -2.864662      0.9576213
     10030.0000         1.3183       886.2607         1.0952        -999.25        -999.25       -44.7217      -2.796673      0.9591665
