#------------------------------------------------------------------------------
# Created by    : vladimir.rabinovich
# Created on    : 09/19/2023 17:20:01
#------------------------------------------------------------------------------
~Version Information Section
VERS.           2.0     :   CWLS log ASCII Standard - VERSION 2.0
WRAP.           NO      :   One line per depth step
~Well Information Section
#MNEM       .UNIT                                         VALUE :DESCRIPTION
#------------------------------------------------------------------------------
STRT        .FT                                            3530 :START DEPTH
STOP        .FT                                           11780 :STOP DEPTH
STEP        .FT                                             0.5 :STEP      
NULL        .                                           -999.25 :NULL      
COMP        .                                        TEXACO INC :COMPANY   
WELL        .                                     ST TR 00820-L :WELL      
FLD         .                                           WILDCAT :FIELD     
LOC         .                                                   :LOCATION  
CNTY        .                        MUSTANG ISLAND LARGE BLOCK :LOCATION  
STAT        .                                             TEXAS :STATE     
CTRY        .                                     UNITED STATES :COUNTRY   
SRVC        .                                                   :SERVICE COMPANY
DATE        .                             9/13/2023 11:18:55 AM :LOG DATE  
API         .                                    42702302010000 :API NUMBER
UWI         .                                    42702302010000 :UNIQUE WELL ID
XCOORD      .                                  295719.314319733 :SURFACE X 
YCOORD      .                                  9994218.17259751 :SURFACE Y 
LAT         .                                        27.4796405 :LATITUDE  
LON         .                                       -97.1466422 :LONGITUDE 
ELEV        .FT                                              78 :ELEVATION VALUE
ELEV_TYPE   .                                                KB :ELEVATION REFERENCE TYPE
~Curve Information Section
#MNEM       .UNIT                                      API CODE :CURVE DESCRIPTION
#------------------------------------------------------------------------------
DEPT        .FT                                                 :DEPTH     
ASFL        .OHMM                                               :          
CILD        .MMHO                                               :          
GR          .GAPI                                               :          
GR_NORM     .GAPI                                               :GammaRay Normalized
ILD         .OHMM                                               :          
SP          .MV                                                 :          
SP_NORM     .MV                                                 :SP Normalized
VSH_GR      .V/V                                                :Volume of Shale from GR
VSH_SP      .V/V                                                :Volume of Shale from SP
~A        DEPTH           ASFL           CILD             GR        GR_NORM            ILD             SP        SP_NORM         VSH_GR         VSH_SP
# ...
      6816.0000         1.0596       2868.266        54.3853        54.7575         0.3151      -115.8309      -70.94202      0.4629254     0.05483761
      6816.5000         1.0161       3131.926        54.3367       54.68118         0.3024      -116.5369      -71.64651      0.4613017     0.04531737
      6817.0000          0.994       3252.633        54.1827       54.44233         0.2897      -117.2157      -72.32379      0.4562199     0.03616498
      6817.5000          0.981       3330.793        53.9023       54.00856          0.277      -116.4524      -71.55899      0.4469905     0.04650013
      6818.0000         0.9712       3490.336        53.6218       53.57463         0.2821      -114.6281      -69.73317       0.437758     0.07117338
      6818.5000         0.9648        3377.34         53.341       53.14023         0.2921      -113.0902      -68.19377      0.4285155     0.09197606
      6819.0000         0.9958       3258.391        53.0605        52.7063         0.3021      -111.5522      -66.65425       0.419283      0.1127804
      6819.5000         1.0344       3139.539        52.7797       52.27192         0.3121      -110.5864      -65.68695      0.4100409       0.125852
      6820.0000         1.0732       3033.566        52.3721       51.64199          0.322      -109.9572      -65.05623       0.396638      0.1343753
      6820.5000         1.0902       2917.055        51.7877       50.73943          0.332      -110.0004      -65.09792      0.3774347       0.133812
      6821.0000         1.0766       2799.691        51.2038       49.83765         0.3326      -110.0435      -65.13951      0.3582478      0.1332498
      6821.5000         1.0629       2793.316          50.62         48.936         0.3311      -110.0865        -65.181      0.3390639      0.1326892
      6822.0000           1.05       2793.191        50.0584       48.06861         0.3296      -109.9946      -65.08759      0.3206087      0.1339515
      6822.5000          1.044       2803.645        49.5357       47.26118         0.3281      -109.3997      -64.49118      0.3034294      0.1420111
      6823.0000          1.038       2797.094        49.0136       46.45469         0.3266      -108.1198      -63.20977      0.2862699      0.1593275
      6823.5000         1.0471       2793.094        48.4908       45.64711         0.3381      -106.8409      -61.92936      0.2690875      0.1766303
      6824.0000         1.0586       2789.098        47.9687       44.84062         0.3524       -105.561      -60.64795      0.2519281      0.1939467
      6824.5000         1.0701       2785.098        47.5121       44.13514          0.368      -101.9496      -57.03504      0.2369178      0.2427698
      6825.0000         1.1168       2651.246        47.2023       43.65603         0.4109       -96.9581      -52.04203       0.226724      0.3102429
      6825.5000         1.2115       1826.697        46.8925       43.17693         0.4537       -88.4663      -43.54872      0.2165303      0.4250173
      6826.0000         1.2515       1722.385        47.1671         43.599         0.4965       -82.2751      -37.35601      0.2255106      0.5087026
      6826.5000         1.2915       1641.393        47.5124        44.1301         0.5394       -79.2881       -34.3675      0.2368106      0.5490879
      6827.0000         1.3403       1569.574        47.8574       44.66074         0.5903       -77.0393      -32.11718      0.2481009      0.5794975
      6827.5000         1.4024       1500.193        48.2023       45.19123          0.648       -73.1167      -28.19308      0.2593878       0.632526
      6828.0000         1.5482       1386.709        48.0657        44.9792         0.7058       -68.2389      -23.31377      0.2548766      0.6984626
      6828.5000         1.5904       1251.756        47.5065        44.1155         0.7757       -64.8717      -19.94505         0.2365      0.7439858
      6829.0000         1.6008       1133.488        46.9474       43.25195         0.8483       -58.7942      -13.86605      0.2181266      0.8261345
      6829.5000         1.5082        1059.23        46.3883       42.38841         0.9323       -57.6611      -12.73143      0.1997534      0.8414671
      6830.0000         1.4568       987.9971        45.8298       41.52579         1.1689       -60.5616      -15.63042      0.1813997      0.8022916
      6830.5000         1.4146       898.8096        45.5878       41.15122         1.1121       -63.4622      -18.52951      0.1734303      0.7631147
      6831.0000         1.4049       929.0586        46.9807       43.29781         1.0552        -67.123       -22.1888      0.2191022      0.7136648
      6831.5000         1.4258       1016.685        47.1924       43.62289         0.9984       -70.8851      -25.94939       0.226019       0.662846
      6832.0000         1.4467        1104.41        46.3481       42.31953         0.9416       -74.4695      -29.53228      0.1982879      0.6144286
      6832.5000         1.5271       1192.037        45.4471       40.92875         0.8801       -77.5009      -32.56217      0.1686969      0.5734842
      6833.0000         1.6099       1350.117        44.5449       39.53612         0.8083       -80.5372      -35.59696      0.1390664      0.5324735
      6833.5000         1.6863       1515.027        43.6439       38.14534         0.7364       -95.8818      -50.94005      0.1094753      0.3251345
      6834.0000          1.743       1641.881        42.7416       36.75254         0.6646      -104.9711      -60.02784     0.07984129      0.2023265
      6834.5000         1.8578       1816.939        41.8394       35.35992         0.5928      -107.9012      -62.95643     0.05021115       0.162751
      6835.0000          1.916       1916.031        40.9383       33.96899         0.5485       -109.644      -64.69772     0.02061682      0.1392201
      6835.5000         1.9532       1975.408        40.4899       33.27613         0.5046      -110.3273      -65.37951    0.005875202      0.1300066
      6836.0000         1.8203       2029.273        40.8611       33.84718         0.4852      -111.0067       -66.0574     0.01802517       0.120846
      6836.5000         1.6604       2100.309        41.6394       35.04601         0.4741      -111.6522      -66.70139     0.04353203      0.1121434
      6837.0000         1.5491       2213.602        42.4293       36.26271         0.4629      -111.0363      -66.08398     0.06941938      0.1204868
      6837.5000         1.3405       2238.996        43.8192       38.40466         0.4521      -109.5293      -64.57546      0.1149927      0.1408721
      6838.0000         1.3095       2209.602        46.0334       41.81774          0.446       -108.021      -63.06566      0.1876115      0.1612749
      6838.5000         1.2925       2171.543         48.186       45.13584         0.4693      -104.9119      -59.95505      0.2582094      0.2033102
      6839.0000         1.2875       2070.352        50.8471       49.23808         0.4926      -101.5101      -56.55173      0.3454911      0.2493009
      6839.5000         1.2952       1952.381        55.0733       55.75381         0.5359       -67.1428      -22.18292      0.4841236      0.7137443
      6840.0000         1.3029       1764.246        57.7591       59.89415         0.5856       -65.0964      -20.13501      0.5722159      0.7414188
      6840.5000         1.3404       1578.648        59.6599       62.82394         0.6391       -63.8757       -18.9128      0.6345519      0.7579351
      6841.0000         1.4717       1441.646        61.3657       65.45302         0.7062       -64.6508      -19.68639      0.6904898      0.7474812
      6841.5000         1.5274       1311.475        61.1188       65.07089         0.7733       -68.3623      -23.39638      0.6823594      0.6973463
      6842.0000         1.5716       1234.973        60.2116       63.67056         0.8216       -71.9071      -26.93967       0.652565       0.649464
