#------------------------------------------------------------------------------
# Created by    : vladimir.rabinovich
# Created on    : 09/19/2023 17:21:52
#------------------------------------------------------------------------------
~Version Information Section
VERS.           2.0     :   CWLS log ASCII Standard - VERSION 2.0
WRAP.           NO      :   One line per depth step
~Well Information Section
#MNEM       .UNIT                                         VALUE :DESCRIPTION
#------------------------------------------------------------------------------
STRT        .FT                                            1924 :START DEPTH
STOP        .FT                                            6497 :STOP DEPTH
STEP        .FT                                             0.5 :STEP      
NULL        .                                           -999.25 :NULL      
COMP        .                                ATP OIL & GAS CORP :COMPANY   
WELL        .                               OCS G12451 ST00BP00 :WELL      
FLD         .                                           WILDCAT :FIELD     
LOC         .                                                   :LOCATION  
CNTY        .                                BRAZOS LARGE BLOCK :LOCATION  
STAT        .                                             TEXAS :STATE     
CTRY        .                                     UNITED STATES :COUNTRY   
SRVC        .                                                   :SERVICE COMPANY
DATE        .                             9/13/2023 11:09:51 AM :LOG DATE  
API         .                                    42704402900000 :API NUMBER
UWI         .                                    42704402900000 :UNIQUE WELL ID
XCOORD      .                                  861130.254262163 :SURFACE X 
YCOORD      .                                  10349158.9913488 :SURFACE Y 
LAT         .                                        28.4964901 :LATITUDE  
LON         .                                       -95.4265639 :LONGITUDE 
ELEV        .FT                                              91 :ELEVATION VALUE
ELEV_TYPE   .                                                KB :ELEVATION REFERENCE TYPE
~Curve Information Section
#MNEM       .UNIT                                      API CODE :CURVE DESCRIPTION
#------------------------------------------------------------------------------
DEPT        .FT                                                 :DEPTH     
CALI        .IN                                                 :          
DPHI        .G/C3                                               :          
DRHO        .G/C3                                               :          
GR          .GAPI                                               :          
GR_NORM     .GAPI                                               :GammaRay Normalized
ILD         .OHMM                                               :          
ILM         .OHMM                                               :          
NPHI        .%                                                  :          
SFL         .OHMM                                               :          
SP          .MV                                                 :          
SP_NORM     .MV                                                 :SP Normalized
VSH_GR      .V/V                                                :Volume of Shale from GR
VSH_SP      .V/V                                                :Volume of Shale from SP
~A        DEPTH           CALI           DPHI           DRHO             GR        GR_NORM            ILD            ILM           NPHI            SFL             SP        SP_NORM         VSH_GR         VSH_SP
# ...
      2000.0000        -999.25        -999.25        -999.25        71.3115        75.8398        -999.25        -999.25        58.8341        -999.25        -999.25        -999.25      0.9114851        -999.25
      2000.5000        -999.25        -999.25        -999.25        74.7736        79.3019        -999.25        -999.25        58.1475        -999.25        -999.25        -999.25      0.9851467        -999.25
      2001.0000        -999.25        -999.25        -999.25        77.8168        82.3451        -999.25        -999.25        57.6209        -999.25        -999.25        -999.25              1        -999.25
      2001.5000        -999.25        -999.25        -999.25        78.1342        82.6625        -999.25        -999.25         56.696        -999.25        -999.25        -999.25              1        -999.25
      2002.0000        -999.25        -999.25        -999.25        77.0171       81.54539        -999.25        -999.25        56.1509        -999.25        -999.25        -999.25              1        -999.25
      2002.5000        -999.25        -999.25        -999.25        76.5026        81.0309        -999.25        -999.25        56.0353        -999.25        -999.25        -999.25              1        -999.25
      2003.0000        11.0039        44.8359         0.0585        76.0385        80.5668         0.8549         0.7582        56.4172         1.0051       -65.4933      -7.353767              1      0.8801176
      2003.5000        12.7275         46.472         0.0994        74.6847       75.19656         0.8085           0.79        56.5242         1.0382       -64.9194      -6.779869      0.8977993      0.8909459
      2004.0000        14.7116        47.5043           0.12        74.6172       68.44663         0.7917         0.7872        56.4666         1.0088       -65.0719      -6.932365      0.7541837      0.8880686
      2004.5000        15.2864        47.6364         0.1156        76.4342       63.58119         0.7876         0.7595        56.1756         0.9321       -65.3059      -7.166367      0.6506637      0.8836535
      2005.0000        15.4395        47.4384         0.1023        78.8237       62.58654         0.7866         0.7432        55.8777         0.8811       -65.5669      -7.427368      0.6295009      0.8787289
      2005.5000        15.0458        47.2598         0.0929        80.6261       64.36724         0.7958         0.7504        55.5809         0.8951       -65.6084      -7.468864      0.6673881       0.877946
      2006.0000          14.51        47.7172         0.0935        80.2657       63.98515         0.8604         0.7866        55.3545         0.9175       -65.2865      -7.146965      0.6592584      0.8840196
      2006.5000        14.4738         48.624            0.1        79.0195       62.71725         0.9436         0.8323         55.159         0.9487       -64.8588      -6.719269       0.632282      0.8920892
      2007.0000        14.5882        49.0495          0.106        78.1406       61.81666         0.9877         0.8566        54.8176         0.9685       -64.6277      -6.488167      0.6131204      0.8964497
      2007.5000        14.9943        48.9453         0.1058         76.309       59.96336         1.0189         0.8593         54.616         0.9985       -64.5099      -6.370369      0.5736884      0.8986723
      2008.0000        15.5554        48.8622         0.0863        73.8428       57.47546         1.0431         0.8622        54.9476         1.0382       -64.5394      -6.399864      0.5207544      0.8981158
      2008.5000         16.179        51.7927         0.0495         71.099       54.70996         1.0587           0.87        55.4419         1.0509       -64.7769      -6.637367      0.4619141      0.8936346
      2009.0000          16.77        54.8316         0.0311        69.8496       53.43887         1.0647         0.8797        55.9088         1.0046       -65.4041      -7.264565      0.4348696      0.8818007
      2009.5000        16.7418        55.8826         0.0471        69.8879       53.45547         1.0559         0.8882        56.3201         0.9896       -65.7302      -7.590668      0.4352229      0.8756478
      2010.0000        15.8839        54.7419         0.0827        70.2756       53.82147         1.0417         0.8938        56.7499         1.0112       -65.7582      -7.618668        0.44301      0.8751195
      2010.5000        15.0192        52.4041         0.0958        70.9791       54.50328         1.0315         0.9028        56.8402         1.0004       -65.6301      -7.490562      0.4575166      0.8775365
      2011.0000        14.3927        51.0831         0.0911        71.7405       55.24299         1.0313         0.9093        56.5611         0.9257       -65.4612      -7.321663      0.4732551      0.8807234
      2011.5000        14.0965        50.4713         0.0813          71.86       55.34079         1.0381          0.907        56.0701         0.9163       -65.3778      -7.238266       0.475336      0.8822969
      2012.0000        14.1779        51.7852         0.0728        69.0243       52.48339          1.036         0.8994        55.7819         0.9374       -65.4384      -7.298866      0.4145402      0.8811535
      2012.5000        14.9142        53.5984         0.0667        65.8721       49.30949          1.033         0.8936        55.8283         0.9632       -65.6304      -7.490868      0.3470105      0.8775308
      2013.0000        15.5825        54.8588         0.0589          63.55       46.96569         1.0328         0.8964        55.8696         0.9859       -65.9153      -7.775764      0.2971424      0.8721554
      2013.5000        16.0079        53.8645         0.0551        63.8989        47.2929         1.0373         0.9036        55.4678         1.0056       -66.2428      -8.103264      0.3041043      0.8659762
      2014.0000        16.2018        51.1813         0.0646        65.8395       49.21181         1.0433         0.9077         55.145         1.0249       -66.3231      -8.183563      0.3449321      0.8644611
      2014.5000        16.3327        48.9705         0.0693        67.6735       51.02411         1.0468         0.9082        55.1594           1.04       -66.0621      -7.922569      0.3834917      0.8693855
      2015.0000        16.4279        48.5272         0.0692        69.6943       53.02321         1.0519         0.9085        55.6296         1.0361       -65.7858      -7.646263      0.4260257      0.8745988
      2015.5000        16.4806        48.9286         0.0797        71.9541       55.26132         1.0569         0.9091        56.2911         1.0118       -65.5615      -7.421967      0.4736452      0.8788308
      2016.0000        16.4794        48.7172         0.0932        72.7175       56.00302         1.0506         0.9051        56.4943         0.9421       -65.3011      -7.161568       0.489426       0.883744
      2016.5000        16.4872        48.0544         0.0795        71.7714       55.03522         1.0382         0.8972         56.171         0.9447       -65.0194      -6.879868      0.4688346      0.8890591
      2017.0000        16.7596        48.2358         0.0476        69.3047       52.54683         1.0215          0.886        55.9337         0.9584       -64.9078      -6.768265        0.41589      0.8911648
      2017.5000        17.4604        50.4243         0.0266        66.1665       49.38693         1.0023         0.8737        56.1141         1.0143       -64.8324      -6.692863      0.3486581      0.8925875
      2018.0000        18.0037        53.6306         0.0039        64.0984       47.29713         0.9832         0.8678         56.199         1.0321       -64.8279       -6.68837      0.3041944      0.8926722
      2018.5000        18.0679        56.5992         0.0041        65.5142       48.69124         0.9663         0.8596        56.3611         0.9817       -64.8263      -6.686768      0.3338561      0.8927025
