#------------------------------------------------------------------------------
# Created by    : vladimir.rabinovich
# Created on    : 09/19/2023 17:22:53
#------------------------------------------------------------------------------
~Version Information Section
VERS.           2.0     :   CWLS log ASCII Standard - VERSION 2.0
WRAP.           NO      :   One line per depth step
~Well Information Section
#MNEM       .UNIT                                         VALUE :DESCRIPTION
#------------------------------------------------------------------------------
STRT        .FT                                             411 :START DEPTH
STOP        .FT                                           10036 :STOP DEPTH
STEP        .FT                                             0.5 :STEP      
NULL        .                                           -999.25 :NULL      
COMP        .                          HUMBLE OIL & REFINING CO :COMPANY   
WELL        .                                     ST TR 00278-L :WELL      
FLD         .                                           WILDCAT :FIELD     
LOC         .                                                   :LOCATION  
CNTY        .                             GALVESTON LARGE BLOCK :LOCATION  
STAT        .                                             TEXAS :STATE     
CTRY        .                                     UNITED STATES :COUNTRY   
SRVC        .                                                   :SERVICE COMPANY
DATE        .                             9/13/2023 11:19:42 AM :LOG DATE  
API         .                                    42706000220000 :API NUMBER
UWI         .                                    42706000220000 :UNIQUE WELL ID
XCOORD      .                                  941560.719964966 :SURFACE X 
YCOORD      .                                  10497824.1170516 :SURFACE Y 
LAT         .                                        28.9094621 :LATITUDE  
LON         .                                       -95.1847519 :LONGITUDE 
ELEV        .FT                                              10 :ELEVATION VALUE
ELEV_TYPE   .                                                KB :ELEVATION REFERENCE TYPE
~Curve Information Section
#MNEM       .UNIT                                      API CODE :CURVE DESCRIPTION
#------------------------------------------------------------------------------
DEPT        .FT                                                 :DEPTH     
LAT         .OHMM                                               :          
LN          .OHMM                                               :          
SN          .OHMM                                               :          
SP          .MV                                                 :          
SP_NORM     .MV                                                 :SP Normalized
VSH_SP      .V/V                                                :Volume of Shale from SP
~A        DEPTH            LAT             LN             SN             SP        SP_NORM         VSH_SP
# ...
      3603.0000         0.9944         0.8972         1.2366        93.5063      -1.444664      0.9938241
      3603.5000           1.01         0.8982         1.2274        94.0181      -1.961922        0.98664
      3604.0000         1.0256         0.8992         1.2183        94.5298      -2.479095       0.979457
      3604.5000         1.0412         0.9002         1.2091        95.0419      -2.996658      0.9722686
      3605.0000         1.0568         0.9012         1.1977        95.2246       -3.18483      0.9696552
      3605.5000         1.0724         0.9021         1.1772         95.371      -3.336693      0.9675459
      3606.0000         1.0838         0.9023         1.1566        95.5172      -3.488358      0.9654395
      3606.5000         1.0932         0.9025          1.136        95.1619      -3.138527      0.9702982
      3607.0000         1.1027         0.9027         1.1155         94.222      -2.204094      0.9832765
      3607.5000         1.1121         0.9029         1.0949        93.2819      -1.269455      0.9962575
      3608.0000         1.1216         0.9031         1.0743        92.3416     -0.3346252              1
      3608.5000          1.131         0.9033         1.0538        91.4012      0.6003113              1
      3609.0000         1.1405         0.9036         1.0439        90.4615       1.534546              1
      3609.5000         1.1499         0.9038         1.0342         89.788       2.202576              1
      3610.0000         1.1594          0.904         1.0246        89.5214       2.463715              1
      3610.5000         1.1688         0.9042          1.015        89.2546       2.725044              1
      3611.0000         1.1783         0.9044         1.0053        89.2341       2.740082              1
      3611.5000         1.1798         0.9046         0.9957        89.6481        2.32061              1
      3612.0000           1.18         0.9013          0.986        90.0618       1.901451              1
      3612.5000         1.1802         0.8969         0.9764        90.4758       1.481979              1
      3613.0000         1.1804         0.8925         0.9668        90.8899       1.062416              1
      3613.5000         1.1806         0.8881         0.9601        91.1813      0.7655487              1
      3614.0000         1.1808         0.8837         0.9557        90.4131       1.528282              1
      3614.5000          1.181         0.8793         0.9514        89.7806       2.155312              1
      3615.0000         1.1812         0.8749          0.947        89.2922       2.638252              1
      3615.5000         1.1815         0.8705         0.9426        88.8038       3.121178              1
      3616.0000         1.1817         0.8661         0.9383        88.3154       3.604118              1
      3616.5000         1.1851         0.8617         0.9339        87.8271       4.086945              1
      3617.0000          1.189         0.8573         0.9296        88.0078       3.900787              1
      3617.5000          1.193         0.8551         0.9296        88.3213       3.581818              1
      3618.0000          1.197         0.8531         0.9311        88.6348       3.262848              1
      3618.5000         1.2009         0.8511         0.9326        88.9481       2.944084              1
      3619.0000         1.2049         0.8491         0.9341        89.2617       2.625015              1
      3619.5000         1.2089         0.8471         0.9356        89.3376       2.543648              1
      3620.0000         1.2163         0.8451         0.9371        89.4092       2.466583              1
      3620.5000         1.2354          0.843         0.9386        89.4808       2.389526              1
      3621.0000         1.2545          0.841         0.9401        89.5524       2.312454              1
      3621.5000         1.2736          0.839         0.9417        89.6239       2.235489              1
      3622.0000         1.2926          0.839         0.9432        89.6956       2.158318              1
      3622.5000         1.3117         0.8432         0.9447        89.7671        2.08136              1
      3623.0000         1.3308         0.8475          0.952        89.8387       2.004288              1
      3623.5000         1.3475         0.8517         0.9615        89.9218       1.915726              1
      3624.0000         1.3609          0.856         0.9711        90.1317       1.700356              1
      3624.5000         1.3742         0.8602         0.9806        90.3417       1.484894              1
      3625.0000         1.3876         0.8644         0.9902        90.5516       1.269524              1
      3625.5000          1.401         0.8687         0.9998        91.2058      0.6098557              1
      3626.0000         1.4143         0.8729         1.0093        92.1056     -0.2954102              1
      3626.5000         1.4277         0.8771         1.0189        93.0049      -1.200172      0.9972198
      3627.0000         1.4411         0.8814         1.0285        93.9047      -2.105446      0.9846466
      3627.5000         1.4545         0.8856          1.038         94.804      -3.010208      0.9720805
      3628.0000         1.4678         0.8899         1.0476        95.6388      -3.850479        0.96041
      3628.5000         1.4812         0.8859         1.0571        96.4572      -4.674339      0.9489675
      3629.0000         1.4946         0.8811         1.0651        96.3619      -4.584511      0.9502151
      3629.5000          1.508         0.8762         1.0713        95.5704       -3.79847      0.9611323
      3630.0000         1.5126         0.8713         1.0776        94.7794      -3.012947      0.9720424
      3630.5000         1.5039         0.8664         1.0839        94.3044      -2.543404      0.9785638
      3631.0000         1.4952         0.8616         1.0901        94.4661      -2.710571      0.9762421
      3631.5000         1.4866         0.8567         1.0964        94.6586      -2.908539      0.9734925
      3632.0000         1.4779         0.8514         1.1027          95.11      -3.365402      0.9671472
      3632.5000         1.4692         0.8461         1.1089        95.5613      -3.822174      0.9608032
      3633.0000         1.4605         0.8407         1.1152        96.0123      -4.278633      0.9544634
      3633.5000         1.4431         0.8354         1.1214        96.4636      -4.735405      0.9481194
      3634.0000         1.4255         0.8301         1.1277         96.915      -5.192268      0.9417741
      3634.5000         1.4079         0.8248         1.1203        97.3663       -5.64904        0.93543
      3635.0000         1.3903         0.8194         1.1109        97.8225      -6.110703       0.929018
      3635.5000         1.3737         0.8141         1.1014        98.4406      -6.734268      0.9203574
      3636.0000          1.362         0.8088          1.092        99.0588      -7.357933      0.9116954
      3636.5000         1.3503         0.8121         1.0826        99.6771      -7.981705      0.9030319
      3637.0000         1.3387         0.8167         1.0732       100.2952      -8.605263      0.8943713
      3637.5000          1.327         0.8214         1.0638       100.9135      -9.229034      0.8857079
      3638.0000         1.3254         0.8261         1.0503       102.5233       -10.8443      0.8632736
      3638.5000         1.3419         0.8307         1.0321       104.1599      -12.48637      0.8404672
      3639.0000         1.3583         0.8354         1.0139       105.9208      -14.25273      0.8159343
      3639.5000         1.3747         0.8401         0.9957       106.3658       -14.7032      0.8096778
      3640.0000         1.3911         0.8447         0.9775       106.3346      -14.67747      0.8100352
      3640.5000         1.4075         0.8494         0.9593       102.8721      -11.22044      0.8580495
