#------------------------------------------------------------------------------
# Created by    : vladimir.rabinovich
# Created on    : 09/19/2023 17:20:39
#------------------------------------------------------------------------------
~Version Information Section
VERS.           2.0     :   CWLS log ASCII Standard - VERSION 2.0
WRAP.           NO      :   One line per depth step
~Well Information Section
#MNEM       .UNIT                                         VALUE :DESCRIPTION
#------------------------------------------------------------------------------
STRT        .FT                                             502 :START DEPTH
STOP        .FT                                           11475 :STOP DEPTH
STEP        .FT                                             0.5 :STEP      
NULL        .                                           -999.25 :NULL      
COMP        .                                      SHELL OIL CO :COMPANY   
WELL        .                                OCS 00730 ST00BP00 :WELL      
FLD         .                                           WILDCAT :FIELD     
LOC         .                                                   :LOCATION  
CNTY        .                             GALVESTON LARGE BLOCK :LOCATION  
STAT        .                                             TEXAS :STATE     
CTRY        .                                     UNITED STATES :COUNTRY   
SRVC        .                                                   :SERVICE COMPANY
DATE        .                             9/13/2023 11:19:42 AM :LOG DATE  
API         .                                    42706000250000 :API NUMBER
UWI         .                                    42706000250000 :UNIQUE WELL ID
XCOORD      .                                  958538.282477158 :SURFACE X 
YCOORD      .                                   10357465.718335 :SURFACE Y 
LAT         .                                         28.524406 :LATITUDE  
LON         .                                        -95.123893 :LONGITUDE 
ELEV        .FT                                              80 :ELEVATION VALUE
ELEV_TYPE   .                                                KB :ELEVATION REFERENCE TYPE
~Curve Information Section
#MNEM       .UNIT                                      API CODE :CURVE DESCRIPTION
#------------------------------------------------------------------------------
DEPT        .FT                                                 :DEPTH     
ASN         .OHMM                                               :          
CILD        .MMHO                                               :          
ILD         .OHMM                                               :          
LAT         .OHMM                                               :          
LN          .OHMM                                               :          
SP          .MV                                                 :          
SP_NORM     .MV                                                 :SP Normalized
VSH_SP      .V/V                                                :Volume of Shale from SP
~A        DEPTH            ASN           CILD            ILD            LAT             LN             SP        SP_NORM         VSH_SP
# ...
     11446.5000         0.7098       1537.213         0.6862        -999.25        -999.25       -48.3484      -2.006935      0.9771151
     11447.0000         0.7104        1541.25         0.6857        -999.25        -999.25       -48.4035      -2.062035      0.9758629
     11447.5000          0.711       1545.281         0.6851        -999.25        -999.25       -48.4586      -2.117134      0.9746106
     11448.0000         0.7116       1549.316         0.6846        -999.25        -999.25       -48.4908      -2.149334      0.9738788
     11448.5000         0.7122       1551.734          0.684        -999.25        -999.25       -48.5161      -2.174637      0.9733037
     11449.0000         0.7125       1552.211         0.6835        -999.25        -999.25       -48.5414      -2.199936      0.9727287
     11449.5000          0.712       1552.689         0.6829        -999.25        -999.25       -48.5667      -2.225235      0.9721537
     11450.0000         0.7115       1553.168         0.6824        -999.25        -999.25       -48.5668      -2.225334      0.9721515
     11450.5000          0.711       1553.646         0.6818        -999.25        -999.25       -48.5571      -2.215633       0.972372
     11451.0000         0.7104       1554.123         0.6813        -999.25        -999.25       -48.5474      -2.205936      0.9725924
     11451.5000         0.7099       1554.602         0.6807        -999.25        -999.25       -48.5377      -2.196236      0.9728128
     11452.0000         0.7094       1555.084         0.6802        -999.25        -999.25       -48.2486      -1.907135      0.9793833
     11452.5000         0.7089       1555.816         0.6796        -999.25        -999.25       -47.8234      -1.481934       0.989047
     11453.0000         0.7084       1556.549         0.6791        -999.25        -999.25        -47.397      -1.055534      0.9987379
     11453.5000         0.7079       1557.279         0.6785        -999.25        -999.25       -47.1168     -0.7753334              1
     11454.0000         0.7073       1558.014          0.678        -999.25        -999.25       -46.8644      -0.522934              1
     11454.5000         0.7068       1558.744         0.6774        -999.25        -999.25       -46.6119     -0.2704353              1
     11455.0000         0.7063       1559.477         0.6769        -999.25        -999.25       -46.4968     -0.1553345              1
     11455.5000         0.7058       1560.209         0.6763        -999.25        -999.25       -46.4764     -0.1349335              1
     11456.0000         0.7053       1560.941         0.6758        -999.25        -999.25       -46.6451     -0.3036346              1
     11456.5000         0.7048       1561.674         0.6753        -999.25        -999.25       -46.8704     -0.5289345              1
     11457.0000         0.7042       1562.404         0.6765        -999.25        -999.25       -47.0958     -0.7543335              1
     11457.5000         0.7037       1563.137         0.6777        -999.25        -999.25       -47.3212     -0.9797363              1
     11458.0000         0.7035       1563.664          0.679        -999.25        -999.25       -47.5465      -1.205036      0.9953401
     11458.5000         0.7033       1563.842         0.6802        -999.25        -999.25        -47.211     -0.8695335              1
     11459.0000         0.7032       1564.018         0.6815        -999.25        -999.25       -46.8228     -0.4813347              1
     11459.5000         0.7031       1564.195         0.6827        -999.25        -999.25       -46.4419     -0.1004333              1
     11460.0000          0.703       1563.426         0.6839        -999.25        -999.25       -46.1573       0.184166              1
     11460.5000         0.7028       1560.906         0.6852        -999.25        -999.25       -46.1052      0.2362633              1
     11461.0000         0.7027       1558.379         0.6864        -999.25        -999.25       -46.3312     0.01026535              1
     11461.5000         0.7026       1555.854         0.6877        -999.25        -999.25       -46.5571     -0.2156334              1
     11462.0000         0.7025       1553.332         0.6889        -999.25        -999.25       -46.7763     -0.4348335              1
     11462.5000         0.7023       1550.805         0.6901        -999.25        -999.25       -46.6587      -0.317234              1
     11463.0000         0.7022       1548.285         0.6914        -999.25        -999.25       -46.5371     -0.1956367              1
     11463.5000         0.7021       1545.758         0.6926        -999.25        -999.25       -46.3973    -0.05583572              1
     11464.0000          0.702       1543.232         0.6939        -999.25        -999.25       -46.2578     0.08366394              1
     11464.5000         0.7018       1540.711         0.6951        -999.25        -999.25        -46.118       0.223465              1
     11465.0000         0.7017       1538.184         0.6963        -999.25        -999.25       -45.9781      0.3633652              1
     11465.5000         0.7016       1535.662         0.6976        -999.25        -999.25       -45.8384      0.5030632              1
     11466.0000         0.7016       1533.533         0.6988        -999.25        -999.25       -45.7528       0.588665              1
     11466.5000          0.702        1532.65         0.7001        -999.25        -999.25       -45.7811      0.5603638              1
     11467.0000         0.7023       1531.768         0.7013        -999.25        -999.25       -45.8093      0.5321655              1
     11467.5000         0.7027       1530.887         0.7025        -999.25        -999.25       -45.8635      0.4779663              1
     11468.0000         0.7031       1530.004         0.7038        -999.25        -999.25       -45.9092      0.4322662              1
     11468.5000         0.7034       1529.121          0.705        -999.25        -999.25       -45.7988      0.5426636              1
     11469.0000         0.7038       1528.238         0.7062        -999.25        -999.25       -45.6886      0.6528664              1
     11469.5000         0.7042       1527.355         0.7073        -999.25        -999.25       -45.5781      0.7633667              1
     11470.0000         0.7045       1526.473         0.7085        -999.25        -999.25       -45.6459      0.6955643              1
     11470.5000         0.7049        1525.59         0.7097        -999.25        -999.25       -45.7501      0.5913658              1
     11471.0000         0.7053        1524.83         0.7109        -999.25        -999.25       -46.5931     -0.2516365              1
     11471.5000         0.7057       1524.156         0.7121        -999.25        -999.25       -46.2863     0.05516434              1
     11472.0000         0.7054       1523.484         0.7133        -999.25        -999.25       -45.8245       0.516964              1
     11472.5000         0.7046       1522.811         0.7144        -999.25        -999.25       -45.5405      0.8009644              1
     11473.0000         0.7039       1522.139         0.7156        -999.25        -999.25        -45.391      0.9504662              1
     11473.5000         0.7032       1521.467         0.7168        -999.25        -999.25       -45.2412       1.100266              1
     11474.0000         0.7037       1520.795          0.718        -999.25        -999.25       -45.0917       1.249763              1
     11474.5000         0.7046       1520.121         0.7192        -999.25        -999.25       -45.0104       1.331066              1
     11475.0000         0.7056       1519.793         0.7203        -999.25        -999.25       -44.9936       1.347866              1
