#------------------------------------------------------------------------------
# Created by    : vladimir.rabinovich
# Created on    : 09/19/2023 17:21:24
#------------------------------------------------------------------------------
~Version Information Section
VERS.           2.0     :   CWLS log ASCII Standard - VERSION 2.0
WRAP.           NO      :   One line per depth step
~Well Information Section
#MNEM       .UNIT                                         VALUE :DESCRIPTION
#------------------------------------------------------------------------------
STRT        .FT                                            4000 :START DEPTH
STOP        .FT                                            8085 :STOP DEPTH
STEP        .FT                                             0.5 :STEP      
NULL        .                                           -999.25 :NULL      
COMP        .                             WALTER OIL & GAS CORP :COMPANY   
WELL        .                               OCS G09047 ST00BP00 :WELL      
FLD         .                              GALVESTON BLOCK 0351 :FIELD     
LOC         .                                                   :LOCATION  
CNTY        .                             GALVESTON LARGE BLOCK :LOCATION  
STAT        .                                             TEXAS :STATE     
CTRY        .                                     UNITED STATES :COUNTRY   
SRVC        .                                                   :SERVICE COMPANY
DATE        .                             9/13/2023 11:19:36 AM :LOG DATE  
API         .                                    42706402000000 :API NUMBER
UWI         .                                    42706402000000 :UNIQUE WELL ID
XCOORD      .                                  1036183.96101641 :SURFACE X 
YCOORD      .                                  10437562.0132666 :SURFACE Y 
LAT         .                                        28.7482272 :LATITUDE  
LON         .                                       -94.8860948 :LONGITUDE 
ELEV        .FT                                              80 :ELEVATION VALUE
ELEV_TYPE   .                                                KB :ELEVATION REFERENCE TYPE
~Curve Information Section
#MNEM       .UNIT                                      API CODE :CURVE DESCRIPTION
#------------------------------------------------------------------------------
DEPT        .FT                                                 :DEPTH     
CALI        .IN                                                 :          
DRHO        .G/C3                                               :          
GR          .GAPI                                               :          
GR_NORM     .GAPI                                               :GammaRay Normalized
ILD         .OHMM                                               :          
ILM         .OHMM                                               :          
NPHI        .%                                                  :          
RHOB        .G/C3                                               :          
SFL         .OHMM                                               :          
SP          .MV                                                 :          
SP_NORM     .MV                                                 :SP Normalized
VSH_GR      .V/V                                                :Volume of Shale from GR
VSH_SP      .V/V                                                :Volume of Shale from SP
~A        DEPTH           CALI           DRHO             GR        GR_NORM            ILD            ILM           NPHI           RHOB            SFL             SP        SP_NORM         VSH_GR         VSH_SP
# ...
      5368.0000         9.6359         0.0211        64.1663       53.14774         0.3752         0.4195        36.1002         2.2116         0.7822       -77.1367      -26.80791      0.4286754      0.6170298
      5368.5000         9.5727         0.0216        61.1186       49.76141         0.3637          0.419        35.5106         2.2092         0.8072       -82.6912      -32.36023      0.3566258       0.537711
      5369.0000         9.5095         0.0225        59.5623       48.03219         0.3442         0.4074        35.1582         2.2128         0.8184        -84.037      -33.70385      0.3198339      0.5185164
      5369.5000         9.4163         0.0248        59.0945       47.51241           0.32         0.3876        34.9498         2.2113          0.822       -86.3372      -36.00187      0.3087747      0.4856876
      5370.0000           9.31         0.0271        58.9128       47.31052         0.2974         0.3618        34.8714         2.1863         0.8661       -91.0011      -40.66359      0.3044792      0.4190916
      5370.5000         9.1967          0.029        55.4354       43.44674         0.2763         0.3304        34.7016         2.1504          0.887       -97.3811      -47.04141      0.2222711      0.3279798
      5371.0000         9.0818         0.0301        50.5992       38.07319         0.2605         0.3025        34.4996         2.1293         0.8725      -103.4015      -53.05963      0.1079403      0.2420053
      5371.5000         9.0336         0.0315        47.2892       34.39541         0.2512         0.2996        34.3992         2.1227         0.8218      -106.9003      -56.55625     0.02968963      0.1920536
      5372.0000         9.1671         0.0265        46.2937        33.2893         0.2523         0.3016        34.4413         2.1258         0.8162      -105.4075      -55.06127    0.006155379      0.2134105
      5372.5000         9.3224         0.0194          47.11        34.1963         0.2629         0.3073        35.0976         2.1288         0.8167      -102.2574      -51.90899     0.02545328       0.258443
      5373.0000         9.4584          0.016        48.8355       36.11352         0.2745         0.3277        35.8266         2.1394         0.8116       -93.7839       -43.4333     0.06624514      0.3795242
      5373.5000         9.5895         0.0136        52.4578       40.13831          0.306         0.3576        35.7682         2.1534         0.7853        -84.501      -34.14823      0.1518788      0.5121682
      5374.0000         9.6003         0.0112        56.4597       44.58486          0.341         0.4051        35.5331         2.1774         0.7599       -72.0206      -21.66565      0.2464863      0.6904908
      5374.5000         9.5477         0.0119        61.5033       50.18886         0.3939         0.4603        36.4811         2.2007         0.7508       -64.6713      -14.31417      0.3657204      0.7955119
      5375.0000         9.4987         0.0134        64.2162       53.20319         0.4582         0.5173        37.4275         2.2232         0.7856       -65.3583      -14.99899      0.4298552      0.7857288
      5375.5000         9.4548         0.0149        64.0675       53.03796         0.5296         0.5662        37.5241         2.2389         0.8404       -68.3459      -17.98441      0.4263397      0.7430799
      5376.0000         9.4109         0.0162        64.6108       53.64164         0.5844         0.6042        37.3264         2.2533         0.9146       -67.9862      -17.62252      0.4391837      0.7482497
      5376.5000         9.4035         0.0162        67.4686       56.81697         0.6212         0.6257        37.1287         2.2757         0.9584       -66.0227      -15.65684       0.506744      0.7763308
      5377.0000          9.434         0.0162        70.4364       60.11452         0.6525         0.6432        37.3384         2.2935         0.9611       -63.8394      -13.47136      0.5769048       0.807552
      5377.5000         9.4645         0.0171        71.8066       61.63697         0.6829         0.6577        37.5703         2.3084         0.9638       -61.3963      -11.02608      0.6092972      0.8424845
      5378.0000         9.4951         0.0259        72.4161       62.31419         0.6897         0.6726         37.933         2.3108         0.9383       -59.3604      -8.988003      0.6237062         0.8716
      5378.5000         9.5248         0.0346        73.1711       63.15308         0.6926          0.683        38.3251         2.3114         0.9117       -56.7948      -6.420223      0.6415548      0.9082825
      5379.0000         9.5543         0.0408        74.0624       64.14342         0.6862         0.6861        38.6674         2.3088         0.9045       -54.4391       -4.06234      0.6626259      0.9419666
      5379.5000         9.5839         0.0436        75.3176       65.53808         0.6799         0.6892        38.7606         2.3072         0.8982       -53.5179      -3.138958      0.6922995      0.9551578
      5380.0000         9.5735         0.0456        76.5392       66.89542         0.6702         0.6845        38.4698         2.3083         0.8998       -53.0714      -2.690281      0.7211791      0.9615674
      5380.5000         9.5395         0.0395        77.6434       68.12231         0.6534         0.6723        37.8167         2.3098         0.9015       -52.8452      -2.461899      0.7472831        0.96483
      5381.0000         9.5055         0.0334        78.0284       68.55008          0.637         0.6602        37.1657         2.3116         0.9032       -53.0917      -2.706223      0.7563847      0.9613397
      5381.5000          9.489           0.03        77.9392       68.45097         0.6209          0.649        36.5649         2.3121         0.9081       -53.5489       -3.16124       0.754276      0.9548394
      5382.0000         9.4864         0.0268        77.7091        68.1953         0.6042         0.6389        36.1002         2.3104         0.9129       -54.6265      -4.236656      0.7488361      0.9394763
      5382.5000         9.4837         0.0245        76.4305       66.77463         0.5873         0.6289        35.6722          2.308         0.9178       -56.0779      -5.685879      0.7186091      0.9187732
      5383.0000         9.4867         0.0233        75.0504       65.24119         0.5708          0.619        35.7814         2.3056         0.9228       -57.4206      -7.026398      0.6859827      0.8996229
      5383.5000         9.4966         0.0222        73.0793       63.05108         0.5547         0.6072        35.8948         2.3038         0.9278       -59.1005      -8.704117      0.6393846      0.8756555
      5384.0000         9.5065          0.021        70.9785       60.71686          0.532          0.595         36.026          2.302         0.9329       -61.7036      -11.30504      0.5897204      0.8384994
      5384.5000         9.5073         0.0223        68.3879       57.83841         0.5072         0.5831        36.1636         2.2905         0.9201       -64.7312      -14.33046      0.5284769      0.7952792
      5385.0000         9.4809         0.0238        65.3728        54.4883         0.4864         0.5705        36.1141          2.275         0.8741       -66.1963      -15.79337       0.457198      0.7743804
      5385.5000         9.4544         0.0252         64.797       53.84852         0.4696          0.558        35.9938         2.2635          0.841       -66.4939      -16.08879      0.4435856      0.7701601
      5386.0000         9.4279         0.0253        67.2014       56.52008         0.4665         0.5479        35.8502         2.2655         0.8437       -66.5773      -16.17002      0.5004272      0.7689998
      5386.5000         9.4037         0.0247        69.7469       59.34842         0.4634         0.5428        35.6799         2.2705         0.8554       -67.2455      -16.83603      0.5606046      0.7594852
