#------------------------------------------------------------------------------
# Created by    : vladimir.rabinovich
# Created on    : 09/19/2023 17:21:34
#------------------------------------------------------------------------------
~Version Information Section
VERS.           2.0     :   CWLS log ASCII Standard - VERSION 2.0
WRAP.           NO      :   One line per depth step
~Well Information Section
#MNEM       .UNIT                                         VALUE :DESCRIPTION
#------------------------------------------------------------------------------
STRT        .FT                                            4495 :START DEPTH
STOP        .FT                                            9058 :STOP DEPTH
STEP        .FT                                             0.5 :STEP      
NULL        .                                           -999.25 :NULL      
COMP        .                          SEAGULL ENERGY E & P INC :COMPANY   
WELL        .                               OCS G11322 ST00BP00 :WELL      
FLD         .                                           WILDCAT :FIELD     
LOC         .                                                   :LOCATION  
CNTY        .                             GALVESTON LARGE BLOCK :LOCATION  
STAT        .                                             TEXAS :STATE     
CTRY        .                                     UNITED STATES :COUNTRY   
SRVC        .                                                   :SERVICE COMPANY
DATE        .                             9/13/2023 11:19:34 AM :LOG DATE  
API         .                                    42706402570000 :API NUMBER
UWI         .                                    42706402570000 :UNIQUE WELL ID
XCOORD      .                                  1032943.49501878 :SURFACE X 
YCOORD      .                                  10418025.6284813 :SURFACE Y 
LAT         .                                         28.694364 :LATITUDE  
LON         .                                        -94.895236 :LONGITUDE 
ELEV        .FT                                              97 :ELEVATION VALUE
ELEV_TYPE   .                                                KB :ELEVATION REFERENCE TYPE
~Curve Information Section
#MNEM       .UNIT                                      API CODE :CURVE DESCRIPTION
#------------------------------------------------------------------------------
DEPT        .FT                                                 :DEPTH     
CALI        .IN                                                 :          
DCAL        .IN                                                 :          
DPHI        .%                                                  :          
DRHO        .G/C3                                               :          
GR          .GAPI                                               :          
GR_1        .GAPI                                               :          
GR_NORM     .GAPI                                               :GammaRay Normalized
ILD         .OHMM                                               :          
ILM         .OHMM                                               :          
NPHI        .%                                                  :          
SGRD        .OHMM                                               :          
SP          .MV                                                 :          
SP_NORM     .MV                                                 :SP Normalized
VSH_GR      .V/V                                                :Volume of Shale from GR
VSH_SP      .V/V                                                :Volume of Shale from SP
~A        DEPTH           CALI           DCAL           DPHI           DRHO             GR           GR_1        GR_NORM            ILD            ILM           NPHI           SGRD             SP        SP_NORM         VSH_GR         VSH_SP
# ...
      7827.0000        -999.25          0.594         21.431        -0.0366        -999.25        62.5079       66.38722         0.4798         0.4716        42.3649         0.6264       -49.2959      -7.073673      0.7103664      0.8821055
      7827.5000        -999.25         0.6505        20.0182        -0.0242        -999.25         63.775       67.98058         0.5145         0.5072        43.0596         0.6209       -47.4828      -5.260574      0.7442676      0.9123238
      7828.0000        -999.25         0.6909         19.048        -0.0135        -999.25        64.2299        68.5526          0.538         0.5388          43.64         0.6253       -46.5137      -4.291473      0.7564384      0.9284754
      7828.5000        -999.25         0.7225        18.7508        -0.0089        -999.25        63.0906       67.11995         0.5546         0.5647        44.0376         0.6344       -46.4509      -4.228676      0.7259564      0.9295221
      7829.0000        -999.25         0.7458        19.0122        -0.0099        -999.25        61.8855       65.60456         0.5633         0.5804        44.1611          0.645        -46.605      -4.382774      0.6937141      0.9269537
      7829.5000        -999.25         0.7548         19.332        -0.0103        -999.25        60.5564       63.93324         0.5629          0.589        44.0053         0.6518       -46.8147      -4.592476       0.658154      0.9234588
      7830.0000        -999.25         0.7436        19.6366        -0.0132        -999.25         59.611       62.74442         0.5552         0.5945        43.6638         0.6568       -47.0319      -4.809673        0.63286      0.9198388
      7830.5000        -999.25         0.7265        19.8097        -0.0191        -999.25        60.3981       63.73419          0.542         0.5929        43.3463         0.6581       -47.7453      -5.523075      0.6539189      0.9079487
      7831.0000        -999.25         0.7066        19.6617        -0.0264        -999.25        61.5137       65.13703         0.5272         0.5791        42.9943         0.6546       -49.6651      -7.442875      0.6837666      0.8759521
      7831.5000        -999.25         0.6712        19.3553        -0.0337        -999.25        62.4248       66.28273         0.5119         0.5619        42.3563         0.6578       -52.2548      -10.03257      0.7081432      0.8327904
      7832.0000        -999.25          0.636        19.4782        -0.0409        -999.25        62.8906       66.86845         0.4952         0.5441        41.7868         0.6789       -55.9177      -13.69548      0.7206054       0.771742
      7832.5000        -999.25         0.6028        20.6795        -0.0487        -999.25        62.2257       66.03236         0.4808         0.5275        41.2687         0.7059       -58.7526      -16.53038      0.7028161      0.7244937
      7833.0000        -999.25         0.5728         21.778        -0.0576        -999.25        61.3581       64.94137         0.4711          0.514        40.7182          0.715       -59.9058      -17.68357      0.6796036      0.7052737
      7833.5000        -999.25         0.5476        22.3806         -0.065        -999.25        60.4641       63.81717         0.4648         0.5068        40.5595         0.7098       -60.0976      -17.87537      0.6556845      0.7020771
      7834.0000        -999.25          0.531         22.176        -0.0696        -999.25        59.9011       63.10922         0.4597         0.5049        40.5773         0.7015        -58.597      -16.37477      0.6406217      0.7270871
      7834.5000        -999.25          0.537         21.417        -0.0663        -999.25        59.5055       62.61176         0.4597         0.5051        40.5809          0.688       -56.4056      -14.18338      0.6300374      0.7636104
      7835.0000        -999.25           0.56          20.66        -0.0608        -999.25         59.278       62.32567          0.463         0.5088        40.8758          0.672       -54.2616      -12.03938      0.6239505      0.7993438
      7835.5000        -999.25         0.5882         19.966        -0.0544        -999.25        59.1862       62.21025         0.4699         0.5125        41.6577         0.6571       -52.6002      -10.37798      0.6214946      0.8270338
      7836.0000        -999.25         0.6117        19.3903        -0.0479        -999.25        58.9744        61.9439         0.4797         0.5162        42.3306         0.6509       -52.5613      -10.33907      0.6158277      0.8276821
      7836.5000        -999.25         0.6408        19.2069        -0.0416        -999.25        58.7332        61.6406         0.4876           0.52        42.8527         0.6536       -52.7783      -10.55608      0.6093745      0.8240654
      7837.0000        -999.25          0.671        19.3277        -0.0356        -999.25         58.512       61.36245         0.4927         0.5243        43.1717         0.6509       -52.3365      -10.11427      0.6034564      0.8314288
      7837.5000        -999.25         0.6792        19.5072        -0.0304        -999.25        58.7572       61.67078         0.4947         0.5269        43.2386         0.6458       -51.6575      -9.435276      0.6100167      0.8427454
      7838.0000        -999.25         0.6808        19.6461         -0.026        -999.25        59.0657       62.05872         0.4952         0.5271        43.0917         0.6407       -51.3848      -9.162575      0.6182707      0.8472904
      7838.5000        -999.25         0.6852        19.6183        -0.0229        -999.25        59.5002       62.60509         0.4905         0.5233        42.8764          0.637       -52.2521      -10.02988      0.6298954      0.8328354
      7839.0000        -999.25         0.6899        19.3012         -0.021        -999.25        59.2549       62.29663         0.4825         0.5191        42.5271         0.6399       -53.9003      -11.67807      0.6233325      0.8053654
      7839.5000        -999.25         0.6949        19.0048        -0.0216        -999.25        58.4467       61.28033         0.4726          0.513        42.2112         0.6431       -55.5195      -13.29728      0.6017092      0.7783787
      7840.0000        -999.25          0.695        18.7722         -0.024        -999.25         57.852       60.53252         0.4654         0.5073        41.9449         0.6433       -56.8763      -14.65408      0.5857982      0.7557654
      7840.5000        -999.25         0.6774        18.6725        -0.0282        -999.25        57.2138       59.72998         0.4588         0.5023        41.7673          0.643       -57.4941      -15.27187       0.568723      0.7454688
      7841.0000        -999.25         0.6685         19.111        -0.0333        -999.25          56.54       58.88269         0.4552         0.4998        41.7135         0.6437       -57.5653      -15.34307      0.5506955      0.7442821
      7841.5000        -999.25         0.6391        19.9232        -0.0397        -999.25         55.832       57.99239         0.4519         0.4982         41.715         0.6423       -57.4906      -15.26838      0.5317531      0.7455271
      7842.0000        -999.25         0.6201        20.6118        -0.0455        -999.25        54.8997       56.82005         0.4494         0.4974        41.7687         0.6396       -57.4584      -15.23618      0.5068095      0.7460638
      7842.5000        -999.25         0.6035        21.1657         -0.049        -999.25        53.0511       54.49546          0.446         0.4968        41.7502         0.6369       -57.5422      -15.31997      0.4573502      0.7446671
      7843.0000        -999.25         0.5755        21.5306          -0.05        -999.25         53.866       55.52019         0.4417         0.4958        41.7043         0.6351       -58.9188      -16.69658      0.4791529      0.7217237
      7843.5000        -999.25         0.5393        21.7626        -0.0508        -999.25        54.8292       56.73139          0.438         0.4948        41.5859         0.6336       -60.9177      -18.69548      0.5049232      0.6884087
