#------------------------------------------------------------------------------
# Created by    : vladimir.rabinovich
# Created on    : 09/19/2023 17:19:47
#------------------------------------------------------------------------------
~Version Information Section
VERS.           2.0     :   CWLS log ASCII Standard - VERSION 2.0
WRAP.           NO      :   One line per depth step
~Well Information Section
#MNEM       .UNIT                                         VALUE :DESCRIPTION
#------------------------------------------------------------------------------
STRT        .FT                                            2960 :START DEPTH
STOP        .FT                                           11758 :STOP DEPTH
STEP        .FT                                             0.5 :STEP      
NULL        .                                           -999.25 :NULL      
COMP        .                             CHAMPLIN PETROLEUM CO :COMPANY   
WELL        .                               OCS G06095 ST00BP00 :WELL      
FLD         .                                           WILDCAT :FIELD     
LOC         .                                                   :LOCATION  
CNTY        .                             GALVESTON LARGE BLOCK :LOCATION  
STAT        .                                             TEXAS :STATE     
CTRY        .                                     UNITED STATES :COUNTRY   
SRVC        .                                                   :SERVICE COMPANY
DATE        .                             9/13/2023 11:19:27 AM :LOG DATE  
API         .                                    42706401150000 :API NUMBER
UWI         .                                    42706401150000 :UNIQUE WELL ID
XCOORD      .                                  1057213.14222316 :SURFACE X 
YCOORD      .                                  10507856.7651171 :SURFACE Y 
LAT         .                                        28.9424301 :LATITUDE  
LON         .                                       -94.8238502 :LONGITUDE 
ELEV        .FT                                              89 :ELEVATION VALUE
ELEV_TYPE   .                                                KB :ELEVATION REFERENCE TYPE
~Curve Information Section
#MNEM       .UNIT                                      API CODE :CURVE DESCRIPTION
#------------------------------------------------------------------------------
DEPT        .FT                                                 :DEPTH     
ASFL        .OHMM                                               :          
CILD        .MMHO                                               :          
GR          .GAPI                                               :          
GR_NORM     .GAPI                                               :GammaRay Normalized
ILD         .OHMM                                               :          
SP          .MV                                                 :          
SP_NORM     .MV                                                 :SP Normalized
VSH_GR      .V/V                                                :Volume of Shale from GR
VSH_SP      .V/V                                                :Volume of Shale from SP
~A        DEPTH           ASFL           CILD             GR        GR_NORM            ILD             SP        SP_NORM         VSH_GR         VSH_SP
# ...
      4152.5000          0.498       4379.063         24.434       31.87438         0.2359       107.3724      -49.54652              0              0
      4153.0000         0.4941       4420.461        23.7849       30.57215         0.2364       107.3962      -49.56577              0              0
      4153.5000         0.4902       4465.078        23.2942       29.58812         0.2367       107.4052      -49.57021              0              0
      4154.0000         0.4862       4515.859        22.8311       28.65954         0.2371       107.3927      -49.55315              0              0
      4154.5000         0.4823       4564.922        23.5053       30.01566         0.2374       107.3802      -49.53609              0              0
      4155.0000         0.4785        4594.32        24.3659       31.74625         0.2377       107.3678      -49.51913              0              0
      4155.5000         0.4771       4623.688        25.2732       33.57066         0.2381       107.2966      -49.44338     0.01214161              0
      4156.0000         0.4758       4653.078        26.1799       35.39383         0.2378       107.1011      -49.24332     0.05093254              0
      4156.5000         0.4744       4681.289        27.0873       37.21843         0.2375       106.9053      -49.04296     0.08975374              0
      4157.0000         0.4731       4703.828        27.2528       37.55263         0.2372       106.7097       -48.8428      0.0968645    0.003274918
      4157.5000         0.4717       4726.359        26.8702       36.78578         0.2359        106.514      -48.64254     0.08054855    0.007447004
      4158.0000         0.4705        4668.07        26.4876       36.01892         0.2346       106.2521      -48.37608     0.06423227     0.01299826
      4158.5000         0.4694       4533.555         26.105       35.25205         0.2333       105.9904      -48.10983     0.04791601     0.01854515
      4159.0000         0.4684           4423        25.7227       34.48578         0.2319       105.9025      -48.01737     0.03161231     0.02047149
      4159.5000         0.4722       4359.133        25.3401       33.71893         0.2306       105.8772      -47.98751     0.01529629     0.02109353
      4160.0000         0.4774       4302.039        24.9603       32.95767         0.2293       105.9308      -48.03656              0     0.02007174
      4160.5000         0.4825       4247.633        24.6666       32.36943          0.228       106.1549       -48.2561              0       0.015498
      4161.0000         0.4877       4199.203        24.3728       31.78092          0.229       106.3792      -48.47584              0     0.01091997
      4161.5000         0.4929       4152.797        24.0791       31.19267         0.2315       106.6028      -48.69488              0    0.006356716
      4162.0000         0.4944       4114.156        23.7852       30.60399          0.234       106.7894      -48.87692              0    0.002564192
      4162.5000         0.4945       4086.109        23.4914        30.0155         0.2366       106.9758      -49.05877              0              0
      4163.0000         0.4946       4093.746        23.2409       29.51401         0.2391       107.1249      -49.20331              0              0
      4163.5000         0.4947       4115.711         23.065       29.16239         0.2417       106.8057      -48.87955              0    0.002509356
      4164.0000         0.4948       4137.547        22.8892       28.81096         0.2442       106.5071      -48.57639              0    0.008825143
      4164.5000         0.4921       4154.906        22.7544        28.5419         0.2497       106.2245      -48.28923              0     0.01480762
      4165.0000         0.4893       4172.258        22.7484       28.53158         0.2553       105.9421      -48.00227              0     0.02078597
      4165.5000         0.4865       4189.617        22.7423       28.52106         0.2609       105.8148      -47.87041              0     0.02353311
      4166.0000         0.4837       4206.961        22.4419       27.91935         0.2665       105.8209      -47.87196              0     0.02350084
      4166.5000         0.4809       4224.313        22.0801       27.19426         0.2721       105.8269       -47.8734              0     0.02347088
      4167.0000          0.479       4231.641        21.7185       26.46959         0.2777        105.833      -47.87494              0     0.02343869
      4167.5000         0.4781       4157.977        21.3566       25.74431         0.2833       105.9532      -47.99059              0     0.02102947
      4168.0000         0.4773       3968.586        20.9267       24.88242         0.2839       106.1387      -48.17153              0     0.01725984
      4168.5000         0.4764       3726.484        20.4167       23.85963         0.2841       106.3241      -48.35236              0     0.01349242
      4169.0000         0.4756       3613.059         20.579       24.18739         0.2843       106.5094      -48.53311              0    0.009726922
      4169.5000         0.4828       3492.195        21.0969       25.22952         0.2845       106.6799      -48.69905              0    0.006269693
      4170.0000         0.4943       3392.652        21.6146       26.27126         0.2847       106.8292       -48.8438              0    0.003254255
      4170.5000         0.5057       3387.805        22.0632       27.17419         0.2848       106.9783      -48.98834              0   0.0002429485
      4171.0000         0.5172       3560.438         22.407       27.86657          0.285       107.1276      -49.13308              0              0
      4171.5000         0.5287       3683.938        22.6924       28.44165         0.2826       107.2461      -49.24702              0              0
      4172.0000         0.5402       3785.504        22.5643       28.18605         0.2759       107.2183      -49.21466              0              0
      4172.5000         0.5516       3910.695        22.4362       27.93044         0.2691       107.1903       -49.1821              0              0
      4173.0000         0.5452       4067.895        22.3081       27.67483         0.2624       107.1625      -49.14974              0              0
      4173.5000         0.5357         4190.5          22.18       27.41922         0.2556       107.1244      -49.10709              0              0
      4174.0000         0.5261       4280.063        22.0519       27.16363         0.2489       107.0842      -49.06233              0              0
      4174.5000         0.5163       4353.344        22.0202        27.1017         0.2421       107.0441      -49.01767              0              0
      4175.0000         0.5065       4237.797        22.3247       27.71513          0.242       107.0038      -48.97281              0   0.0005664031
      4175.5000         0.4967       4136.609        22.6294       28.32897         0.2423        107.027      -48.99146              0   0.0001780192
      4176.0000         0.4896       4049.586        22.9338       28.94221         0.2427        107.074      -49.03389              0              0
      4176.5000         0.4828        3965.34        23.3875       29.85538          0.243        107.121      -49.07634              0              0
      4177.0000         0.4825       3875.918        24.0306       31.14904         0.2433        107.168      -49.11878              0              0
      4177.5000         0.4878       3785.977        24.6738       32.44289         0.2436       107.2148      -49.16102              0              0
      4178.0000         0.4925       3699.941         25.317       33.73672         0.2499       107.2618      -49.20347     0.01567492              0
      4178.5000         0.4957       3633.859         25.959       35.02818         0.2572       107.3088      -49.24591     0.04315275              0
