#------------------------------------------------------------------------------
# Created by    : vladimir.rabinovich
# Created on    : 09/19/2023 17:20:25
#------------------------------------------------------------------------------
~Version Information Section
VERS.           2.0     :   CWLS log ASCII Standard - VERSION 2.0
WRAP.           NO      :   One line per depth step
~Well Information Section
#MNEM       .UNIT                                         VALUE :DESCRIPTION
#------------------------------------------------------------------------------
STRT        .FT                                             293 :START DEPTH
STOP        .FT                                            8505 :STOP DEPTH
STEP        .FT                                             0.5 :STEP      
NULL        .                                           -999.25 :NULL      
COMP        .                                        TEXACO USA :COMPANY   
WELL        .                                     ST TR 00058-L :WELL      
FLD         .                                           WILDCAT :FIELD     
LOC         .                                                   :LOCATION  
CNTY        .                           HIGH ISLAND LARGE BLOCK :LOCATION  
STAT        .                                             TEXAS :STATE     
CTRY        .                                     UNITED STATES :COUNTRY   
SRVC        .                                                   :SERVICE COMPANY
DATE        .                             9/13/2023 11:19:15 AM :LOG DATE  
API         .                                    42708000230000 :API NUMBER
UWI         .                                    42708000230000 :UNIQUE WELL ID
XCOORD      .                                  1179226.38702832 :SURFACE X 
YCOORD      .                                  10699123.4735792 :SURFACE Y 
LAT         .                                        29.4730929 :LATITUDE  
LON         .                                        -94.449778 :LONGITUDE 
ELEV        .FT                                              80 :ELEVATION VALUE
ELEV_TYPE   .                                                KB :ELEVATION REFERENCE TYPE
~Curve Information Section
#MNEM       .UNIT                                      API CODE :CURVE DESCRIPTION
#------------------------------------------------------------------------------
DEPT        .FT                                                 :DEPTH     
ASN         .OHMM                                               :          
CILD        .MMHO                                               :          
ILD         .OHMM                                               :          
LAT         .OHMM                                               :          
LN          .OHMM                                               :          
SP          .MV                                                 :          
SP_NORM     .MV                                                 :SP Normalized
VSH_SP      .V/V                                                :Volume of Shale from SP
~A        DEPTH            ASN           CILD            ILD            LAT             LN             SP        SP_NORM         VSH_SP
# ...
      2476.0000           0.56        -999.25        -999.25         0.3035          0.393       -87.3375      -43.94961              0
      2476.5000         0.5011        -999.25        -999.25         0.2914         0.3906       -86.3313      -42.93298    0.001675415
      2477.0000         0.5372        -999.25        -999.25         0.2876         0.3883       -84.1287      -40.71996     0.05700092
      2477.5000         0.5781        -999.25        -999.25         0.2857          0.386       -81.5739      -38.15474      0.1211315
      2478.0000         0.6284        -999.25        -999.25         0.2837         0.3837        -79.019      -35.58942      0.1852646
      2478.5000         0.6951        -999.25        -999.25         0.2817         0.3813       -76.4642       -33.0242      0.2493949
      2479.0000         0.7736        -999.25        -999.25         0.2798         0.3798       -72.5981      -29.14768      0.3463081
      2479.5000         0.8017        -999.25        -999.25         0.2778         0.3847        -69.161      -25.70016       0.432496
      2480.0000         0.7457        -999.25        -999.25         0.2779         0.3897       -71.2024      -27.73114      0.3817216
      2480.5000         0.6907        -999.25        -999.25         0.2808         0.3946       -73.2427      -29.76101      0.3309747
      2481.0000         0.6645        -999.25        -999.25         0.2837         0.3995       -75.2852      -31.79309      0.2801726
      2481.5000           0.64        -999.25        -999.25         0.2705         0.4045       -77.3322      -33.82967      0.2292583
      2482.0000         0.6234        -999.25        -999.25          0.254         0.4094       -79.3792      -35.86626      0.1783436
      2482.5000         0.6358        -999.25        -999.25         0.2375         0.4143       -81.4261      -37.90273      0.1274317
      2483.0000         0.6483        -999.25        -999.25         0.2211         0.4193       -82.7463      -39.21251     0.09468727
      2483.5000         0.6639        -999.25        -999.25         0.2046         0.4216       -83.5328      -39.98859     0.07528534
      2484.0000         0.6799        -999.25        -999.25         0.1956         0.4217       -84.3193      -40.76466     0.05588341
      2484.5000         0.6849        -999.25        -999.25         0.1974         0.4217       -85.0778      -41.51274     0.03718147
      2485.0000         0.6698        -999.25        -999.25         0.1992         0.4218       -85.6764      -42.10093     0.02247686
      2485.5000         0.6512        -999.25        -999.25          0.201         0.4219       -86.2754       -42.6895    0.007762432
      2486.0000         0.6312        -999.25        -999.25         0.2031         0.4219       -86.8741      -43.27778              0
      2486.5000         0.6112        -999.25        -999.25         0.2182          0.422       -87.4199      -43.81316              0
      2487.0000         0.5959        -999.25        -999.25         0.2334         0.4221       -87.5952      -43.97804              0
      2487.5000         0.6041        -999.25        -999.25         0.2486         0.4218         -87.45      -43.82241              0
      2488.0000          0.584        -999.25        -999.25         0.2638         0.4197       -87.0112       -43.3732              0
      2488.5000         0.5636        -999.25        -999.25         0.2704         0.4175       -86.5724      -42.92398    0.001900482
      2489.0000         0.5431        -999.25        -999.25         0.2754         0.4154       -86.1338      -42.47495     0.01312618
      2489.5000         0.5256        -999.25        -999.25         0.2805         0.4132          -86.2      -42.53073     0.01173172
      2490.0000         0.5085        -999.25        -999.25         0.2855         0.4111       -86.2993      -42.61961    0.009509658
      2490.5000         0.4939        -999.25        -999.25         0.2905         0.4089       -86.3312      -42.64109     0.00897274
      2491.0000         0.4812        -999.25        -999.25         0.2949         0.4068       -85.9324      -42.23188     0.01920309
      2491.5000         0.4885        -999.25        -999.25         0.2882         0.4046       -85.5333      -41.82235     0.02944117
      2492.0000         0.5028        -999.25        -999.25         0.2814         0.4025       -85.1345      -41.41313      0.0396718
      2492.5000         0.5171        -999.25        -999.25         0.2747         0.4044       -84.5107       -40.7789      0.0555274
      2493.0000         0.5537        -999.25        -999.25         0.2679         0.4078        -83.702      -39.95979     0.07600527
      2493.5000         0.5948        -999.25        -999.25         0.2621         0.4111       -82.8933      -39.14067     0.09648333
      2494.0000          0.636        -999.25        -999.25         0.2739         0.4144       -82.0845      -38.32145      0.1169638
      2494.5000         0.6763        -999.25        -999.25         0.2858         0.4178       -81.2758      -37.50233      0.1374418
      2495.0000         0.7166        -999.25        -999.25         0.2976         0.4211       -81.3262       -37.5423      0.1364424
      2495.5000         0.7613        -999.25        -999.25          0.301         0.4237       -81.6077      -37.81338      0.1296656
      2496.0000         0.7822        -999.25        -999.25         0.2946         0.4251       -82.0461      -38.24136      0.1189661
      2496.5000         0.7563        -999.25        -999.25         0.2882         0.4264       -82.5282      -38.71304      0.1071741
      2497.0000         0.7303        -999.25        -999.25         0.2818         0.4278       -83.0105      -39.18491     0.09537716
      2497.5000          0.705        -999.25        -999.25         0.2755         0.4292       -83.4926       -39.6566     0.08358507
      2498.0000         0.6814        -999.25        -999.25         0.2697         0.4305       -82.9661      -39.11968     0.09700803
      2498.5000         0.6579        -999.25        -999.25         0.2639         0.4259       -82.4021      -38.54525      0.1113687
      2499.0000         0.6344        -999.25        -999.25          0.258         0.4211        -81.545      -37.67773      0.1330567
      2499.5000         0.6111        -999.25        -999.25         0.2522         0.4163       -79.3502      -35.47251      0.1881873
      2500.0000          0.594        -999.25        -999.25         0.2696         0.4115       -77.1555      -33.26739      0.2433152
      2500.5000         0.5769        -999.25        -999.25         0.2991         0.4067       -74.9596      -31.06107      0.2984732
      2501.0000         0.5598        -999.25        -999.25         0.3285         0.4019        -71.558      -27.64905      0.3837738
      2501.5000         0.5432        -999.25        -999.25         0.3371          0.397       -67.7352      -23.81583      0.4796043
      2502.0000         0.5338        -999.25        -999.25          0.341         0.3958       -63.5146       -19.5848      0.5853799
      2502.5000         0.5674        -999.25        -999.25         0.3448          0.395       -59.3173      -15.37708      0.6905729
      2503.0000          0.629        -999.25        -999.25         0.3469         0.3941       -55.7156      -11.76496       0.780876
      2503.5000         0.6785        -999.25        -999.25         0.3391         0.3932       -57.4615      -13.50044      0.7374889
      2504.0000         0.7219        -999.25        -999.25         0.3314         0.3924       -60.9364      -16.96492      0.6508769
      2504.5000         0.7411        -999.25        -999.25         0.3237         0.3915       -65.2593       -21.2774       0.543065
      2505.0000         0.7604        -999.25        -999.25         0.3159         0.3932       -69.1132      -25.12088      0.4469781
