#------------------------------------------------------------------------------
# Created by    : vladimir.rabinovich
# Created on    : 09/19/2023 17:20:31
#------------------------------------------------------------------------------
~Version Information Section
VERS.           2.0     :   CWLS log ASCII Standard - VERSION 2.0
WRAP.           NO      :   One line per depth step
~Well Information Section
#MNEM       .UNIT                                         VALUE :DESCRIPTION
#------------------------------------------------------------------------------
STRT        .FT                                            2310 :START DEPTH
STOP        .FT                                           12118 :STOP DEPTH
STEP        .FT                                             0.5 :STEP      
NULL        .                                           -999.25 :NULL      
COMP        .                                   FOREST OIL CORP :COMPANY   
WELL        .                               OCS G01793 ST00BP00 :WELL      
FLD         .                                           WILDCAT :FIELD     
LOC         .                                                   :LOCATION  
CNTY        .                             GALVESTON LARGE BLOCK :LOCATION  
STAT        .                                             TEXAS :STATE     
CTRY        .                                     UNITED STATES :COUNTRY   
SRVC        .                                                   :SERVICE COMPANY
DATE        .                             9/13/2023 11:19:24 AM :LOG DATE  
API         .                                    42706001380000 :API NUMBER
UWI         .                                    42706001380000 :UNIQUE WELL ID
XCOORD      .                                  1024149.02927821 :SURFACE X 
YCOORD      .                                  10425384.3690734 :SURFACE Y 
LAT         .                                         28.714212 :LATITUDE  
LON         .                                        -94.923031 :LONGITUDE 
ELEV        .FT                                              60 :ELEVATION VALUE
ELEV_TYPE   .                                                KB :ELEVATION REFERENCE TYPE
~Curve Information Section
#MNEM       .UNIT                                      API CODE :CURVE DESCRIPTION
#------------------------------------------------------------------------------
DEPT        .FT                                                 :DEPTH     
ASN         .OHMM                                               :          
CALI        .IN                                                 :          
CILD        .MMHO                                               :          
DT          .US/F                                               :          
ILD         .OHMM                                               :          
RHOB        .G/C3                                               :          
SP          .MV                                                 :          
SP_NORM     .MV                                                 :SP Normalized
VSH_SP      .V/V                                                :Volume of Shale from SP
~A        DEPTH            ASN           CALI           CILD             DT            ILD           RHOB             SP        SP_NORM         VSH_SP
# ...
      4271.0000         0.7498        12.3553        1384.42       140.8381         0.7803        -999.25       -58.4578      -4.589387      0.9235102
      4271.5000         0.8098        12.3349       1325.037       139.3472         0.8008        -999.25       -58.7254      -4.966699      0.9172217
      4272.0000          0.853        12.3145       1269.293       137.4468         0.8212        -999.25       -58.9929      -5.343877      0.9109354
      4272.5000         0.8779        12.2941       1221.602       133.8748         0.8417        -999.25       -59.2578      -5.717412      0.9047098
      4273.0000         0.8927        12.2777       1181.787       132.3726         0.8622        -999.25       -59.5218      -6.089688      0.8985052
      4273.5000         0.9055        12.2633       1147.783       129.6533         0.8821        -999.25       -59.7858      -6.461964      0.8923006
      4274.0000         0.9149        12.2488       1119.486       127.1633         0.9018        -999.25       -60.0499      -6.834378      0.8860937
      4274.5000         0.9225        12.2422       1089.146       126.7648         0.9216        -999.25       -59.9612      -6.712874      0.8881187
      4275.0000         0.9267        12.2442       1056.762       126.3746         0.9413        -999.25       -59.8386       -6.54391      0.8909348
      4275.5000          0.931        12.2461        1031.42        126.554         0.9599        -999.25       -59.5835      -6.189445      0.8968426
      4276.0000         0.9332        12.2481        1027.85        126.855         0.9424        -999.25       -59.3284       -5.83498      0.9027503
      4276.5000         0.9348          12.25       1036.494        127.187         0.9248        -999.25       -59.0733      -5.480515      0.9086581
      4277.0000         0.9252        12.2528         1052.4       127.3813         0.9072        -999.25       -58.8182       -5.12605      0.9145658
      4277.5000         0.9123        12.2618       1068.293        127.314         0.8897        -999.25       -58.5629      -4.771308      0.9204782
      4278.0000         0.8973        12.2709       1084.197       127.6858         0.8721        -999.25       -58.3079      -4.416982      0.9263836
      4278.5000         0.8819        12.2799       1100.092          128.7         0.8545        -999.25       -58.0527      -4.062379      0.9322937
      4279.0000         0.8664         12.289       1115.984       132.9961         0.8391        -999.25       -57.8802      -3.823554      0.9362741
      4279.5000         0.8501         12.298       1132.949       136.8394         0.8248        -999.25       -57.7292      -3.614828      0.9397529
      4280.0000         0.8328        12.2978       1162.168       139.0273         0.8104        -999.25       -57.6459      -3.500886      0.9416519
      4280.5000         0.8154        12.2901       1191.385       140.5364         0.7961        -999.25       -57.6666       -3.53254      0.9411243
      4281.0000         0.7993        12.2823       1220.604       141.6582         0.7817        -999.25       -57.6873      -3.564199      0.9405967
      4281.5000         0.7845        12.2719       1249.797       142.4902         0.7674        -999.25        -57.708      -3.595853      0.9400691
      4282.0000          0.775        12.2475       1279.016       143.1648          0.753        -999.25       -57.7287      -3.627506      0.9395416
      4282.5000         0.7655        12.2232       1308.234       143.8318         0.7387        -999.25       -57.7495      -3.659304      0.9390116
      4283.0000         0.7587        12.1989       1346.701       144.4529         0.7297        -999.25       -57.6974      -3.589038      0.9401827
      4283.5000         0.7568        12.1746       1378.998       145.0732         0.7318        -999.25       -57.6281      -3.494697      0.9417551
      4284.0000         0.7563        12.1535       1395.131       145.4763         0.7339        -999.25       -57.5587      -3.400211      0.9433298
      4284.5000         0.7558        12.1384       1398.682       145.7581         0.7361        -999.25       -57.4892      -3.305587      0.9449069
      4285.0000         0.7538        12.1232       1396.537       145.5674         0.7372        -999.25       -57.4198      -3.211102      0.9464816
      4285.5000         0.7507         12.117       1394.391        145.333          0.738        -999.25       -57.3503      -3.116477      0.9480587
      4286.0000         0.7477        12.1175       1392.881       145.0986         0.7388        -999.25       -57.2809      -3.021992      0.9496335
      4286.5000         0.7446        12.1179       1393.256        144.864         0.7396        -999.25       -57.2061      -2.919949      0.9513342
      4287.0000         0.7416        12.1184       1395.777       144.6296         0.7404        -999.25       -57.1117      -2.790462      0.9534923
      4287.5000         0.7385        12.1114       1404.764       144.5259         0.7412        -999.25       -57.0173       -2.66098      0.9556503
      4288.0000         0.7354        12.0991       1413.744       144.4851          0.742        -999.25       -56.9229      -2.531497      0.9578084
      4288.5000         0.7323        12.0868       1422.732       144.3625         0.7428        -999.25       -56.8285      -2.402009      0.9599665
      4289.0000         0.7292        12.0746       1430.834          144.2         0.7436        -999.25       -56.7341      -2.272527      0.9621245
      4289.5000         0.7283        12.0623       1437.828       144.0376         0.7459        -999.25       -56.6486      -2.155505      0.9640749
      4290.0000         0.7341        12.0568       1444.814       143.8887         0.7482        -999.25       -56.5938      -2.081458       0.965309
      4290.5000         0.7399        12.0556       1451.807       143.8584         0.7505        -999.25        -56.539      -2.007416      0.9665431
      4291.0000         0.7452        12.0545       1451.521       143.8284         0.7529        -999.25       -56.4842      -1.933369      0.9677772
      4291.5000         0.7503        12.0534       1427.363       143.7983         0.7552        -999.25       -56.4294      -1.859327      0.9690112
      4292.0000         0.7554        12.0523       1403.205       143.5415         0.7575        -999.25       -56.3754      -1.786407      0.9702265
      4292.5000         0.7606        12.0602       1378.912       143.1887         0.7658        -999.25       -56.3495       -1.75282      0.9707863
      4293.0000         0.7657        12.0734       1350.018       142.8357          0.783        -999.25       -56.3237      -1.719377      0.9713437
      4293.5000         0.7723        12.1034       1321.148       142.2295         0.8003        -999.25       -56.2978       -1.68579      0.9719035
      4294.0000         0.7832        12.1536       1292.279       141.1848         0.8176        -999.25       -56.2719      -1.652209      0.9724632
      4294.5000         0.7942        12.2039       1263.359       140.4299         0.8348        -999.25        -56.268      -1.649426      0.9725096
      4295.0000         0.8086        12.2511        1232.82       139.8201         0.8521        -999.25       -56.3342      -1.744782      0.9709203
      4295.5000         0.8273        12.2979       1202.279       139.0254         0.8693        -999.25       -56.5494      -2.048736      0.9658544
      4296.0000         0.8461        12.3448        1171.74       137.7529          0.881        -999.25       -56.9519      -2.614912      0.9564182
      4296.5000         0.8649        12.3676       1141.352       124.2583         0.8927        -999.25       -57.3607      -3.189905      0.9468349
      4297.0000          0.884        12.3714       1124.807       122.6802         0.9044        -999.25       -57.8734      -3.910365      0.9348273
