#------------------------------------------------------------------------------
# Created by    : vladimir.rabinovich
# Created on    : 09/19/2023 17:21:25
#------------------------------------------------------------------------------
~Version Information Section
VERS.           2.0     :   CWLS log ASCII Standard - VERSION 2.0
WRAP.           NO      :   One line per depth step
~Well Information Section
#MNEM       .UNIT                                         VALUE :DESCRIPTION
#------------------------------------------------------------------------------
STRT        .FT                                            3400 :START DEPTH
STOP        .FT                                            8653 :STOP DEPTH
STEP        .FT                                             0.5 :STEP      
NULL        .                                           -999.25 :NULL      
COMP        .                          KING RANCH OIL & GAS INC :COMPANY   
WELL        .                               OCS G13784 ST00BP00 :WELL      
FLD         .                                           WILDCAT :FIELD     
LOC         .                                                   :LOCATION  
CNTY        .                             GALVESTON LARGE BLOCK :LOCATION  
STAT        .                                             TEXAS :STATE     
CTRY        .                                     UNITED STATES :COUNTRY   
SRVC        .                                                   :SERVICE COMPANY
DATE        .                             9/13/2023 11:19:54 AM :LOG DATE  
API         .                                    42706403430000 :API NUMBER
UWI         .                                    42706403430000 :UNIQUE WELL ID
XCOORD      .                                   967589.17441186 :SURFACE X 
YCOORD      .                                  10424680.8833423 :SURFACE Y 
LAT         .                                         28.709654 :LATITUDE  
LON         .                                        -95.099391 :LONGITUDE 
ELEV        .FT                                             106 :ELEVATION VALUE
ELEV_TYPE   .                                                KB :ELEVATION REFERENCE TYPE
~Curve Information Section
#MNEM       .UNIT                                      API CODE :CURVE DESCRIPTION
#------------------------------------------------------------------------------
DEPT        .FT                                                 :DEPTH     
CALI        .IN                                                 :          
DPHI        .%                                                  :          
DRHO        .G/C3                                               :          
DTLN        .US/F                                               :          
GR          .GAPI                                               :          
GR_1        .GAPI                                               :          
GR_NORM     .GAPI                                               :GammaRay Normalized
ILD         .OHMM                                               :          
ILM         .OHMM                                               :          
NPHI        .%                                                  :          
SFL         .OHMM                                               :          
SP          .MV                                                 :          
SP_NORM     .MV                                                 :SP Normalized
VSH_GR      .V/V                                                :Volume of Shale from GR
VSH_SP      .V/V                                                :Volume of Shale from SP
~A        DEPTH           CALI           DPHI           DRHO           DTLN             GR           GR_1        GR_NORM            ILD            ILM           NPHI            SFL             SP        SP_NORM         VSH_GR         VSH_SP
# ...
      4114.0000        -999.25        -999.25        -999.25       138.3633        -999.25        44.3453        44.8577         0.5552         0.6103        -999.25         0.9586       -85.8341      -29.60194      0.2522916       0.342811
      4114.5000        -999.25        -999.25        -999.25       136.1812        -999.25        45.2617       45.95758         0.5696         0.6308        -999.25         0.8533       -85.2839      -29.05487      0.2756933      0.3558364
      4115.0000        -999.25        -999.25        -999.25         134.21        -999.25        44.9908       45.63271         0.5799         0.6473        -999.25         0.8829       -84.6658      -28.43991      0.2687811      0.3704784
      4115.5000        -999.25        -999.25        -999.25       132.2839        -999.25        46.0604       46.91644         0.5813         0.6566        -999.25         1.0565       -83.6246      -27.40184      0.2960944      0.3951942
      4116.0000        -999.25        -999.25        -999.25       128.6279        -999.25        49.4846       51.02569         0.5784          0.657        -999.25         1.2249       -81.7869      -25.56728      0.3835253      0.4388744
      4116.5000        -999.25        -999.25        -999.25       120.3989        -999.25          52.78       54.98037          0.575          0.652        -999.25         0.9043       -79.3325        -23.116      0.4676674       0.497238
      4117.0000        -999.25        -999.25        -999.25       113.9978        -999.25        55.4207       58.14941         0.5796         0.6289        -999.25         0.6813       -76.7972      -20.58384      0.5350938      0.5575275
      4117.5000        -999.25        -999.25        -999.25       113.7954        -999.25        56.7386        59.7311         0.5907         0.5985        -999.25         0.5997       -75.5707      -19.36047      0.5687469      0.5866554
      4118.0000        -999.25        -999.25        -999.25       109.2446        -999.25        56.7497       59.74462         0.6003         0.5667        -999.25         0.5668       -75.4486      -19.24151      0.5690345      0.5894879
      4118.5000        -999.25        -999.25        -999.25        103.223        -999.25        51.8997       53.92483         0.6063         0.6159        -999.25         0.5974       -77.3931      -21.18914      0.4452092      0.5431158
      4119.0000        -999.25        -999.25        -999.25       110.1587        -999.25        46.1965       47.08119         0.6016         0.6802        -999.25         0.8254       -80.1208      -23.91997      0.2995998      0.4780959
      4119.5000        -999.25        -999.25        -999.25       115.0151        -999.25        40.4982       40.24345         0.5832         0.7241        -999.25         1.3989       -84.1016      -27.90391      0.1541159      0.3832403
      4120.0000        -999.25        -999.25        -999.25       117.9163        -999.25        35.0598       33.71757         0.5609         0.7304        -999.25         2.3707       -88.1644      -31.96984     0.01526739      0.2864324
      4120.5000        -999.25        -999.25        -999.25       121.4839        -999.25        32.5282       30.67986         0.5323         0.7035        -999.25         1.5538       -91.6682      -35.47677              0       0.202934
      4121.0000        -999.25        -999.25        -999.25        125.537        -999.25        32.1435       30.21842         0.5052         0.6255        -999.25          0.903       -94.0601      -37.87181              0      0.1459094
      4121.5000        -999.25        -999.25        -999.25       124.8624        -999.25        32.3371       30.45095         0.4795         0.5418        -999.25         0.5783       -95.6477      -39.46254              0      0.1080348
      4122.0000        -999.25        -999.25        -999.25       120.1736        -999.25        33.0253       31.27699          0.455          0.472        -999.25         0.4812       -96.6825      -40.50048              0     0.08332189
      4122.5000        -999.25        -999.25        -999.25       121.4388        -999.25        34.3316       32.84476         0.4298         0.4331        -999.25         0.5077        -96.295      -40.11611              0     0.09247362
      4123.0000        -999.25        -999.25        -999.25       123.4232        -999.25        37.5068        36.6552         0.4059         0.4115        -999.25         0.5854       -94.8325      -38.65674     0.07777032      0.1272205
      4123.5000        -999.25        -999.25        -999.25       127.4845        -999.25        42.4647       42.60489         0.3949         0.3989        -999.25          0.623       -92.7716      -36.59898      0.2043593      0.1762149
      4124.0000        -999.25        -999.25        -999.25       129.1814        -999.25         49.693       51.27906          0.397         0.3974        -999.25         0.5488       -88.3827      -32.21321      0.3889161      0.2806379
      4124.5000        -999.25        -999.25        -999.25       132.5503        -999.25        58.8093       62.21883         0.4085         0.4072        -999.25         0.4797       -81.4044      -25.23805      0.6216772      0.4467131
      4125.0000        -999.25        -999.25        -999.25       139.0632        -999.25        68.8818       74.30602         0.4233         0.4232        -999.25          0.474       -75.3873      -19.22408      0.8788515       0.589903
      4125.5000        -999.25        -999.25        -999.25       144.6516        -999.25         72.474       78.61688         0.4393         0.4415        -999.25         0.4796       -69.3702      -13.21011      0.9705719      0.7330925
      4126.0000        -999.25        -999.25        -999.25        146.186        -999.25         76.321       83.23348         0.4541         0.4632        -999.25          0.442       -65.0684      -8.911442              1      0.8354419
      4126.5000        -999.25        -999.25        -999.25       142.3274        -999.25        76.3431       83.26022         0.4618         0.4867        -999.25         0.3934       -64.1659      -8.012081              1      0.8568552
      4127.0000        -999.25        -999.25        -999.25       136.1167        -999.25        72.9325       79.16769         0.4644         0.5113        -999.25         0.3678       -64.8195      -8.668816      0.9822913      0.8412187
      4127.5000        -999.25        -999.25        -999.25       132.0229        -999.25        67.4696       72.61241         0.4642         0.5334        -999.25          0.527        -66.819      -10.67145      0.8428172       0.793537
      4128.0000        -999.25        -999.25        -999.25       131.2402        -999.25         60.506        64.2563          0.461         0.5305        -999.25         0.7077       -71.2975      -15.15308      0.6650277      0.6868314
      4128.5000        -999.25        -999.25        -999.25       129.8687        -999.25        56.7227       59.71654         0.4574         0.5131        -999.25         0.8114       -76.4613      -20.32002       0.568437      0.5638091
      4129.0000        -999.25        -999.25        -999.25       128.0923        -999.25        52.9737       55.21796         0.4534         0.4957        -999.25         0.7936       -80.2937      -24.15555      0.4727225      0.4724869
      4129.5000        -999.25        -999.25        -999.25       127.5883        -999.25        49.8266       51.44164         0.4493         0.4819        -999.25          0.708        -83.312      -27.17698      0.3923752      0.4005482
      4130.0000        -999.25        -999.25        -999.25       131.9255        -999.25        50.7988       52.60849         0.4447         0.4693        -999.25         0.6028        -85.108      -28.97612      0.4172018      0.3577115
      4130.5000        -999.25        -999.25        -999.25       140.1514        -999.25        56.1808       59.06709         0.4371         0.4583        -999.25         0.5151       -83.2335      -27.10474      0.5546189       0.402268
