#------------------------------------------------------------------------------
# Created by    : vladimir.rabinovich
# Created on    : 09/19/2023 17:20:37
#------------------------------------------------------------------------------
~Version Information Section
VERS.           2.0     :   CWLS log ASCII Standard - VERSION 2.0
WRAP.           NO      :   One line per depth step
~Well Information Section
#MNEM       .UNIT                                         VALUE :DESCRIPTION
#------------------------------------------------------------------------------
STRT        .FT                                             254 :START DEPTH
STOP        .FT                                            9030 :STOP DEPTH
STEP        .FT                                             0.5 :STEP      
NULL        .                                           -999.25 :NULL      
COMP        .                                    MOBIL OIL CORP :COMPANY   
WELL        .                                OCS 00724 ST00BP00 :WELL      
FLD         .                                           WILDCAT :FIELD     
LOC         .                                                   :LOCATION  
CNTY        .                             GALVESTON LARGE BLOCK :LOCATION  
STAT        .                                             TEXAS :STATE     
CTRY        .                                     UNITED STATES :COUNTRY   
SRVC        .                                                   :SERVICE COMPANY
DATE        .                             9/13/2023 11:19:25 AM :LOG DATE  
API         .                                    42706000340000 :API NUMBER
UWI         .                                    42706000340000 :UNIQUE WELL ID
XCOORD      .                                  1011870.95166473 :SURFACE X 
YCOORD      .                                   10400634.765487 :SURFACE Y 
LAT         .                                         28.645607 :LATITUDE  
LON         .                                        -94.960058 :LONGITUDE 
ELEV        .FT                                              34 :ELEVATION VALUE
ELEV_TYPE   .                                                KB :ELEVATION REFERENCE TYPE
~Curve Information Section
#MNEM       .UNIT                                      API CODE :CURVE DESCRIPTION
#------------------------------------------------------------------------------
DEPT        .FT                                                 :DEPTH     
ASN         .OHMM                                               :          
CALI        .IN                                                 :          
CILD        .MMHO                                               :          
DT          .US/F                                               :          
ILD         .OHMM                                               :          
SP          .MV                                                 :          
SP_NORM     .MV                                                 :SP Normalized
VSH_SP      .V/V                                                :Volume of Shale from SP
~A        DEPTH            ASN           CALI           CILD             DT            ILD             SP        SP_NORM         VSH_SP
# ...
      7835.5000          0.544         8.9881       2358.961       116.5612         0.5368       -42.5559     -0.4997215              1
      7836.0000         0.5403          8.924       2381.805       117.8694         0.5333       -42.5591     -0.5061302              1
      7836.5000         0.5382         8.8783       2402.637       118.5792         0.5297       -42.5624     -0.5126343              1
      7837.0000          0.537         8.8395       2415.676       115.5516         0.5315       -42.5657     -0.5191422              1
      7837.5000         0.5359         8.9089       2412.688       118.8248         0.5333        -42.569     -0.5256462              1
      7838.0000         0.5304         8.9783       2403.508       120.2828         0.5351       -42.5722     -0.5320549              1
      7838.5000         0.5249         9.0367       2390.793       120.6371         0.5369       -42.5755      -0.538559              1
      7839.0000         0.5194         9.0925       2363.535       120.5144         0.5387       -42.5787     -0.5449677              1
      7839.5000         0.5262         9.1096       2310.918       120.1504         0.5404        -42.582     -0.5514717              1
      7840.0000         0.5352         9.0923       2106.066       114.7955         0.5519       -42.5853     -0.5579758              1
      7840.5000         0.5442         9.1396        2039.82       114.7854         0.5649       -42.5886     -0.5644836              1
      7841.0000         0.5532         9.2489       2010.969        114.828          0.578       -42.5918     -0.5708885              1
      7841.5000         0.5639         9.3581       2005.953       114.5387          0.591       -42.5951     -0.5773964              1
      7842.0000         0.5794         9.4524        1982.43       113.7386         0.6041       -42.5983     -0.5838013              1
      7842.5000         0.5948         9.4376       1857.318       112.2942         0.6176       -42.6016     -0.5903091              1
      7843.0000         0.6103         9.3828       1818.557       111.1809         0.6325       -42.6049     -0.5968132              1
      7843.5000         0.6257         9.3026           1774       110.5139         0.6473       -42.6082     -0.6033211              1
      7844.0000         0.6421         9.2223       1743.346       110.6216         0.6611       -42.6114      -0.609726              1
      7844.5000          0.659          9.164         1716.9        110.988          0.668       -42.6147       -0.61623              1
      7845.0000         0.6751         9.2043       1691.408       110.1196         0.6757       -42.6179     -0.6226387              1
      7845.5000         0.6892         9.2564       1666.594       109.4695         0.6842       -42.6212     -0.6291428              1
      7846.0000         0.6993         9.3081       1645.764       109.0615         0.6926       -42.6245     -0.6356506              1
      7846.5000         0.7076         9.3398       1624.912       108.3866         0.6938       -42.6277     -0.6420555              1
      7847.0000         0.7164         9.3716       1606.393       101.7704         0.6947        -42.631     -0.6485634              1
      7847.5000         0.7263         9.4034       1588.076       101.4188         0.6956       -42.6343     -0.6550674              1
      7848.0000         0.7387         9.4351       1575.635       103.7329         0.6965       -42.6375     -0.6614761              1
      7848.5000         0.7511         9.4489        1564.35       102.9197         0.6948       -42.6407      -0.667881              1
      7849.0000         0.7635         9.4474       1575.273         101.74         0.6925        -42.644     -0.6743851              1
      7849.5000         0.7765          9.434       1586.209       100.8413         0.6902       -42.6473     -0.6808929              1
      7850.0000         0.7669         9.4096       1596.805       101.4369         0.6879       -42.6506      -0.687397              1
      7850.5000         0.7581         9.3855       1607.139       103.9901         0.6855       -42.6538     -0.6938057              1
      7851.0000         0.7523         9.3705       1617.486       108.7043         0.6832       -42.6571     -0.7003098              1
      7851.5000         0.7464         9.3554       1627.832       108.6638         0.6809       -42.6603     -0.7067184              1
      7852.0000         0.7406         9.3404       1640.014        105.394         0.6786       -42.6636     -0.7132225              1
      7852.5000         0.7361         9.3254       1652.738       104.2875         0.6763       -42.6669     -0.7197304              1
      7853.0000          0.738         9.3096       1665.484       105.2633         0.6731       -42.6702     -0.7262344              1
      7853.5000         0.7398         9.3051       1678.072       107.2328         0.6691       -42.6734     -0.7326393              1
      7854.0000         0.7416         9.4049       1690.592       109.1461         0.6651       -42.6767     -0.7391472              1
      7854.5000         0.7337          9.481        1703.09       110.8282          0.661       -42.6799     -0.7455521              1
      7855.0000         0.7258         9.4222       1716.268         110.65          0.657       -42.6832     -0.7520599              1
      7855.5000         0.7179         9.3049       1730.666        110.434         0.6529       -42.6865      -0.758564              1
      7856.0000         0.7092         9.1886       1745.043       110.0903         0.6489       -42.6898     -0.7650719              1
      7856.5000         0.6982         9.1944       1770.197       109.3376         0.6449        -42.693     -0.7714767              1
      7857.0000         0.6878         9.3444       1802.074       106.5117         0.6408       -42.6963     -0.7779846              1
      7857.5000         0.6844         9.4551       1856.277       106.6785          0.635       -42.6995     -0.7843895              1
      7858.0000         0.6811         9.5333       1933.799       108.5714         0.6278       -42.7028     -0.7908936              1
      7858.5000         0.6775          9.478       1975.457       113.2542         0.6207       -42.7061     -0.7974014              1
      7859.0000         0.6739         9.4046       2001.098       116.4136         0.6135       -42.7094     -0.8039055              1
      7859.5000         0.6587         9.3315       2009.969       117.2468         0.6064       -42.7126     -0.8103142              1
      7860.0000         0.6408         9.2583       2107.695       117.6208         0.5991       -42.7159     -0.8168182              1
      7860.5000         0.6257         9.1851       2150.984       116.7449         0.5877       -42.7191     -0.8232269              1
      7861.0000         0.6119         9.1811        2161.32       116.2762         0.5763       -42.7224      -0.829731              1
      7861.5000         0.6001         9.2195       2148.699        116.702         0.5649       -42.7256     -0.8361397              1
      7862.0000         0.5893         9.2579       2132.512       119.4784         0.5548       -42.7289     -0.8426437              1
      7862.5000         0.5796         9.2963       2120.566       119.2395          0.545       -42.7322     -0.8491478              1
      7863.0000         0.5818         9.3346       2109.145       113.4164         0.5361       -42.7354     -0.8555565              1
      7863.5000         0.5861         9.4211       2106.883       113.4615         0.5295       -42.7387     -0.8620605              1
      7864.0000         0.5905         9.5412       2133.008       114.2705         0.5227       -42.7419     -0.8684692              1
      7864.5000         0.5946         9.5578       2177.203       115.6779         0.5142       -42.7452     -0.8749733              1
