#------------------------------------------------------------------------------
# Created by    : vladimir.rabinovich
# Created on    : 09/19/2023 17:21:33
#------------------------------------------------------------------------------
~Version Information Section
VERS.           2.0     :   CWLS log ASCII Standard - VERSION 2.0
WRAP.           NO      :   One line per depth step
~Well Information Section
#MNEM       .UNIT                                         VALUE :DESCRIPTION
#------------------------------------------------------------------------------
STRT        .FT                                            3683 :START DEPTH
STOP        .FT                                            9328 :STOP DEPTH
STEP        .FT                                             0.5 :STEP      
NULL        .                                           -999.25 :NULL      
COMP        .                                SHELL OFFSHORE INC :COMPANY   
WELL        .                               OCS G11316 ST00BP00 :WELL      
FLD         .                                           WILDCAT :FIELD     
LOC         .                                                   :LOCATION  
CNTY        .                             GALVESTON LARGE BLOCK :LOCATION  
STAT        .                                             TEXAS :STATE     
CTRY        .                                     UNITED STATES :COUNTRY   
SRVC        .                                                   :SERVICE COMPANY
DATE        .                             9/13/2023 11:19:34 AM :LOG DATE  
API         .                                    42706402670000 :API NUMBER
UWI         .                                    42706402670000 :UNIQUE WELL ID
XCOORD      .                                  1097534.45360284 :SURFACE X 
YCOORD      .                                  10461685.9172371 :SURFACE Y 
LAT         .                                         28.817107 :LATITUDE  
LON         .                                        -94.695737 :LONGITUDE 
ELEV        .FT                                              91 :ELEVATION VALUE
ELEV_TYPE   .                                                KB :ELEVATION REFERENCE TYPE
~Curve Information Section
#MNEM       .UNIT                                      API CODE :CURVE DESCRIPTION
#------------------------------------------------------------------------------
DEPT        .FT                                                 :DEPTH     
CALI        .IN                                                 :          
CALI_1      .IN                                                 :          
CILD        .MMHO                                               :          
DRHO        .G/C3                                               :          
DT          .US/F                                               :          
GR          .GAPI                                               :          
GR_1        .GAPI                                               :          
GR_NORM     .GAPI                                               :GammaRay Normalized
ILD         .OHMM                                               :          
ILM         .OHMM                                               :          
NPHI        .%                                                  :          
RHOB        .G/C3                                               :          
SFL         .OHMM                                               :          
SP          .MV                                                 :          
SP_NORM     .MV                                                 :SP Normalized
VSH_GR      .V/V                                                :Volume of Shale from GR
VSH_SP      .V/V                                                :Volume of Shale from SP
~A        DEPTH           CALI         CALI_1           CILD           DRHO             DT             GR           GR_1        GR_NORM            ILD            ILM           NPHI           RHOB            SFL             SP        SP_NORM         VSH_GR         VSH_SP
# ...
      4328.0000        16.9762        17.0229       1402.297          0.003       138.0391        52.0501         51.889       71.66508         0.7381          0.577        54.1255           2.15         0.8317       -27.9865      -6.802714      0.8226612      0.9028184
      4328.5000        16.9612        17.0146       1353.549         0.0023       137.7366        54.8286        53.1627       73.65236         0.7903         0.6071        55.0424         2.1538         0.8137        -28.109      -6.958622      0.8649438      0.9005911
      4329.0000        16.9478         16.996       1310.779         0.0041       137.6055        56.5975        56.9182       79.51746         0.7718         0.6228        55.5224          2.157         0.8086       -28.2671      -7.159841      0.9897331      0.8977166
      4329.5000        16.9402        16.9853       1333.035         0.0102       137.9434        61.1967        60.9382       85.79584         0.7395         0.6214        55.7992         2.1605         0.8274       -28.4541      -7.397841              1      0.8943166
      4330.0000        16.9313        16.9791       1341.895         0.0188        138.459        62.7209          62.95       88.93639         0.7317         0.6369        56.1503         2.1638         0.8503       -28.5085      -7.467077              1      0.8933275
      4330.5000        16.9223         16.975       1307.664         0.0194       138.9441        63.5543        63.7167       90.13147         0.8134         0.6603        56.8294         2.1632         0.8764       -28.2815      -7.178169              1      0.8974547
      4331.0000        16.9196        16.9619       1280.316         0.0146        139.418        62.9324        63.6409       90.01016         0.7977         0.6594        58.3534           2.16           0.89        -27.782      -6.542441              1      0.9065366
      4331.5000        16.8751        16.9357       1326.313         0.0082       139.8811        60.5335        60.4193       84.97354         0.7623         0.6192        61.2672         2.1553          0.885       -27.5471      -6.243478              1      0.9108074
      4332.0000        16.7937        16.8775       1408.023         0.0053       140.3118        58.3665        58.5872       82.10801         0.7269         0.5851        63.0839         2.1524         0.8336        -27.442      -6.109714              1      0.9127184
      4332.5000        16.7339        16.8076        1461.32          0.008       140.6929        57.2151        57.3648       80.19513         0.6953          0.564        63.9332         2.1547          0.806       -27.4764      -6.153497              1      0.9120929
      4333.0000        16.7009        16.7538       1468.387          0.014       141.1167        57.1328        57.4565       80.33555          0.675         0.5651        63.6152         2.1623         0.7857       -27.6185      -6.334351              1      0.9095092
      4333.5000          16.67        16.7162       1413.912         0.0178       141.2793        57.2699        58.0075        81.1936         0.7231         0.5851         60.487         2.1709         0.7749       -27.7327      -6.479697              1      0.9074329
      4334.0000        16.6497         16.703       1301.137         0.0195        139.574        57.5313        58.2479       81.56635         0.8014         0.6404        55.9816         2.1793         0.8203       -27.8128      -6.581642              1      0.9059765
      4334.5000        16.6513        16.7183       1187.086         0.0176       137.2244        57.4185        57.6366       80.60833         0.8708         0.7071        53.4865         2.1846         0.8815       -27.8157      -6.585333              1      0.9059238
      4335.0000        16.6717         16.736       1097.326         0.0131        135.335        56.2672        56.6143        79.0081         0.9284          0.772        51.3413         2.1889         0.9464       -27.7407      -6.489878      0.9788958      0.9072875
      4335.5000        16.6908        16.7413       1038.209         0.0089       133.6541        55.1121        55.4048       77.11537         0.9769         0.8217        50.5352         2.1923         1.0082       -27.4134      -6.073315      0.9386249      0.9132383
      4336.0000        16.6947        16.7385       1017.333         0.0097       132.3186        54.2896        54.4944       75.69001         0.9881         0.8413        51.0025         2.1942         1.0429         -27.19      -5.788988      0.9082981      0.9173002
      4336.5000         16.683        16.7328       1029.742         0.0111       131.2581        54.0765        54.4257        75.5798         0.9894         0.8581        52.1349         2.1946         1.0424        -27.219      -5.825896      0.9059531      0.9167729
      4337.0000        16.6589        16.6951       1027.123         0.0103        130.249        53.8714        54.4144       75.55925          0.995         0.8671        53.6292         2.1834         1.0526       -27.3528      -5.996188       0.905516      0.9143402
      4337.5000        16.6119        16.6557       1026.117         0.0073       129.0791        53.1324        53.3652       73.91701         0.9502         0.8211        55.3411         2.1731         1.0771       -27.4623       -6.13555      0.8705747      0.9123493
      4338.0000        16.5648         16.621       1159.604         0.0032       127.7676        50.9666        51.1799       70.49959         0.8581         0.7135        57.2166         2.1593         1.0972       -27.2581       -5.87566      0.7978636       0.916062
      4338.5000        16.5202        16.5749         1268.6        -0.0006        126.626        50.5511        50.2125       68.98515         0.7983         0.6382        58.4789         2.1466         1.0419       -26.8892      -5.406151      0.7656416      0.9227692
      4339.0000        16.4756        16.5198       1313.994        -0.0039       126.0601        53.2729        52.6462       72.78493         0.7739         0.6123        59.1098         2.1402         0.9909       -26.7256      -5.197932      0.8464878      0.9257438
      4339.5000        16.4134        16.4554       1269.924         -0.008       126.5167        56.0305        56.0559       78.10973         0.7931         0.6685        58.7487         2.1381         0.9472       -26.7168      -5.186734      0.9597814      0.9259038
      4340.0000        16.3529        16.3816       1200.973        -0.0121       127.0234        57.7822        58.2499       81.53496         0.8463         0.7302        57.5279          2.142         0.9074       -26.7914      -5.281679              1      0.9245474
      4340.5000        16.3028        16.3339       1144.168        -0.0143        127.521        58.0521        58.4263       81.80771         0.8943         0.7787        56.6838         2.1513          0.874        -27.002      -5.549716              1      0.9207184
      4341.0000        16.2655        16.3022       1102.871        -0.0111       127.7435        56.5396        56.9417       79.48516         0.9309         0.8145        56.1265         2.1663         0.9345       -27.3315      -5.969077       0.989046      0.9147274
      4341.5000        16.2378        16.2592       1066.703        -0.0015        127.576         55.318        55.7748         77.659          0.969         0.8444        55.2653         2.1812         1.0035       -27.6824      -6.415678      0.9501914      0.9083474
      4342.0000        16.2149        16.2234       1028.768          0.013       126.9253        54.5999        55.1785        76.7244         0.9864         0.8722        53.4344         2.1939         1.0539       -28.1219      -6.975043      0.9303064      0.9003565
      4342.5000        16.2081        16.1999       1004.427         0.0253       125.8948         53.787        54.4462       75.57732         1.0035         0.8921        50.1829         2.2019         1.1023       -28.5216      -7.483751      0.9059004      0.8930893
