#------------------------------------------------------------------------------
# Created by    : vladimir.rabinovich
# Created on    : 09/19/2023 17:20:57
#------------------------------------------------------------------------------
~Version Information Section
VERS.           2.0     :   CWLS log ASCII Standard - VERSION 2.0
WRAP.           NO      :   One line per depth step
~Well Information Section
#MNEM       .UNIT                                         VALUE :DESCRIPTION
#------------------------------------------------------------------------------
STRT        .FT                                             598 :START DEPTH
STOP        .FT                                           10008 :STOP DEPTH
STEP        .FT                                             0.5 :STEP      
NULL        .                                           -999.25 :NULL      
COMP        .                                        SUN OIL CO :COMPANY   
WELL        .                               OCS G01712 ST00BP00 :WELL      
FLD         .                                           WILDCAT :FIELD     
LOC         .                                                   :LOCATION  
CNTY        .                                BRAZOS LARGE BLOCK :LOCATION  
STAT        .                                             TEXAS :STATE     
CTRY        .                                     UNITED STATES :COUNTRY   
SRVC        .                                                   :SERVICE COMPANY
DATE        .                             9/13/2023 11:18:52 AM :LOG DATE  
API         .                                    42704300120000 :API NUMBER
UWI         .                                    42704300120000 :UNIQUE WELL ID
XCOORD      .                                   818594.06951761 :SURFACE X 
YCOORD      .                                  10373365.4427938 :SURFACE Y 
LAT         .                                         28.560597 :LATITUDE  
LON         .                                        -95.560517 :LONGITUDE 
ELEV        .FT                                              89 :ELEVATION VALUE
ELEV_TYPE   .                                                KB :ELEVATION REFERENCE TYPE
~Curve Information Section
#MNEM       .UNIT                                      API CODE :CURVE DESCRIPTION
#------------------------------------------------------------------------------
DEPT        .FT                                                 :DEPTH     
ASN         .OHMM                                               :          
CALI        .IN                                                 :          
CILD        .MMHO                                               :          
ILD         .OHMM                                               :          
SP          .MV                                                 :          
SP_NORM     .MV                                                 :SP Normalized
VSH_SP      .V/V                                                :Volume of Shale from SP
~A        DEPTH            ASN           CALI           CILD            ILD             SP        SP_NORM         VSH_SP
# ...
      7465.5000         0.6125         9.1961       2448.656         0.3989       -47.5892       1.250607              1
      7466.0000          0.612         9.1593       2457.094         0.3968        -47.558        1.27351              1
      7466.5000         0.6114         9.1225       2465.531         0.3947       -47.5269        1.29631              1
      7467.0000         0.6109          9.086       2472.359         0.3924       -47.4958       1.319115              1
      7467.5000         0.6104         9.0499       2478.984         0.3878       -47.4647       1.341919              1
      7468.0000           0.61         9.0225       2485.605         0.3833       -47.4336       1.364719              1
      7468.5000         0.6105         9.0459       2488.699         0.3787       -47.4025       1.387524              1
      7469.0000          0.611          9.085       2488.406         0.3742       -47.3713       1.410427              1
      7469.5000         0.6115         9.1158       2487.371         0.3696       -47.3403       1.433132              1
      7470.0000         0.6119         9.1397       2480.641         0.3651       -47.3091       1.456036              1
      7470.5000         0.6124         9.1481       2473.906         0.3605        -47.365       1.391838              1
      7471.0000         0.6129          9.147        2467.18         0.3567       -47.4301       1.318443              1
      7471.5000         0.6134          9.132       2449.625         0.3548       -47.4953       1.244946              1
      7472.0000         0.6139         9.1616        2427.68         0.3528       -47.5605       1.171448              1
      7472.5000         0.6144         9.2003       2408.086         0.3509       -47.6257        1.09795              1
      7473.0000         0.6148         9.2413       2394.367         0.3489       -47.6909       1.024456              1
      7473.5000         0.6146         9.2416       2380.633          0.347       -47.7355      0.9715576              1
      7474.0000         0.6145         9.2418       2366.914          0.345       -47.7288      0.9699593              1
      7474.5000         0.6143         9.2307       2353.184         0.3431        -47.722      0.9684639              1
      7475.0000         0.6142         9.2196       2339.078         0.3416       -47.7153      0.9668655              1
      7475.5000          0.614         9.2113        2324.02         0.3416       -47.7086       0.965271              1
      7476.0000         0.6138         9.2066       2309.973         0.3417       -47.7018      0.9637718              1
      7476.5000         0.6137         9.2018       2314.086         0.3417       -47.6951      0.9621773              1
      7477.0000         0.6135         9.2074       2320.117         0.3417       -47.6445       1.004478              1
      7477.5000         0.6134         9.2149           2327         0.3418       -47.5861       1.054581              1
      7478.0000         0.6125         9.2122       2346.211         0.3418       -47.5276       1.104786              1
      7478.5000         0.6102         9.2048       2365.449         0.3419       -47.4692       1.154888              1
      7479.0000         0.6079         9.1883        2389.98          0.343       -47.4109       1.204891              1
      7479.5000         0.6056         9.1675       2419.852         0.3444       -47.3525       1.254993              1
      7480.0000         0.6033         9.1705       2449.773         0.3459       -47.2941       1.305099              1
      7480.5000         0.6012          9.184        2467.32         0.3474       -47.2357       1.355206              1
      7481.0000         0.6001         9.2125       2484.047         0.3488       -47.1772       1.405407              1
      7481.5000         0.5991         9.2346       2500.797         0.3503       -47.1189        1.45541              1
      7482.0000          0.598         9.2416       2518.344         0.3517       -47.0726       1.493412              1
      7482.5000         0.5969         9.2486       2539.594         0.3532       -47.0352       1.522518              1
      7483.0000         0.5958         9.2509       2560.816         0.3544       -46.9977        1.55172              1
      7483.5000         0.5948         9.2491        2581.57         0.3551       -46.9603       1.580822              1
      7484.0000          0.595         9.2485       2600.383         0.3559       -46.9228       1.610027              1
      7484.5000         0.5966         9.2487       2593.672         0.3566       -46.8853       1.639229              1
      7485.0000         0.5983         9.2414       2519.066         0.3573       -46.8478        1.66843              1
      7485.5000         0.6002         9.2253       2459.168          0.358       -46.8104       1.697536              1
      7486.0000         0.6065         9.1981       2418.609         0.3588       -46.7729       1.726738              1
      7486.5000         0.6128         9.1359       2395.496         0.3595       -46.7355        1.75584              1
      7487.0000         0.6236         9.0822       2372.406         0.3602        -46.726       1.757042              1
      7487.5000         0.6343         9.0419       2334.855         0.3609       -46.7188       1.755947              1
      7488.0000         0.6487           9.02       2224.609         0.3616       -46.7117       1.754749              1
      7488.5000         0.6698         9.0012       2162.277         0.3624       -46.7045       1.753654              1
      7489.0000         0.6908         9.0057       2059.484         0.3652       -46.6973       1.752556              1
      7489.5000         0.7084         9.0146       1997.219         0.3693       -46.6902       1.751358              1
      7490.0000         0.7261         9.0455       1983.781         0.3734       -46.9542       1.479061              1
      7490.5000         0.7451         9.0746       1953.674         0.3774       -47.2516        1.17337              1
      7491.0000         0.7437         9.0854       1985.484         0.3815       -47.5388      0.8778725              1
      7491.5000         0.7187         9.0962       2005.813         0.3856       -47.8161      0.5922737              1
      7492.0000          0.693         9.1078       2025.219         0.3897       -47.9767       0.423378              1
      7492.5000         0.6675         9.1194       2072.906         0.3938       -48.0235      0.3682823              1
      7493.0000         0.6553         9.1066       2165.656         0.3979       -48.0701       0.313385              1
      7493.5000         0.6434         9.0663       2273.719         0.3962       -48.1168      0.2583885              1
      7494.0000         0.6354         9.0186       2326.305         0.3925       -48.1636       0.203289              1
      7494.5000         0.6273         8.9693       2358.316         0.3888       -48.1794      0.1791916              1
      7495.0000         0.6296         8.9622       2390.477         0.3852       -48.1628      0.1874962              1
      7495.5000         0.6368         8.9622       2411.801         0.3815       -48.1463      0.1956978              1
      7496.0000          0.644         8.9768       2404.219         0.3778       -48.1298      0.2039032              1
      7496.5000         0.6512         8.9997       2390.801         0.3749       -48.1132       0.212204              1
      7497.0000         0.6583         9.0802       2377.379         0.3739       -48.0967      0.2204094              1
      7497.5000         0.6655         9.1409       2313.281         0.3728       -48.0801      0.2287102              1
      7498.0000         0.6748         9.1662       2231.367         0.3717        -48.063      0.2375145              1
      7498.5000         0.6856         9.1845       2130.367         0.3707       -48.0359      0.2563171              1
