#------------------------------------------------------------------------------
# Created by    : vladimir.rabinovich
# Created on    : 09/19/2023 17:20:34
#------------------------------------------------------------------------------
~Version Information Section
VERS.           2.0     :   CWLS log ASCII Standard - VERSION 2.0
WRAP.           NO      :   One line per depth step
~Well Information Section
#MNEM       .UNIT                                         VALUE :DESCRIPTION
#------------------------------------------------------------------------------
STRT        .FT                                             495 :START DEPTH
STOP        .FT                                            9652 :STOP DEPTH
STEP        .FT                                             0.5 :STEP      
NULL        .                                           -999.25 :NULL      
COMP        .                                      SHELL OIL CO :COMPANY   
WELL        .                                OCS 00714 ST00BP00 :WELL      
FLD         .                                FEDERAL BLOCK 0288 :FIELD     
LOC         .                                                   :LOCATION  
CNTY        .                             GALVESTON LARGE BLOCK :LOCATION  
STAT        .                                             TEXAS :STATE     
CTRY        .                                     UNITED STATES :COUNTRY   
SRVC        .                                                   :SERVICE COMPANY
DATE        .                             9/13/2023 11:19:25 AM :LOG DATE  
API         .                                    42706000490000 :API NUMBER
UWI         .                                    42706000490000 :UNIQUE WELL ID
XCOORD      .                                  1093419.85109126 :SURFACE X 
YCOORD      .                                  10468907.9519753 :SURFACE Y 
LAT         .                                         28.836806 :LATITUDE  
LON         .                                        -94.708909 :LONGITUDE 
ELEV        .FT                                              83 :ELEVATION VALUE
ELEV_TYPE   .                                                KB :ELEVATION REFERENCE TYPE
~Curve Information Section
#MNEM       .UNIT                                      API CODE :CURVE DESCRIPTION
#------------------------------------------------------------------------------
DEPT        .FT                                                 :DEPTH     
ASN         .OHMM                                               :          
ASN_1       .OHMM                                               :          
CALI        .IN                                                 :          
CALI_1      .IN                                                 :          
DRHO        .G/C3                                               :          
DT          .US/F                                               :          
ILD         .OHMM                                               :          
LAT         .OHMM                                               :          
LN          .OHMM                                               :          
RHOB        .G/C3                                               :          
SP          .MV                                                 :          
SP_1        .MV                                                 :          
SP_NORM     .MV                                                 :SP Normalized
VSH_SP      .V/V                                                :Volume of Shale from SP
~A        DEPTH            ASN          ASN_1           CALI         CALI_1           DRHO             DT            ILD            LAT             LN           RHOB             SP           SP_1        SP_NORM         VSH_SP
# ...
      8919.0000         1.1006        -999.25        10.3987        -999.25         0.1049       108.7637         0.8943        -999.25        -999.25         2.3977        -999.25       -44.5595      -4.461514      0.9120888
      8919.5000         1.1193        -999.25         10.409        -999.25         0.1161       105.1124         0.9082        -999.25        -999.25         2.4006        -999.25       -44.4062      -4.318848       0.917184
      8920.0000         1.1446        -999.25        10.4187        -999.25          0.154       106.8723         0.9299        -999.25        -999.25          2.416        -999.25        -43.938      -3.861279      0.9335257
      8920.5000         1.1655        -999.25        10.3992        -999.25         0.1371       107.0184         0.9592        -999.25        -999.25         2.4109        -999.25       -43.5574      -3.491314      0.9467388
      8921.0000         1.1713        -999.25        10.3519        -999.25         0.1552        99.1921         0.9769        -999.25        -999.25         2.4196        -999.25       -43.4625      -3.407051      0.9497482
      8921.5000         1.2099        -999.25        10.2602        -999.25         0.1849         99.624         0.9886        -999.25        -999.25         2.4346        -999.25       -43.6913      -3.646484       0.941197
      8922.0000         1.2863        -999.25        10.3114        -999.25         0.1352       104.2759          0.989        -999.25        -999.25         2.4394        -999.25       -45.1976      -5.163422      0.8870206
      8922.5000          1.348        -999.25        10.2228        -999.25         0.0974        98.6255         0.9794        -999.25        -999.25         2.4317        -999.25       -47.6437      -7.620152      0.7992803
      8923.0000         1.3566        -999.25        10.1824        -999.25         0.1262        84.0614         0.9668        -999.25        -999.25         2.4503        -999.25       -50.5214      -10.50849      0.6961254
      8923.5000         1.3624        -999.25        10.1858        -999.25         0.1236        90.6643         0.9355        -999.25        -999.25          2.422        -999.25       -54.3029      -14.30062      0.5606921
      8924.0000         1.3727        -999.25        10.3307        -999.25         0.0309        102.452         0.9063        -999.25        -999.25         2.3914        -999.25       -57.1604      -17.16876      0.4582586
      8924.5000         1.3882        -999.25        10.3998        -999.25         0.0136        96.8263         0.8797        -999.25        -999.25         2.3837        -999.25       -57.3298      -17.34879      0.4518288
      8925.0000         1.4553        -999.25        10.3756        -999.25          0.021        84.1154         0.8444        -999.25        -999.25         2.3792        -999.25       -60.5664      -20.59603      0.3358562
      8925.5000         1.5498        -999.25        10.3065        -999.25         0.0553        71.5214         0.8146        -999.25        -999.25         2.3888        -999.25       -66.4163      -26.45656      0.1265515
      8926.0000         1.5766        -999.25         10.265        -999.25         0.0881        60.4398         0.7849        -999.25        -999.25          2.388        -999.25       -70.9576       -31.0085              0
      8926.5000         1.5392        -999.25        10.2702        -999.25         0.0571        70.1541            0.8        -999.25        -999.25         2.3724        -999.25       -72.4882      -32.54973              0
      8927.0000         1.4046        -999.25        10.2869        -999.25          0.026        83.9714         0.8353        -999.25        -999.25         2.3716        -999.25       -72.4521      -32.52427              0
      8927.5000         1.2889        -999.25        10.3006        -999.25         -0.002        93.0211         0.8689        -999.25        -999.25         2.3902        -999.25       -71.4253       -31.5081              0
      8928.0000         1.2373        -999.25        10.3122        -999.25         0.0147       107.2704         0.9107        -999.25        -999.25         2.4053        -999.25       -67.5989      -27.69233     0.08241667
      8928.5000         1.2428        -999.25        10.3201        -999.25         0.0421       107.8101         0.9648        -999.25        -999.25         2.3664        -999.25       -62.6438      -22.74787      0.2590047
      8929.0000         1.3042        -999.25        10.3219        -999.25         0.0711        94.3705         1.0359        -999.25        -999.25          2.351        -999.25       -54.6401       -14.7548      0.5444713
      8929.5000         1.4178        -999.25        10.3197        -999.25          0.106        91.4784         1.1153        -999.25        -999.25         2.3623        -999.25       -49.6446      -9.769939      0.7225022
      8930.0000         1.5154        -999.25        10.3264        -999.25         0.1457        95.6254         1.2423        -999.25        -999.25         2.4253        -999.25       -48.3013      -8.437275      0.7700973
      8930.5000         1.6135        -999.25        10.3392        -999.25         0.1381        92.0226          1.339        -999.25        -999.25         2.4437        -999.25       -47.9337      -8.080307      0.7828462
      8931.0000         1.7134        -999.25        10.3567        -999.25          0.119        86.3103         1.4207        -999.25        -999.25         2.4582        -999.25       -48.6205       -8.77774      0.7579378
      8931.5000          1.797        -999.25        10.3814        -999.25         0.1436        84.1559         1.4871        -999.25        -999.25         2.4661        -999.25        -50.899      -11.06688       0.676183
      8932.0000         1.8348        -999.25         10.398        -999.25         0.1333        82.7308          1.525        -999.25        -999.25         2.4494        -999.25       -54.1545      -14.33301      0.5595353
      8932.5000         1.8754        -999.25        10.3886        -999.25         0.1186         87.952         1.5559        -999.25        -999.25         2.4482        -999.25       -56.4859      -16.67505      0.4758911
      8933.0000         1.9699        -999.25        10.3707        -999.25          0.079        90.0065         1.5741        -999.25        -999.25         2.4294        -999.25       -57.1995      -17.39928      0.4500256
      8933.5000         2.0254        -999.25        10.3271        -999.25          0.045        79.4556         1.5908        -999.25        -999.25          2.419        -999.25       -55.8834      -16.09381      0.4966495
      8934.0000         2.0193        -999.25        10.2876        -999.25          0.037        70.4059         1.6026        -999.25        -999.25         2.4259        -999.25        -54.141      -14.36205      0.5584983
      8934.5000         2.0272        -999.25        10.2552        -999.25         0.0895        82.1903          1.614        -999.25        -999.25         2.4484        -999.25       -52.9495      -13.18119      0.6006719
      8935.0000         2.0229        -999.25        10.2618        -999.25         0.0406        92.1617         1.5989        -999.25        -999.25         2.4612        -999.25       -52.1288      -12.37112      0.6296028
      8935.5000         1.9921        -999.25         10.277        -999.25         0.0349        89.4813         1.5751        -999.25        -999.25         2.4661        -999.25       -51.5606      -11.81356      0.6495158
      8936.0000         1.9476        -999.25           10.3        -999.25         0.0409        84.8621         1.5402        -999.25        -999.25         2.4615        -999.25       -51.1793      -11.44289      0.6627541
      8936.5000         1.8965        -999.25        10.3171        -999.25         0.0381        86.5082          1.528        -999.25        -999.25         2.4429        -999.25       -51.2599      -11.53412      0.6594957
