#------------------------------------------------------------------------------
# Created by    : vladimir.rabinovich
# Created on    : 09/19/2023 17:21:54
#------------------------------------------------------------------------------
~Version Information Section
VERS.           2.0     :   CWLS log ASCII Standard - VERSION 2.0
WRAP.           NO      :   One line per depth step
~Well Information Section
#MNEM       .UNIT                                         VALUE :DESCRIPTION
#------------------------------------------------------------------------------
STRT        .FT                                             404 :START DEPTH
STOP        .FT                                            9564 :STOP DEPTH
STEP        .FT                                             0.5 :STEP      
NULL        .                                           -999.25 :NULL      
COMP        .                               AMOCO PRODUCTION CO :COMPANY   
WELL        .                               OCS G03108 ST00BP01 :WELL      
FLD         .                                           WILDCAT :FIELD     
LOC         .                                                   :LOCATION  
CNTY        .                      MATAGORDA ISLAND LARGE BLOCK :LOCATION  
STAT        .                                             TEXAS :STATE     
CTRY        .                                     UNITED STATES :COUNTRY   
SRVC        .                                                   :SERVICE COMPANY
DATE        .                             9/13/2023 11:12:09 AM :LOG DATE  
API         .                                    42703400030000 :API NUMBER
UWI         .                                    42703400030000 :UNIQUE WELL ID
XCOORD      .                                  482242.907024332 :SURFACE X 
YCOORD      .                                  10146341.7942038 :SURFACE Y 
LAT         .                                         27.913374 :LATITUDE  
LON         .                                         -96.58609 :LONGITUDE 
ELEV        .FT                                              95 :ELEVATION VALUE
ELEV_TYPE   .                                                KB :ELEVATION REFERENCE TYPE
~Curve Information Section
#MNEM       .UNIT                                      API CODE :CURVE DESCRIPTION
#------------------------------------------------------------------------------
DEPT        .FT                                                 :DEPTH     
CALI        .IN                                                 :          
CILD        .MMHO                                               :          
GR          .GAPI                                               :          
GR_NORM     .GAPI                                               :GammaRay Normalized
ILD         .OHMM                                               :          
RHOB        .G/C3                                               :          
SFL         .OHMM                                               :          
SP          .MV                                                 :          
SP_NORM     .MV                                                 :SP Normalized
VSH_GR      .V/V                                                :Volume of Shale from GR
VSH_SP      .V/V                                                :Volume of Shale from SP
~A        DEPTH           CALI           CILD             GR        GR_NORM            ILD           RHOB            SFL             SP        SP_NORM         VSH_GR         VSH_SP
# ...
      2789.0000        -999.25        -999.25        39.1968       42.24413         0.2792        -999.25         0.9506       -85.1282       -43.4378      0.1966836     0.07915997
      2789.5000        -999.25        -999.25        39.0757       42.08342         0.2841        -999.25         0.9483       -84.0288       -42.3571      0.1932643      0.1031755
      2790.0000        -999.25        -999.25        40.0942       43.44638         0.2965        -999.25         0.9576        -81.817        -40.164      0.2222633      0.1519111
      2790.5000        -999.25        -999.25        43.7267       48.30429         0.3149        -999.25         0.9273       -77.9183        -36.284      0.3256233      0.2381333
      2791.0000        -999.25        -999.25        48.1841       54.26512         0.3388        -999.25         0.8519       -73.5359       -31.9204      0.4524494      0.3351022
      2791.5000        -999.25        -999.25        53.7165       61.66325         0.3632        -999.25         0.8699        -65.141       -23.5442      0.6098564        0.52124
      2792.0000        -999.25        -999.25        57.5889        66.8419         0.3872        -999.25         0.9276       -61.9174       -20.3393      0.7200405        0.59246
      2792.5000        -999.25        -999.25        59.5552        69.4721         0.4103        -999.25         0.8748       -61.5521       -19.9927      0.7760021      0.6001622
      2793.0000        -999.25        -999.25        59.8158       69.82185          0.432        -999.25         0.7784       -65.5811       -24.0405      0.7834437      0.5102111
      2793.5000        -999.25        -999.25         52.389       66.58862         0.4441        -999.25         0.8577       -70.6735       -29.1516      0.7146514      0.3966311
      2794.0000        -999.25        -999.25        43.8542       56.93051         0.4318        -999.25         0.9432       -75.8284       -34.3252      0.5091597      0.2816623
      2794.5000        -999.25        -999.25        33.6631       45.39791         0.4211        -999.25         1.0099       -79.4933       -38.0088      0.2637854      0.1998044
      2795.0000        -999.25        -999.25        31.7094       43.18787         0.4141        -999.25         1.0317       -82.0863       -40.6206      0.2167632      0.1417644
      2795.5000        -999.25        -999.25        30.1576       41.43266         0.4134        -999.25         1.0406       -82.9994       -41.5524      0.1794184      0.1210578
      2796.0000        -999.25        -999.25        29.1667       40.31225         0.4149        -999.25          1.071       -82.4044       -40.9761      0.1555797      0.1338644
      2796.5000        -999.25        -999.25        29.6357       40.84404         0.4176        -999.25         1.1309       -81.4445       -40.0349      0.1668945        0.15478
      2797.0000        -999.25        -999.25        30.7322       42.08601         0.4211        -999.25         1.0689       -80.4851       -39.0943      0.1933194      0.1756822
      2797.5000        -999.25        -999.25         30.809       42.17395         0.4262        -999.25         0.9919       -79.5558       -38.1837      0.1951904      0.1959178
      2798.0000        -999.25        -999.25        29.9888       41.24672         0.4327        -999.25         1.0422       -79.0613       -37.7079      0.1754621      0.2064911
      2798.5000        -999.25        -999.25        28.3607       39.40527         0.4407        -999.25         0.9591       -79.0922       -37.7575      0.1362824      0.2053889
      2799.0000        -999.25        -999.25        26.9883        37.8531         0.4477        -999.25         0.8726       -79.3364       -38.0205      0.1032574      0.1995444
      2799.5000        -999.25        -999.25        26.0479       36.78984         0.4316        -999.25         0.8107       -79.5005       -38.2033     0.08063482      0.1954822
      2800.0000        -999.25        -999.25        25.9458        36.6753         0.4125        -999.25         0.7687       -79.4395        -38.161     0.07819796      0.1964222
      2800.5000        -999.25        -999.25        27.0339       37.90776          0.392        -999.25         0.7649       -79.0939       -37.8341      0.1044205      0.2036867
      2801.0000        -999.25        -999.25        27.9542       38.95032         0.3745        -999.25         0.7959       -78.5658       -37.3248      0.1266025      0.2150045
      2801.5000        -999.25        -999.25        29.0863       40.23257         0.3648        -999.25         0.8266       -77.8208       -36.5985      0.1538845      0.2311445
      2802.0000        -999.25        -999.25        30.1744       41.46503         0.3661        -999.25         0.8318       -77.0605       -35.8569       0.180107      0.2476245
      2802.5000        -999.25        -999.25         30.313       41.62291         0.3769        -999.25          0.795       -76.3386       -35.1537      0.1834662      0.2632511
      2803.0000        -999.25        -999.25        29.9962       41.26539         0.3892        -999.25         0.7938       -75.5327       -34.3666      0.1758594      0.2807422
      2803.5000        -999.25        -999.25        29.7763       41.01754         0.4024        -999.25         0.8394       -74.7643       -33.6169       0.170586      0.2974022
      2804.0000        -999.25        -999.25        30.6038       41.95507          0.415        -999.25         0.8557       -74.0583       -32.9296      0.1905334      0.3126756
      2804.5000        -999.25        -999.25        32.1788       43.73868         0.4257        -999.25         0.7952       -73.4077       -32.2977      0.2284826      0.3267178
      2805.0000        -999.25        -999.25        33.7825       45.55466         0.4334        -999.25         0.8088       -73.3171       -32.2259      0.2671205      0.3283134
      2805.5000        -999.25        -999.25         34.874       46.79097         0.4392        -999.25         0.8751       -74.2314       -33.1589      0.2934249        0.30758
      2806.0000        -999.25        -999.25        33.6088       45.36012         0.4437        -999.25         0.8716       -75.2596       -34.2058      0.2629813      0.2843156
      2806.5000        -999.25        -999.25        32.0432       43.58929         0.4456        -999.25         0.7894       -76.1802       -35.1451      0.2253041      0.2634422
      2807.0000        -999.25        -999.25        30.3582       41.68334         0.4379        -999.25         0.7372       -76.8833        -35.867      0.1847519         0.2474
      2807.5000        -999.25        -999.25        28.9195       40.05613         0.4286        -999.25         0.7663       -77.4498       -36.4522      0.1501305      0.2343955
      2808.0000        -999.25        -999.25        27.6782       38.65233         0.4189        -999.25         0.8117       -77.8633       -36.8844      0.1202623      0.2247911
      2808.5000        -999.25        -999.25        27.1632       38.07051         0.4114        -999.25         0.8126       -78.1479       -37.1877      0.1078831      0.2180512
      2809.0000        -999.25        -999.25         27.293       38.21843         0.4045        -999.25         0.7963       -78.4124        -37.471      0.1110303      0.2117555
      2809.5000        -999.25        -999.25        27.6723       38.64871         0.4016        -999.25          0.775       -78.8643       -37.9416      0.1201853      0.2012978
      2810.0000        -999.25        -999.25        28.1065       39.14112         0.4002        -999.25         0.7643       -79.3649       -38.4609      0.1306622      0.1897578
      2810.5000        -999.25        -999.25        28.4131       39.48925         0.4005        -999.25         0.7938       -79.8464       -38.9611      0.1380692      0.1786422
      2811.0000        -999.25        -999.25        28.4707       39.55545         0.4026        -999.25         0.8192       -80.2288       -39.3622      0.1394777      0.1697288
