#------------------------------------------------------------------------------
# Created by    : vladimir.rabinovich
# Created on    : 09/19/2023 17:21:34
#------------------------------------------------------------------------------
~Version Information Section
VERS.           2.0     :   CWLS log ASCII Standard - VERSION 2.0
WRAP.           NO      :   One line per depth step
~Well Information Section
#MNEM       .UNIT                                         VALUE :DESCRIPTION
#------------------------------------------------------------------------------
STRT        .FT                                            4500 :START DEPTH
STOP        .FT                                            8225 :STOP DEPTH
STEP        .FT                                             0.5 :STEP      
NULL        .                                           -999.25 :NULL      
COMP        .                             WALTER OIL & GAS CORP :COMPANY   
WELL        .                               OCS G08132 ST00BP00 :WELL      
FLD         .                              GALVESTON BLOCK 0385 :FIELD     
LOC         .                                                   :LOCATION  
CNTY        .                             GALVESTON LARGE BLOCK :LOCATION  
STAT        .                                             TEXAS :STATE     
CTRY        .                                     UNITED STATES :COUNTRY   
SRVC        .                                                   :SERVICE COMPANY
DATE        .                             9/13/2023 11:19:34 AM :LOG DATE  
API         .                                    42706402490000 :API NUMBER
UWI         .                                    42706402490000 :UNIQUE WELL ID
XCOORD      .                                  1009947.10754335 :SURFACE X 
YCOORD      .                                  10405011.8756564 :SURFACE Y 
LAT         .                                         28.657556 :LATITUDE  
LON         .                                        -94.966279 :LONGITUDE 
ELEV        .FT                                             101 :ELEVATION VALUE
ELEV_TYPE   .                                                KB :ELEVATION REFERENCE TYPE
~Curve Information Section
#MNEM       .UNIT                                      API CODE :CURVE DESCRIPTION
#------------------------------------------------------------------------------
DEPT        .FT                                                 :DEPTH     
CALI        .IN                                                 :          
DPHI        .%                                                  :          
DRHO        .G/C3                                               :          
GR          .GAPI                                               :          
GR_NORM     .GAPI                                               :GammaRay Normalized
ILD         .OHMM                                               :          
ILM         .OHMM                                               :          
NPHI        .%                                                  :          
SFL         .OHMM                                               :          
SP          .MV                                                 :          
SP_NORM     .MV                                                 :SP Normalized
VSH_GR      .V/V                                                :Volume of Shale from GR
VSH_SP      .V/V                                                :Volume of Shale from SP
~A        DEPTH           CALI           DPHI           DRHO             GR        GR_NORM            ILD            ILM           NPHI            SFL             SP        SP_NORM         VSH_GR         VSH_SP
# ...
      6058.0000        11.1969        17.8828        -0.0126        65.7211       58.18171         0.7891         0.8141        25.0968         1.1217       -83.3483      -14.72714       0.535781      0.7545477
      6058.5000        11.1791        18.6261        -0.0117        66.8247       59.33129         0.8031          0.824        26.8475         1.0166       -83.5056      -14.91723      0.5602401      0.7513795
      6059.0000        11.1182        19.4509         -0.012        68.1003       60.66004         0.8019         0.8234        28.0976         0.9133       -83.4768      -14.89019      0.5885115      0.7518301
      6059.5000        11.0272        19.6496        -0.0124        70.0112       62.65056         0.7918         0.8136        28.8571         0.8366       -83.3583      -14.75851       0.630863      0.7540248
      6060.0000          10.96        19.7803        -0.0141        71.9774       64.69868         0.7668         0.7972        29.3466         0.7779        -83.519      -14.95256      0.6744401      0.7507906
      6060.5000        10.8946        19.7526        -0.0166        73.5682       66.35577         0.7397         0.7692         29.567         0.7584       -83.8721      -15.37109      0.7096971      0.7438152
      6061.0000        10.8396        19.8385        -0.0189        73.2329        66.0065         0.7029         0.7369         29.884         0.7718       -84.7566      -16.40957       0.702266      0.7265071
      6061.5000        10.7847        20.5882        -0.0211        70.5713       63.23399         0.6672          0.715        30.2991         0.7982       -85.9017      -17.75209      0.6432765      0.7041318
      6062.0000        10.7043        22.1395        -0.0232        67.4349       59.96691         0.6327         0.6971        30.4521         0.8201       -87.6682      -19.81957      0.5737641      0.6696738
      6062.5000        10.6183        23.3669        -0.0244        65.1072       57.54222         0.6026         0.6796        30.5412         0.8328       -90.3074      -22.90521       0.522175      0.6182464
      6063.0000        10.5322        24.2796        -0.0254         62.222       54.53681         0.5753         0.6598        30.5798         0.8299       -92.9891      -26.04043        0.45823      0.5659929
      6063.5000        10.4458        24.9084        -0.0268        59.7762        51.9891         0.5517         0.6404        30.6425         0.8133       -95.2919       -28.7336      0.4040233      0.5211067
      6064.0000        10.3775        25.2423        -0.0283        58.0511       50.19212         0.5333         0.6199        30.7391         0.7999       -97.0038      -30.73738      0.3657899      0.4877103
      6064.5000        10.3722        25.4744        -0.0291        56.8627        48.9542         0.5183         0.6013        30.8721         0.7909       -97.8688      -31.75311      0.3394512      0.4707815
      6065.0000        10.4253        25.5363        -0.0298        56.3199       48.38879         0.5117         0.5849        30.3164         0.7841       -98.2615      -32.21783       0.327421      0.4630362
      6065.5000        10.4949        25.4268         -0.029        56.3417        48.4115         0.5075         0.5791        29.4434         0.7774       -98.6071       -32.6276      0.3279042      0.4562066
      6066.0000        10.5217        24.9234        -0.0276        56.4499        48.5242         0.5114         0.5737        28.9052           0.77       -98.4449      -32.44493      0.3303022      0.4592511
      6066.5000        10.5016        24.3037        -0.0255        56.5545       48.63316         0.5162         0.5791        29.5645         0.7627       -98.2555      -32.23054      0.3326205      0.4628244
      6067.0000        10.4356        23.6163        -0.0223        56.6655       48.74879         0.5237         0.5846        30.3909         0.7555       -97.7094      -31.59999      0.3350806      0.4733336
      6067.5000        10.3326        23.1371        -0.0195        56.7503       48.83712         0.5314         0.5958        31.1391         0.7486       -96.9058      -30.66902      0.3369601      0.4888496
      6068.0000        10.1973        22.7468        -0.0176        56.5853       48.66525         0.5454         0.6087         30.972         0.7418       -96.0326      -29.65686      0.3333031       0.505719
      6068.5000        10.1418        22.5961        -0.0157        56.1854       48.24868         0.5617         0.6225        30.6608         0.7359       -94.8223      -28.25142        0.32444       0.529143
      6069.0000        10.1778        22.6147        -0.0151        55.5595       47.59671         0.5765         0.6379        30.3954         0.7309       -93.6107      -26.84445      0.3105682      0.5525925
      6069.5000        10.2705        22.5738         -0.015        55.0612       47.07764         0.5935         0.6537        30.2332         0.7262       -92.3175      -25.34228      0.2995243      0.5776287
      6070.0000        10.3889        22.4225         -0.015        55.1821       47.20358         0.6119         0.6668        30.5512         0.7239       -90.9364      -23.73757      0.3022038      0.6043738
      6070.5000         10.421        22.2191        -0.0149        56.4214       48.49451         0.6284         0.6803        31.0765         0.7296       -89.5553      -22.13285      0.3296705      0.6311191
      6071.0000        10.3539        21.6512        -0.0149        58.5106       50.67077         0.6432          0.693        31.2472         0.7513       -88.0286      -20.35828      0.3759738      0.6606954
      6071.5000        10.2675        21.1242        -0.0148        60.9263       53.18712         0.6576         0.7048        31.5775         0.7954       -86.4127      -18.47962      0.4295132      0.6920063
      6072.0000        10.1732        20.7036        -0.0145        62.5811       54.91087         0.6681         0.7169        32.3903         0.8336       -85.2212      -17.09611      0.4661887      0.7150648
      6072.5000        10.0987        20.7757        -0.0137        63.3865       55.74983         0.6787         0.7189        33.3752         0.8625       -84.3728      -16.11287       0.484039      0.7314521
      6073.0000        10.0385        20.9073        -0.0129        63.4113       55.77566         0.6811         0.7206        33.3046         0.8725       -84.2147      -15.93499      0.4845885      0.7344168
      6073.5000         9.9984        20.6834        -0.0118        62.8008       55.13972         0.6812         0.7181        32.8275         0.8573       -84.0886      -15.79444       0.471058      0.7367593
      6074.0000          9.982        20.3118        -0.0092        61.8089       54.10649         0.6749         0.7111        32.2452         0.8357       -83.3141      -14.89743      0.4490744      0.7517095
      6074.5000         9.9656        19.6027        -0.0065        65.7726       58.23535           0.66         0.7043        32.6014         0.8027       -81.4132      -12.68628      0.5369223       0.788562
      6075.0000         9.9555        18.9232        -0.0041        70.0112       62.65056         0.6454         0.6919        35.0331         0.7661       -78.7363      -9.569797       0.630863      0.8405034
      6075.5000          9.947        18.4049        -0.0024        73.8683       66.66837         0.6308         0.6787        39.1166         0.7268       -76.4161      -6.869467      0.7163484      0.8855089
      6076.0000         9.9384        17.8865        -0.0007        77.7052       70.66514         0.6159         0.6655        41.9862         0.6895       -74.5793      -4.733103      0.8013859      0.9211149
      6076.5000         9.9384        17.8033        -0.0016        81.8184       74.94972         0.6013         0.6487        44.0505         0.6541       -73.0299      -2.932039      0.8925473      0.9511327
