#------------------------------------------------------------------------------
# Created by    : vladimir.rabinovich
# Created on    : 09/19/2023 17:22:28
#------------------------------------------------------------------------------
~Version Information Section
VERS.           2.0     :   CWLS log ASCII Standard - VERSION 2.0
WRAP.           NO      :   One line per depth step
~Well Information Section
#MNEM       .UNIT                                         VALUE :DESCRIPTION
#------------------------------------------------------------------------------
STRT        .FT                                            2000 :START DEPTH
STOP        .FT                                            7372 :STOP DEPTH
STEP        .FT                                             0.5 :STEP      
NULL        .                                           -999.25 :NULL      
COMP        .                       CORPUS CHRISTI OIL & GAS CO :COMPANY   
WELL        .                                ST TR 00596-L SE/4 :WELL      
FLD         .                                           WILDCAT :FIELD     
LOC         .                                                   :LOCATION  
CNTY        .                      MATAGORDA ISLAND LARGE BLOCK :LOCATION  
STAT        .                                             TEXAS :STATE     
CTRY        .                                     UNITED STATES :COUNTRY   
SRVC        .                                                   :SERVICE COMPANY
DATE        .                             9/13/2023 11:19:13 AM :LOG DATE  
API         .                                    42703300520000 :API NUMBER
UWI         .                                    42703300520000 :UNIQUE WELL ID
XCOORD      .                                  480173.649028781 :SURFACE X 
YCOORD      .                                  10231220.1013933 :SURFACE Y 
LAT         .                                        28.1462983 :LATITUDE  
LON         .                                       -96.6002451 :LONGITUDE 
ELEV        .FT                                              82 :ELEVATION VALUE
ELEV_TYPE   .                                                GL :ELEVATION REFERENCE TYPE
~Curve Information Section
#MNEM       .UNIT                                      API CODE :CURVE DESCRIPTION
#------------------------------------------------------------------------------
DEPT        .FT                                                 :DEPTH     
CILD        .MMHO                                               :          
ILD         .OHMM                                               :          
SN          .OHMM                                               :          
SP          .MV                                                 :          
SP_NORM     .MV                                                 :SP Normalized
VSH_SP      .V/V                                                :Volume of Shale from SP
~A        DEPTH           CILD            ILD             SN             SP        SP_NORM         VSH_SP
# ...
      4128.0000       1069.425         0.9351         2.6519       -69.2237      -42.71767      0.2361986
      4128.5000       1018.082         0.9822         2.6718       -68.8048      -42.29877      0.2442543
      4129.0000       966.7389         1.0344          2.572       -68.2244      -41.71838      0.2554159
      4129.5000       937.9089         1.0662         2.4921       -67.2246      -40.71857      0.2746428
      4130.0000       1020.045         0.9803         1.9731       -70.8256      -44.31957      0.2053928
      4130.5000       1102.181         0.9073         1.7335       -76.8269      -50.32087     0.08998328
      4131.0000       1184.317         0.8444         1.5937       -77.2154      -50.70937     0.08251205
      4131.5000       1266.452         0.7896         1.6536       -76.6157      -50.10967     0.09404476
      4132.0000       1369.103         0.7304         1.7334       -75.8159      -49.30988      0.1094255
      4132.5000       1365.111         0.7325         1.7853       -75.4162      -48.91017      0.1171121
      4133.0000       1352.273         0.7395         1.8131       -75.0164      -48.51038      0.1248005
      4133.5000       1349.162         0.7412          1.853       -74.8167      -48.31068      0.1286408
      4134.0000       1299.578         0.7695         1.9527       -74.6169      -48.11087      0.1324833
      4134.5000       1249.994            0.8         1.9926       -76.2303      -49.72427      0.1014563
      4135.0000        1200.41          0.833         2.0125        -77.831      -51.32497     0.07067358
      4135.5000       1133.645         0.8821         1.9474       -78.8316      -52.32557     0.05143136
      4136.0000        1145.62         0.8729         1.8196       -79.6322      -53.12617      0.0360351
      4136.5000       1171.579         0.8535         1.8236       -79.6327      -53.12667     0.03602556
      4137.0000       1197.538          0.835         1.8236       -79.2809      -52.77487     0.04279093
      4137.5000       1229.492         0.8133         1.8356       -79.0334      -52.52737      0.0475505
      4138.0000       1229.492         0.8133         1.8396       -77.3609      -50.85487     0.07971397
      4138.5000        1205.55         0.8295         1.8475       -75.6884      -49.18237      0.1118774
      4139.0000       1107.056         0.9033         1.8515       -74.0158      -47.50977      0.1440428
      4139.5000       1008.563         0.9915         1.8515       -72.3433      -45.83727      0.1762063
      4140.0000       866.2703         1.1544         1.8515       -70.6708      -44.16477      0.2083698
      4140.5000       862.2783         1.1597         1.8555       -70.2344      -43.72837      0.2167621
      4141.0000       866.2802         1.1544         1.4048       -72.0044      -45.49837      0.1827236
      4141.5000       971.9543         1.0289         1.3203       -73.7745      -47.26847      0.1486832
      4142.0000       1077.628          0.928         1.2357       -75.5446      -49.03857      0.1146428
      4142.5000       1183.302         0.8451         1.1512       -77.3147      -50.80867      0.0806025
      4143.0000       1288.977         0.7758         1.0666       -79.0848      -52.57877     0.04656205
      4143.5000       2036.796          0.491         0.9971       -80.8549      -54.34887     0.01252174
      4144.0000       2124.733         0.4706         0.9759        -82.625      -56.11897              0
      4144.5000        2212.67         0.4519         0.9547       -85.8411      -59.33508              0
      4145.0000       2300.607         0.4347         0.9335        -87.442      -60.93597              0
      4145.5000       2388.544         0.4187         0.9123       -87.2424      -60.73637              0
      4146.0000       2476.481         0.4038         0.8911       -86.7186      -60.21257              0
      4146.5000       2607.719         0.2948         0.8699       -86.4431      -59.93707              0
      4147.0000       2603.728         0.2748         0.8494       -85.4434      -58.93737              0
      4147.5000        2595.66         0.2747         0.8414       -85.0437      -58.53767              0
      4148.0000       2591.771         0.2747         0.8414       -84.6482      -58.14217              0
      4148.5000       2556.603         0.2546         0.8374       -84.0444      -57.53838              0
      4149.0000       2521.434         0.2546         0.8373        -80.244      -53.73798     0.02426969
      4149.5000       2486.265         0.2545         0.8413       -80.2444      -53.73837     0.02426206
      4150.0000       2451.096         0.2545         0.8453       -81.0395      -54.53347    0.008971727
      4150.5000       2415.927         0.2744         0.8493       -81.4456      -54.93958    0.001162015
      4151.0000       2400.215         0.2744         0.8493       -81.9827      -55.47667              0
      4151.5000       2427.493         0.2743           0.86        -83.447      -56.94097              0
      4152.0000       2454.771         0.2743         0.8692       -83.8573      -57.35127              0
      4152.5000       2482.048         0.2742         0.8732       -86.2486      -59.74257              0
      4153.0000       2509.326         0.2742         0.8772       -87.0493      -60.54327              0
      4153.5000       2536.603         0.2741         0.8812       -86.8497      -60.34367              0
      4154.0000       2563.881         0.2741         0.8891       -86.6157      -60.10967              0
      4154.5000       2599.893          0.274         0.8891       -86.3816      -59.87557              0
      4155.0000       2586.146          0.274         0.8931       -86.1475      -59.64147              0
      4155.5000       2567.993         0.2739         0.9011       -85.6278      -59.12177              0
      4156.0000       2580.782         0.2938         0.8971       -86.6278      -60.12177              0
      4156.5000       2593.587         0.2938         0.8891       -86.8748      -60.36877              0
      4157.0000       2606.393         0.2937         0.8819       -87.1218      -60.61578              0
      4157.5000       2619.198         0.2937         0.8747       -87.3687      -60.86267              0
      4158.0000       2632.003         0.2936         0.8675       -87.4288      -60.92278              0
      4158.5000       2644.808         0.2936         0.8651        -87.992      -61.48597              0
      4159.0000       2659.862         0.2935         0.8529       -88.5552      -62.04917              0
      4159.5000       2656.451         0.2735         0.8252       -89.2298      -62.72377              0
      4160.0000        2655.88         0.2735         0.8252       -89.4298      -62.92377              0
      4160.5000       2608.454         0.2934         0.8291         -89.83      -63.32397              0
      4161.0000       2561.029         0.2933         0.8571       -90.0303      -63.52427              0
      4161.5000       2513.604         0.2933          0.881       -90.0308      -63.52477              0
      4162.0000       2466.178         0.2733          0.889       -88.2308      -61.72477              0
      4162.5000       2418.752         0.2732          0.901       -84.6533      -58.14727              0
      4163.0000        2356.55         0.2732         0.9089       -81.0758      -54.56977    0.008273638
      4163.5000       2360.542         0.2532         0.9369       -76.6318      -50.12577     0.09373518
      4164.0000       2376.828         0.2531         0.9448       -76.4318      -49.92577     0.09758127
      4164.5000       2393.114         0.2531         0.9574       -76.2321      -49.72607      0.1014216
      4165.0000       2409.399         0.2331         0.9728       -76.6571      -50.15107     0.09324866
      4165.5000       2425.685          0.253         0.9448       -77.0577      -50.55167     0.08554474
