#------------------------------------------------------------------------------
# Created by    : vladimir.rabinovich
# Created on    : 09/19/2023 17:20:57
#------------------------------------------------------------------------------
~Version Information Section
VERS.           2.0     :   CWLS log ASCII Standard - VERSION 2.0
WRAP.           NO      :   One line per depth step
~Well Information Section
#MNEM       .UNIT                                         VALUE :DESCRIPTION
#------------------------------------------------------------------------------
STRT        .FT                                             598 :START DEPTH
STOP        .FT                                           10008 :STOP DEPTH
STEP        .FT                                             0.5 :STEP      
NULL        .                                           -999.25 :NULL      
COMP        .                                        SUN OIL CO :COMPANY   
WELL        .                               OCS G01712 ST00BP00 :WELL      
FLD         .                                           WILDCAT :FIELD     
LOC         .                                                   :LOCATION  
CNTY        .                                BRAZOS LARGE BLOCK :LOCATION  
STAT        .                                             TEXAS :STATE     
CTRY        .                                     UNITED STATES :COUNTRY   
SRVC        .                                                   :SERVICE COMPANY
DATE        .                             9/13/2023 11:18:52 AM :LOG DATE  
API         .                                    42704300120000 :API NUMBER
UWI         .                                    42704300120000 :UNIQUE WELL ID
XCOORD      .                                   818594.06951761 :SURFACE X 
YCOORD      .                                  10373365.4427938 :SURFACE Y 
LAT         .                                         28.560597 :LATITUDE  
LON         .                                        -95.560517 :LONGITUDE 
ELEV        .FT                                              89 :ELEVATION VALUE
ELEV_TYPE   .                                                KB :ELEVATION REFERENCE TYPE
~Curve Information Section
#MNEM       .UNIT                                      API CODE :CURVE DESCRIPTION
#------------------------------------------------------------------------------
DEPT        .FT                                                 :DEPTH     
ASN         .OHMM                                               :          
CALI        .IN                                                 :          
CILD        .MMHO                                               :          
ILD         .OHMM                                               :          
SP          .MV                                                 :          
SP_NORM     .MV                                                 :SP Normalized
VSH_SP      .V/V                                                :Volume of Shale from SP
~A        DEPTH            ASN           CALI           CILD            ILD             SP        SP_NORM         VSH_SP
# ...
      6226.0000        -999.25        12.2056       1372.836        -999.25       -45.4865     -0.2484016              1
      6226.5000        -999.25        12.2029       1380.789        -999.25       -45.4771     -0.2390022              1
      6227.0000        -999.25        12.2004       1383.609        -999.25       -45.4677     -0.2296028              1
      6227.5000        -999.25        12.1981       1386.434        -999.25       -45.4584     -0.2203026              1
      6228.0000        -999.25        12.1958       1382.889        -999.25        -45.449     -0.2109032              1
      6228.5000        -999.25        12.1884       1375.223        -999.25       -45.4396     -0.2015038              1
      6229.0000        -999.25        12.1802       1367.563        -999.25       -45.4302     -0.1921005              1
      6229.5000        -999.25        12.1791       1359.895        -999.25       -45.4209     -0.1828003              1
      6230.0000        -999.25        12.1802       1352.234        -999.25       -45.4116     -0.1735001              1
      6230.5000        -999.25        12.1776       1344.566        -999.25       -45.4022     -0.1641006              1
      6231.0000        -999.25        12.1717       1331.916        -999.25       -45.3928     -0.1547012              1
      6231.5000        -999.25        12.1667       1318.844        -999.25       -45.3834     -0.1453018              1
      6232.0000        -999.25        12.1642       1305.771        -999.25        -45.377     -0.1389008              1
      6232.5000        -999.25        12.1627       1292.699        -999.25       -45.3754     -0.1373024              1
      6233.0000        -999.25        12.1706       1286.125        -999.25       -45.3737      -0.135601              1
      6233.5000        -999.25          12.18       1281.248        -999.25       -45.3719     -0.1338005              1
      6234.0000        -999.25        12.1904       1276.371        -999.25       -45.3702     -0.1185722              1
      6234.5000        -999.25        12.1961       1271.492        -999.25       -45.3685    -0.07862091              1
      6235.0000        -999.25        12.2063       1266.615        -999.25       -45.3668    -0.03866577              1
      6235.5000        -999.25        12.2097       1261.738        -999.25       -45.3651    0.001285553              1
      6236.0000        -999.25        12.2087       1257.846        -999.25       -45.3635      0.0411377              1
      6236.5000        -999.25        12.2045       1259.795        -999.25       -45.3618     0.08108902              1
      6237.0000        -999.25        12.2004       1261.746        -999.25         -45.36      0.1211433              1
      6237.5000        -999.25        12.2048       1263.695        -999.25       -45.3583      0.1610947              1
      6238.0000        -999.25        12.2112       1265.646        -999.25       -45.3566       0.201046              1
      6238.5000        -999.25        12.2186       1267.596        -999.25       -45.3549      0.2410011              1
      6239.0000        -999.25        12.2268       1269.545        -999.25       -45.3533      0.2808533              1
      6239.5000        -999.25        12.2318       1271.496        -999.25       -45.3516      0.3208046              1
      6240.0000        -999.25        12.2294       1273.445        -999.25       -45.3603      0.3503609              1
      6240.5000        -999.25        12.2271       1277.334        -999.25       -45.3795      0.3694077              1
      6241.0000        -999.25        12.2308       1283.553        -999.25       -45.3987      0.3884621              1
      6241.5000        -999.25        12.2349       1289.771        -999.25       -45.4178      0.4076157              1
      6242.0000        -999.25        12.2312       1295.984        -999.25       -45.4371      0.4265709              1
      6242.5000        -999.25        12.2168       1302.205        -999.25       -45.4563      0.4456215              1
      6243.0000        -999.25        12.2072       1308.424        -999.25       -45.4755      0.4646759              1
      6243.5000        -999.25        12.1997       1314.645        -999.25       -45.4947      0.4837265              1
      6244.0000        -999.25        12.1923       1320.857        -999.25       -45.5139      0.5027771              1
      6244.5000        -999.25        12.1825       1327.076        -999.25       -45.5331      0.5218315              1
      6245.0000        -999.25        12.1593       1333.295        -999.25       -45.5523      0.5408859              1
      6245.5000        -999.25        12.1335       1339.516        -999.25       -45.5715      0.5599365              1
      6246.0000        -999.25        12.0985       1347.574        -999.25       -45.5907      0.5789909              1
      6246.5000        -999.25        12.0621       1355.807        -999.25       -45.6093      0.5986443              1
      6247.0000        -999.25        12.0036       1364.033        -999.25       -45.6274      0.6187935              1
      6247.5000        -999.25         11.947       1372.258        -999.25       -45.6455      0.6389465              1
      6248.0000        -999.25        11.9053       1380.484        -999.25       -45.6636      0.6590996              1
      6248.5000        -999.25         11.853       1388.711        -999.25       -45.6818      0.6791496              1
      6249.0000        -999.25        11.8613       1394.092        -999.25          -45.7      0.6992035              1
      6249.5000        -999.25        12.0089       1396.811        -999.25       -45.7181      0.7193565              1
      6250.0000        -999.25        12.1044       1399.529        -999.25       -45.7362      0.7395096              1
      6250.5000        -999.25        12.1571       1402.246        -999.25       -45.7543      0.7596626              1
      6251.0000        -999.25        12.1491       1404.965        -999.25       -45.7725      0.7797165              1
      6251.5000        -999.25        12.1389        1405.99        -999.25       -45.7906      0.7998695              1
      6252.0000        -999.25        12.1267       1400.057        -999.25       -45.8088      0.8199196              1
      6252.5000        -999.25        12.1162       1394.129        -999.25       -45.8268      0.8401718              1
      6253.0000        -999.25        12.1213       1388.195        -999.25        -45.845      0.8602257              1
      6253.5000        -999.25        12.1264       1382.262        -999.25       -45.9364      0.8070755              1
      6254.0000        -999.25        12.1313       1376.328        -999.25       -46.0349        0.74683              1
      6254.5000        -999.25        12.1361       1370.395        -999.25       -46.1334      0.6865845              1
      6255.0000        -999.25        12.1409        1364.58        -999.25       -46.2319      0.6263351              1
      6255.5000        -999.25        12.1482        1359.51        -999.25       -46.3304      0.5660896              1
      6256.0000        -999.25        12.1612       1354.445        -999.25       -46.4289      0.5058403              1
      6256.5000        -999.25        12.1916       1349.381        -999.25       -46.5273      0.4456902              1
      6257.0000        -999.25         12.244       1344.313        -999.25       -46.6259      0.3853455              1
      6257.5000        -999.25        12.3212       1339.248        -999.25       -46.7715      0.2779999              1
      6258.0000        -999.25        12.3637       1334.184        -999.25       -46.9279      0.1598511              1
      6258.5000        -999.25        12.4062       1329.113        -999.25       -47.0845     0.04150391              1
      6259.0000        -999.25        12.4035       1324.051        -999.25       -47.2411    -0.07684326              1
