#------------------------------------------------------------------------------
# Created by    : vladimir.rabinovich
# Created on    : 09/19/2023 17:21:54
#------------------------------------------------------------------------------
~Version Information Section
VERS.           2.0     :   CWLS log ASCII Standard - VERSION 2.0
WRAP.           NO      :   One line per depth step
~Well Information Section
#MNEM       .UNIT                                         VALUE :DESCRIPTION
#------------------------------------------------------------------------------
STRT        .FT                                             404 :START DEPTH
STOP        .FT                                            9564 :STOP DEPTH
STEP        .FT                                             0.5 :STEP      
NULL        .                                           -999.25 :NULL      
COMP        .                               AMOCO PRODUCTION CO :COMPANY   
WELL        .                               OCS G03108 ST00BP01 :WELL      
FLD         .                                           WILDCAT :FIELD     
LOC         .                                                   :LOCATION  
CNTY        .                      MATAGORDA ISLAND LARGE BLOCK :LOCATION  
STAT        .                                             TEXAS :STATE     
CTRY        .                                     UNITED STATES :COUNTRY   
SRVC        .                                                   :SERVICE COMPANY
DATE        .                             9/13/2023 11:12:09 AM :LOG DATE  
API         .                                    42703400030000 :API NUMBER
UWI         .                                    42703400030000 :UNIQUE WELL ID
XCOORD      .                                  482242.907024332 :SURFACE X 
YCOORD      .                                  10146341.7942038 :SURFACE Y 
LAT         .                                         27.913374 :LATITUDE  
LON         .                                         -96.58609 :LONGITUDE 
ELEV        .FT                                              95 :ELEVATION VALUE
ELEV_TYPE   .                                                KB :ELEVATION REFERENCE TYPE
~Curve Information Section
#MNEM       .UNIT                                      API CODE :CURVE DESCRIPTION
#------------------------------------------------------------------------------
DEPT        .FT                                                 :DEPTH     
CALI        .IN                                                 :          
CILD        .MMHO                                               :          
GR          .GAPI                                               :          
GR_NORM     .GAPI                                               :GammaRay Normalized
ILD         .OHMM                                               :          
RHOB        .G/C3                                               :          
SFL         .OHMM                                               :          
SP          .MV                                                 :          
SP_NORM     .MV                                                 :SP Normalized
VSH_GR      .V/V                                                :Volume of Shale from GR
VSH_SP      .V/V                                                :Volume of Shale from SP
~A        DEPTH           CALI           CILD             GR        GR_NORM            ILD           RHOB            SFL             SP        SP_NORM         VSH_GR         VSH_SP
# ...
      3981.5000        -999.25        -999.25        41.7611       44.82353         0.2586        -999.25         1.0526       -98.6681       -57.1587      0.2515645     0.01502323
      3982.0000        -999.25        -999.25        42.1158       45.17647         0.2602        -999.25          1.082       -98.7274        -57.218      0.2590739     0.01396431
      3982.5000        -999.25        -999.25        42.4357       45.52941         0.2612        -999.25         1.0655       -98.8456       -57.3362      0.2665832     0.01185356
      3983.0000        -999.25        -999.25        42.6669       45.88235          0.262        -999.25           1.02        -98.986       -57.4766      0.2740926    0.009346417
      3983.5000        -999.25        -999.25        42.7688       45.52941         0.2635        -999.25         1.0805       -99.2987       -57.7893      0.2665832    0.003762518
      3984.0000        -999.25        -999.25        42.8119       45.17647         0.2677        -999.25         1.0873       -99.4541       -57.9447      0.2590739   0.0009875298
      3984.5000        -999.25        -999.25        43.0115       44.82353         0.2747        -999.25         1.0064       -98.9958       -57.4864      0.2515645    0.009171418
      3985.0000        -999.25        -999.25        43.1769       44.47059         0.2826        -999.25         0.9914       -98.0005       -56.4911      0.2440551     0.02694464
      3985.5000        -999.25        -999.25        43.2523       44.11765         0.2865        -999.25         0.9747       -96.8116       -55.3022      0.2365456       0.048175
      3986.0000        -999.25        -999.25        43.1338       43.76471         0.2865        -999.25         0.9402       -95.9661       -54.4567      0.2290363     0.06327323
      3986.5000        -999.25        -999.25        42.7458       43.41177         0.2828        -999.25         1.0226       -96.0466       -54.5372      0.2215269      0.0618357
      3987.0000        -999.25        -999.25        41.9659       43.05882         0.2784        -999.25         1.1356       -97.0645       -55.5551      0.2140175     0.04365894
      3987.5000        -999.25        -999.25        41.2791       42.70588         0.2768        -999.25         1.0271       -97.9113       -56.4019      0.2065081     0.02853748
      3988.0000        -999.25        -999.25        40.9712       42.35294         0.2726        -999.25         1.0141       -98.5781       -57.0687      0.1989987     0.01663038
      3988.5000        -999.25        -999.25        40.5247       40.14706         0.2646        -999.25         1.0612       -99.0542       -57.5448       0.152065    0.008128575
      3989.0000        -999.25        -999.25        40.5238       37.94118         0.2541        -999.25         1.0784       -98.8357       -57.3263      0.1051314     0.01203033
      3989.5000        -999.25        -999.25        40.9303       37.05882         0.2466        -999.25         1.0349       -98.4813       -56.9719     0.08635793     0.01835891
      3990.0000        -999.25        -999.25        40.5135       36.17647         0.2413        -999.25         0.9885       -98.2511       -56.7417     0.06758451     0.02246966
      3990.5000        -999.25        -999.25        34.9011       35.29412         0.2381        -999.25         0.9727       -98.0864        -56.577       0.048811     0.02541072
      3991.0000        -999.25        -999.25        41.9427       35.73529         0.2389        -999.25         0.9827       -98.1429       -56.6335     0.05819775      0.0244018
      3991.5000        -999.25        -999.25        -999.25       36.17647          0.242        -999.25         1.0185       -97.6595       -56.1501     0.06758451     0.03303391
      3992.0000        -999.25        -999.25        -999.25       37.05882         0.2463        -999.25         1.0374       -95.9386       -54.4292     0.08635793      0.0637643
      3992.5000        -999.25        -999.25        -999.25       37.94118         0.2512        -999.25         0.9978       -94.0953       -52.5859      0.1051314     0.09668037
      3993.0000        -999.25        -999.25        -999.25       38.82353         0.2565        -999.25         0.9786       -92.5404        -51.031      0.1239049      0.1244465
      3993.5000        -999.25        -999.25        -999.25       39.70588         0.2612        -999.25         0.9931       -90.3356       -48.8262      0.1426784      0.1638179
      3994.0000        -999.25        -999.25        -999.25       39.26471          0.263        -999.25         0.9038       -90.1313       -48.6219      0.1332916      0.1674661
      3994.5000        -999.25        -999.25        -999.25       38.82353         0.2614        -999.25         0.8604       -93.9779       -52.4685      0.1239049     0.09877682
      3995.0000        -999.25        -999.25        -999.25       38.23529         0.2584        -999.25         0.9542       -96.6617       -55.1523      0.1113892     0.05085175
      3995.5000        -999.25        -999.25        -999.25       37.64706         0.2533        -999.25         1.0191       -97.9612       -56.4518     0.09887354     0.02764641
      3996.0000        -999.25        -999.25        -999.25       37.05882         0.2487        -999.25          1.063       -99.0776       -57.5682     0.08635793    0.007710729
      3996.5000        -999.25        -999.25        -999.25       36.47059         0.2442        -999.25         1.0917      -100.0177       -58.5083     0.07384231              0
      3997.0000        -999.25        -999.25        -999.25       35.88235         0.2391        -999.25         1.1063       -99.7268       -58.2174     0.06132662              0
      3997.5000        -999.25        -999.25        -999.25       35.29412          0.235        -999.25         1.0998       -99.4359       -57.9265       0.048811    0.001312528
      3998.0000        -999.25        -999.25        -999.25       35.73529         0.2338        -999.25         1.0891       -99.1449       -57.6355     0.05819775    0.006508895
      3998.5000        -999.25        -999.25        -999.25       36.17647          0.242        -999.25         1.0806       -98.4757       -56.9663     0.06758451     0.01845891
      3999.0000        -999.25        -999.25        -999.25       37.94118         0.2541        -999.25         1.0894       -97.2524        -55.743      0.1051314     0.04030357
      3999.5000        -999.25        -999.25        33.8195       39.70588         0.2706        -999.25         1.1332       -95.6963       -54.1869      0.1426784     0.06809105
      4000.0000        13.6217        -999.25        35.9246       42.35294         0.3019         2.4291         1.1456       -93.2323       -51.7229      0.1989987      0.1120911
      4000.5000        14.0641        -999.25        38.4406       44.55882         0.3538         2.2365         1.1369       -90.4985       -48.9891      0.2459324      0.1609089
      4001.0000        14.1836        -999.25        41.2748       46.76471         0.4154         2.2094         1.1985        -83.912       -42.4026      0.2928661       0.278525
      4001.5000        14.2639        -999.25        43.8188       52.05882         0.4953         2.2052         1.1085       -72.0876       -30.5782      0.4055069       0.489675
      4002.0000        14.3292        -999.25        46.1512       57.35294         0.5911         2.2006         1.0607        -59.399       -17.8896      0.5181477      0.7162572
      4002.5000        14.4287        -999.25        47.9957       61.76471         0.6804         2.2928         1.1382       -53.2771       -11.7677       0.612015      0.8255768
      4003.0000         14.539        -999.25        49.2861       66.17647         0.8014         2.3642         1.2471       -50.9904         -9.481      0.7058823      0.8664107
      4003.5000        14.6977        -999.25        49.9736       70.58823         0.9351         2.3767         1.1717       -50.8206        -9.3112      0.7997497      0.8694429
