#------------------------------------------------------------------------------
# Created by    : vladimir.rabinovich
# Created on    : 09/19/2023 17:22:32
#------------------------------------------------------------------------------
~Version Information Section
VERS.           2.0     :   CWLS log ASCII Standard - VERSION 2.0
WRAP.           NO      :   One line per depth step
~Well Information Section
#MNEM       .UNIT                                         VALUE :DESCRIPTION
#------------------------------------------------------------------------------
STRT        .FT                                          2841.5 :START DEPTH
STOP        .FT                                          6769.5 :STOP DEPTH
STEP        .FT                                             0.5 :STEP      
NULL        .                                           -999.25 :NULL      
COMP        .                      SPINNAKER EXPLORATION CO LLC :COMPANY   
WELL        .                               OCS G18941 ST00BP00 :WELL      
FLD         .                            HIGH ISLAND BLOCK 0235 :FIELD     
LOC         .                                                   :LOCATION  
CNTY        .                           HIGH ISLAND LARGE BLOCK :LOCATION  
STAT        .                                             TEXAS :STATE     
CTRY        .                                     UNITED STATES :COUNTRY   
SRVC        .                                                   :SERVICE COMPANY
DATE        .                             9/13/2023 11:20:02 AM :LOG DATE  
API         .                                    42708405540000 :API NUMBER
UWI         .                                    42708405540000 :UNIQUE WELL ID
XCOORD      .                                  1178439.61066162 :SURFACE X 
YCOORD      .                                  10526520.2311607 :SURFACE Y 
LAT         .                                         28.998365 :LATITUDE  
LON         .                                        -94.445565 :LONGITUDE 
ELEV        .FT                                              98 :ELEVATION VALUE
ELEV_TYPE   .                                                KB :ELEVATION REFERENCE TYPE
~Curve Information Section
#MNEM       .UNIT                                      API CODE :CURVE DESCRIPTION
#------------------------------------------------------------------------------
DEPT        .FT                                                 :DEPTH     
CNCF        .%                                                  :          
DCAL        .IN                                                 :          
DT24        .US/F                                               :          
GR          .GAPI                                               :          
GR_NORM     .GAPI                                               :GammaRay Normalized
M2R1        .OHMM                                               :          
M2R2        .OHMM                                               :          
M2R3        .OHMM                                               :          
M2R6        .OHMM                                               :          
M2R9        .OHMM                                               :          
M2RX        .OHMM                                               :          
PORZ        .%                                                  :          
RWAZ        .OHMM                                               :          
SPCH        .MV                                                 :          
TEN         .LB/F                                               :          
VSH_GR      .V/V                                                :Volume of Shale from GR
ZCOR        .G/CC                                               :          
~A        DEPTH           CNCF           DCAL           DT24             GR        GR_NORM           M2R1           M2R2           M2R3           M2R6           M2R9           M2RX           PORZ           RWAZ           SPCH            TEN         VSH_GR           ZCOR
# ...
      3156.5000         49.338          3.179        144.052        106.583       77.13006          0.796          0.775          0.765          0.759           0.76          0.768          29.57           0.09         -2.825        -21.391      0.9389374          0.024
      3157.0000         47.912          3.416        144.532        108.341       78.87619          0.781          0.765          0.758          0.754          0.755          0.764         29.529          0.089         -2.749        -20.976      0.9760892          0.032
      3157.5000         47.476          3.531        146.543        108.573       79.09632          0.763          0.752          0.748          0.745          0.747          0.757           29.8           0.09         -2.976        -10.295      0.9807728          0.038
      3158.0000         48.208          3.469        147.733        107.262       77.77345          0.747          0.741           0.74          0.739          0.742          0.752         30.026          0.091          -3.38         -3.966      0.9526266          0.038
      3158.5000         49.347          3.357        147.661        106.828       77.32758          0.735          0.736          0.738          0.738          0.743          0.753          30.09          0.092         -3.616         -7.713      0.9431401          0.037
      3159.0000         50.005          3.191        147.201        106.129       76.61671          0.719          0.726          0.732          0.735           0.74          0.751         30.243          0.093         -3.657        -23.434      0.9280152          0.043
      3159.5000         51.535          2.871        147.141        104.999       75.47485          0.693          0.707          0.716          0.721          0.727          0.738         30.677          0.094         -3.718        -32.749      0.9037201          0.051
      3160.0000         53.579          2.524        148.611        105.545       76.00897          0.665          0.685          0.697          0.703           0.71          0.721         31.204          0.095         -3.894         -4.463      0.9150845          0.053
      3160.5000         52.618          2.347        149.652        108.185        78.6371          0.649          0.672          0.687          0.695          0.702          0.713         31.627          0.097         -4.134         21.577      0.9710022          0.051
      3161.0000         49.339          2.306        149.887        111.886       82.32624          0.646          0.671          0.687          0.696          0.705          0.716         32.333          0.102         -4.291          5.503              1           0.05
      3161.5000          47.33          2.274        151.738        115.216       85.64437          0.651          0.675          0.693          0.704          0.712          0.724         33.954          0.115         -4.245         -4.721              1          0.043
      3162.0000         47.948          2.211        154.601        114.699       85.11549          0.656          0.678          0.696          0.708          0.717          0.729         36.927          0.138         -4.041         10.311              1          0.042
      3162.5000             51          2.088        158.624        110.651       81.05563          0.657          0.676          0.692          0.705          0.715          0.727         40.627          0.169         -3.787          3.341              1          0.077
      3163.0000         53.622          1.923        160.513        106.487       76.87976          0.657          0.672          0.689          0.702          0.711          0.723         44.839          0.208         -3.636        -21.585      0.9336119          0.135
      3163.5000         53.184          1.796        159.685        104.135       74.51589           0.66          0.674          0.689          0.703          0.713          0.724         46.216          0.222         -3.547        -31.829      0.8833169          0.144
      3164.0000         51.768          1.808        157.802        103.587       73.95602          0.665          0.678          0.693          0.707          0.716          0.728          42.79          0.189         -3.301        -28.654      0.8714046          0.093
      3164.5000         51.002          2.145        154.135        105.239       75.59615          0.666          0.679          0.694          0.708          0.717          0.729         37.315          0.141         -2.762        -17.489       0.906301          0.047
      3165.0000         49.071          2.868        151.538         107.46       77.80528          0.664          0.678          0.693          0.707          0.716          0.728         32.751          0.106         -2.209          1.858      0.9533039          0.045
      3165.5000          45.47           3.49        149.617         108.92       79.25341          0.662          0.678          0.694          0.708          0.717          0.729         30.962          0.095         -2.085         20.223      0.9841151          0.048
      3166.0000          43.08          3.479        147.814         110.08       80.40154           0.66          0.679          0.695           0.71          0.719          0.731         31.139          0.096         -2.542         23.064              1          0.039
      3166.5000         43.907           3.04        147.817         111.83       82.13967          0.652          0.674          0.692          0.707          0.716          0.728         31.944          0.101         -3.203          5.428              1          0.036
      3167.0000         47.093          2.752        148.632        113.396       83.69381          0.641          0.665          0.684          0.699          0.709          0.721          32.71          0.105         -3.557        -12.464              1           0.04
      3167.5000         49.926          2.962        149.931        113.733       84.01894          0.633          0.657          0.677          0.694          0.704          0.715         33.466           0.11         -3.468        -11.029              1          0.037
      3168.0000          50.79          3.658        152.043        112.408       82.68206           0.63          0.654          0.676          0.693          0.703          0.715         34.289          0.115         -3.152         -7.929              1          0.027
      3168.5000         50.617          4.437        154.902        109.663       79.92519          0.629          0.653          0.675          0.694          0.704          0.716         35.295          0.123         -2.959        -14.468      0.9984084          0.021
      3169.0000         50.353          4.858        156.976        106.392       76.64233          0.627           0.65          0.672          0.693          0.704          0.716         36.533          0.132         -2.983         -6.925      0.9285601          0.025
      3169.5000         50.229          5.155        156.892        102.657       72.89545          0.624          0.646          0.669          0.691          0.703          0.715         37.735          0.142         -3.123         15.945      0.8488395          0.036
      3170.0000         50.792          5.456        155.574         99.893       70.11958          0.624          0.645          0.669          0.693          0.704          0.716         38.598          0.149         -3.475         28.797      0.7897784          0.041
      3170.5000         53.806          5.182        154.825        100.901       71.11572          0.624          0.647          0.672          0.697          0.709          0.722         38.975          0.153         -3.948         16.939      0.8109726          0.032
      3171.0000         57.732          4.377        154.552        103.767       73.96985          0.625          0.651          0.677          0.704          0.716          0.729         38.881          0.154         -4.084        -14.467      0.8716989           0.02
