#------------------------------------------------------------------------------
# Created by    : vladimir.rabinovich
# Created on    : 09/19/2023 17:22:48
#------------------------------------------------------------------------------
~Version Information Section
VERS.           2.0     :   CWLS log ASCII Standard - VERSION 2.0
WRAP.           NO      :   One line per depth step
~Well Information Section
#MNEM       .UNIT                                         VALUE :DESCRIPTION
#------------------------------------------------------------------------------
STRT        .FT                                            3512 :START DEPTH
STOP        .FT                                           11028 :STOP DEPTH
STEP        .FT                                             0.5 :STEP      
NULL        .                                           -999.25 :NULL      
COMP        .                          SEAGULL ENERGY E & P INC :COMPANY   
WELL        .                   ST TR 147-L NE/4 /ST LSE 88034/ :WELL      
FLD         .                                           WILDCAT :FIELD     
LOC         .                                                   :LOCATION  
CNTY        .                             GALVESTON LARGE BLOCK :LOCATION  
STAT        .                                             TEXAS :STATE     
CTRY        .                                     UNITED STATES :COUNTRY   
SRVC        .                                                   :SERVICE COMPANY
DATE        .                             9/13/2023 11:18:53 AM :LOG DATE  
API         .                                    42706302000000 :API NUMBER
UWI         .                                    42706302000000 :UNIQUE WELL ID
XCOORD      .                                  1107149.67333588 :SURFACE X 
YCOORD      .                                  10638300.0198507 :SURFACE Y 
LAT         .                                        29.3031745 :LATITUDE  
LON         .                                         -94.67354 :LONGITUDE 
ELEV        .FT                                              25 :ELEVATION VALUE
ELEV_TYPE   .                                                KB :ELEVATION REFERENCE TYPE
~Curve Information Section
#MNEM       .UNIT                                      API CODE :CURVE DESCRIPTION
#------------------------------------------------------------------------------
DEPT        .FT                                                 :DEPTH     
DT          .US/F                                               :          
GR          .GAPI                                               :          
GR_NORM     .GAPI                                               :GammaRay Normalized
ILD         .OHMM                                               :          
ILM         .OHMM                                               :          
SFL         .OHMM                                               :          
SP          .MV                                                 :          
SP_NORM     .MV                                                 :SP Normalized
VSH_GR      .V/V                                                :Volume of Shale from GR
VSH_SP      .V/V                                                :Volume of Shale from SP
~A        DEPTH             DT             GR        GR_NORM            ILD            ILM            SFL             SP        SP_NORM         VSH_GR         VSH_SP
# ...
      4516.5000       114.2418        71.3624       90.67802         0.6007         0.6034         0.7768       -32.2989      -2.233541              1        0.98614
      4517.0000       117.0004        75.9346       97.30433         0.5982         0.5976         0.8002       -30.0755    -0.01014137              1              1
      4517.5000        119.694        78.4073       100.8847         0.5923           0.59         0.7682       -28.1935       1.871859              1              1
      4518.0000       121.8809        76.4358       98.01732         0.5864          0.583         0.7327       -27.0014       3.063959              1              1
      4518.5000       123.0071        72.8341       92.78487         0.5824         0.5791          0.707       -26.2846        3.78076              1              1
      4519.0000       124.1183        69.8932       88.51112         0.5795         0.5765         0.6881       -25.7825        4.28286              1              1
      4519.5000       124.4838        69.3245       87.67897         0.5775         0.5761         0.6749       -25.4708       4.594559              1              1
      4520.0000       124.6851        70.9558       90.03858         0.5764         0.5766         0.6663       -25.1511       4.914259              1              1
      4520.5000        124.179        72.1714       91.79508         0.5747         0.5764         0.6588       -24.7706        5.29476              1              1
      4521.0000       123.9022        72.2787       91.94369         0.5747         0.5768         0.6583        -24.653       5.412359              1              1
      4521.5000       123.7174         71.939       91.44378         0.5759          0.578         0.6618       -24.8902       5.175159              1              1
      4522.0000       123.5372        71.8857       91.35936         0.5791         0.5801          0.668       -25.1953        4.87006              1              1
      4522.5000       123.3173        72.8605       92.76653          0.583         0.5858         0.6755        -25.534       4.531359              1              1
      4523.0000       123.0432        73.3453        93.4628         0.5873         0.5934         0.6831       -25.8462       4.219158              1              1
      4523.5000       122.6749        73.0669       93.05182         0.5934         0.6049         0.6903       -26.0444        4.02096              1              1
      4524.0000       122.0298        70.7753       89.72007         0.5999         0.6167         0.6973        -26.196        3.86936              1              1
      4524.5000       121.2155        66.9254       84.12754         0.6074         0.6253         0.7053       -26.4381       3.627258              1              1
      4525.0000       119.7626        63.3704       78.96285         0.6155         0.6311         0.7116       -26.8506        3.21476       0.977933              1
      4525.5000       117.2601        60.7219        75.1133         0.6247         0.6346         0.7165       -27.6647        2.40066      0.8960276              1
      4526.0000       115.0292        59.2558       72.97919         0.6338          0.638         0.7265        -28.575       1.490358       0.850621              1
      4526.5000       113.9459        59.2349       72.94179           0.64         0.6435         0.7357       -29.5645      0.5008583      0.8498253              1
      4527.0000       113.0151        60.2121       74.35243         0.6435          0.644         0.7405        -30.554     -0.4886417       0.879839              1
      4527.5000       112.6483        60.2397        74.3854         0.6393         0.6401         0.7407       -31.5434      -1.478041      0.8805404      0.9946287
      4528.0000       112.6738        58.8154       72.31194         0.6249         0.6294         0.7409       -32.5329      -2.467543      0.8364242      0.9835107
      4528.5000       113.1481        58.7835       72.25858         0.6071         0.6129         0.7411       -33.7865       -3.72114       0.835289      0.9694254
      4529.0000       114.2191        60.6421       74.94796         0.5851         0.5937         0.7359       -35.3712      -5.305841      0.8925098      0.9516197
      4529.5000       115.5923        61.9681       76.86467          0.565         0.5779         0.7126       -37.2715      -7.206141      0.9332908      0.9302681
      4530.0000       117.0763        62.4868       77.61011         0.5487         0.5693         0.6771       -38.7321      -8.666742      0.9491512      0.9138568
      4530.5000       118.5519        61.5784       76.28511         0.5429         0.5729         0.6433       -40.2308      -10.16544      0.9209598      0.8970175
      4531.0000       120.2883        61.9362       76.79713         0.5495         0.6014         0.5994       -41.6385      -11.57314       0.931854      0.8812007
      4531.5000       121.5201        62.0289       76.92455          0.587         0.6338          0.553       -43.1212      -13.05584      0.9345649      0.8645411
      4532.0000       120.0298        58.5869       71.92379          0.631         0.6704         0.5057       -45.7279      -15.66254      0.8281658      0.8352523
      4532.5000       114.0103        49.3689       58.54319         0.6658         0.7347         0.5705       -50.7251      -20.65974      0.5434722       0.779104
      4533.0000       104.5397        44.0573          50.83         0.6903         0.8167         0.8374       -57.0342      -26.96884      0.3793617      0.7082153
      4533.5000        94.7996        41.9014       47.69513         0.7179         0.9092          1.361       -63.3729      -33.30754      0.3126622      0.6369939
      4534.0000        87.3965         41.376       46.92579         0.7488         0.9589         1.6985       -68.8221      -38.75674      0.2962933       0.575767
      4534.5000         85.502         41.606       47.25238         0.7731         0.9886         1.8635       -73.9077      -43.84234      0.3032422      0.5186254
      4535.0000        85.3303        42.2146       48.12827         0.7767         1.0043         1.7923       -76.6692      -46.60384       0.321878      0.4875973
      4535.5000        86.9725        42.8847       49.09338         0.7473         0.9758         1.7692       -78.5007      -48.43534      0.3424124      0.4670186
      4536.0000         88.348        44.3386       51.19563         0.6772          0.895         1.7802       -80.1456      -50.08024       0.387141      0.4485366
      4536.5000        88.5594        46.3568       54.11657         0.5974         0.8069         1.6884       -81.3967      -51.33134      0.4492886      0.4344794
      4537.0000          89.78        47.3451       55.54332         0.5166         0.7065         1.4938       -82.4926      -52.42724       0.479645      0.4221659
      4537.5000        93.0692        48.5299       57.25516         0.4364         0.6172          1.312        -83.088      -53.02264      0.5160673       0.415476
      4538.0000        97.1108        50.4376       60.01578         0.3834         0.5487          1.103       -82.2953      -52.22994      0.5748038      0.4243827
      4538.5000       104.0887         54.543       65.96484         0.3482         0.4873         0.8835       -80.5559      -50.49054      0.7013795      0.4439265
      4539.0000       113.1523        58.2135       71.28294         0.3198         0.4397         0.7216       -76.8878      -46.82244      0.8145306      0.4851411
      4539.5000       120.6229        59.5138       73.16235         0.2992         0.4048         0.6535       -70.7777      -40.71234      0.8545182      0.5537939
      4540.0000       126.2344        60.3951       74.43386         0.2852         0.3876         0.5968       -66.0311      -35.96574      0.8815715      0.6071265
      4540.5000       126.6547        61.4418       75.94537           0.28         0.3822          0.592       -61.3804      -31.31504      0.9137312      0.6593816
