#------------------------------------------------------------------------------
# Created by    : vladimir.rabinovich
# Created on    : 09/19/2023 17:20:24
#------------------------------------------------------------------------------
~Version Information Section
VERS.           2.0     :   CWLS log ASCII Standard - VERSION 2.0
WRAP.           NO      :   One line per depth step
~Well Information Section
#MNEM       .UNIT                                         VALUE :DESCRIPTION
#------------------------------------------------------------------------------
STRT        .FT                                            1590 :START DEPTH
STOP        .FT                                            8991 :STOP DEPTH
STEP        .FT                                             0.5 :STEP      
NULL        .                                           -999.25 :NULL      
COMP        .                                 C & K OFFSHORE CO :COMPANY   
WELL        .                                OCS 00507 ST00BP00 :WELL      
FLD         .                                           WILDCAT :FIELD     
LOC         .                                                   :LOCATION  
CNTY        .                           HIGH ISLAND LARGE BLOCK :LOCATION  
STAT        .                                             TEXAS :STATE     
CTRY        .                                     UNITED STATES :COUNTRY   
SRVC        .                                                   :SERVICE COMPANY
DATE        .                             9/13/2023 11:19:15 AM :LOG DATE  
API         .                                    42708300260000 :API NUMBER
UWI         .                                    42708300260000 :UNIQUE WELL ID
XCOORD      .                                  1287575.74118613 :SURFACE X 
YCOORD      .                                  10681645.7296129 :SURFACE Y 
LAT         .                                         29.428295 :LATITUDE  
LON         .                                        -94.108714 :LONGITUDE 
ELEV        .FT                                              73 :ELEVATION VALUE
ELEV_TYPE   .                                                KB :ELEVATION REFERENCE TYPE
~Curve Information Section
#MNEM       .UNIT                                      API CODE :CURVE DESCRIPTION
#------------------------------------------------------------------------------
DEPT        .FT                                                 :DEPTH     
ASN         .OHMM                                               :          
CALI        .IN                                                 :          
CILD        .MMHO                                               :          
DT          .US/F                                               :          
GR          .GAPI                                               :          
GR_NORM     .GAPI                                               :GammaRay Normalized
ILD         .OHMM                                               :          
SP          .MV                                                 :          
SP_NORM     .MV                                                 :SP Normalized
VSH_GR      .V/V                                                :Volume of Shale from GR
VSH_SP      .V/V                                                :Volume of Shale from SP
~A        DEPTH            ASN           CALI           CILD             DT             GR        GR_NORM            ILD             SP        SP_NORM         VSH_GR         VSH_SP
# ...
      8475.0000         1.0124         9.6647       1192.199       105.9084        80.2285       85.27813         0.8513        -49.676      0.3240013              1              1
      8475.5000         1.0282         9.6675       1178.471       106.9858        82.4545       88.05995         0.8704       -49.5861      0.4138985              1              1
      8476.0000         1.0232         9.7393       1180.959       106.9033        82.3281       87.90127          0.876       -51.0157      -1.015701              1        0.98549
      8476.5000         1.0326         9.8952       1226.521        106.325        81.2837       86.59509         0.8535       -51.7805      -1.780499              1      0.9745643
      8477.0000         1.0439        10.0582       1272.781       105.4092        79.6707       84.57816         0.8311       -52.5464      -2.546398              1      0.9636229
      8477.5000         1.0093        10.0885       1300.934       102.9152        77.4604       81.81461         0.8087       -53.0966        -3.0966              1      0.9557629
      8478.0000         0.9747         9.8355       1329.088       101.6064        74.4182       78.01117         0.7863       -53.4964      -3.496399      0.9576845      0.9500514
      8478.5000         0.9399         9.7175       1354.904       100.3718        72.0574        75.0595         0.7684       -53.1066      -3.106602       0.894883        0.95562
      8479.0000         0.9098         9.7189       1374.254        98.9457        71.6731       74.57845         0.7622       -52.7161      -2.716099      0.8846478      0.9611986
      8479.5000         0.9075          9.792       1382.205       103.9138         72.766       75.94388         0.7559       -52.3256        -2.3256      0.9136995      0.9667771
      8480.0000         0.9202         9.9777       1378.475        105.204        73.9934       77.47746         0.7497       -51.9358      -1.935799      0.9463288      0.9723457
      8480.5000         0.9328        10.1355       1374.744       107.0182        72.4449       75.54115         0.7435       -51.5914        -1.5914      0.9051309      0.9772657
      8481.0000         0.9455        10.1218       1389.324       106.5956        74.7314        78.3986         0.7373        -51.312         -1.312      0.9659276      0.9812571
      8481.5000          0.941         9.9784       1404.895       105.5945        79.7725       84.69929         0.7311       -51.3126      -1.312599              1      0.9812486
      8482.0000         0.9267         9.9162       1420.264         104.96        80.8218       86.01024         0.7263       -51.7018      -1.701801              1      0.9756886
      8482.5000         0.9124        10.0269       1435.609       104.8098        81.7477       87.16694         0.7245       -52.0917      -2.091702              1      0.9701185
      8483.0000         0.8982         10.194       1450.979       105.4128        82.5215        88.1335         0.7228       -51.8179      -1.817902              1        0.97403
      8483.5000         0.8856        10.3619       1466.324       106.0654        82.0336       87.52295          0.721       -51.1766      -1.176601              1      0.9831914
      8484.0000         0.8739        10.4385       1482.365        106.705        80.4146       85.49851         0.7192       -50.7806     -0.7806015              1      0.9888486
      8484.5000         0.8637        10.2569       1498.557       106.7183         77.989       82.46584         0.7175       -50.4319        -0.4319              1        0.99383
      8485.0000         0.8688        10.2036       1512.957       106.4797        75.4833       79.33303         0.7157       -50.3383     -0.3382988      0.9858091      0.9951671
      8485.5000          0.874        10.3504       1504.924       106.3468        74.2186       77.75147         0.7139       -50.5629     -0.5629005       0.952159      0.9919586
      8486.0000         0.8717        10.3277       1495.646       106.3872        74.3071       77.86142         0.7122       -50.3914     -0.3913994      0.9544983      0.9944086
      8486.5000         0.8687        10.2674       1485.785       107.3544        74.5111       78.11574         0.7079       -50.0146    -0.01459885      0.9599093      0.9997914
      8487.0000         0.8656         10.347       1485.859       108.9783         74.522       78.12869          0.703       -49.6378      0.3622017      0.9601849              1
      8487.5000         0.8626        10.5323       1497.113       109.6395        75.9374       79.89726          0.698       -49.2642      0.7358017      0.9978141              1
      8488.0000         0.8614        10.4805       1510.842       108.8077        77.2256       81.50682         0.6931       -48.9473         1.0527              1              1
      8488.5000         0.8609        10.1194       1524.572       106.6722        78.7799       83.44902         0.6882       -48.6311         1.3689              1              1
      8489.0000         0.8604         10.005       1524.123       104.1115        78.8269       83.50709         0.6847       -48.3142       1.685799              1              1
      8489.5000         0.8631        10.0555       1499.104       100.6487        72.5702       75.68554         0.6862       -48.4826       1.517399      0.9082029              1
      8490.0000         0.8683        10.3293       1474.033       100.5684        71.1003       73.84749         0.6876       -48.8862         1.1138      0.8690955              1
      8490.5000         0.8735        10.7189       1453.367       102.4703        71.0682       73.80668         0.6903         -49.47      0.5299988      0.8682272              1
      8491.0000         0.8787        10.7714       1440.969       106.1976        71.4426       74.27399         0.6969       -50.0757    -0.07569885      0.8781701      0.9989186
      8491.5000         0.8839        10.7441       1436.934        108.568        72.2081       75.23019         0.7035       -50.1207     -0.1207008      0.8985146      0.9982757
      8492.0000         0.8891        10.7354       1432.898       108.4895        73.9602       77.41963         0.7101       -50.1091     -0.1091003      0.9450986      0.9984414
      8492.5000         0.8976         10.734       1428.844       108.2013        75.9922       79.95896         0.7167       -50.0976    -0.09759903      0.9991269      0.9986057
      8493.0000         0.8999        10.7855       1421.607       107.9491        77.6993       82.09216         0.7232        -50.178     -0.1780014              1      0.9974571
      8493.5000          0.893        10.7863       1414.369       107.8511        78.7887       83.45322          0.728       -50.1986     -0.1986008              1      0.9971628
      8494.0000         0.8857        10.7673       1408.127       107.7512        79.6628       84.54517         0.7147       -50.0277    -0.02769852              1      0.9996043
      8494.5000         0.8775        10.7447       1436.629       107.6354        80.5427       85.64437         0.7014       -49.7557      0.2443008              1              1
      8495.0000         0.8693        10.7178       1466.324       107.2584        81.2866       86.57355         0.6881       -49.4766      0.5233994              1              1
      8495.5000         0.8611        10.6956       1495.324       107.3318        81.2167        86.4855         0.6748       -49.1974      0.8026009              1              1
      8496.0000         0.8529         10.679        1496.33       107.4066        79.7019       84.59132         0.6791       -48.9183       1.081699              1              1
      8496.5000         0.8483        10.6266       1488.285       107.4679        80.0054       84.97002          0.685       -48.5469       1.453098              1              1
      8497.0000         0.8478         10.438       1480.662       107.4235        78.0947       82.58096         0.6899        -48.249       1.750999              1              1
