#------------------------------------------------------------------------------
# Created by    : vladimir.rabinovich
# Created on    : 09/19/2023 17:22:54
#------------------------------------------------------------------------------
~Version Information Section
VERS.           2.0     :   CWLS log ASCII Standard - VERSION 2.0
WRAP.           NO      :   One line per depth step
~Well Information Section
#MNEM       .UNIT                                         VALUE :DESCRIPTION
#------------------------------------------------------------------------------
STRT        .FT                                             410 :START DEPTH
STOP        .FT                                            7624 :STOP DEPTH
STEP        .FT                                             0.5 :STEP      
NULL        .                                           -999.25 :NULL      
COMP        .                                      SHELL OIL CO :COMPANY   
WELL        .                                     ST TR 00249-L :WELL      
FLD         .                                           WILDCAT :FIELD     
LOC         .                                                   :LOCATION  
CNTY        .                             GALVESTON LARGE BLOCK :LOCATION  
STAT        .                                             TEXAS :STATE     
CTRY        .                                     UNITED STATES :COUNTRY   
SRVC        .                                                   :SERVICE COMPANY
DATE        .                             9/13/2023 11:19:42 AM :LOG DATE  
API         .                                    42706000200000 :API NUMBER
UWI         .                                    42706000200000 :UNIQUE WELL ID
XCOORD      .                                  981084.037319939 :SURFACE X 
YCOORD      .                                  10535303.7769946 :SURFACE Y 
LAT         .                                         29.014458 :LATITUDE  
LON         .                                       -95.0633058 :LONGITUDE 
ELEV        .FT                                              11 :ELEVATION VALUE
ELEV_TYPE   .                                                KB :ELEVATION REFERENCE TYPE
~Curve Information Section
#MNEM       .UNIT                                      API CODE :CURVE DESCRIPTION
#------------------------------------------------------------------------------
DEPT        .FT                                                 :DEPTH     
LAT         .OHMM                                               :          
SN          .OHMM                                               :          
SP          .MV                                                 :          
SP_NORM     .MV                                                 :SP Normalized
VSH_SP      .V/V                                                :Volume of Shale from SP
~A        DEPTH            LAT             SN             SP        SP_NORM         VSH_SP
# ...
      6614.0000         0.7926         1.1266       -70.9629      -5.496361      0.9297444
      6614.5000         0.7835         1.1976       -75.4258      -9.992241      0.8594962
      6615.0000         0.7743         1.2687       -82.8508      -17.45023      0.7429651
      6615.5000         0.7652         1.2613       -92.6517      -27.28412      0.5893106
      6616.0000         0.8155          1.161        -101.77      -36.43539       0.446322
      6616.5000         0.8638         1.0573       -108.613      -43.31138      0.3388847
      6617.0000         0.8396         0.9512      -110.0679      -44.79926      0.3156365
      6617.5000         0.8155         0.8453      -106.9636      -41.72794      0.3636259
      6618.0000           0.79         0.7397      -103.5726      -38.36993      0.4160949
      6618.5000         0.7593         0.7056       -95.9244      -30.75471      0.5350827
      6619.0000         0.7286         0.6812        -87.865      -22.72829      0.6604955
      6619.5000         0.6979          0.701       -78.2217      -13.11797      0.8106567
      6620.0000         0.6672         0.7208       -83.1134      -18.04266      0.7337085
      6620.5000         0.6365         0.7405        -93.098      -28.06023      0.5771838
      6621.0000         0.6057         0.7603       -96.6289      -31.62411      0.5214982
      6621.5000         0.5963         0.7793       -99.8535       -34.8817      0.4705985
      6622.0000         0.5945         0.7774      -102.6757      -37.73688      0.4259863
      6622.5000         0.5927         0.7756       -98.8998      -33.99397      0.4844693
      6623.0000         0.6155         0.7738       -91.5054      -26.63255      0.5994914
      6623.5000         0.6398          0.772       -83.9359      -19.09603      0.7172495
      6624.0000         0.6642         0.7702       -77.0709      -12.26402      0.8239998
      6624.5000         0.6886         0.7684       -74.1658      -9.391899      0.8688766
      6625.0000         0.7129         0.7666       -71.2561      -6.515182      0.9138253
      6625.5000          0.737         0.7648       -69.1296      -4.421661      0.9465365
      6626.0000         0.7343         0.7653       -67.6661      -2.991142      0.9688884
      6626.5000         0.7317          0.773       -66.2189      -1.576927      0.9909855
      6627.0000         0.7291         0.7807       -65.2509     -0.6419067              1
      6627.5000         0.7264         0.7884       -65.1093      -0.533287              1
      6628.0000         0.7177         0.7961        -65.098     -0.5549698              1
      6628.5000         0.7077         0.8037        -64.921     -0.4109497              1
      6629.0000         0.6976         0.8135       -64.2905      0.1865692              1
      6629.5000         0.6876         0.8287       -63.6605      0.7835846              1
      6630.0000         0.6775          0.844       -63.0298       1.381302              1
      6630.5000         0.6801         0.8592       -62.3998       1.978313              1
      6631.0000         0.6912         0.8692        -63.446      0.8991318              1
      6631.5000         0.7023         0.8786       -65.0671     -0.7549515              1
      6632.0000         0.7152         0.8881       -66.6882      -2.409035      0.9779838
      6632.5000         0.7346         0.8976       -68.3093      -4.063118      0.9521388
      6633.0000         0.7539         0.9261       -71.1774      -6.964195      0.9068094
      6633.5000         0.7733         0.9559       -74.3583      -10.17808      0.8565925
      6634.0000         0.7901         0.9389       -77.5348      -13.38756      0.8064444
      6634.5000          0.804         0.9078       -81.6652      -17.55094      0.7413915
      6635.0000         0.7963         0.8766       -81.8226      -17.74133      0.7384168
      6635.5000         0.7831         0.8455       -76.8698       -12.8215       0.815289
      6636.0000         0.7402          0.818       -71.9167       -7.90139      0.8921658
      6636.5000         0.6974         0.8199       -68.4875      -4.505177      0.9452316
      6637.0000         0.6546         0.8219       -67.2909      -3.341557      0.9634132
      6637.5000          0.619         0.8238       -66.0942      -2.177837      0.9815963
      6638.0000         0.6119         0.8258       -65.4034      -1.520016      0.9918748
      6638.5000         0.6049         0.8278       -64.9408      -1.090405      0.9985874
      6639.0000         0.5978         0.8293        -64.478     -0.6605797              1
      6639.5000         0.6001         0.8309       -64.0159     -0.2314644              1
      6640.0000         0.6088         0.8324       -63.5784      0.1730537              1
      6640.5000         0.6174         0.8339       -63.1879      0.5305672              1
      6641.0000         0.6261         0.8354       -62.7974      0.8880844              1
      6641.5000         0.6348          0.837       -62.4069       1.245605              1
      6642.0000         0.6434         0.8385       -62.0164       1.603123              1
      6642.5000         0.6519         0.8404       -61.6259        1.96064              1
      6643.0000         0.6601         0.8429       -61.3185       2.235058              1
      6643.5000         0.6683         0.8454       -61.0308       2.489777              1
      6644.0000         0.6764         0.8479       -60.7432       2.744396              1
      6644.5000         0.6846         0.8504       -60.4555       2.999107              1
      6645.0000         0.6928         0.8529       -60.3253       3.096329              1
      6645.5000          0.701         0.8554       -60.6759       2.712746              1
      6646.0000         0.7076         0.8579       -61.0265       2.329163              1
      6646.5000          0.714         0.8645       -61.3771        1.94558              1
      6647.0000         0.7204         0.8713       -61.7271       1.562599              1
      6647.5000         0.7268          0.878       -62.0708       1.185917              1
      6648.0000         0.7333         0.8848       -62.3872      0.8365364              1
      6648.5000         0.7397         0.8915       -62.7034      0.4873505              1
      6649.0000         0.7461         0.8983       -63.0197      0.1380692              1
      6649.5000         0.7496          0.905       -63.3361     -0.2113152              1
      6650.0000         0.7503         0.9118       -63.6525     -0.5606956              1
      6650.5000          0.751         0.9185       -63.9689     -0.9100761              1
      6651.0000         0.7517         0.9251       -64.1399      -1.114059      0.9982178
      6651.5000         0.7524         0.9316       -64.0675      -1.074638      0.9988338
      6652.0000         0.7531         0.9293       -63.9952      -1.035324      0.9994481
      6652.5000         0.7538         0.9151       -63.9229     -0.9960098              1
      6653.0000         0.7549          0.917       -63.8506     -0.9566917              1
      6653.5000         0.7588         0.9189       -63.4608     -0.5998726              1
      6654.0000         0.7627         0.9209       -62.9866     -0.1586533              1
      6654.5000         0.7666         0.9228        -62.513      0.2819633              1
      6655.0000         0.7705         0.9247       -62.0388      0.7231827              1
      6655.5000         0.7744         0.9267       -61.7252       1.003799              1
      6656.0000         0.7783         0.9286       -61.8885      0.8075142              1
      6656.5000         0.7778         0.9305       -62.0521      0.6109314              1
      6657.0000         0.7735         0.9325       -62.1982      0.4318504              1
      6657.5000         0.7692         0.9344       -61.9702      0.6268692              1
