#------------------------------------------------------------------------------
# Created by    : vladimir.rabinovich
# Created on    : 09/19/2023 17:22:50
#------------------------------------------------------------------------------
~Version Information Section
VERS.           2.0     :   CWLS log ASCII Standard - VERSION 2.0
WRAP.           NO      :   One line per depth step
~Well Information Section
#MNEM       .UNIT                                         VALUE :DESCRIPTION
#------------------------------------------------------------------------------
STRT        .FT                                            1142 :START DEPTH
STOP        .FT                                           15630 :STOP DEPTH
STEP        .FT                                             0.5 :STEP      
NULL        .                                           -999.25 :NULL      
COMP        .                                     PRIMARY FUELS :COMPANY   
WELL        .                                ST TR 00520-L SE/4 :WELL      
FLD         .                                          EL GORDO :FIELD     
LOC         .                                                   :LOCATION  
CNTY        .                      MATAGORDA ISLAND LARGE BLOCK :LOCATION  
STAT        .                                             TEXAS :STATE     
CTRY        .                                     UNITED STATES :COUNTRY   
SRVC        .                                                   :SERVICE COMPANY
DATE        .                             9/13/2023 11:19:05 AM :LOG DATE  
API         .                                    42703303520000 :API NUMBER
UWI         .                                    42703303520000 :UNIQUE WELL ID
XCOORD      .                                  629148.716839967 :SURFACE X 
YCOORD      .                                   10306131.761235 :SURFACE Y 
LAT         .                                        28.3634759 :LATITUDE  
LON         .                                       -96.1446235 :LONGITUDE 
ELEV        .FT                                             101 :ELEVATION VALUE
ELEV_TYPE   .                                                KB :ELEVATION REFERENCE TYPE
~Curve Information Section
#MNEM       .UNIT                                      API CODE :CURVE DESCRIPTION
#------------------------------------------------------------------------------
DEPT        .FT                                                 :DEPTH     
DT          .US/F                                               :          
ILD         .OHMM                                               :          
SP          .MV                                                 :          
SP_NORM     .MV                                                 :SP Normalized
VSH_SP      .V/V                                                :Volume of Shale from SP
~A        DEPTH             DT            ILD             SP        SP_NORM         VSH_SP
# ...
      5938.0000       106.0508         1.2292        60.0727      -35.68304      0.5313103
      5938.5000        103.897         1.2462        59.3274      -36.42622      0.5212672
      5939.0000       106.6976         1.2386        59.2361      -36.51542      0.5200619
      5939.5000       109.4908         1.2231        61.4969      -34.25251      0.5506418
      5940.0000       111.5719         1.1973        64.2029      -31.54439       0.587238
      5940.5000       113.5916         1.1618         67.149      -28.59618      0.6270786
      5941.0000       115.1047         1.1266         66.924      -28.81907      0.6240667
      5941.5000       114.9857         1.0367        63.4927      -32.24826      0.5777262
      5942.0000       113.8423         0.9675        59.0861      -36.65275      0.5182061
      5942.5000       112.6362         0.9188        56.0375      -39.69924      0.4770373
      5943.0000       113.3572         0.8979        57.9557      -37.77893      0.5029875
      5943.5000       115.2589         0.8931        63.0125      -32.72001      0.5713512
      5944.0000        117.028         0.8928        67.5566      -28.17381      0.6327864
      5944.5000       117.3947         0.8903        70.7378      -24.99049      0.6758041
      5945.0000       116.6793         0.8786        73.2825      -22.44368      0.7102205
      5945.5000       116.1904         0.8671        73.4797      -22.24438      0.7129138
      5946.0000       118.6451         0.8558        73.5973      -22.12466      0.7145315
      5946.5000       122.0376         0.8375        73.8474      -21.87245      0.7179399
      5947.0000       124.3794          0.815        76.1223      -19.59544      0.7487102
      5947.5000       125.4237         0.7931        78.6282      -17.08743      0.7826023
      5948.0000        126.636         0.7717        81.1591      -14.55441      0.8168322
      5948.5000       130.7881         0.7217        79.7161      -15.99531      0.7973607
      5949.0000       138.2048         0.6545        76.4648       -19.2445      0.7534527
      5949.5000       145.7419         0.5871        72.3409      -23.36629      0.6977529
      5950.0000       149.5481         0.5479        64.6481      -31.05698      0.5938246
      5950.5000       145.5916         0.5113         56.205      -39.49796      0.4797572
      5951.0000       141.6348         0.4882         47.762      -47.93885      0.3656912
      5951.5000       138.1372         0.4698        38.7274      -56.97134      0.2436306
      5952.0000        134.697         0.4528         38.296      -57.40063      0.2378293
      5952.5000       131.6106         0.4369        42.0848      -53.60972      0.2890579
      5953.0000       128.3411         0.4236        46.7766      -48.91581      0.3524891
      5953.5000       125.3899         0.4123        49.9415       -45.7488      0.3952865
      5954.0000       126.1271          0.411        51.6158      -44.07239      0.4179407
      5954.5000       129.2336         0.4237        54.4419      -41.24417      0.4561598
      5955.0000       133.2805         0.4344        57.5205      -38.16347       0.497791
      5955.5000       138.1748         0.4449        60.4929      -35.18895      0.5379871
      5956.0000       145.2654         0.4541        59.0373      -36.64244      0.5183454
      5956.5000       151.6843         0.4585        56.9903      -38.68734      0.4907117
      5957.0000       152.1982         0.4628        55.1559      -40.51962      0.4659511
      5957.5000        149.425         0.4648        54.9324      -40.74101      0.4629593
      5958.0000       147.0933         0.4633        55.4897      -40.18159       0.470519
      5958.5000        145.135         0.4618        56.2056      -39.46359      0.4802218
      5959.0000        145.406         0.4602        57.0991      -38.56798      0.4923246
      5959.5000        146.365          0.457        56.8253      -38.83966      0.4886532
      5960.0000       147.2751         0.4528        51.7134      -43.94946      0.4196019
      5960.5000        146.499         0.4487        46.8466      -48.81414      0.3538629
      5961.0000       142.5525         0.4446        41.0945      -54.56413      0.2761604
      5961.5000       136.6753         0.4382        38.4435      -57.21302      0.2403645
      5962.0000       127.0823         0.4316        41.3846      -54.26981      0.2801377
      5962.5000       120.4529         0.4251        44.8684       -50.7839      0.3272446
      5963.0000       117.4692         0.4189         46.464      -49.18619      0.3488353
      5963.5000       117.6698         0.4129          42.51      -53.13808      0.2954313
      5964.0000       121.7819         0.4083        37.8933      -57.75267      0.2330721
      5964.5000       125.1592         0.4211        37.3081      -58.33575      0.2251926
      5965.0000        127.318         0.4277        40.6719      -54.96984      0.2706778
      5965.5000       128.3284         0.4237         43.898      -51.74163      0.3143022
      5966.0000       129.1189         0.4136        45.9938      -49.64372      0.3426524
      5966.5000       129.6472            0.4        43.4178      -52.21761      0.3078701
      5967.0000       130.4846         0.3869        40.1866       -55.4467      0.2642338
      5967.5000        131.593         0.3769        36.2728      -59.35839      0.2113732
      5968.0000       131.6506         0.3697        33.2041      -62.42498      0.1699327
      5968.5000       128.2256          0.372        31.8361      -63.79087      0.1514747
      5969.0000       124.5649         0.3793        35.0073      -60.61755      0.1943574
      5969.5000       121.8746         0.3992        40.5243      -55.09845      0.2689399
      5970.0000       120.3049         0.4239        46.8666      -48.75404      0.3546752
      5970.5000       118.7354         0.4714        54.5944      -41.02412      0.4591334
      5971.0000       117.3337         0.5407         61.682      -33.93442      0.5549403
      5971.5000       116.2146         0.6217        64.2329       -31.3814      0.5894405
      5972.0000       116.1866         0.7195        66.9014      -28.71079      0.6255298
      5972.5000       116.3522         0.8346        68.8346      -26.77547      0.6516828
      5973.0000       115.4244         0.9451        69.8243      -25.78367      0.6650856
      5973.5000       114.4855         0.9757        69.8615      -25.74435      0.6656168
      5974.0000       117.0178         0.9814        69.8688      -25.73495      0.6657439
      5974.5000       121.9172         0.9575        70.8904      -24.71124      0.6795779
      5975.0000       125.7966         0.9302        72.9086      -22.69093      0.7068794
      5975.5000       126.1671         0.8983        74.3954      -21.20201      0.7269999
      5976.0000        125.776         0.8649        75.6146      -19.98071       0.743504
      5976.5000       128.7522         0.8328        75.9841      -19.60909      0.7485258
      5977.0000       132.6108         0.8018        76.4648      -19.12628      0.7550502
      5977.5000       135.9307         0.7739        77.1427      -18.44627      0.7642395
      5978.0000       138.3428         0.7482        78.3281      -17.25876       0.780287
      5978.5000       139.9619         0.7234        79.8011      -15.78365       0.800221
      5979.0000       140.7153         0.6995        81.6843      -13.89833      0.8256983
      5979.5000       141.4795          0.683        83.8951      -11.68542      0.8556024
      5980.0000       142.6001         0.6674        85.1631      -10.41531       0.872766
      5980.5000       143.6614         0.6594        85.7571      -9.819199      0.8883646
      5981.0000       144.3684         0.6598        85.3594       -10.2148       0.883357
      5981.5000       143.2371         0.6618        83.7488      -11.82328      0.8629965
