#------------------------------------------------------------------------------
# Created by    : vladimir.rabinovich
# Created on    : 09/19/2023 17:21:35
#------------------------------------------------------------------------------
~Version Information Section
VERS.           2.0     :   CWLS log ASCII Standard - VERSION 2.0
WRAP.           NO      :   One line per depth step
~Well Information Section
#MNEM       .UNIT                                         VALUE :DESCRIPTION
#------------------------------------------------------------------------------
STRT        .FT                                            4200 :START DEPTH
STOP        .FT                                            8641 :STOP DEPTH
STEP        .FT                                             0.5 :STEP      
NULL        .                                           -999.25 :NULL      
COMP        .                                       HUNT OIL CO :COMPANY   
WELL        .                               OCS G25526 ST00BP00 :WELL      
FLD         .                                           WILDCAT :FIELD     
LOC         .                                                   :LOCATION  
CNTY        .                             GALVESTON LARGE BLOCK :LOCATION  
STAT        .                                             TEXAS :STATE     
CTRY        .                                     UNITED STATES :COUNTRY   
SRVC        .                                                   :SERVICE COMPANY
DATE        .                             9/13/2023 11:19:33 AM :LOG DATE  
API         .                                    42706404520000 :API NUMBER
UWI         .                                    42706404520000 :UNIQUE WELL ID
XCOORD      .                                  1090250.84236946 :SURFACE X 
YCOORD      .                                  10532258.5226608 :SURFACE Y 
LAT         .                                         29.010895 :LATITUDE  
LON         .                                        -94.721682 :LONGITUDE 
ELEV        .FT                                             108 :ELEVATION VALUE
ELEV_TYPE   .                                                KB :ELEVATION REFERENCE TYPE
~Curve Information Section
#MNEM       .UNIT                                      API CODE :CURVE DESCRIPTION
#------------------------------------------------------------------------------
DEPT        .FT                                                 :DEPTH     
CALI        .IN                                                 :          
DCAL        .IN                                                 :          
DFL         .OHMM                                               :          
DLOD        .LB                                                 :          
DPHI        .DEC                                                :          
DRHO        .G/C3                                               :          
GR          .GAPI                                               :          
GR_NORM     .GAPI                                               :GammaRay Normalized
HDCN        .MMHO                                               :          
HO24        .OHMM                                               :          
HO30        .OHMM                                               :          
HO40        .OHMM                                               :          
HO60        .OHMM                                               :          
HO90        .OHMM                                               :          
HT24        .OHMM                                               :          
HT30        .OHMM                                               :          
HT40        .OHMM                                               :          
HT60        .OHMM                                               :          
HT90        .OHMM                                               :          
NPHI        .DEC                                                :          
RHOB        .G/C3                                               :          
RWA         .OHMM                                               :          
SP_NORM     .MV                                                 :SP Normalized
SPA         .MV                                                 :          
TENS        .LBS                                                :          
VSH_GR      .V/V                                                :Volume of Shale from GR
VSH_SP      .V/V                                                :Volume of Shale from SP
~A        DEPTH           CALI           DCAL            DFL           DLOD           DPHI           DRHO             GR        GR_NORM           HDCN           HO24           HO30           HO40           HO60           HO90           HT24           HT30           HT40           HT60           HT90           NPHI           RHOB            RWA        SP_NORM            SPA           TENS         VSH_GR         VSH_SP
# ...
      5680.0000        13.4141         1.1641         0.7452       1408.254         0.2046        -0.0222        59.6554       60.31055       1553.595          0.675         0.6689         0.6642         0.6583         0.6512         0.6694         0.6628         0.6577         0.6513         0.6437         0.3387         2.3124         0.0637      -15.07964       149.4846       3206.647      0.5810756      0.7880765
      5680.5000        13.3791         1.1291         0.7197       1404.178         0.2242        -0.0196        56.8079       57.45382       1697.216         0.6301         0.6199         0.6121         0.6025          0.591         0.6361         0.6237         0.6144         0.6028         0.5892          0.339         2.2801         0.0616      -18.23908       147.3902       3214.495      0.5202941      0.7326477
      5681.0000        13.4783         1.2283         0.6978       1420.484         0.2315        -0.0058        55.0974       55.73767       1836.766         0.6026         0.5854         0.5726          0.557          0.539         0.6092         0.5916         0.5786         0.5627         0.5444          0.333          2.268         0.0507      -21.18439       145.4378       3216.543      0.4837802      0.6809756
      5681.5000        13.5585         1.3085         0.6686       1420.484         0.2275         0.0047        55.4729       56.11406       1940.541         0.5899         0.5669         0.5502         0.5302         0.5075         0.5886         0.5684         0.5536         0.5357         0.5153          0.342         2.2746          0.049      -22.61345       144.4911       3212.618      0.4917884      0.6559044
      5682.0000        13.6292         1.3792         0.6514       1410.293         0.2266        -0.0022        57.9552       58.60387       1999.831         0.5715         0.5515         0.5369         0.5192          0.499         0.5698         0.5506         0.5365         0.5195            0.5         0.3571         2.2762         0.0512      -22.28512         144.71       3210.059      0.5447632      0.6616646
      5682.5000        13.7142         1.4642         0.6295       1408.254         0.2316        -0.0213        61.6267       62.28661       2027.233         0.5496         0.5337          0.522         0.5077         0.4912         0.5544         0.5377         0.5254         0.5105         0.4933         0.3692         2.2679         0.0545      -20.87745       145.6448       3214.837      0.6231194      0.6863605
      5683.0000        13.7025         1.4525         0.6091       1438.829         0.2292        -0.0268        66.8678       67.54389       2026.998         0.5401         0.5264         0.5162         0.5037         0.4892         0.5468         0.5324         0.5217         0.5085         0.4933         0.3824         2.2719         0.0573      -18.79177       147.0293       3228.656      0.7349764      0.7229514
      5683.5000         13.767          1.517         0.5876       1457.173         0.2213        -0.0137        72.4219       73.11515       1999.418         0.5466         0.5345         0.5255         0.5144         0.5014         0.5488         0.5358          0.526         0.5141         0.5001         0.3846         2.2848         0.0538      -16.03713       148.8575       3234.969      0.8535138      0.7712784
      5684.0000        13.5174         1.2674         0.5747       1463.288         0.2083         0.0023        75.3893       76.09157        1952.65         0.5545         0.5437         0.5356         0.5256         0.5138         0.5595         0.5469         0.5374         0.5257         0.5121         0.3754         2.3063         0.0529       -12.8276       150.9874       3231.386      0.9168419      0.8275859
      5684.5000        13.4667         1.2167         0.5801       1451.058         0.2042         0.0023        72.0203       72.71172       1896.186         0.5757         0.5638         0.5549         0.5438         0.5309         0.5764         0.5633         0.5535         0.5415         0.5274         0.3663         2.3131         0.0529      -10.26927       152.6854       3227.974      0.8449301       0.872469
      5685.0000        13.3646         1.1146         0.5928       1442.905         0.2074        -0.0106         68.255       68.93429       1854.764         0.6057         0.5929         0.5833         0.5714         0.5575         0.5912         0.5773         0.5669         0.5541         0.5392         0.3646         2.3078         0.0525      -9.352174       153.2948       3227.291      0.7645593      0.8885583
      5685.5000        13.3177         1.0677         0.5991       1463.288          0.214        -0.0164        68.6618       69.34209       1866.655         0.6094          0.595         0.5844         0.5712         0.5559         0.5917         0.5766         0.5654         0.5517         0.5357         0.3751         2.2969         0.0589      -9.621523       153.1173       3229.509      0.7732359      0.8838329
      5686.0000        13.2792         1.0292         0.5807       1463.288         0.2251        -0.0223        68.7713       69.45165       1937.618         0.5814          0.565         0.5529         0.5381          0.521         0.5761         0.5598         0.5478         0.5331         0.5161          0.381         2.2786          0.062      -11.09503       152.1411       3230.874      0.7755671      0.8579819
      5686.5000        13.2373         0.9873         0.5781       1457.173         0.2409        -0.0362        65.4389        66.1085       2028.034          0.552         0.5361         0.5244           0.51         0.4935         0.5554         0.5384         0.5259         0.5106         0.4931         0.3739         2.2525         0.0593      -14.20998       150.0762       3224.732      0.7044361      0.8033336
      5687.0000        13.2238         0.9738         0.5656       1444.944         0.2599        -0.0549        59.2799       59.92986       2112.491         0.5401         0.5229         0.5103         0.4949         0.4773         0.5386         0.5207         0.5075         0.4916         0.4734         0.3664         2.2211         0.0618      -18.26135       147.3902       3220.808      0.5729758      0.7322569
      5687.5000        13.2417         0.9917         0.5662       1457.173         0.2724        -0.0708        57.3659       58.00956       2189.047         0.5346         0.5136         0.4984         0.4801         0.4594         0.5243         0.5056          0.492         0.4755         0.4568         0.3621         2.2005         0.0596      -21.33167       145.3549       3216.372      0.5321184      0.6783917
      5688.0000        13.2507         1.0007         0.5503       1455.135         0.2703        -0.0726        59.4103        60.0601        2247.72         0.5106         0.4917          0.478         0.4614         0.4426         0.5088         0.4911         0.4782         0.4626         0.4449         0.3631          2.204         0.0532      -22.43941       144.6213       3213.131      0.5757467      0.6589577
      5688.5000        13.2596         1.0096         0.5469       1426.599         0.2576        -0.0601         63.332       63.99384       2274.208         0.4916         0.4777         0.4675         0.4549         0.4405         0.4945         0.4795         0.4685         0.4551         0.4397         0.3706          2.225         0.0508      -21.45105        145.278       3216.031      0.6594433      0.6762974
      5689.0000        13.2618         1.0118         0.5434       1432.714         0.2492        -0.0446        68.3698       69.04716       2289.861         0.4884         0.4777         0.4698         0.4599         0.4484         0.4824         0.4701          0.461         0.4497         0.4367         0.3841         2.2389         0.0521      -19.90059       146.3075       3221.831      0.7669608      0.7034984
      5689.5000        13.2881         1.0381         0.5238       1459.212         0.2489        -0.0368        74.1689       74.86419       2335.319         0.4779          0.468         0.4606         0.4514         0.4407         0.4686         0.4578         0.4498         0.4398         0.4282         0.4017         2.2393         0.0551      -18.18067       147.4494       3229.168      0.8907274      0.7336724
