#------------------------------------------------------------------------------
# Created by    : vladimir.rabinovich
# Created on    : 09/19/2023 17:19:48
#------------------------------------------------------------------------------
~Version Information Section
VERS.           2.0     :   CWLS log ASCII Standard - VERSION 2.0
WRAP.           NO      :   One line per depth step
~Well Information Section
#MNEM       .UNIT                                         VALUE :DESCRIPTION
#------------------------------------------------------------------------------
STRT        .FT                                             130 :START DEPTH
STOP        .FT                                            9502 :STOP DEPTH
STEP        .FT                                             0.5 :STEP      
NULL        .                                           -999.25 :NULL      
COMP        .            MOBIL PRODUCING TEXAS & NEW MEXICO INC :COMPANY   
WELL        .                               OCS G07243 ST00BP00 :WELL      
FLD         .                                           WILDCAT :FIELD     
LOC         .                                                   :LOCATION  
CNTY        .                             GALVESTON LARGE BLOCK :LOCATION  
STAT        .                                             TEXAS :STATE     
CTRY        .                                     UNITED STATES :COUNTRY   
SRVC        .                                                   :SERVICE COMPANY
DATE        .                             9/13/2023 11:19:36 AM :LOG DATE  
API         .                                    42706401330000 :API NUMBER
UWI         .                                    42706401330000 :UNIQUE WELL ID
XCOORD      .                                  993943.906145108 :SURFACE X 
YCOORD      .                                  10496155.9223708 :SURFACE Y 
LAT         .                                         28.907432 :LATITUDE  
LON         .                                        -95.020991 :LONGITUDE 
ELEV        .FT                                              92 :ELEVATION VALUE
ELEV_TYPE   .                                                KB :ELEVATION REFERENCE TYPE
~Curve Information Section
#MNEM       .UNIT                                      API CODE :CURVE DESCRIPTION
#------------------------------------------------------------------------------
DEPT        .FT                                                 :DEPTH     
ASFL        .OHMM                                               :          
CILD        .MMHO                                               :          
DT          .US/F                                               :          
GR          .GAPI                                               :          
GR_NORM     .GAPI                                               :GammaRay Normalized
ILD         .OHMM                                               :          
SP          .MV                                                 :          
SP_NORM     .GAPI                                               :SP Normalized
VSH_GR      .V/V                                                :Volume of Shale from GR
VSH_SP      .V/V                                                :Volume of Shale from SP
~A        DEPTH           ASFL           CILD             DT             GR        GR_NORM            ILD             SP        SP_NORM         VSH_GR         VSH_SP
# ...
       154.5000         1.3319       2090.219        -999.25        13.2773       28.18774         1.3264        -999.25        -999.25              0        -999.25
       155.0000         1.3269       2773.395        -999.25        12.9325       27.66573         1.3901        -999.25        -999.25              0        -999.25
       155.5000         1.2496       3468.758        -999.25        12.7038       27.31948         1.2096        -999.25        -999.25              0        -999.25
       156.0000         1.1023       3613.434        -999.25        12.6196       27.19201          1.031        -999.25        -999.25              0        -999.25
       156.5000         0.8002       3727.664        -999.25        12.7747       27.42682          0.903        -999.25        -999.25              0        -999.25
       157.0000         0.6831       3658.125        -999.25        12.9573       27.70327          0.795        -999.25        -999.25              0        -999.25
       157.5000         0.7515       3373.254        -999.25        13.1809        28.0418         0.7065        -999.25        -999.25              0        -999.25
       158.0000         0.8721       3179.496        -999.25        13.3124       28.24089         0.8619        -999.25        -999.25              0        -999.25
       158.5000         0.9187        3139.32        -999.25        13.4438       28.43983         0.9706        -999.25        -999.25              0        -999.25
       159.0000         0.9628       3104.777        -999.25        13.6067       28.68645         1.0502        -999.25        -999.25              0        -999.25
       159.5000         1.0213        3038.07        -999.25        14.1472       29.50475          1.122        -999.25        -999.25              0        -999.25
       160.0000         1.1238       2261.703        -999.25        15.6217       31.73711          1.224        -999.25        -999.25              0        -999.25
       160.5000         1.7908       1340.916        -999.25        18.3081       35.80424         1.4078        -999.25        -999.25     0.05966463        -999.25
       161.0000          1.878       782.6318        -999.25        19.3077       37.31761         1.6446        -999.25        -999.25     0.09186408        -999.25
       161.5000         2.1582       753.0947        -999.25        20.5096       39.13726         1.9664        -999.25        -999.25        0.13058        -999.25
       162.0000         2.3005       721.0645        -999.25        21.3958       40.47894         2.1849        -999.25        -999.25      0.1591263        -999.25
       162.5000         2.2917       689.0342        -999.25        22.6003       42.30252          2.243        -999.25        -999.25       0.197926        -999.25
       163.0000         2.2025       657.7422        -999.25        23.6461       43.88583          2.302        -999.25        -999.25      0.2316135        -999.25
       163.5000         2.1316       626.4678        -999.25        24.1688       44.67719         2.2248        -999.25        -999.25      0.2484508        -999.25
       164.0000         2.0722       601.6787        -999.25        24.6914       45.46839          2.115        -999.25        -999.25      0.2652848        -999.25
       164.5000         1.9476       577.4629        -999.25        25.2141       46.25975         2.0001        -999.25        -999.25      0.2821223        -999.25
       165.0000         1.9155       557.3057        -999.25        25.7368        47.0511         1.9791        -999.25        -999.25      0.2989596        -999.25
       165.5000          1.884       541.9775        -999.25        26.3545       47.98628         1.9529        -999.25        -999.25      0.3188571        -999.25
       166.0000         1.9477       528.6299        -999.25        27.1092       49.12887         1.9174        -999.25        -999.25      0.3431675        -999.25
       166.5000         2.0414       518.0918        -999.25        28.0021       50.48069         1.9115        -999.25        -999.25      0.3719296        -999.25
       167.0000         2.2357       507.5547        -999.25        28.7801       51.65857         2.0231        -999.25        -999.25      0.3969908        -999.25
       167.5000         2.3468       496.7017        -999.25        29.5116       52.76604         2.1094        -999.25        -999.25      0.4205541        -999.25
       168.0000         2.4371       484.0757        -999.25         30.528       54.30484         2.1669        -999.25        -999.25      0.4532945        -999.25
       168.5000         2.5137       471.4502        -999.25        30.7685       54.66896         2.2538        -999.25        -999.25      0.4610417        -999.25
       169.0000         2.5903       458.8242        -999.25        30.9651        54.9666         2.3247        -999.25        -999.25      0.4673745        -999.25
       169.5000         2.6924       443.0532        -999.25        31.0761       55.13465         2.2977        -999.25        -999.25      0.4709501        -999.25
       170.0000         2.8022       425.8145        -999.25        31.1871        55.3027         2.3499        -999.25        -999.25      0.4745255        -999.25
       170.5000         2.9895       417.8677        -999.25        31.3147       55.49589         2.4904        -999.25        -999.25      0.4786359        -999.25
       171.0000         3.3997       452.7139        -999.25        31.5444       55.84365         2.6893        -999.25        -999.25      0.4860352        -999.25
       171.5000         3.1423       495.2266        -999.25        31.8123       56.24924         3.1212        -999.25        -999.25      0.4946648        -999.25
       172.0000         2.8518       568.2178        -999.25        32.1107       56.70102          3.023        -999.25        -999.25      0.5042769        -999.25
       172.5000         2.6374       830.7695        -999.25        32.4252       57.17716         2.8053        -999.25        -999.25      0.5144076        -999.25
       173.0000         2.4694       1188.686        -999.25        32.6808       57.56413          2.669        -999.25        -999.25      0.5226411        -999.25
       173.5000         2.3498       1487.674        -999.25        32.7936       57.73489         2.5521        -999.25        -999.25      0.5262743        -999.25
       174.0000         2.2323       1596.445        -999.25        32.7446       57.66072         2.3821        -999.25        -999.25      0.5246963        -999.25
       174.5000         2.1067       1750.898        -999.25        32.3906       57.12476         2.2186        -999.25        -999.25      0.5132928        -999.25
       175.0000         1.9041       1935.561        -999.25        32.0146       56.55552         2.0869        -999.25        -999.25      0.5011812        -999.25
       175.5000         1.7358       2492.086        -999.25           31.4       55.62504         1.4141        -999.25        -999.25      0.4813838        -999.25
       176.0000         1.4306       2622.105        -999.25        31.0472        55.0909         1.1537        -999.25        -999.25      0.4700192        -999.25
       176.5000         1.1024       3052.941        -999.25        30.8525       54.79613         0.9939        -999.25        -999.25      0.4637474        -999.25
       177.0000         1.0279       2844.086        -999.25        30.6861       54.54421         0.8916        -999.25        -999.25      0.4583874        -999.25
       177.5000         1.0543       2085.223        -999.25        30.3896       54.09531          0.982        -999.25        -999.25      0.4488364        -999.25
       178.0000         1.0986        1890.93        -999.25        29.6955       53.04446         1.1011        -999.25        -999.25      0.4264779        -999.25
       178.5000         1.1882       1780.557        -999.25        29.1884       52.27673         1.1558        -999.25        -999.25      0.4101432        -999.25
