#------------------------------------------------------------------------------
# Created by    : vladimir.rabinovich
# Created on    : 09/19/2023 17:19:56
#------------------------------------------------------------------------------
~Version Information Section
VERS.           2.0     :   CWLS log ASCII Standard - VERSION 2.0
WRAP.           NO      :   One line per depth step
~Well Information Section
#MNEM       .UNIT                                         VALUE :DESCRIPTION
#------------------------------------------------------------------------------
STRT        .FT                                            3966 :START DEPTH
STOP        .FT                                           12200 :STOP DEPTH
STEP        .FT                                             0.5 :STEP      
NULL        .                                           -999.25 :NULL      
COMP        .                       HOUSTON OIL & MINERALS CORP :COMPANY   
WELL        .                                ST TR 00526-L SW/4 :WELL      
FLD         .                                           CAVALLO :FIELD     
LOC         .                                                   :LOCATION  
CNTY        .                      MATAGORDA ISLAND LARGE BLOCK :LOCATION  
STAT        .                                             TEXAS :STATE     
CTRY        .                                     UNITED STATES :COUNTRY   
SRVC        .                                                   :SERVICE COMPANY
DATE        .                             9/13/2023 11:19:05 AM :LOG DATE  
API         .                                    42703302090000 :API NUMBER
UWI         .                                    42703302090000 :UNIQUE WELL ID
XCOORD      .                                  601997.830501628 :SURFACE X 
YCOORD      .                                  10286578.1750905 :SURFACE Y 
LAT         .                                        28.3077871 :LATITUDE  
LON         .                                       -96.2273179 :LONGITUDE 
ELEV        .FT                                             113 :ELEVATION VALUE
ELEV_TYPE   .                                                KB :ELEVATION REFERENCE TYPE
~Curve Information Section
#MNEM       .UNIT                                      API CODE :CURVE DESCRIPTION
#------------------------------------------------------------------------------
DEPT        .FT                                                 :DEPTH     
ASFL        .OHMM                                               :          
CILD        .MMHO                                               :          
ILD         .OHMM                                               :          
SP          .MV                                                 :          
SP_NORM     .MV                                                 :SP Normalized
VSH_SP      .V/V                                                :Volume of Shale from SP
~A        DEPTH           ASFL           CILD            ILD             SP        SP_NORM         VSH_SP
# ...
      7234.0000         1.0598       974.1961           1.08            -63      -1.996239      0.9865373
      7234.5000          1.004       990.0392           1.08          -61.5     -0.4921951              1
      7235.0000         0.9442       1001.961           1.08          -59.7       1.311844              1
      7235.5000         0.9442       1001.961           1.08          -59.7       1.315884              1
      7236.0000         0.9522       1001.961           1.04          -59.7       1.319927              1
      7236.5000          1.008           1000           1.04            -60       1.023968              1
      7237.0000         1.0677       994.1177           1.04          -60.3      0.7280121              1
      7237.5000         1.1243       982.2745           1.04          -60.9      0.1320496              1
      7238.0000         1.1841        970.353           1.04          -61.2     -0.1639061              1
      7238.5000          1.243       958.5098           1.04          -61.8     -0.7598648              1
      7239.0000         1.1681       946.5883           1.04          -62.4      -1.355824      0.9951916
      7239.5000         1.0916       942.5883           1.04          -63.3      -2.251781       0.983084
      7240.0000         1.0159       934.6667           1.04          -62.1      -1.047737      0.9993549
      7240.5000         0.9402       934.6667           1.04          -60.9      0.1562996              1
      7241.0000         0.9713       934.6667         1.0399          -59.4       1.660343              1
      7241.5000         1.0438       934.6667         1.0399          -58.2       2.864384              1
      7242.0000         1.1195       938.5883         1.0398            -57       4.068424              1
      7242.5000         1.1952       946.5098         1.0199          -55.5       5.572468              1
      7243.0000         1.2701        958.353              1          -55.5       5.576508              1
      7243.5000         1.3371       970.2745         0.9803          -55.5       5.577847              1
      7244.0000         1.2382       978.1961         0.9802          -55.8       5.277847              1
      7244.5000         1.1386       986.1177         0.9802          -56.7       4.377846              1
      7245.0000         1.0382       996.0261         0.9703         -60.45      0.6278458              1
      7245.5000         1.0574       1025.725         0.9405          -63.9      -2.822155      0.9753763
      7246.0000         1.1458       1041.569         0.9206          -63.9      -2.822155      0.9753763
      7246.5000         1.2375       1057.412         0.9007          -63.9      -2.822155      0.9753763
      7247.0000         1.2287       1081.177         0.8807          -62.1      -1.022152      0.9997007
      7247.5000          1.141       1104.941         0.8806          -60.6      0.4778481              1
      7248.0000         1.0486       1128.706         0.8805          -59.7       1.377846              1
      7248.5000          0.961       1152.471         0.8604          -59.7       1.377846              1
      7249.0000         0.8685       1176.235         0.8403          -63.3      -2.222153      0.9834844
      7249.5000         0.8645           1200         0.8202          -66.9      -5.822155      0.9348357
      7250.0000         0.8677           1224            0.8          -70.5      -9.422153      0.8861871
      7250.5000         0.8717           1256           0.78          -74.1      -13.02215      0.8375385
      7251.0000          0.996           1280           0.78       -78.2934      -17.21556      0.7808709
      7251.5000         1.1203           1304           0.76       -78.2901      -17.21225      0.7809155
      7252.0000         1.2438           1336           0.74       -78.2868      -17.20895      0.7809601
      7252.5000         1.1641           1360           0.72       -77.0895      -16.01165      0.7971398
      7253.0000         1.0837           1392            0.7       -75.5964      -14.51855      0.8173169
      7253.5000          1.004           1432           0.68          -74.1      -13.02215      0.8375385
      7254.0000         0.9243           1472           0.66          -72.6      -11.52215      0.8578088
      7254.5000         0.8359           1536            0.6       -76.1893      -15.11145      0.8093047
      7255.0000            0.8           1616           0.58       -80.0495      -18.97165      0.7571398
      7255.5000         0.7371           1688           0.54       -83.9021      -22.82425      0.7050776
      7256.0000         0.7179           1768           0.52       -87.4506      -26.37275      0.6571249
      7256.5000         0.7139           1856           0.48       -91.2959      -30.21805      0.6051615
      7257.0000         0.7139           1936           0.46        -95.159      -34.08115      0.5529574
      7257.5000          0.745           2016           0.44       -99.0149      -37.93705      0.5008506
      7258.0000          0.808           2104            0.4      -104.8357      -43.75785      0.4221911
      7258.5000         0.8438           2300           0.38      -108.7013      -47.62346      0.3699533
      7259.0000         0.8757           2416           0.36      -112.5622      -51.48436       0.317779
      7259.5000         0.9084           2464           0.32      -114.5122      -53.43435      0.2914277
      7260.0000         0.9084           2552            0.3      -114.6529      -53.57505      0.2895263
      7260.5000         0.9084           2688           0.26        -114.95      -53.87215      0.2855115
      7261.0000         0.9442       2823.765           0.22      -115.2471      -54.16925      0.2814966
      7261.5000         0.9139       2958.431           0.22      -115.2471      -54.16925      0.2814966
      7262.0000         0.8717       3089.098           0.22      -115.8412      -54.76336      0.2734682
      7262.5000         0.8717           3224            0.2      -116.7324      -55.65455       0.261425
      7263.0000         0.9243           3240            0.2      -117.6235      -56.54565      0.2493831
      7263.5000         0.9243           3248           0.22      -118.2176      -57.13975      0.2413547
      7264.0000         0.9243           3240           0.22      -119.1088      -58.03096      0.2293114
      7264.5000         0.9801           3224           0.24           -120      -58.92215      0.2172682
      7265.0000         1.0319       3104.941           0.26         -120.9      -59.82215       0.205106
      7265.5000         1.0876       2982.196           0.28         -121.5      -60.42215      0.1969979
      7266.0000         1.1402       2855.451            0.3         -122.4      -61.32215      0.1848357
      7266.5000          1.196           2728           0.34         -123.3      -62.22216      0.1726736
      7267.0000         1.2478           2600           0.36         -124.2      -63.12215      0.1605115
      7267.5000         1.3044           2480           0.38         -124.2      -63.12215      0.1605115
      7268.0000         1.3363           2496            0.4         -124.5      -63.42215      0.1564574
      7268.5000         1.4311           2512            0.4         -124.8      -63.72216      0.1524033
      7269.0000         1.4271           2584            0.4         -125.1      -64.02216      0.1483492
      7269.5000         1.3482           2656            0.4         -127.8      -66.72215      0.1118628
      7270.0000         1.2677           2728           0.36         -128.4      -67.32214      0.1037548
      7270.5000         1.1841       2807.922           0.32         -130.2      -69.12215     0.07943045
      7271.0000         1.1044       2879.216            0.3           -132      -70.92215     0.05510608
      7271.5000         1.0239        2950.51           0.28         -133.8      -72.72215     0.03078172
