#------------------------------------------------------------------------------
# Created by    : vladimir.rabinovich
# Created on    : 09/19/2023 17:21:03
#------------------------------------------------------------------------------
~Version Information Section
VERS.           2.0     :   CWLS log ASCII Standard - VERSION 2.0
WRAP.           NO      :   One line per depth step
~Well Information Section
#MNEM       .UNIT                                         VALUE :DESCRIPTION
#------------------------------------------------------------------------------
STRT        .FT                                          2542.5 :START DEPTH
STOP        .FT                                            8214 :STOP DEPTH
STEP        .FT                                             0.5 :STEP      
NULL        .                                           -999.25 :NULL      
COMP        .                          SEAGULL ENERGY E & P INC :COMPANY   
WELL        .                               OCS G12505 ST00BP00 :WELL      
FLD         .                              GALVESTON BLOCK 0357 :FIELD     
LOC         .                                                   :LOCATION  
CNTY        .                             GALVESTON LARGE BLOCK :LOCATION  
STAT        .                                             TEXAS :STATE     
CTRY        .                                     UNITED STATES :COUNTRY   
SRVC        .                                                   :SERVICE COMPANY
DATE        .                             9/13/2023 11:19:54 AM :LOG DATE  
API         .                                    42706403610000 :API NUMBER
UWI         .                                    42706403610000 :UNIQUE WELL ID
XCOORD      .                                  1003713.76055251 :SURFACE X 
YCOORD      .                                  10412171.7759297 :SURFACE Y 
LAT         .                                          28.67696 :LATITUDE  
LON         .                                        -94.986081 :LONGITUDE 
ELEV        .FT                                              96 :ELEVATION VALUE
ELEV_TYPE   .                                                KB :ELEVATION REFERENCE TYPE
~Curve Information Section
#MNEM       .UNIT                                      API CODE :CURVE DESCRIPTION
#------------------------------------------------------------------------------
DEPT        .FT                                                 :DEPTH     
AT10        .OHMM                                               :          
AT20        .OHMM                                               :          
AT30        .OHMM                                               :          
AT60        .OHMM                                               :          
AT90        .OHMM                                               :          
DCAL        .IN                                                 :          
DPSS        .V/V                                                :          
DTLF        .US/FT                                              :          
DTLN        .US/FT                                              :          
GR          .GAPI                                               :          
GR_NORM     .GAPI                                               :GammaRay Normalized
NPSS        .V/V                                                :Neutron Porosity Sandstone
SP          .MV                                                 :          
SP_NORM     .MV                                                 :SP Normalized
TENS        .LB                                                 :          
VSH_GR      .V/V                                                :Volume of Shale from GR
VSH_SP      .V/V                                                :Volume of Shale from SP
~A        DEPTH           AT10           AT20           AT30           AT60           AT90           DCAL           DPSS           DTLF           DTLN             GR        GR_NORM           NPSS             SP        SP_NORM           TENS         VSH_GR         VSH_SP
# ...
      7807.5000         0.9723         0.8514         0.7633         0.6841         0.6705           0.12         0.2508          105.2          105.6        74.7059       63.36137         0.3329       -25.4902      -24.17651       3605.611      0.6459866      0.6546213
      7808.0000         0.9643          0.836         0.7569         0.6844         0.6707           0.24         0.2532          105.4          105.8        76.4706         65.479         0.3341       -24.5098      -23.19477       3601.485      0.6910427      0.6686462
      7808.5000         0.9078         0.7777         0.7505         0.6917         0.6778           0.32         0.2364            105          105.4             80       69.71429          0.378       -21.3725      -20.05613        3597.36      0.7811552      0.7134838
      7809.0000         0.9079         0.7712         0.7442         0.6921         0.6781           0.36         0.2172          104.4          104.8           82.2       72.35429          0.402          -19.8      -18.48229       3593.234      0.8373252      0.7359673
      7809.5000         0.9079         0.7579         0.7249         0.6646         0.6512           0.36         0.2172          104.4          104.8        79.2157       68.77313           0.39       -23.9216      -22.60255       3589.109      0.7611305      0.6771064
      7810.0000            0.9         0.7383         0.6717         0.6251         0.6124            0.2         0.2376          104.4          104.8        72.1569       60.30257          0.366       -30.3922      -29.07181       3584.983      0.5809057      0.5846884
      7810.5000         0.8838         0.7384         0.6188         0.5948         0.5846           0.12         0.2652            104          104.4        68.6275       56.06729         0.3494       -33.7255      -32.40377       3584.218      0.4907934       0.537089
      7811.0000          0.868         0.7384         0.6188         0.5795         0.5695           0.12         0.2652          103.6            104        71.9639       60.07096         0.3529       -28.6253      -27.30223        3585.69       0.575978      0.6099681
      7811.5000         0.8919         0.7517         0.6928         0.6188         0.6062           0.28          0.234          102.6            103        76.8797       65.96993         0.3672       -20.1713      -18.84689        3587.16      0.7014879      0.7307587
      7812.0000          0.924         0.8146         0.7652         0.7063         0.6928           0.36          0.198          100.8          101.2        84.2206       74.77901         0.3744       -12.9893      -11.66355       3588.626      0.8889151      0.8333778
      7812.5000         0.9913         0.8838         0.8447         0.7929         0.7789            0.4           0.18           98.8           99.2        87.2127       78.36953         0.3732        -8.7755      -7.448413       3590.089      0.9653091      0.8935941
      7813.0000         1.0757          0.957         0.9159         0.8759         0.8601            0.4          0.186           95.6             96        85.2265       75.98609           0.36        -17.757      -16.42857       3591.549      0.9145977      0.7653061
      7813.5000         1.2111         1.0467         0.9826         0.9322         0.9159           0.28         0.1908           91.8           92.2        75.5262       64.34573         0.3341       -27.2371      -25.90733       3593.006      0.6669303      0.6298952
      7814.0000          1.376         1.1466         1.0562         0.9404          0.924           0.16         0.1824        89.1837        89.5918        66.0784       53.00837         0.3047        -35.098      -33.76689        3594.46        0.42571      0.5176159
      7814.5000          1.376         1.1466         1.0184          0.868         0.8524           0.12          0.174        88.9796        89.3878        61.1765       47.12609         0.2952       -38.2353      -36.90285       3595.912      0.3005551      0.4728164
      7815.0000         1.2447         1.0184          0.868          0.772         0.7584           0.04         0.1824           91.2           91.6        60.9804       46.89077         0.3129       -39.4118      -38.07801        3597.36      0.2955482      0.4560284
      7815.5000         1.1055          0.868         0.7859         0.7063         0.6928           0.04          0.198           95.6             96        64.5098       51.12605         0.3235       -34.1176      -32.78247       3598.805      0.3856607      0.5316789
      7816.0000         1.0092         0.8295         0.7517         0.6718         0.6581           0.04         0.2076           98.8           99.2        68.6275       56.06729         0.3282       -29.6033      -28.26683       3600.247      0.4907934      0.5961881
      7816.5000         1.0092          0.822         0.7517            0.7         0.6858           0.04         0.2148          100.8          101.2        71.9851       60.09641         0.3306       -26.6252       -25.2874       3601.686      0.5765193      0.6387515
      7817.0000         1.0092          0.822         0.7652         0.7319         0.7189           0.04         0.2208          101.8          102.2        75.9617       64.86832           0.34       -23.0445      -21.70535       3603.122      0.6780494      0.6899235
      7817.5000              1         0.8295         0.7789         0.7517         0.7384           0.04         0.2256            102          102.4        77.7582       67.02413         0.3648       -21.8439      -20.50342       3604.556      0.7239177      0.7070941
      7818.0000         0.9655         0.7929         0.7517         0.7254         0.7126           0.04         0.2244          101.4          101.8        78.5625       67.98929         0.3768       -24.6239      -23.28207       3605.986       0.744453      0.6673989
      7818.5000          0.924          0.745         0.7063         0.6581         0.6448           0.24         0.2256          100.2          100.6        77.1754       66.32477         0.3744       -34.1176      -32.77444       3607.414      0.7090376      0.5317938
      7819.0000         0.9079         0.7126         0.6514         0.6062         0.5948           0.16          0.234            100          100.4        69.6078       57.24365         0.3482       -45.7143      -44.36979       3608.838      0.5158224      0.3661458
      7819.5000         0.9322         0.6858         0.6062         0.5695         0.5597           0.08          0.246           99.2           99.6        60.3922       46.18493         0.3306          -53.2      -51.85416        3610.26      0.2805304      0.2592263
      7820.0000         0.9655            0.7         0.5795          0.536         0.5267           0.04         0.2544           97.6             98        54.2857       38.85713           0.32          -59.2      -57.85282       3611.678      0.1246198      0.1735312
      7820.5000              1         0.7189         0.5795         0.5267         0.5177           0.04          0.258           95.6             96        52.8571       37.14281         0.3047          -61.8      -60.45148       3611.395     0.08814491      0.1364075
      7821.0000         1.0277         0.7126         0.5846         0.5267         0.5177           0.04         0.2484           94.4           94.8        53.8776       38.36741         0.3035            -61      -59.65014       3609.976      0.1142003      0.1478552
      7821.5000              1         0.6858         0.5846         0.5313         0.5222           0.04         0.2388           94.4           94.8        55.9184       40.81637         0.3082          -60.2       -58.8488       3608.553      0.1663057      0.1593029
      7822.0000         0.9404         0.6514         0.5795         0.5177         0.5088           0.08         0.2448             95           95.4        56.9388       42.04085         0.3176          -62.6      -61.24746       3607.128      0.1923585      0.1250363
