#------------------------------------------------------------------------------
# Created by    : vladimir.rabinovich
# Created on    : 09/19/2023 17:20:24
#------------------------------------------------------------------------------
~Version Information Section
VERS.           2.0     :   CWLS log ASCII Standard - VERSION 2.0
WRAP.           NO      :   One line per depth step
~Well Information Section
#MNEM       .UNIT                                         VALUE :DESCRIPTION
#------------------------------------------------------------------------------
STRT        .FT                                            2124 :START DEPTH
STOP        .FT                                            8264 :STOP DEPTH
STEP        .FT                                             0.5 :STEP      
NULL        .                                           -999.25 :NULL      
COMP        .                               SUPERIOR OIL CO THE :COMPANY   
WELL        .                                     ST TR 00009-L :WELL      
FLD         .                                           WILDCAT :FIELD     
LOC         .                                                   :LOCATION  
CNTY        .                           HIGH ISLAND LARGE BLOCK :LOCATION  
STAT        .                                             TEXAS :STATE     
CTRY        .                                     UNITED STATES :COUNTRY   
SRVC        .                                                   :SERVICE COMPANY
DATE        .                             9/13/2023 11:19:15 AM :LOG DATE  
API         .                                    42708300270000 :API NUMBER
UWI         .                                    42708300270000 :UNIQUE WELL ID
XCOORD      .                                  1318170.30554107 :SURFACE X 
YCOORD      .                                  10738395.6931535 :SURFACE Y 
LAT         .                                        29.5851559 :LATITUDE  
LON         .                                       -94.0141459 :LONGITUDE 
ELEV        .FT                                              72 :ELEVATION VALUE
ELEV_TYPE   .                                                KB :ELEVATION REFERENCE TYPE
~Curve Information Section
#MNEM       .UNIT                                      API CODE :CURVE DESCRIPTION
#------------------------------------------------------------------------------
DEPT        .FT                                                 :DEPTH     
ASN         .OHMM                                               :          
CILD        .MMHO                                               :          
ILD         .OHMM                                               :          
SN          .OHMM                                               :          
SP          .MV                                                 :          
SP_NORM     .MV                                                 :SP Normalized
VSH_SP      .V/V                                                :Volume of Shale from SP
~A        DEPTH            ASN           CILD            ILD             SN             SP        SP_NORM         VSH_SP
# ...
      2928.0000         0.6856       2083.406         0.5635         0.6941       -87.2107      -15.69555       0.650106
      2928.5000         0.6885       2089.496         0.5652         0.7046       -88.3186      -16.80345      0.6237273
      2929.0000         0.6934        2067.59         0.5707         0.7156       -88.8463      -17.33115      0.6111632
      2929.5000         0.7021       1971.441         0.5786         0.7272       -89.3658      -17.85065      0.5987941
      2930.0000         0.7121        1917.34          0.596         0.7354       -89.5894      -18.07425      0.5934703
      2930.5000         0.7255       1857.156          0.613         0.7422        -89.439      -17.92385      0.5970511
      2931.0000         0.7371       1799.791         0.6242         0.7475       -88.5438      -17.02865      0.6183655
      2931.5000         0.7465       1741.527         0.6354         0.7524       -87.0511      -15.53595       0.653906
      2932.0000         0.7527       1703.873         0.6442         0.7536       -85.2279      -13.71275      0.6973156
      2932.5000         0.7471       1691.883         0.6489         0.7545       -83.7504      -12.23524      0.7324942
      2933.0000         0.7405        1710.65         0.6409         0.7582       -82.7587      -11.24355      0.7561061
      2933.5000         0.7367       1746.162           0.62         0.7595       -82.2698      -10.75465      0.7677465
      2934.0000          0.737       1799.965         0.5966         0.7602       -82.2384      -10.72325       0.768494
      2934.5000         0.7412       1888.656         0.5733         0.7634       -83.6172      -12.10205      0.7356654
      2935.0000         0.7526       2007.824         0.5529         0.7742       -86.0208      -14.50565       0.678437
      2935.5000         0.7705       2142.648         0.5327          0.796       -90.1294      -18.61425      0.5806131
      2936.0000         0.7918       2342.508         0.5099         0.8155       -94.2382      -22.72305      0.4827846
      2936.5000         0.8141       2511.168         0.4887         0.8393       -98.3468      -26.83165      0.3849607
      2937.0000         0.8362        2679.48          0.473         0.8592      -102.4554      -30.94025       0.287137
      2937.5000          0.855       2816.938         0.4591         0.8743      -106.5013      -34.98615      0.1908061
      2938.0000         0.8714       2983.254         0.4499         0.8878      -108.8572      -37.34205      0.1347131
      2938.5000         0.8856       3102.176         0.4407         0.8988      -110.5906      -39.07545     0.09344174
      2939.0000         0.8965       3201.707         0.4299         0.9053      -111.8577      -40.34254     0.06327275
      2939.5000         0.8999       3320.523         0.4191         0.9037      -112.4703      -40.95515     0.04868698
      2940.0000         0.8947       3453.148         0.4094         0.8878      -112.8229      -41.30775     0.04029174
      2940.5000         0.8862       3541.316         0.4043         0.8635      -112.9435      -41.42834     0.03742036
      2941.0000         0.8705       3611.293          0.402         0.8377      -113.0302      -41.51505     0.03535607
      2941.5000         0.8457       3644.102         0.3997         0.8109      -113.1111      -41.59595     0.03342983
      2942.0000         0.8189       3609.051         0.3974          0.784      -113.1445      -41.62935     0.03263455
      2942.5000         0.7926       3539.723         0.3951         0.7624      -113.0439      -41.52875     0.03502982
      2943.0000         0.7653       3464.316         0.3928         0.7459      -112.8317      -41.31655     0.04008212
      2943.5000         0.7441       3418.859         0.3905         0.7413      -112.5273      -41.01215     0.04732986
      2944.0000         0.7511       3374.152         0.3906         0.7557      -112.2778      -40.76265     0.05327025
      2944.5000         0.7826       3342.145         0.3924         0.8028      -112.0336      -40.51845     0.05908458
      2945.0000         0.8022       3311.453         0.3958         0.8337       -111.973      -40.45785     0.06052744
      2945.5000         0.8109        3261.84         0.3942         0.8266      -112.3229      -40.80775      0.0521965
      2946.0000         0.8052       3199.266         0.3938         0.8021      -113.0115      -41.49635      0.0358013
      2946.5000         0.7923       3163.988         0.3967          0.784      -113.6237      -42.10855     0.02122498
      2947.0000         0.7827       3143.145         0.3997         0.7732      -113.6785      -42.16335     0.01992035
      2947.5000         0.7737       3118.574         0.4025         0.7694      -113.1782      -41.66305      0.0318322
      2948.0000         0.7711       3071.023          0.407         0.7708      -112.5491      -41.03395     0.04681069
      2948.5000         0.7842       3003.914         0.4119         0.7762      -111.9353      -40.42015     0.06142498
      2949.0000         0.7885       2959.605         0.4109          0.788      -111.7714      -40.25625     0.06532742
      2949.5000         0.7944       2936.688         0.4089         0.8075      -111.9139      -40.39875     0.06193452
      2950.0000         0.8114       2972.441         0.4045         0.8332      -112.4756      -40.96045     0.04856073
      2950.5000         0.8397       3079.945         0.3992           0.86      -113.3441      -41.82895     0.02788217
      2951.0000         0.8681       3209.031         0.3919         0.8776      -114.1196      -42.60445    0.009417943
      2951.5000         0.8753       3339.266         0.3812         0.8764      -114.7555      -43.24035              0
      2952.0000         0.8663       3469.496         0.3687         0.8584      -115.1857      -43.67055              0
      2952.5000         0.8485       3594.848         0.3564         0.8386      -115.4381      -43.92295              0
      2953.0000         0.8335       3670.082         0.3504         0.8225      -115.5969      -44.08175              0
      2953.5000         0.8239       3704.992         0.3466         0.8141      -115.7151      -44.19995              0
      2954.0000         0.8178       3700.238         0.3491         0.8078      -115.7782      -44.26305              0
      2954.5000         0.8165       3673.695         0.3535          0.804      -115.7396      -44.22445              0
      2955.0000         0.8167       3632.449          0.364         0.8021      -115.5963      -44.08115              0
      2955.5000         0.8182       3579.395         0.3745         0.8057      -115.3713      -43.85615              0
      2956.0000         0.8165       3514.953         0.3849         0.8105      -115.2051      -43.68995              0
      2956.5000         0.8138       3408.445         0.3945         0.8206      -115.0577      -43.54255              0
      2957.0000         0.8166       3295.258         0.4017          0.831      -114.9379      -43.42274              0
      2957.5000         0.8233        3200.16         0.4078         0.8418      -114.8734      -43.35825              0
      2958.0000          0.831       3124.629         0.4123         0.8538      -114.7975      -43.28235              0
      2958.5000         0.8435       3063.398          0.416         0.8715       -114.655      -43.13985              0
      2959.0000         0.8691       3013.496         0.4188         0.8973      -114.3871      -42.87195    0.003048851
      2959.5000         0.9086       2990.297         0.4216         0.9226      -113.8385      -42.32335     0.01611074
      2960.0000         0.9448       2979.809         0.4245         0.9376      -112.7599      -41.24475     0.04179164
      2960.5000         0.9429       2984.008          0.425         0.9312      -111.8134      -40.29825     0.06432742
      2961.0000         0.9139       2999.141         0.4256         0.9219      -111.5756      -40.06045     0.06998934
