#------------------------------------------------------------------------------
# Created by    : vladimir.rabinovich
# Created on    : 09/19/2023 17:22:32
#------------------------------------------------------------------------------
~Version Information Section
VERS.           2.0     :   CWLS log ASCII Standard - VERSION 2.0
WRAP.           NO      :   One line per depth step
~Well Information Section
#MNEM       .UNIT                                         VALUE :DESCRIPTION
#------------------------------------------------------------------------------
STRT        .FT                                          2841.5 :START DEPTH
STOP        .FT                                          6769.5 :STOP DEPTH
STEP        .FT                                             0.5 :STEP      
NULL        .                                           -999.25 :NULL      
COMP        .                      SPINNAKER EXPLORATION CO LLC :COMPANY   
WELL        .                               OCS G18941 ST00BP00 :WELL      
FLD         .                            HIGH ISLAND BLOCK 0235 :FIELD     
LOC         .                                                   :LOCATION  
CNTY        .                           HIGH ISLAND LARGE BLOCK :LOCATION  
STAT        .                                             TEXAS :STATE     
CTRY        .                                     UNITED STATES :COUNTRY   
SRVC        .                                                   :SERVICE COMPANY
DATE        .                             9/13/2023 11:20:02 AM :LOG DATE  
API         .                                    42708405540000 :API NUMBER
UWI         .                                    42708405540000 :UNIQUE WELL ID
XCOORD      .                                  1178439.61066162 :SURFACE X 
YCOORD      .                                  10526520.2311607 :SURFACE Y 
LAT         .                                         28.998365 :LATITUDE  
LON         .                                        -94.445565 :LONGITUDE 
ELEV        .FT                                              98 :ELEVATION VALUE
ELEV_TYPE   .                                                KB :ELEVATION REFERENCE TYPE
~Curve Information Section
#MNEM       .UNIT                                      API CODE :CURVE DESCRIPTION
#------------------------------------------------------------------------------
DEPT        .FT                                                 :DEPTH     
CNCF        .%                                                  :          
DCAL        .IN                                                 :          
DT24        .US/F                                               :          
GR          .GAPI                                               :          
GR_NORM     .GAPI                                               :GammaRay Normalized
M2R1        .OHMM                                               :          
M2R2        .OHMM                                               :          
M2R3        .OHMM                                               :          
M2R6        .OHMM                                               :          
M2R9        .OHMM                                               :          
M2RX        .OHMM                                               :          
PORZ        .%                                                  :          
RWAZ        .OHMM                                               :          
SPCH        .MV                                                 :          
TEN         .LB/F                                               :          
VSH_GR      .V/V                                                :Volume of Shale from GR
ZCOR        .G/CC                                               :          
~A        DEPTH           CNCF           DCAL           DT24             GR        GR_NORM           M2R1           M2R2           M2R3           M2R6           M2R9           M2RX           PORZ           RWAZ           SPCH            TEN         VSH_GR           ZCOR
# ...
      3921.5000         52.533           6.65        149.904        122.049       87.56493           0.65           0.69          0.722          0.744          0.753          0.762         34.117          0.122         -6.197         42.213              1          0.032
      3922.0000         54.891          6.391         148.63        123.178       88.69268          0.668          0.709          0.743          0.767          0.776          0.785           33.7          0.122         -6.447          6.525              1          0.035
      3922.5000         52.602          6.077        147.898        121.432       86.94543          0.667           0.71          0.745          0.769          0.778          0.787          33.39           0.12         -6.494         -5.194              1          0.035
      3923.0000         47.683          5.907        148.475        118.505       84.01718          0.651          0.695          0.731          0.755          0.764          0.773         33.465          0.118         -6.457          -3.98              1          0.031
      3923.5000         44.601          6.149        150.781        116.107       81.61794           0.63          0.674           0.71          0.734          0.742          0.751         33.913          0.118         -6.256        -15.074              1          0.027
      3924.0000         43.669          6.679        154.248        114.442       79.95169          0.611          0.656          0.691          0.714          0.723          0.731         34.476          0.119         -5.973         10.504      0.9989721          0.027
      3924.5000         44.004          7.235        156.462          113.8       79.30844          0.599          0.644          0.679          0.701          0.709          0.717         34.898           0.12          -5.79         55.018       0.985286          0.027
      3925.0000         45.738          7.587        156.733        113.617       79.12419          0.596          0.641          0.675          0.696          0.705          0.712          34.98           0.12         -5.711         41.526      0.9813658          0.028
      3925.5000         47.619           7.55        155.118        114.701       80.20694            0.6          0.644          0.677          0.698          0.707          0.714         34.657          0.118         -5.729          2.856              1          0.029
      3926.0000         47.727          7.279        152.812        117.122       82.62669          0.607           0.65          0.682          0.703          0.712          0.719         34.051          0.114         -5.951         -2.291              1          0.034
      3926.5000         47.033          6.995        150.816        118.174       83.67745          0.617          0.659          0.689          0.711          0.719          0.727         33.396          0.111         -6.748         -5.762              1          0.038
      3927.0000         46.776          6.691        148.927        117.577        83.0792          0.631          0.672          0.702          0.724          0.732           0.74         32.864          0.109          -8.08        -28.297              1          0.038
      3927.5000         47.042          6.433        147.849        117.396       82.89696          0.647          0.687          0.718           0.74          0.748          0.756         32.515          0.109         -9.255        -39.888              1          0.032
      3928.0000          47.01          6.418        147.184        117.192        82.6917          0.659          0.698          0.729          0.751          0.759          0.767         32.334          0.109         -9.771        -50.473              1          0.028
      3928.5000         46.597          6.622        147.227        116.229       81.72745           0.66          0.697          0.727          0.749          0.756          0.765         32.259          0.108         -9.922        -68.756              1           0.03
      3929.0000         46.768          6.641        147.804        115.863       81.36021          0.652          0.687          0.717          0.739          0.746          0.755         32.338          0.107         -10.06        -56.722              1          0.029
      3929.5000         47.431          6.393        147.933        117.273       82.76896          0.648          0.682          0.712          0.734          0.741          0.749         32.588          0.108        -10.273        -20.958              1          0.026
      3930.0000         47.907          6.233        147.896        118.657       84.15171          0.648          0.681          0.712          0.734          0.741           0.75         32.953          0.111        -10.435          3.496              1          0.031
      3930.5000         48.556          6.292        149.234         116.87       82.36346          0.648          0.681          0.712          0.735          0.742           0.75         33.717          0.117        -10.377         17.657              1           0.03
      3931.0000          49.02           6.15        151.414        112.251       77.74321          0.654          0.686          0.717           0.74          0.747          0.756         35.199          0.129        -10.072         17.341      0.9519832          0.019
      3931.5000         49.052          5.202        153.276        108.681       74.17197          0.671          0.704          0.736           0.76          0.768          0.777         36.799          0.146         -9.669          0.485      0.8759993          0.022
      3932.0000         50.483          3.579        152.958        107.062       72.55171          0.695          0.732          0.764          0.789          0.797          0.807         37.377          0.157         -9.358          8.974      0.8415258          0.033
      3932.5000         53.262          2.226        149.307        105.582       71.07047           0.71          0.751          0.783          0.809          0.817          0.827         36.799          0.155         -9.283         30.875      0.8100101          0.027
      3933.0000         55.069          1.738        146.301        104.358       69.84522           0.71          0.753          0.786          0.811           0.82          0.829         36.177           0.15         -9.394          8.089      0.7839409          0.021
      3933.5000         55.436          1.713        146.355        105.062       70.54797          0.705          0.749          0.782          0.806          0.815          0.824         36.393          0.151         -9.704        -22.857      0.7988929          0.029
      3934.0000         54.326          1.673        150.009        107.778       73.26273          0.703          0.748           0.78          0.803          0.813          0.822         36.893          0.155        -10.269         -13.07      0.8566537           0.04
      3934.5000         52.041            1.6        154.524        110.775       76.25848          0.704          0.748           0.78          0.802          0.812           0.82         36.619          0.153         -10.78        -11.629      0.9203931          0.045
      3935.0000         50.317          1.707        155.472        112.361       77.84323          0.699          0.742          0.773          0.795          0.804          0.813         35.356           0.14        -10.917        -37.617      0.9541113          0.046
      3935.5000         48.615          2.405        153.512        111.155       76.63598          0.688          0.727          0.757          0.778          0.788          0.796         33.816          0.125        -10.756        -33.635      0.9284251          0.043
      3936.0000         46.112          3.766        151.327        108.511       73.99073          0.679          0.714          0.743          0.764          0.774          0.781         32.804          0.115        -10.533        -18.886      0.8721432          0.038
