#------------------------------------------------------------------------------
# Created by    : vladimir.rabinovich
# Created on    : 09/19/2023 17:20:40
#------------------------------------------------------------------------------
~Version Information Section
VERS.           2.0     :   CWLS log ASCII Standard - VERSION 2.0
WRAP.           NO      :   One line per depth step
~Well Information Section
#MNEM       .UNIT                                         VALUE :DESCRIPTION
#------------------------------------------------------------------------------
STRT        .FT                                             400 :START DEPTH
STOP        .FT                                           11002 :STOP DEPTH
STEP        .FT                                             0.5 :STEP      
NULL        .                                           -999.25 :NULL      
COMP        .                            STANOLIND OIL & GAS CO :COMPANY   
WELL        .                                     ST TR 00245-L :WELL      
FLD         .                              GALVESTON BLOCK 0245 :FIELD     
LOC         .                                                   :LOCATION  
CNTY        .                             GALVESTON LARGE BLOCK :LOCATION  
STAT        .                                             TEXAS :STATE     
CTRY        .                                     UNITED STATES :COUNTRY   
SRVC        .                                                   :SERVICE COMPANY
DATE        .                             9/13/2023 11:19:42 AM :LOG DATE  
API         .                                    42706000160000 :API NUMBER
UWI         .                                    42706000160000 :UNIQUE WELL ID
XCOORD      .                                  1024804.26554262 :SURFACE X 
YCOORD      .                                  10549089.4715911 :SURFACE Y 
LAT         .                                        29.0543948 :LATITUDE  
LON         .                                       -94.9272588 :LONGITUDE 
ELEV        .FT                                              11 :ELEVATION VALUE
ELEV_TYPE   .                                                KB :ELEVATION REFERENCE TYPE
~Curve Information Section
#MNEM       .UNIT                                      API CODE :CURVE DESCRIPTION
#------------------------------------------------------------------------------
DEPT        .FT                                                 :DEPTH     
ASN         .OHMM                                               :          
LAT         .OHMM                                               :          
LN          .OHMM                                               :          
SP          .MV                                                 :          
SP_NORM     .MV                                                 :SP Normalized
VSH_SP      .V/V                                                :Volume of Shale from SP
~A        DEPTH            ASN            LAT             LN             SP        SP_NORM         VSH_SP
# ...
     10964.0000         0.3161         0.3043         0.3213        -48.145      -6.681587      0.9468002
     10964.5000         0.3114         0.3014         0.3233        -48.403      -6.939587      0.9438683
     10965.0000         0.3074         0.2989         0.3262       -48.6809      -7.217487      0.9407104
     10965.5000          0.307         0.3025         0.3276       -49.0367      -7.573288      0.9366672
     10966.0000         0.3065         0.3042         0.3194       -49.3837      -7.920288       0.932724
     10966.5000         0.3063         0.2883         0.3134       -49.6992      -8.235786      0.9291388
     10967.0000         0.3078         0.2819         0.3104        -49.971      -8.507587      0.9260501
     10967.5000         0.3092         0.2786         0.3084       -50.1887      -8.725288      0.9235763
     10968.0000         0.3101         0.2791         0.3147       -50.4064      -8.942986      0.9211025
     10968.5000         0.3111         0.2817         0.3209       -50.4886      -9.025188      0.9201683
     10969.0000         0.3121         0.2843         0.3224       -50.5513      -9.087887      0.9194558
     10969.5000         0.3144         0.2845         0.3225       -50.4053      -8.941887      0.9211149
     10970.0000         0.3167         0.2845          0.321       -50.1666      -8.703186      0.9238274
     10970.5000         0.3164         0.2845         0.3025       -50.3116      -8.848186      0.9221797
     10971.0000         0.3139         0.2845         0.2885       -50.5001      -9.036686      0.9200377
     10971.5000         0.3094         0.2845         0.2971       -50.6885      -9.225086      0.9178967
     10972.0000         0.3033         0.2869         0.3058       -51.0699      -9.606487      0.9135627
     10972.5000         0.2965         0.2902         0.3111       -51.3942      -9.930786      0.9098774
     10973.0000         0.2913         0.2936         0.3148       -51.3208      -9.857388      0.9107115
     10973.5000         0.2865         0.2969         0.3184       -51.1744      -9.710987      0.9123752
     10974.0000         0.2821         0.2987          0.322       -50.6583      -9.194885        0.91824
     10974.5000         0.2822         0.2987         0.3236       -50.1434      -8.679985      0.9240911
     10975.0000         0.2822         0.2987         0.3237         -49.54      -8.076588      0.9309478
     10975.5000         0.2838         0.2987         0.3238       -48.8782      -7.414787      0.9384683
     10976.0000         0.2852         0.2987         0.3206       -48.2861      -6.822685      0.9451967
     10976.5000          0.286         0.2959         0.3161       -48.3348      -6.871387      0.9446433
     10977.0000         0.2863          0.293         0.3115       -48.3837      -6.920288      0.9440876
     10977.5000         0.2856         0.2916         0.3075       -48.3895      -6.926086      0.9440218
     10978.0000         0.2845         0.2916         0.3037       -48.3228      -6.859386      0.9447797
     10978.5000         0.2827         0.2916         0.2999       -48.2414      -6.777988      0.9457047
     10979.0000         0.2809         0.2916         0.2961       -48.0972      -6.633785      0.9473433
     10979.5000         0.2805         0.2916         0.3002        -47.824      -6.360588      0.9504479
     10980.0000           0.28         0.2916         0.3047       -47.0184      -5.554985      0.9596024
     10980.5000         0.2796         0.2851         0.3091       -46.2913      -4.827888      0.9678649
     10981.0000         0.2802         0.2645         0.3145       -45.7327      -4.269287      0.9742126
     10981.5000         0.2809         0.2607         0.3203       -45.4156      -3.952187       0.977816
     10982.0000         0.2846         0.2686         0.3262       -45.2828      -3.819386      0.9793252
     10982.5000         0.2898         0.2764         0.3325       -45.2806      -3.817188      0.9793501
     10983.0000         0.2955         0.2774         0.3388       -45.3073      -3.843887      0.9790468
     10983.5000         0.3006         0.2774         0.3429       -45.4476      -3.984188      0.9774524
     10984.0000         0.3061         0.2774         0.3468       -45.5364      -4.072987      0.9764434
     10984.5000         0.3142         0.2846         0.3517       -45.4396      -3.976189      0.9775433
     10985.0000         0.3225         0.2916         0.3568       -45.3427      -3.879288      0.9786444
     10985.5000         0.3286         0.2916         0.3617       -45.2582      -3.794788      0.9796047
     10986.0000         0.3314         0.2927         0.3618       -45.2141      -3.750687      0.9801058
     10986.5000         0.3365         0.2964         0.3621       -45.1701      -3.706688      0.9806058
     10987.0000         0.3376         0.3002         0.3644       -45.1261      -3.662685      0.9811059
     10987.5000         0.3383         0.3043         0.3667       -44.9658      -3.502388      0.9829274
     10988.0000          0.339         0.3058          0.369       -44.9437      -3.480286      0.9831786
     10988.5000         0.3399         0.3058         0.3716       -45.3592      -3.895786       0.978457
     10989.0000         0.3325         0.3058         0.3744       -45.7753      -4.311886      0.9737286
     10989.5000         0.3225         0.3047         0.3754       -47.2582      -5.794788      0.9568774
     10990.0000         0.3116         0.2974         0.3632       -49.0461      -7.582687      0.9365604
     10990.5000         0.3009         0.2931         0.3493       -50.3987      -8.935287      0.9211899
     10991.0000         0.2907            0.3         0.3328       -51.7656      -10.30219       0.905657
     10991.5000         0.2845         0.3069         0.3175       -52.5756      -11.11219      0.8964524
     10992.0000         0.2783         0.3126         0.3027       -52.6176      -11.15419      0.8959752
     10992.5000         0.2737         0.3102         0.3004       -51.7225      -10.25909      0.9061468
     10993.0000         0.2724         0.3077         0.3027       -50.7567      -9.293285      0.9171218
     10993.5000         0.2743         0.3054          0.305       -49.5566      -8.093185      0.9307593
     10994.0000         0.2751         0.3033         0.3044       -48.2014      -6.737988      0.9461592
     10994.5000         0.2759         0.3013         0.3004       -47.8218      -6.358387      0.9504729
     10995.0000         0.2807         0.2992         0.2905       -47.4417      -5.978287      0.9547922
     10995.5000         0.2855         0.2962         0.2781       -47.0626      -5.599186      0.9591002
     10996.0000         0.2903         0.2929         0.2805       -46.8245      -5.361088      0.9618058
     10996.5000         0.2969         0.2916         0.2831       -46.6356      -5.172188      0.9639524
     10997.0000         0.3026         0.2916         0.2851       -46.6335      -5.170086      0.9639763
     10997.5000         0.3061         0.2908         0.2819       -46.6272      -5.163788      0.9640478
     10998.0000         0.3067         0.2884         0.2786       -46.4833      -5.019886      0.9656831
     10998.5000         0.3072         0.2859         0.2822        -46.338      -4.874588      0.9673342
     10999.0000         0.3087         0.2845         0.2862       -46.1584      -4.694988      0.9693751
     10999.5000         0.3112         0.2845         0.2927       -46.0287      -4.565289       0.970849
     11000.0000         0.3146         0.2846         0.2991       -45.9619      -4.498486      0.9716081
     11000.5000         0.3249         0.2968         0.3219       -46.2128      -4.749386       0.968757
     11001.0000          0.331         0.3098         0.3527       -46.0651      -4.601688      0.9704354
     11001.5000         0.3237         0.3099          0.362       -45.6913      -4.227886      0.9746831
