#------------------------------------------------------------------------------
# Created by    : vladimir.rabinovich
# Created on    : 09/19/2023 17:22:54
#------------------------------------------------------------------------------
~Version Information Section
VERS.           2.0     :   CWLS log ASCII Standard - VERSION 2.0
WRAP.           NO      :   One line per depth step
~Well Information Section
#MNEM       .UNIT                                         VALUE :DESCRIPTION
#------------------------------------------------------------------------------
STRT        .FT                                             606 :START DEPTH
STOP        .FT                                           12703 :STOP DEPTH
STEP        .FT                                             0.5 :STEP      
NULL        .                                           -999.25 :NULL      
COMP        .                                       PURE OIL CO :COMPANY   
WELL        .                                OCS 00099 ST00BP00 :WELL      
FLD         .                                           WILDCAT :FIELD     
LOC         .                                                   :LOCATION  
CNTY        .                             GALVESTON LARGE BLOCK :LOCATION  
STAT        .                                             TEXAS :STATE     
CTRY        .                                     UNITED STATES :COUNTRY   
SRVC        .                                                   :SERVICE COMPANY
DATE        .                             9/13/2023 11:19:42 AM :LOG DATE  
API         .                                    42706000130000 :API NUMBER
UWI         .                                    42706000130000 :UNIQUE WELL ID
XCOORD      .                                  1105531.03723184 :SURFACE X 
YCOORD      .                                  10576678.2721464 :SURFACE Y 
LAT         .                                         29.133654 :LATITUDE  
LON         .                                        -94.675857 :LONGITUDE 
ELEV        .FT                                              66 :ELEVATION VALUE
ELEV_TYPE   .                                                KB :ELEVATION REFERENCE TYPE
~Curve Information Section
#MNEM       .UNIT                                      API CODE :CURVE DESCRIPTION
#------------------------------------------------------------------------------
DEPT        .FT                                                 :DEPTH     
LAT         .OHMM                                               :          
LN          .OHMM                                               :          
SN          .OHMM                                               :          
SP          .MV                                                 :          
SP_NORM     .MV                                                 :SP Normalized
VSH_SP      .V/V                                                :Volume of Shale from SP
~A        DEPTH            LAT             LN             SN             SP        SP_NORM         VSH_SP
# ...
      4634.0000          0.553         0.6538         0.7097       -59.5304       1.972347              1
      4634.5000         0.5546         0.6513          0.706       -58.4283       3.073204              1
      4635.0000         0.5592         0.6498         0.7024       -57.3273       4.172962              1
      4635.5000         0.5639         0.6484         0.6988       -57.6641       3.834923              1
      4636.0000         0.5686         0.6469         0.6951       -58.0391       3.458683              1
      4636.5000         0.5733         0.6455         0.6915       -58.4138       3.082745              1
      4637.0000         0.5984          0.644         0.6879       -58.7885       2.706802              1
      4637.5000         0.6348         0.6426         0.6842       -59.1635       2.330559              1
      4638.0000         0.6712         0.6411         0.6806       -59.5382        1.95462              1
      4638.5000         0.7075         0.6397          0.677       -59.9132       1.578381              1
      4639.0000         0.7439         0.6382         0.6733       -60.3648       1.125542              1
      4639.5000           0.79         0.6367         0.6697       -60.8392      0.6499023              1
      4640.0000         0.8651         0.6353         0.6689       -61.3134      0.1744614              1
      4640.5000         0.9403         0.6338         0.6696       -61.7878     -0.3011818              1
      4641.0000         0.9516         0.6324         0.6703        -62.262     -0.7766228              1
      4641.5000         0.9282         0.6309          0.671       -62.3957     -0.9115601              1
      4642.0000         0.9048         0.6295         0.6717       -61.9611     -0.4782028              1
      4642.5000         0.8814          0.628         0.6724       -61.5265    -0.04484177              1
      4643.0000          0.858         0.6266         0.6732       -61.0919      0.3885193              1
      4643.5000         0.8346         0.6236         0.6739       -60.6573      0.8218765              1
      4644.0000         0.8112         0.6198         0.6746       -60.2227       1.255238              1
      4644.5000         0.7961          0.616         0.6753       -59.7881       1.688595              1
      4645.0000          0.782         0.6122          0.676       -59.3535       2.121956              1
      4645.5000         0.7679         0.6084         0.6767       -58.9189       2.555317              1
      4646.0000         0.7538         0.6046         0.6775       -58.5523       2.920677              1
      4646.5000         0.7424         0.6008         0.6782       -58.2581       3.213634              1
      4647.0000          0.737          0.597         0.6791       -57.9642       3.506294              1
      4647.5000         0.7316         0.5932         0.6799       -57.6703       3.798954              1
      4648.0000         0.7261         0.5894         0.6808       -57.3763       4.091713              1
      4648.5000         0.7207         0.5856         0.6817       -57.0822       4.384575              1
      4649.0000         0.7171         0.5807         0.6826       -57.0968       4.368732              1
      4649.5000         0.7255         0.5752         0.6835       -57.2893       4.174992              1
      4650.0000          0.734         0.5697         0.6844       -57.4819       3.981152              1
      4650.5000         0.7424         0.5642         0.6852       -57.6746       3.787212              1
      4651.0000         0.7508         0.5587         0.6861       -57.8708       3.589771              1
      4651.5000         0.7593         0.5532          0.687       -58.0797       3.379631              1
      4652.0000         0.7677         0.5478         0.6823       -58.2883       3.169792              1
      4652.5000         0.7777         0.5423         0.6751       -58.4971       2.959747              1
      4653.0000         0.7959         0.5368         0.6678       -58.7059        2.74971              1
      4653.5000         0.8142         0.5323         0.6606       -58.9146       2.539768              1
      4654.0000         0.8325         0.5282         0.6533       -59.1234       2.329727              1
      4654.5000         0.8508         0.5242          0.646       -59.3322        2.11969              1
      4655.0000         0.8691         0.5201         0.6388       -59.5408       1.909851              1
      4655.5000         0.8873          0.516         0.6315       -59.6161       1.833305              1
      4656.0000         0.9056          0.512         0.6243       -59.4915       1.956665              1
      4656.5000         0.9281         0.5079          0.617       -59.3668       2.080128              1
      4657.0000         0.9536         0.5038         0.6021       -59.2421       2.203587              1
      4657.5000         0.9791         0.4998         0.5864       -59.1175       2.326946              1
      4658.0000         1.0046         0.4957         0.5707       -59.6736       1.769608              1
      4658.5000         1.0302         0.4916          0.555        -60.433       1.008965              1
      4659.0000         1.0557         0.4876         0.5393       -61.1924      0.2483215              1
      4659.5000         1.0875         0.4765         0.5236       -63.0117      -1.572216      0.9883221
      4660.0000         1.1239         0.4631         0.5079       -65.5835       -4.14526       0.935811
      4660.5000         1.0694         0.4496         0.4922       -68.1577      -6.720695      0.8832511
      4661.0000         0.9906         0.4362         0.4765       -70.7296      -9.293835      0.8307381
      4661.5000          0.912         0.4228         0.4617       -73.3038      -11.86928       0.778178
      4662.0000         0.8331         0.4094         0.4471       -76.1321      -14.69882      0.7204322
      4662.5000         0.7487         0.3959         0.4326       -79.5063      -18.07426      0.6515457
      4663.0000         0.6643         0.3825          0.418       -82.8828        -21.452      0.5826123
      4663.5000         0.5799         0.3691         0.4035       -86.2571      -24.82754      0.5137237
      4664.0000         0.6039         0.3557         0.3889       -90.5696      -29.14128      0.4256881
      4664.5000         0.6452         0.3422         0.3743       -97.4919      -36.06482      0.2843915
      4665.0000         0.6866         0.3288         0.3598      -101.1337      -39.70786      0.2100437
      4665.5000         0.7279         0.3211         0.3452       -101.254       -39.8294      0.2075633
      4666.0000         0.7692         0.3134         0.3307       -97.7683      -36.34494      0.2786746
      4666.5000         0.8111         0.3058         0.3186       -94.2849      -32.86278      0.3497392
      4667.0000         0.8594         0.2981         0.3101       -90.7568      -29.33592      0.4217159
      4667.5000         0.8003         0.2904         0.3016       -86.6025      -25.18286      0.5064722
      4668.0000         0.7246         0.2827         0.2931        -88.361       -26.9426      0.4705591
      4668.5000         0.6488          0.275         0.2846       -91.1914      -29.77424      0.4127706
      4669.0000         0.5731         0.2674         0.2761       -93.7389      -32.32298      0.3607554
      4669.5000         0.4974         0.2597         0.2676       -96.2863      -34.87162      0.3087424
      4670.0000         0.4236          0.252         0.2591       -98.8314      -37.41796      0.2567763
      4670.5000         0.3507         0.2509         0.2506      -101.3789       -39.9667      0.2047612
      4671.0000         0.2778         0.2511         0.2423      -103.9263      -42.51535       0.152748
      4671.5000         0.2653         0.2512         0.2339      -105.9176      -44.50789      0.1120839
