#------------------------------------------------------------------------------
# Created by    : vladimir.rabinovich
# Created on    : 09/19/2023 17:20:38
#------------------------------------------------------------------------------
~Version Information Section
VERS.           2.0     :   CWLS log ASCII Standard - VERSION 2.0
WRAP.           NO      :   One line per depth step
~Well Information Section
#MNEM       .UNIT                                         VALUE :DESCRIPTION
#------------------------------------------------------------------------------
STRT        .FT                                             510 :START DEPTH
STOP        .FT                                            8711 :STOP DEPTH
STEP        .FT                                             0.5 :STEP      
NULL        .                                           -999.25 :NULL      
COMP        .                                      SHELL OIL CO :COMPANY   
WELL        .                                OCS 00708 ST00BP00 :WELL      
FLD         .                                           WILDCAT :FIELD     
LOC         .                                                   :LOCATION  
CNTY        .                             GALVESTON LARGE BLOCK :LOCATION  
STAT        .                                             TEXAS :STATE     
CTRY        .                                     UNITED STATES :COUNTRY   
SRVC        .                                                   :SERVICE COMPANY
DATE        .                             9/13/2023 11:19:25 AM :LOG DATE  
API         .                                    42706000300000 :API NUMBER
UWI         .                                    42706000300000 :UNIQUE WELL ID
XCOORD      .                                  1082576.09526943 :SURFACE X 
YCOORD      .                                  10493698.2734572 :SURFACE Y 
LAT         .                                         28.904546 :LATITUDE  
LON         .                                        -94.743912 :LONGITUDE 
ELEV        .FT                                              92 :ELEVATION VALUE
ELEV_TYPE   .                                                KB :ELEVATION REFERENCE TYPE
~Curve Information Section
#MNEM       .UNIT                                      API CODE :CURVE DESCRIPTION
#------------------------------------------------------------------------------
DEPT        .FT                                                 :DEPTH     
ASN         .OHMM                                               :          
CILD        .MMHO                                               :          
DT          .US/F                                               :          
ILD         .OHMM                                               :          
SP          .MV                                                 :          
SP_NORM     .MV                                                 :SP Normalized
VSH_SP      .V/V                                                :Volume of Shale from SP
~A        DEPTH            ASN           CILD             DT            ILD             SP        SP_NORM         VSH_SP
# ...
      5970.5000         0.7869       1738.059        112.937         0.7992       -77.4513      -23.11971      0.5088441
      5971.0000         0.7991       1717.449       110.6844         0.8121       -75.9282      -21.59905      0.5442081
      5971.5000         0.8109       1689.154       113.1916         0.8251       -75.1368       -20.8101      0.5625558
      5972.0000         0.8226       1663.084       113.0035          0.838        -74.422      -20.09774      0.5791223
      5972.5000         0.8343       1638.834       111.7878          0.851       -73.2253       -18.9035      0.6068954
      5973.0000          0.844       1608.943       112.0855         0.8639       -72.2662      -17.94683      0.6291434
      5973.5000          0.853       1575.209       114.2596         0.8768       -71.7383      -17.42138      0.6413632
      5974.0000         0.8621        1547.07         117.42         0.8898       -71.2739      -16.95943      0.6521062
      5974.5000         0.8652       1519.988       119.5652         0.9027       -70.7589      -16.44688       0.664026
      5975.0000         0.8649       1493.738       120.5878         0.9142       -68.5941      -14.28453      0.7143133
      5975.5000         0.8616       1455.172       119.1977         0.9253       -66.3405      -12.03337      0.7666657
      5976.0000         0.8582        1425.73       116.0048         0.9365       -64.0868       -9.78212      0.8190205
      5976.5000         0.8689       1402.672       111.5956         0.9476       -61.8331      -7.530865      0.8713753
      5977.0000         0.8833       1364.061          108.1         0.9587       -59.2327      -4.932915      0.9317927
      5977.5000         0.9002       1352.588       106.6767         0.9699        -58.062       -3.76466      0.9589614
      5978.0000         0.9171       1355.193       108.4298         0.9788        -57.821      -3.526108      0.9645091
      5978.5000         0.9271       1364.229       111.2099         0.9872       -59.5569      -5.264454      0.9240825
      5979.0000         0.9351       1505.516       112.5268         0.9956       -61.4684      -7.178402       0.879572
      5979.5000         0.9394       1542.148        112.081         1.0039       -63.5172      -9.229649      0.8318686
      5980.0000         0.9404       1564.061        113.338         1.0085       -65.8496       -11.5645      0.7775698
      5980.5000         0.9414       1583.074       114.7346           1.01       -68.5784      -14.29574      0.7140525
      5981.0000           0.92       1599.998       113.9665         1.0076       -71.1968      -16.91659      0.6531026
      5981.5000         0.9008       1613.605       110.5447          0.998       -72.1565      -17.87874       0.630727
      5982.0000         0.8854       1622.877       109.8427         0.9884       -72.6974      -18.42208       0.618091
      5982.5000         0.8701       1621.986       108.9385         0.9787       -73.1995      -18.92663      0.6063574
      5983.0000         0.8611       1621.096        111.662         0.9691       -73.7371      -19.46667      0.5937983
      5983.5000         0.8539       1620.205       108.8261         0.9594        -73.401      -19.13303      0.6015576
      5984.0000         0.8467       1653.486       105.7961         0.9498       -68.0577      -13.79217      0.7257634
      5984.5000         0.8448       1702.707       108.5055         0.9339       -67.2377      -12.97462      0.7447764
      5985.0000         0.8442       1799.887        112.286         0.9176       -70.1477      -15.88706       0.677045
      5985.5000         0.8342       2003.902       113.7349         0.9012       -71.9646      -17.70641      0.6347347
      5986.0000         0.7859       2015.275       112.0393         0.8848       -73.3582      -19.10246      0.6022684
      5986.5000         0.7692       2140.188       111.1522         0.8684       -75.5151       -21.2618      0.5520511
      5987.0000         0.7526       2423.188       112.5695          0.852       -77.8138      -23.56295      0.4985361
      5987.5000         0.7388       2706.184       114.5458         0.8366       -92.0316       -37.7832      0.1678326
      5988.0000         0.7253       2989.184       113.3087         0.8221       -93.8834      -39.63745      0.1247105
      5988.5000         0.7156       3170.508       112.2299         0.8077       -94.6045      -40.36099      0.1078839
      5989.0000         0.7061       3188.363       113.0555         0.8127       -92.8241      -38.58303      0.1492318
      5989.5000         0.7093       2934.527       112.7152         0.8366       -90.3588      -36.12019      0.2065072
      5990.0000          0.732       2661.957       112.9587         0.8606        -88.569      -34.33283      0.2480737
      5990.5000         0.7571       2418.871       110.3893         0.8845       -87.1989      -32.96518      0.2798795
      5991.0000         0.7829       2400.375       104.6521         0.9084       -85.6826      -31.45133      0.3150854
      5991.5000         0.8095       2235.121        94.9958         0.9324       -83.6226      -29.39377      0.3629355
      5992.0000         0.8283       2090.113        92.0899         0.9921       -75.3619      -21.13552      0.5549879
      5992.5000         0.8446       2050.648        93.6539         1.0589       -73.6058      -19.38187      0.5957705
      5993.0000         0.8837       1882.771        94.9721         1.1166       -72.3867      -18.16522      0.6240647
      5993.5000         0.9306       1782.805       101.1871         1.1677       -71.8329      -17.61386       0.636887
      5994.0000         0.9794       1711.291       106.4246         1.2149       -71.5121      -17.29551      0.6442905
      5994.5000         1.1657       1421.135       113.1983          1.212       -70.9902      -16.77605      0.6563709
      5995.0000          1.156       1417.066       112.7095         1.1697       -68.8058       -14.5941      0.7071139
      5995.5000         1.0803       1426.572       112.2884         1.1274       -64.7443      -10.53505      0.8015105
      5996.0000         1.0316        1436.08       111.7875         1.0852        -63.157      -8.950199      0.8383675
      5996.5000         0.9812       1443.969       109.8464         1.0474       -62.1652      -7.960842      0.8613757
      5997.0000         0.9343       1443.209       111.1437           1.01       -62.4877      -8.285793      0.8538188
      5997.5000          0.921       1441.443       111.4739         0.9726       -63.2414      -9.041939       0.836234
      5998.0000         0.9124       1432.146       111.5922          0.974       -62.8441      -8.647083      0.8454167
      5998.5000         0.9167        1418.73       110.4115         0.9773       -62.0178      -7.823231       0.864576
      5999.0000         0.9387       1365.004        110.729         0.9806       -60.8177      -6.625576      0.8924285
      5999.5000         0.9603       1299.199       113.0814          0.984       -59.5676      -5.377926      0.9214436
      6000.0000         0.9811       1281.107       115.1546         0.9955       -58.8855      -4.698273      0.9372495
      6000.5000         0.9915       1263.016       115.5817         1.0087       -58.9189      -4.734119      0.9364159
      6001.0000         1.0008       1230.449        116.119         1.0219       -58.9523      -4.769966      0.9355822
      6001.5000         1.0064       1201.367       115.6049         1.0351       -59.0059      -4.826012      0.9342788
      6002.0000         1.0125       1176.174       114.5011         1.0484       -59.1973      -5.019859      0.9297707
      6002.5000         1.0289       1153.025       113.7772         1.0569       -59.3885      -5.213505      0.9252673
      6003.0000         1.0388        1134.18       111.7315         1.0621       -59.2829      -5.110355      0.9276661
      6003.5000         1.0437        1123.83       110.3205         1.0673       -59.0555      -4.885399      0.9328977
