#------------------------------------------------------------------------------
# Created by    : vladimir.rabinovich
# Created on    : 09/19/2023 17:20:31
#------------------------------------------------------------------------------
~Version Information Section
VERS.           2.0     :   CWLS log ASCII Standard - VERSION 2.0
WRAP.           NO      :   One line per depth step
~Well Information Section
#MNEM       .UNIT                                         VALUE :DESCRIPTION
#------------------------------------------------------------------------------
STRT        .FT                                            2377 :START DEPTH
STOP        .FT                                            9500 :STOP DEPTH
STEP        .FT                                             0.5 :STEP      
NULL        .                                           -999.25 :NULL      
COMP        .                                     SKELLY OIL CO :COMPANY   
WELL        .                                     ST TR 00146-L :WELL      
FLD         .                                           WILDCAT :FIELD     
LOC         .                                                   :LOCATION  
CNTY        .                             GALVESTON LARGE BLOCK :LOCATION  
STAT        .                                             TEXAS :STATE     
CTRY        .                                     UNITED STATES :COUNTRY   
SRVC        .                                                   :SERVICE COMPANY
DATE        .                             9/13/2023 11:19:24 AM :LOG DATE  
API         .                                    42706001330000 :API NUMBER
UWI         .                                    42706001330000 :UNIQUE WELL ID
XCOORD      .                                  1116482.89093459 :SURFACE X 
YCOORD      .                                  10631825.2810539 :SURFACE Y 
LAT         .                                         29.285733 :LATITUDE  
LON         .                                       -94.6439746 :LONGITUDE 
ELEV        .FT                                              61 :ELEVATION VALUE
ELEV_TYPE   .                                                KB :ELEVATION REFERENCE TYPE
~Curve Information Section
#MNEM       .UNIT                                      API CODE :CURVE DESCRIPTION
#------------------------------------------------------------------------------
DEPT        .FT                                                 :DEPTH     
ASN         .OHMM                                               :          
CALI        .IN                                                 :          
CILD        .MMHO                                               :          
DT          .US/F                                               :          
ILD         .OHMM                                               :          
SP          .MV                                                 :          
SP_NORM     .MV                                                 :SP Normalized
VSH_SP      .V/V                                                :Volume of Shale from SP
~A        DEPTH            ASN           CALI           CILD             DT            ILD             SP        SP_NORM         VSH_SP
# ...
      7569.0000         0.9175        10.2999       1364.871       114.5742         0.8216       -52.5949     -0.6416016              1
      7569.5000         0.9092        10.2602       1383.684       115.5342         0.8165       -52.6664     -0.7174339              1
      7570.0000         0.9048        10.2162       1383.576       116.0814         0.8113       -52.7379     -0.7932587              1
      7570.5000         0.9193        10.1857       1378.805        115.528         0.8062       -52.8798     -0.9394836              1
      7571.0000         0.9338        10.1643        1373.57       114.5399         0.8057        -53.115      -1.179016      0.9974056
      7571.5000         0.9487         10.136        1366.17       113.8927         0.8092       -53.2964      -1.364738       0.994714
      7572.0000         0.9588        10.1027       1358.781       114.0674         0.8128       -53.3101      -1.382767      0.9944527
      7572.5000         0.9509        10.0618       1351.379       115.0286         0.8163       -53.2844      -1.361393      0.9947624
      7573.0000          0.943        10.0219       1345.566       115.6278         0.8198       -53.1372      -1.218521       0.996833
      7573.5000         0.9351         9.9963       1352.729        115.043         0.8234       -52.9898      -1.075447      0.9989066
      7574.0000         0.9266         9.9792       1359.877       114.5892         0.8161       -52.8427     -0.9326744              1
      7574.5000         0.9218         9.9647       1367.027       113.8428         0.8081       -52.7412     -0.8355026              1
      7575.0000         0.9312         9.9602       1367.418        114.226         0.7996       -52.7902     -0.8888283              1
      7575.5000         0.9405          9.957       1339.678       114.7896         0.7909        -52.839     -0.9419556              1
      7576.0000         0.9499         9.9554       1311.912       115.1699         0.8074       -52.8879      -0.995182              1
      7576.5000         0.9593         9.9625       1284.727       114.7166         0.8315       -52.9368      -1.048409      0.9992985
      7577.0000         0.9783         9.9839       1259.986       114.1804         0.8556       -53.0818      -1.197735      0.9971343
      7577.5000         0.9991        10.0067       1235.248       113.5619         0.8796       -53.2802      -1.400463      0.9941962
      7578.0000         1.0199        10.0454       1210.508       112.4297         0.8976       -53.4784      -1.602989       0.991261
      7578.5000         1.0477        10.1105        1185.77       110.4885         0.9151       -53.6763      -1.805218      0.9883302
      7579.0000         1.0792        10.1396       1166.652       109.1847         0.9324       -53.8647      -1.997944      0.9855371
      7579.5000          1.106        10.1445       1149.857       108.5282         0.9496       -54.0258      -2.163368      0.9831396
      7580.0000         1.1201        10.1448       1133.063       108.1025         0.9647       -54.1678        -2.3097      0.9810188
      7580.5000         1.1011        10.1497       1116.014       108.3853         0.9592       -54.0867      -2.232925      0.9821315
      7581.0000         1.0939        10.1631       1098.488       108.9513         0.9537       -54.0055      -2.156052      0.9832456
      7581.5000         1.0991        10.2027       1109.785       109.3436         0.9482       -53.9244      -2.079277      0.9843583
      7582.0000         1.1043        10.2859       1124.084       107.5227         0.9427       -53.8332      -1.992405      0.9856173
      7582.5000         1.1065        10.3383       1139.115       105.9324         0.9388       -53.7371      -1.900631      0.9869474
      7583.0000         1.0994        10.3164       1154.119       105.8586          0.946       -53.6409      -1.808758      0.9882789
      7583.5000         1.0799         10.212       1154.744       106.9172         0.9532       -53.5446      -1.716789      0.9896117
      7584.0000         1.0586        10.1726       1148.691       108.1655         0.9599       -53.4845      -1.661015      0.9904201
      7584.5000         1.0586        10.1693       1142.639       109.6123         0.9626       -53.5227      -1.703541      0.9898037
      7585.0000         1.0796        10.1899       1136.504       109.0056         0.9653       -53.5609      -1.746067      0.9891874
      7585.5000         1.1006        10.2263       1128.068       107.8859         0.9681       -53.5992      -1.788696      0.9885696
      7586.0000         1.1195        10.2682       1119.633       107.4034         0.9708       -53.6374      -1.831223      0.9879533
      7586.5000         1.1323        10.2448       1111.197       106.9341         0.9774       -53.6756      -1.873745      0.9873371
      7587.0000         1.1308        10.2156       1102.775       106.9858         0.9875       -53.7138      -1.916275      0.9867207
      7587.5000         1.1293        10.2814       1092.965       107.5227         0.9955       -53.6915      -1.898304      0.9869811
      7588.0000         1.1278        10.2351       1090.404       108.0713         0.9992       -53.6407       -1.85183      0.9876546
      7588.5000         1.1264        10.1814        1102.17       108.3422         0.9867       -53.5898      -1.805256      0.9883296
      7589.0000         1.1239        10.1622       1113.934       108.1477         0.9622        -53.539      -1.758785      0.9890031
      7589.5000         1.1202        10.1714       1125.697       107.9065         0.9439       -53.4882      -1.712311      0.9896767
      7590.0000         1.1095        10.1964       1137.463       107.7417         0.9256       -53.3938      -1.622234      0.9909821
      7590.5000         1.0821        10.2689       1150.539        107.781         0.9059       -53.2787      -1.511463      0.9925875
      7591.0000         1.0449        10.2819       1176.059        108.842         0.8804       -53.1635      -1.400593      0.9941943
      7591.5000         1.0295        10.2834       1201.555       109.7084         0.8548       -53.0483      -1.289719      0.9958012
      7592.0000          1.015        10.3254       1227.656       110.1191         0.8413       -52.9331      -1.178844       0.997408
      7592.5000         1.0048        10.3935       1259.029       110.4761         0.8348       -52.9145      -1.164574      0.9976149
      7593.0000         1.0045        10.4529       1273.883       110.8562         0.8284       -52.9437      -1.198097       0.997129
      7593.5000         1.0176        10.3613       1251.438       111.2612         0.8478        -52.973      -1.231724      0.9966417
      7594.0000         1.0317        10.2305       1229.018       111.4785         0.8719       -53.0023       -1.26535      0.9961544
      7594.5000         1.0518        10.1655       1206.574       110.6733          0.896       -53.0315      -1.298882      0.9956684
      7595.0000         1.0719        10.1315       1184.129       109.8632           0.92       -53.0608      -1.332504      0.9951811
      7595.5000         1.0922        10.1553       1161.686       109.1516         0.9614       -53.0901      -1.366131      0.9946938
      7596.0000         1.1125        10.2552       1139.064       108.0569         1.0028       -53.1193      -1.399662      0.9942078
      7596.5000         1.1414        10.3125       1116.367       106.7687         1.0128       -53.1486      -1.433289      0.9937205
      7597.0000         1.1753        10.3232       1093.645       104.8226         0.9973       -53.1779      -1.466911      0.9932331
      7597.5000          1.201        10.3343       1072.588       104.9952         0.9818       -53.1629      -1.456238      0.9933879
      7598.0000         1.1824        10.3584       1054.406       105.8125         0.9663       -53.0365      -1.334167       0.995157
