#------------------------------------------------------------------------------
# Created by    : vladimir.rabinovich
# Created on    : 09/19/2023 17:20:25
#------------------------------------------------------------------------------
~Version Information Section
VERS.           2.0     :   CWLS log ASCII Standard - VERSION 2.0
WRAP.           NO      :   One line per depth step
~Well Information Section
#MNEM       .UNIT                                         VALUE :DESCRIPTION
#------------------------------------------------------------------------------
STRT        .FT                                             396 :START DEPTH
STOP        .FT                                           11006 :STOP DEPTH
STEP        .FT                                             0.5 :STEP      
NULL        .                                           -999.25 :NULL      
COMP        .                                 CALIFORNIA CO THE :COMPANY   
WELL        .                                OCS 00507 ST00BP00 :WELL      
FLD         .                            HIGH ISLAND BLOCK 0052 :FIELD     
LOC         .                                                   :LOCATION  
CNTY        .                           HIGH ISLAND LARGE BLOCK :LOCATION  
STAT        .                                             TEXAS :STATE     
CTRY        .                                     UNITED STATES :COUNTRY   
SRVC        .                                                   :SERVICE COMPANY
DATE        .                             9/13/2023 11:19:15 AM :LOG DATE  
API         .                                    42708000170000 :API NUMBER
UWI         .                                    42708000170000 :UNIQUE WELL ID
XCOORD      .                                  1293108.02889945 :SURFACE X 
YCOORD      .                                   10685731.628563 :SURFACE Y 
LAT         .                                         29.439677 :LATITUDE  
LON         .                                        -94.091453 :LONGITUDE 
ELEV        .FT                                              70 :ELEVATION VALUE
ELEV_TYPE   .                                                KB :ELEVATION REFERENCE TYPE
~Curve Information Section
#MNEM       .UNIT                                      API CODE :CURVE DESCRIPTION
#------------------------------------------------------------------------------
DEPT        .FT                                                 :DEPTH     
ASN         .OHMM                                               :          
CILD        .MMHO                                               :          
ILM         .OHMM                                               :          
SP          .MV                                                 :          
SP_NORM     .MV                                                 :SP Normalized
VSH_SP      .V/V                                                :Volume of Shale from SP
~A        DEPTH            ASN           CILD            ILM             SP        SP_NORM         VSH_SP
# ...
      2524.0000         0.2929       3085.941         0.3287       -85.8827       -21.7318      0.2952929
      2524.5000         0.2984       3059.523          0.334       -85.7711       -21.6202      0.2992786
      2525.0000         0.3104       3013.984         0.3393        -85.255        -21.104      0.3177143
      2525.5000         0.3224       2968.465         0.3446       -84.7389        -20.588      0.3361429
      2526.0000         0.3345        2829.59         0.3499       -84.2225       -20.0716      0.3545857
      2526.5000         0.3465       2582.242         0.3552       -83.7065       -19.5555      0.3730178
      2527.0000         0.3619       2354.152         0.3605       -82.0062       -17.8553      0.4337392
      2527.5000         0.3798       2247.414         0.3723        -79.264       -15.1131       0.531675
      2528.0000         0.3977       2155.699         0.3861        -76.373       -12.2221       0.634925
      2528.5000         0.4154       2071.398            0.4       -72.6904        -8.5395      0.7664464
      2529.0000         0.4278       1796.436         0.4138       -69.3196        -5.1687      0.8868321
      2529.5000         0.4402       1675.678         0.4276       -66.4056        -2.2547      0.9909036
      2530.0000         0.4526       1615.068         0.4414       -63.4808         0.6701              1
      2530.5000         0.4645       1560.373         0.4552       -60.9178         3.2331              1
      2531.0000         0.4698       1539.939          0.469       -59.6566         4.4943              1
      2531.5000         0.4752       1519.506         0.4828       -59.7432         4.4077              1
      2532.0000         0.4805       1504.713         0.4903        -60.018         4.1329              1
      2532.5000         0.4858       1507.014         0.4968       -60.2927         3.8582              1
      2533.0000         0.4912       1509.316         0.5033       -60.5041         3.6468              1
      2533.5000         0.4965       1511.619         0.5097       -60.6896         3.4613              1
      2534.0000         0.5019       1515.398         0.5162       -60.8752         3.2757              1
      2534.5000         0.5054       1528.209         0.5227       -61.0608         3.0901              1
      2535.0000         0.5078       1541.025         0.5291       -61.2463         2.9046              1
      2535.5000         0.5102       1553.836         0.5356       -61.2887         2.8622              1
      2536.0000         0.5126       1563.775         0.5421       -61.1417         3.0092              1
      2536.5000          0.515       1567.934         0.5454       -60.9948         3.1561              1
      2537.0000         0.5173       1572.094         0.5459       -60.8478         3.3031              1
      2537.5000         0.5197       1576.256         0.5464       -60.6836         3.4673              1
      2538.0000         0.5221       1580.414         0.5469       -60.5089          3.642              1
      2538.5000         0.5244       1584.574         0.5474       -60.3342         3.8167              1
      2539.0000         0.5256       1588.734         0.5479       -60.4991         3.6518              1
      2539.5000         0.5268       1588.922         0.5484        -61.139         3.0119              1
      2540.0000          0.528       1587.613         0.5489       -61.7505         2.4004              1
      2540.5000         0.5292       1586.303         0.5493       -62.3398         1.8111              1
      2541.0000         0.5304       1584.992         0.5498       -62.9292         1.2217              1
      2541.5000         0.5315       1583.684         0.5503       -63.5182         0.6327              1
      2542.0000         0.5327       1582.373         0.5508       -63.7842         0.3667              1
      2542.5000         0.5339       1581.064         0.5513       -63.8672         0.2837              1
      2543.0000         0.5349       1582.658         0.5503       -63.9503         0.2006              1
      2543.5000         0.5346       1584.924         0.5492       -64.0333         0.1176              1
      2544.0000         0.5344       1587.189          0.548       -64.1163         0.0346              1
      2544.5000         0.5342       1589.457         0.5469       -64.1272         0.0238              1
      2545.0000         0.5339       1591.723         0.5458       -64.0863         0.0646              1
      2545.5000         0.5337       1593.988         0.5446       -64.0454         0.1055              1
      2546.0000         0.5334       1600.891         0.5435       -64.0045         0.1464              1
      2546.5000         0.5332        1608.57         0.5423       -63.9637         0.1872              1
      2547.0000          0.533        1616.25         0.5412       -63.9227         0.2282              1
      2547.5000         0.5313       1623.932           0.54       -63.8818         0.2691              1
      2548.0000         0.5292       1631.613         0.5389       -63.8498         0.3011              1
      2548.5000         0.5272       1643.826         0.5378       -63.8208         0.3301              1
      2549.0000         0.5251       1661.936         0.5366       -63.7919          0.359              1
      2549.5000         0.5231       1680.043         0.5353       -63.7629          0.388              1
      2550.0000         0.5211       1698.141          0.534       -63.7339          0.417              1
      2550.5000         0.5184       1716.248         0.5327       -63.8128         0.3381              1
      2551.0000          0.514       1732.854         0.5313       -63.9031         0.2478              1
      2551.5000         0.5095        1747.93           0.53       -63.9933         0.1576              1
      2552.0000         0.5051        1763.01         0.5287       -64.0835         0.0674              1
      2552.5000         0.5007       1778.086         0.5274       -64.2252        -0.0742              1
      2553.0000         0.4962       1792.129         0.5261       -64.5194        -0.3685              1
      2553.5000         0.4959       1802.889         0.5248       -64.8135        -0.6626              1
      2554.0000         0.4971       1813.648         0.5235       -65.1077        -0.9567              1
      2554.5000         0.4984       1824.408         0.5221       -65.4017        -1.2508              1
      2555.0000         0.4996       1819.545         0.5204       -65.5341        -1.3832              1
      2555.5000         0.5009       1812.439         0.5179       -65.6613        -1.5104              1
      2556.0000         0.5021       1805.336         0.5155       -65.7886        -1.6376              1
      2556.5000         0.5034       1795.008         0.5131       -65.8702        -1.7193              1
      2557.0000         0.5053       1781.068         0.5107         -65.62        -1.4691              1
      2557.5000         0.5083       1767.123         0.5083       -65.3696        -1.2187              1
      2558.0000         0.5112       1753.178         0.5059       -65.1194        -0.9685              1
      2558.5000         0.5142       1739.236         0.5035       -64.8691        -0.7182              1
      2559.0000         0.5171       1725.291          0.501       -64.6189        -0.4679              1
      2559.5000         0.5201       1711.352         0.4986       -64.5009          -0.35              1
      2560.0000         0.5231       1699.861         0.4962       -64.5009          -0.35              1
      2560.5000          0.526       1688.418         0.4938       -64.5009          -0.35              1
      2561.0000         0.5287       1676.973         0.4919       -64.5009          -0.35              1
      2561.5000         0.5288        1665.84         0.4908       -64.5009          -0.35              1
