#------------------------------------------------------------------------------
# Created by    : vladimir.rabinovich
# Created on    : 09/19/2023 17:20:23
#------------------------------------------------------------------------------
~Version Information Section
VERS.           2.0     :   CWLS log ASCII Standard - VERSION 2.0
WRAP.           NO      :   One line per depth step
~Well Information Section
#MNEM       .UNIT                                         VALUE :DESCRIPTION
#------------------------------------------------------------------------------
STRT        .FT                                            3532 :START DEPTH
STOP        .FT                                           13690 :STOP DEPTH
STEP        .FT                                             0.5 :STEP      
NULL        .                                           -999.25 :NULL      
COMP        .                              VASTAR RESOURCES INC :COMPANY   
WELL        .                                     ST TR 00023-L :WELL      
FLD         .                          HIGH ISLAND BLOCK 0024-L :FIELD     
LOC         .                                                   :LOCATION  
CNTY        .                           HIGH ISLAND LARGE BLOCK :LOCATION  
STAT        .                                             TEXAS :STATE     
CTRY        .                                     UNITED STATES :COUNTRY   
SRVC        .                                                   :SERVICE COMPANY
DATE        .                             9/13/2023 11:19:15 AM :LOG DATE  
API         .                                    42708300330000 :API NUMBER
UWI         .                                    42708300330000 :UNIQUE WELL ID
XCOORD      .                                  1290562.53578251 :SURFACE X 
YCOORD      .                                  10712997.1214806 :SURFACE Y 
LAT         .                                        29.5146054 :LATITUDE  
LON         .                                       -94.1002609 :LONGITUDE 
ELEV        .FT                                              79 :ELEVATION VALUE
ELEV_TYPE   .                                                KB :ELEVATION REFERENCE TYPE
~Curve Information Section
#MNEM       .UNIT                                      API CODE :CURVE DESCRIPTION
#------------------------------------------------------------------------------
DEPT        .FT                                                 :DEPTH     
ASN         .OHMM                                               :          
CILD        .MMHO                                               :          
ILD         .OHMM                                               :          
SP          .MV                                                 :          
SP_NORM     .MV                                                 :SP Normalized
VSH_SP      .V/V                                                :Volume of Shale from SP
~A        DEPTH            ASN           CILD            ILD             SP        SP_NORM         VSH_SP
# ...
      8244.0000          0.831       1685.959         0.6202        -65.876      -5.107052      0.9585146
      8244.5000         0.8332       1671.221         0.6275       -66.4849      -5.718761      0.9523357
      8245.0000         0.8295       1659.387         0.6349       -66.2487      -5.485367      0.9546933
      8245.5000         0.8259       1653.859         0.6422       -65.7195      -4.958969      0.9600104
      8246.0000         0.8222       1648.332         0.6496       -65.1903      -4.432575      0.9653275
      8246.5000         0.8185       1642.799          0.657       -64.5658      -3.810886      0.9716072
      8247.0000         0.8148       1635.629         0.6643       -64.0576      -3.305489      0.9767122
      8247.5000         0.8112        1626.59         0.6717       -64.5914      -3.842094       0.971292
      8248.0000          0.808       1617.553          0.679       -65.1252      -4.378696      0.9658718
      8248.5000         0.8049       1624.885         0.6791       -65.6581      -4.914398      0.9604606
      8249.0000         0.8019       1672.141         0.6483       -66.1919      -5.451012      0.9550403
      8249.5000         0.7988       1719.398         0.6174       -66.9207      -6.182613      0.9476504
      8250.0000         0.7957       1766.705         0.5866        -68.056      -7.320721      0.9361544
      8250.5000         0.8105       1827.506         0.5557       -69.1896      -8.457123      0.9246755
      8251.0000         0.8272           1936         0.5298       -70.3248      -9.595131      0.9131805
      8251.5000          0.844       2471.309         0.5154       -74.5365      -13.80964      0.8706098
      8252.0000          0.876       2499.344         0.5011       -88.9442      -28.22014      0.7250491
      8252.5000         0.9207       2527.379         0.4868      -105.2271      -44.50584      0.5605471
      8253.0000         1.0451       2548.516         0.4725      -109.9441      -49.22565      0.5128722
      8253.5000         1.1875       2568.234         0.4581      -118.7924      -58.07676      0.4234671
      8254.0000         1.1149       2597.441         0.4454       -122.321      -61.60816      0.3877963
      8254.5000         0.9766       2621.988         0.4408      -117.8254      -57.11537      0.4331781
      8255.0000         0.8722        2632.82         0.4361      -111.4677      -50.76047       0.497369
      8255.5000         0.8402       2643.641         0.4314      -106.6626      -45.95818       0.545877
      8256.0000         0.8204       2644.832         0.4268      -102.3521      -41.65048      0.5893891
      8256.5000          0.814       2645.559         0.4221      -100.8395      -40.14069      0.6046395
      8257.0000         0.8315       2646.285         0.4174      -101.3248       -40.6288      0.5997092
      8257.5000          0.849       2639.617         0.4129      -102.2139       -41.5207         0.5907
      8258.0000         0.8665       2620.445         0.4088      -103.1029      -42.41251      0.5816919
      8258.5000          0.881       2601.273         0.4047      -103.7611      -43.07351       0.575015
      8259.0000         0.8714       2551.828         0.4006      -104.2593      -43.57452      0.5699543
      8259.5000         0.8619       2496.652         0.3965      -104.7582      -44.07623      0.5648866
      8260.0000         0.8479       2434.605         0.3924      -104.1356      -43.45643      0.5711472
      8260.5000         0.8327       2365.488         0.3968      -100.6417      -39.96534      0.6064107
      8261.0000         0.8176       2192.398          0.426       -96.9574      -36.28384      0.6435976
      8261.5000         0.8024       2033.252         0.4551       -88.0507      -27.37994      0.7335359
      8262.0000         0.7978       2000.094         0.4843        -75.313      -14.64505      0.8621712
      8262.5000         0.8091       1857.781         0.5135         -70.29      -9.624859      0.9128802
      8263.0000         0.8203       1606.012         0.5427       -68.9863      -8.323959      0.9260206
      8263.5000         0.8316       1485.432         0.5752       -67.6825      -7.022972      0.9391619
      8264.0000         0.8429       1464.117         0.6231       -66.3768      -5.720074      0.9523225
      8264.5000         0.8542       1442.805         0.6708       -65.6068      -4.952873       0.960072
      8265.0000         0.8655       1423.484         0.7187       -65.1088      -4.457687      0.9650739
      8265.5000         0.8768       1413.189         0.7666       -64.6107      -3.962391      0.9700769
      8266.0000         0.8803        1416.09         0.8144       -64.1117      -3.466198      0.9750889
      8266.5000         0.8836       1445.867         0.8547       -63.8984      -3.255699      0.9772152
      8267.0000         0.8844       1475.596         0.8708       -64.2545      -3.614609      0.9735898
      8267.5000         0.8727       1533.311         0.8869        -64.515      -3.877911      0.9709302
      8268.0000         0.8609       1612.486          0.903       -64.3298      -3.695522      0.9727725
      8268.5000         0.8491       1691.662         0.8915       -64.1444      -3.512924      0.9746169
      8269.0000         0.8374       1730.652          0.874       -63.9593      -3.330627      0.9764583
      8269.5000         0.8256       1758.688         0.8564       -63.7382      -3.112335      0.9786633
      8270.0000         0.8082       1773.875         0.8388       -63.2776      -2.654537      0.9832875
      8270.5000         0.7891        1735.83         0.8178       -63.3893      -2.769047      0.9821308
      8271.0000           0.77       1697.736         0.7882       -64.1099      -3.492451      0.9748237
      8271.5000         0.7509       1659.691         0.7585       -64.8313      -4.216656      0.9675086
      8272.0000         0.7674       1651.625         0.7289       -65.9154      -5.303558      0.9565297
      8272.5000          0.784       1707.695         0.6992       -67.0947      -6.485672      0.9445892
      8273.0000         0.8006       1763.666         0.6696       -68.2721      -7.665874      0.9326679
      8273.5000         0.8172       1857.383         0.6399       -69.4514      -8.847977      0.9207275
      8274.0000         0.8316       1948.563         0.6103       -70.6306      -10.02998       0.908788
      8274.5000         0.8368       1972.688         0.5914       -72.0571      -11.45929      0.8943506
      8275.0000          0.842       1996.781         0.5786        -74.782      -14.18699       0.866798
      8275.5000         0.8472       2049.285         0.5657       -77.5067       -16.9145      0.8392475
      8276.0000         0.8559       2123.383         0.5529        -80.389      -19.79961       0.810105
      8276.5000         0.8674       2069.504           0.54       -83.8315      -23.24491       0.775304
      8277.0000         0.8789       2022.943         0.5272       -87.2705      -26.68671      0.7405382
      8277.5000         0.8904       1993.313         0.5182       -90.4897      -29.90872      0.7079927
      8278.0000         0.8826       1902.996         0.5377        -92.222      -31.64383      0.6904664
      8278.5000          0.871       1707.994         0.5572       -88.3802      -27.80484      0.7292441
      8279.0000         0.8595       1513.191         0.5767       -83.3701      -22.79754      0.7798228
      8279.5000         0.8479       1447.361         0.5962       -78.7996      -18.22984      0.8259612
      8280.0000         0.8364       1415.691         0.6158       -76.2139      -15.64695      0.8520511
      8280.5000         0.8248       1384.021         0.6353        -73.632      -13.06786      0.8781024
      8281.0000         0.8283         1352.6         0.6629       -71.0464      -10.48506      0.9041913
      8281.5000         0.8341       1323.469         0.6943       -68.6823       -8.12376      0.9280428
