#------------------------------------------------------------------------------
# Created by    : vladimir.rabinovich
# Created on    : 09/19/2023 17:22:47
#------------------------------------------------------------------------------
~Version Information Section
VERS.           2.0     :   CWLS log ASCII Standard - VERSION 2.0
WRAP.           NO      :   One line per depth step
~Well Information Section
#MNEM       .UNIT                                         VALUE :DESCRIPTION
#------------------------------------------------------------------------------
STRT        .FT                                            4658 :START DEPTH
STOP        .FT                                           10852 :STOP DEPTH
STEP        .FT                                             0.5 :STEP      
NULL        .                                           -999.25 :NULL      
COMP        .                             WALTER OIL & GAS CORP :COMPANY   
WELL        .                               OCS G04721 ST00BP00 :WELL      
FLD         .                              GALVESTON BLOCK 0350 :FIELD     
LOC         .                                                   :LOCATION  
CNTY        .                             GALVESTON LARGE BLOCK :LOCATION  
STAT        .                                             TEXAS :STATE     
CTRY        .                                     UNITED STATES :COUNTRY   
SRVC        .                                                   :SERVICE COMPANY
DATE        .                             9/13/2023 11:19:36 AM :LOG DATE  
API         .                                    42706401870000 :API NUMBER
UWI         .                                    42706401870000 :UNIQUE WELL ID
XCOORD      .                                  1032064.33467067 :SURFACE X 
YCOORD      .                                   10428906.138822 :SURFACE Y 
LAT         .                                        28.7242451 :LATITUDE  
LON         .                                       -94.8985179 :LONGITUDE 
ELEV        .FT                                              92 :ELEVATION VALUE
ELEV_TYPE   .                                                KB :ELEVATION REFERENCE TYPE
~Curve Information Section
#MNEM       .UNIT                                      API CODE :CURVE DESCRIPTION
#------------------------------------------------------------------------------
DEPT        .FT                                                 :DEPTH     
DT          .US/F                                               :          
GR          .GAPI                                               :          
GR_1        .GAPI                                               :          
GR_NORM     .GAPI                                               :GammaRay Normalized
ILD         .OHMM                                               :          
ILM         .OHMM                                               :          
NPHI        .%                                                  :          
RFOC        .OHMM                                               :          
RHOB        .G/C3                                               :          
SP          .MV                                                 :          
SP_NORM     .MV                                                 :SP Normalized
VSH_GR      .V/V                                                :Volume of Shale from GR
VSH_SP      .V/V                                                :Volume of Shale from SP
~A        DEPTH             DT             GR           GR_1        GR_NORM            ILD            ILM           NPHI           RFOC           RHOB             SP        SP_NORM         VSH_GR         VSH_SP
# ...
      7166.0000        -999.25        67.3473        -999.25       67.88698         0.7061         0.7704        38.3445         0.7664         2.3539       -51.6619      -2.595809      0.7422761      0.9600645
      7166.5000        -999.25        67.0028        -999.25       67.47947         0.6976         0.7705        38.6478         0.7673         2.3641         -51.57      -2.505015      0.7336057      0.9614613
      7167.0000        -999.25        66.0082        -999.25       66.30353         0.6891         0.7702        38.6252         0.7712         2.3644        -51.157      -2.039611      0.7085857      0.9686214
      7167.5000        -999.25         64.687        -999.25       64.74151         0.6855         0.7699        38.9036         0.7754         2.3573       -50.6315      -1.442948      0.6753513      0.9778008
      7168.0000        -999.25        64.5289        -999.25       64.55432         0.6939         0.7514        38.8281         0.7789         2.3495       -50.2057     -0.9626077      0.6713685      0.9851906
      7168.5000        -999.25        65.7701        -999.25       66.02116         0.7031         0.7534        37.7711         0.7751         2.3519       -49.9554     -0.6870117      0.7025779      0.9894306
      7169.0000        -999.25        64.2383        -999.25       64.21021         0.7101         0.7607        37.0767         0.7713         2.3534       -49.7051     -0.4114246      0.6640471      0.9936704
      7169.5000        -999.25        62.6346        -999.25       62.31429          0.716         0.7712         37.671         0.7757         2.3534       -49.4532     -0.1339639      0.6237083       0.997939
      7170.0000        -999.25        61.4064        -999.25       60.86221         0.7203         0.7819         38.443         0.7839         2.3548       -49.1997      0.1453616       0.592813              1
      7170.5000        -999.25        62.4722        -999.25       62.12172         0.7246         0.7766        39.5032         0.8562         2.3597       -49.0226      0.3355528       0.619611              1
      7171.0000        -999.25        63.7785        -999.25        63.6655         0.7232         0.7668        40.5245         0.8762          2.365       -48.9852      0.3627631      0.6524575              1
      7171.5000        -999.25        65.3413        -999.25       65.51247         0.7213         0.7572        41.4682         0.8276         2.3702       -48.9481      0.3896173      0.6917548              1
      7172.0000        -999.25        65.8147        -999.25       66.07174         0.7205         0.7525        42.0378         0.8029         2.3849       -48.9114      0.4160131      0.7036541              1
      7172.5000        -999.25        65.4257        -999.25       65.61163         0.7158         0.7494        42.2392         0.8138          2.394       -48.8746      0.4425201      0.6938644              1
      7173.0000        -999.25        63.4327        -999.25       63.25553         0.7052         0.7462        42.0985         0.8315         2.3741       -49.0322      0.2422307      0.6437347              1
      7173.5000        -999.25        61.3779        -999.25       60.82639         0.7066         0.7439        41.6884         0.8515         2.3577       -49.2098     0.01860301      0.5920507              1
      7174.0000        -999.25         59.973        -999.25       59.16544         0.7073         0.7418        41.1964         0.8686         2.3479       -49.4001     -0.2198359      0.5567115      0.9966179
      7174.5000        -999.25        59.6703        -999.25       58.80733         0.7072         0.7396         40.081         0.8809         2.3418       -49.9009     -0.8205306      0.5490922      0.9873765
      7175.0000        -999.25        59.6135        -999.25       58.73988         0.7049         0.7368        38.6774         0.8897         2.3445       -50.5342      -1.575804      0.5476571      0.9757569
      7175.5000        -999.25        59.5696        -999.25       58.68769         0.7002         0.7338        37.6512         0.8842         2.3501       -51.3348      -2.526262      0.5465467      0.9611344
      7176.0000        -999.25        58.8867        -999.25       57.88018         0.6956         0.7308        38.0522          0.877         2.3583       -52.0128      -3.333686      0.5293655      0.9487125
      7176.5000        -999.25        59.3676        -999.25       58.44831         0.6894         0.7189        38.2438         0.8488         2.3505       -52.6783      -4.126525      0.5414534       0.936515
      7177.0000        -999.25        59.9383        -999.25        59.1226          0.683         0.7043        38.4062         0.8002         2.3278       -52.5333      -3.973785      0.5557999      0.9388648
      7177.5000        -999.25        60.1676        -999.25       59.39333         0.6515          0.686        38.4249         0.7889         2.2887       -52.0245      -3.396611      0.5615601      0.9477444
      7178.0000        -999.25        60.3969        -999.25       59.66406         0.6284          0.682        38.5326         0.7783         2.2628       -51.7645      -3.109702      0.5673205      0.9521585
      7178.5000        -999.25        60.4731        -999.25       59.75383         0.6202         0.6812        39.2878         0.7697         2.2482       -51.3627      -2.657359      0.5692304      0.9591175
      7179.0000        -999.25        60.3187        -999.25       59.57102         0.6187         0.6818        39.1493         0.7638         2.2488       -50.3821       -1.52975      0.5653409      0.9764654
      7179.5000        -999.25        60.1118        -999.25       59.32616         0.6201         0.6864        38.1339         0.7652         2.2572       -52.0685      -3.513641       0.560131       0.945944
      7180.0000        -999.25        59.8627        -999.25       59.03141         0.6223          0.691        35.6941          0.769         2.2772        -55.752      -7.827482      0.5538597      0.8795772
      7180.5000        -999.25        58.7305        -999.25       57.69279         0.6349         0.6931        32.9615          0.791         2.2985       -63.2379      -16.57746      0.5253786      0.7449622
      7181.0000        -999.25        55.9965        -999.25       54.46082         0.6546         0.6915        31.9873         0.8526         2.3179       -64.8174      -18.43663      0.4566131      0.7163596
      7181.5000        -999.25        54.6651        -999.25       52.88676         0.6871         0.6898         31.216         0.9035         2.3233       -65.0192       -18.6885      0.4231225      0.7124847
      7182.0000        -999.25        54.5966        -999.25       52.80548         0.6923         0.6889        31.2235         0.9839         2.3303       -64.5714      -18.18249      0.4213931      0.7202694
      7182.5000        -999.25        55.1661        -999.25       53.47834         0.6833         0.6885        32.3404         0.9757         2.3328       -62.2166      -15.45164      0.4357094      0.7622824
      7183.0000        -999.25        58.0737        -999.25       56.91491         0.6711         0.6882        35.7926         0.7863         2.3333       -59.0066      -11.72306      0.5088279      0.8196452
      7183.5000        -999.25        60.8301        -999.25       60.17278         0.6557          0.688        36.7676         0.7463         2.3297       -57.1872      -9.616856      0.5781441      0.8520484
      7184.0000        -999.25        62.4127        -999.25       62.04315         0.6491         0.6906          38.01         0.7139         2.3194       -55.3702      -7.513447      0.6179393      0.8844085
      7184.5000        -999.25        64.7563        -999.25       64.81306         0.6467         0.6932        38.9551         0.6919           2.31       -54.6626      -6.704341      0.6768736      0.8968563
