#------------------------------------------------------------------------------
# Created by    : vladimir.rabinovich
# Created on    : 09/19/2023 17:20:01
#------------------------------------------------------------------------------
~Version Information Section
VERS.           2.0     :   CWLS log ASCII Standard - VERSION 2.0
WRAP.           NO      :   One line per depth step
~Well Information Section
#MNEM       .UNIT                                         VALUE :DESCRIPTION
#------------------------------------------------------------------------------
STRT        .FT                                            3530 :START DEPTH
STOP        .FT                                           11780 :STOP DEPTH
STEP        .FT                                             0.5 :STEP      
NULL        .                                           -999.25 :NULL      
COMP        .                                        TEXACO INC :COMPANY   
WELL        .                                     ST TR 00820-L :WELL      
FLD         .                                           WILDCAT :FIELD     
LOC         .                                                   :LOCATION  
CNTY        .                        MUSTANG ISLAND LARGE BLOCK :LOCATION  
STAT        .                                             TEXAS :STATE     
CTRY        .                                     UNITED STATES :COUNTRY   
SRVC        .                                                   :SERVICE COMPANY
DATE        .                             9/13/2023 11:18:55 AM :LOG DATE  
API         .                                    42702302010000 :API NUMBER
UWI         .                                    42702302010000 :UNIQUE WELL ID
XCOORD      .                                  295719.314319733 :SURFACE X 
YCOORD      .                                  9994218.17259751 :SURFACE Y 
LAT         .                                        27.4796405 :LATITUDE  
LON         .                                       -97.1466422 :LONGITUDE 
ELEV        .FT                                              78 :ELEVATION VALUE
ELEV_TYPE   .                                                KB :ELEVATION REFERENCE TYPE
~Curve Information Section
#MNEM       .UNIT                                      API CODE :CURVE DESCRIPTION
#------------------------------------------------------------------------------
DEPT        .FT                                                 :DEPTH     
ASFL        .OHMM                                               :          
CILD        .MMHO                                               :          
GR          .GAPI                                               :          
GR_NORM     .GAPI                                               :GammaRay Normalized
ILD         .OHMM                                               :          
SP          .MV                                                 :          
SP_NORM     .MV                                                 :SP Normalized
VSH_GR      .V/V                                                :Volume of Shale from GR
VSH_SP      .V/V                                                :Volume of Shale from SP
~A        DEPTH           ASFL           CILD             GR        GR_NORM            ILD             SP        SP_NORM         VSH_GR         VSH_SP
# ...
      5173.0000         2.2003        1707.07        40.0267       34.33979         0.6705      -107.5388      -55.68061     0.02850626     0.07321005
      5173.5000         2.2467       1698.201        40.2214       34.66881          0.669      -106.3751      -54.52317     0.03550663     0.09282769
      5174.0000         2.2755       1682.877        40.4159       34.99748         0.6698      -105.1268      -53.28114     0.04249954      0.1138791
      5174.5000         2.2505       1667.564        40.6106       35.32648         0.6705      -103.5115       -51.6721     0.04949968      0.1411508
      5175.0000         2.1294       1647.928        44.2741       41.58823         0.6713      -101.8961      -50.06297      0.1827283      0.1684242
      5175.5000          2.056         1619.9         49.395       50.34258         0.6721      -100.2809      -48.45403      0.3689911      0.1956944
      5176.0000         1.9962       1591.896        52.1445        55.0411         0.6729       -98.6655       -46.8449      0.4689595      0.2229678
      5176.5000          1.968       1563.869        52.8162       56.18594         0.6793       -96.0363      -44.22197      0.4933178      0.2674243
      5177.0000         1.8278       1535.842        53.0915       56.65279         0.6865       -93.3556      -41.54753      0.5032508      0.3127537
      5177.5000         1.7513       1507.838         53.353       57.09605         0.6936       -90.1543       -38.3525      0.5126819      0.3669068
      5178.0000         1.7107       1479.811        53.5093       57.35938         0.7048       -86.9556      -35.16006      0.5182847      0.4210159
      5178.5000          1.659       1451.783        53.6656       57.62271         0.7195       -84.3743      -32.58503      0.5238875      0.4646605
      5179.0000         1.6046       1441.541         53.822       57.88622         0.7341       -83.1481       -31.3651      0.5294941      0.4853373
      5179.5000         1.5902        1432.17        53.9783       58.14953         0.7488       -81.9205      -30.14377      0.5350963      0.5060378
      5180.0000         1.6577       1422.211        54.5417       59.10917         0.7631        -79.473      -27.70253      0.5555142      0.5474147
      5180.5000         1.7253       1411.873        55.1996       60.23038         0.7757       -74.5878       -22.8236      0.5793697      0.6301085
      5181.0000         1.6905       1401.533        55.8575        61.3516         0.7884       -67.1936      -15.43567      0.6032255      0.7553276
      5181.5000         1.6211       1365.568        56.5155         62.473         0.8011       -57.4072      -5.655533       0.627085      0.9210927
      5182.0000         1.5536       1326.123        57.1734       63.59423         0.8138       -55.5524      -3.806995      0.6509411      0.9524238
      5182.5000         1.3508        1286.68        57.8313       64.71548         0.8265       -53.8347      -2.095566      0.6747974      0.9814311
      5183.0000         1.0941       1247.258        58.4893       65.83686         0.8391       -53.1375      -1.404633      0.6986566      0.9931418
      5183.5000         0.9648       1207.814        58.6881       66.17287          0.855       -52.4402     -0.7136002      0.7058057              1
      5184.0000         0.9098       1180.129        58.8542       66.45296         0.8778        -51.743    -0.02266312      0.7117652              1
      5184.5000         0.9033       1158.178        59.0206       66.73358         0.9005       -51.0951       0.618969      0.7177358              1
      5185.0000         0.9101       1136.227        59.1867       67.01368         0.9232       -50.8438      0.8640022      0.7236953              1
      5185.5000         0.9169       1114.273        59.3529       67.29395          0.946       -50.5925       1.109039      0.7296585              1
      5186.0000         0.9237       1092.322        59.6378       67.77723         0.9561       -50.3411       1.354172      0.7399411              1
      5186.5000         0.9305       1070.371        60.0619       68.49857         0.9584       -50.0901       1.598904      0.7552887              1
      5187.0000         0.9373       1055.977         60.486       69.21993         0.9608        -49.823       1.859734      0.7706369              1
      5187.5000         0.9441       1044.193        60.9101       69.94128         0.9631       -49.5057       2.170773      0.7859848              1
      5188.0000         0.9528       1034.635        61.3345       70.66319         0.9655       -49.1881       2.482105      0.8013443              1
      5188.5000         0.9626       1033.193        62.3569        72.4078         0.9678       -48.8708       2.793137      0.8384638              1
      5189.0000         0.9724       1031.754        63.7305       74.75311         0.9702       -48.5535       3.104172       0.888364              1
      5189.5000         0.9733       1030.313         65.104       77.09822         0.9725       -48.2362       3.415207        0.93826              1
      5190.0000         0.9707       1028.869        66.5057       79.49158         0.9749        -47.925       3.720139      0.9891827              1
      5190.5000          0.968        1027.43        67.9136       81.89554         0.9772       -47.8146       3.824272              1              1
      5191.0000         0.9605       1025.988        69.1865       84.06861         0.9795       -47.7041       3.928505              1              1
      5191.5000         0.9512        1029.48        70.2936       85.95811         0.9819       -47.5936       4.032738              1              1
      5192.0000         0.9418       1035.221        71.1387        87.3995         0.9825       -47.4831       4.136971              1              1
      5192.5000         0.9325       1040.965        71.5781       88.14704         0.9799       -47.4224       4.191406              1              1
      5193.0000         0.9232       1046.703        72.0173       88.89421         0.9774       -47.3813       4.226238              1              1
      5193.5000         0.9138       1052.449        72.3076       89.38676         0.9748       -47.3401       4.261173              1              1
      5194.0000         0.9045       1058.195        72.1274       89.07455         0.9722        -47.299       4.296009              1              1
      5194.5000         0.8972       1061.922        71.7681       88.45602         0.9697       -47.1154       4.473343              1              1
      5195.0000         0.8904       1064.695        71.4088       87.83753         0.9671       -46.8926       4.689873              1              1
      5195.5000         0.8836       1067.475        71.0494       87.21885         0.9645       -46.6699       4.906307              1              1
      5196.0000         0.8806       1070.252        70.6901       86.60037          0.962       -46.4471       5.122841              1              1
      5196.5000         0.8803       1073.029        70.6591       86.54337         0.9594       -46.8231       4.740574              1              1
      5197.0000         0.8799       1075.807        70.7664       86.72287         0.9568       -47.2693       4.288109              1              1
      5197.5000         0.8796       1078.584        70.8737        86.9024         0.9543       -47.6198       3.931343              1              1
      5198.0000         0.8807       1081.361        71.0365       87.17686         0.9517       -47.9698       3.575077              1              1
      5198.5000         0.8839       1084.139        71.2943       87.61379         0.9496         -48.32       3.218609              1              1
      5199.0000          0.887       1086.918        71.5518       88.05023         0.9546       -48.6704       2.861942              1              1
