#------------------------------------------------------------------------------
# Created by    : vladimir.rabinovich
# Created on    : 09/19/2023 17:20:32
#------------------------------------------------------------------------------
~Version Information Section
VERS.           2.0     :   CWLS log ASCII Standard - VERSION 2.0
WRAP.           NO      :   One line per depth step
~Well Information Section
#MNEM       .UNIT                                         VALUE :DESCRIPTION
#------------------------------------------------------------------------------
STRT        .FT                                             222 :START DEPTH
STOP        .FT                                            9192 :STOP DEPTH
STEP        .FT                                             0.5 :STEP      
NULL        .                                           -999.25 :NULL      
COMP        .                                      PAN AMERICAN :COMPANY   
WELL        .                                     ST TR 00060-L :WELL      
FLD         .                                           WILDCAT :FIELD     
LOC         .                                                   :LOCATION  
CNTY        .                             GALVESTON LARGE BLOCK :LOCATION  
STAT        .                                             TEXAS :STATE     
CTRY        .                                     UNITED STATES :COUNTRY   
SRVC        .                                                   :SERVICE COMPANY
DATE        .                             9/13/2023 11:19:24 AM :LOG DATE  
API         .                                    42706000830000 :API NUMBER
UWI         .                                    42706000830000 :UNIQUE WELL ID
XCOORD      .                                  1150669.84230747 :SURFACE X 
YCOORD      .                                  10684730.4394491 :SURFACE Y 
LAT         .                                        29.4325033 :LATITUDE  
LON         .                                       -94.5389235 :LONGITUDE 
ELEV        .FT                                              11 :ELEVATION VALUE
ELEV_TYPE   .                                                KB :ELEVATION REFERENCE TYPE
~Curve Information Section
#MNEM       .UNIT                                      API CODE :CURVE DESCRIPTION
#------------------------------------------------------------------------------
DEPT        .FT                                                 :DEPTH     
ASN         .OHMM                                               :          
CILD        .MMHO                                               :          
ILD         .OHMM                                               :          
SP          .MV                                                 :          
SP_NORM     .MV                                                 :SP Normalized
VSH_SP      .V/V                                                :Volume of Shale from SP
~A        DEPTH            ASN           CILD            ILD             SP        SP_NORM         VSH_SP
# ...
      5580.0000          0.528       1876.023         0.4406       -55.4451      -1.990562      0.9769636
      5580.5000         0.5232       1892.375         0.3957       -54.7778      -1.324642      0.9924502
      5581.0000         0.5214       1906.584         0.3509       -54.1099     -0.6581192              1
      5581.5000         0.5226       1917.521         0.2961        -53.442    0.008403778              1
      5582.0000         0.5239       1925.775         0.2375       -52.7879      0.6611328              1
      5582.5000         0.5251       1920.756          0.179       -52.7008      0.7468529              1
      5583.0000         0.5263       1915.744         0.1205       -52.6137      0.8325768              1
      5583.5000         0.5276        1910.73         0.0619       -52.5266      0.9183006              1
      5584.0000         0.5288       1905.711         0.0168       -52.4431       1.000423              1
      5584.5000           0.53       1894.061              0       -52.3869       1.055244              1
      5585.0000         0.5313       1897.641              0       -52.3307       1.110069              1
      5585.5000         0.5302       1906.516              0       -52.2746       1.164795              1
      5586.0000         0.5289       1915.393              0       -52.2185       1.219521              1
      5586.5000         0.5276       1923.932              0       -52.1624       1.274242              1
      5587.0000         0.5263       1930.225              0       -52.1062       1.329063              1
      5587.5000         0.5249       1936.518              0         -52.05       1.383888              1
      5588.0000         0.5236       1942.809              0       -51.9939        1.43861              1
      5588.5000         0.5223       1949.096              0       -51.9577       1.473434              1
      5589.0000          0.521       1955.389              0       -51.9397       1.490059              1
      5589.5000         0.5197       1955.156              0       -51.9217       1.506683              1
      5590.0000           0.52       1949.207              0       -51.9037       1.523304              1
      5590.5000         0.5208       1940.502              0       -51.8857       1.539928              1
      5591.0000         0.5216       1927.707         0.0104       -51.8677       1.556553              1
      5591.5000         0.5225       1916.939         0.0471       -51.8497       1.573174              1
      5592.0000         0.5233       1921.354         0.0884       -51.8287       1.592796              1
      5592.5000         0.5241       1925.768         0.1297       -51.7842       1.635925              1
      5593.0000         0.5246       1930.182         0.1711       -51.7397       1.679047              1
      5593.5000         0.5247       1934.598         0.2124       -51.6952       1.722168              1
      5594.0000         0.5248       1938.162         0.2537       -51.6507       1.765293              1
      5594.5000         0.5249       1940.115         0.2931       -51.6062       1.808414              1
      5595.0000          0.525       1942.068         0.3146       -51.5617        1.85154              1
      5595.5000         0.5251        1944.02         0.3361       -51.5172       1.894661              1
      5596.0000         0.5252       1940.896         0.3576       -51.4727        1.93779              1
      5596.5000         0.5255       1929.813         0.3791       -51.4282       1.980911              1
      5597.0000         0.5259       1918.727         0.4006       -51.3837       2.024033              1
      5597.5000         0.5262       1907.654         0.4221       -51.3392       2.067158              1
      5598.0000         0.5266       1897.658         0.4267       -51.3164       2.088581              1
      5598.5000          0.527       1892.584         0.4268       -51.3084       2.095203              1
      5599.0000         0.5273       1887.508          0.427       -51.3004       2.101826              1
      5599.5000         0.5277       1882.434         0.4272       -51.2923       2.108551              1
      5600.0000          0.528       1877.359         0.4274       -51.2842       2.115276              1
      5600.5000         0.5258       1877.143         0.4275       -51.2762       2.121899              1
      5601.0000         0.5234       1881.936         0.4277       -51.2681        2.12862              1
      5601.5000         0.5211       1896.533         0.4279       -51.2601       2.135242              1
      5602.0000         0.5187       1919.662          0.428       -51.2521       2.141865              1
      5602.5000         0.5164       1946.654         0.4282        -51.244        2.14859              1
      5603.0000          0.514       1983.045         0.4284        -51.236       2.155216              1
      5603.5000         0.5117       1998.334         0.4273       -51.2729        2.11694              1
      5604.0000         0.5093       1998.613         0.4259        -51.335       2.053463              1
      5604.5000          0.507       1998.895         0.4245       -51.3972       1.989883              1
      5605.0000         0.5059       1999.088         0.4231       -51.4594       1.926308              1
      5605.5000         0.5062        1999.27         0.4216       -51.5215       1.862831              1
      5606.0000         0.5064       1999.453         0.4202       -51.5837       1.799255              1
      5606.5000         0.5067       1999.744         0.4188       -51.6494       1.732182              1
      5607.0000         0.5069       2000.451         0.4174       -51.8558       1.524403              1
      5607.5000         0.5072       2001.156         0.4159       -52.0624       1.316425              1
      5608.0000         0.5075       2001.863         0.4157        -52.269       1.108448              1
      5608.5000         0.5077       2002.568         0.4201       -52.4755      0.9005737              1
      5609.0000         0.5108       1985.592         0.4245       -52.6821      0.6925964              1
      5609.5000         0.5169       1679.535         0.4289       -52.8887      0.4846191              1
      5610.0000          0.523       1623.533         0.4332       -53.2082      0.1637421              1
      5610.5000         0.5291        1586.23         0.4376       -53.6489     -0.2783318              1
      5611.0000         0.5313       1544.746          0.442       -54.0897     -0.7205086              1
      5611.5000         0.5238       1497.996         0.4464       -54.5305      -1.162685      0.9962166
      5612.0000         0.5162       1216.359         0.4507        -54.971      -1.604565      0.9859403
      5612.5000         0.5086       1151.598         0.4551       -55.4118      -2.046741      0.9756572
      5613.0000          0.501        1086.59         0.4638       -55.8525      -2.488819      0.9653763
      5613.5000         0.4934       1013.562         0.4735       -56.5832      -3.220894      0.9483513
      5614.0000         0.4834       935.5615         0.4833       -57.4507      -4.089767      0.9281449
      5614.5000         0.4734       838.6152          0.493       -58.3182      -4.958645      0.9079385
      5615.0000         0.4633       695.2139         0.5027       -59.1857      -5.827522       0.887732
      5615.5000         0.4533       576.5166         0.5124       -60.0026      -6.645802      0.8687023
      5616.0000         0.4432       489.8066         0.5222       -60.3703      -7.014877      0.8601191
      5616.5000         0.4332       870.3564         0.5319       -60.7382      -7.384155      0.8515313
      5617.0000         0.4231       955.4424         0.5416       -61.9516       -8.59893      0.8232807
      5617.5000         0.4131       1506.805         0.5513        -77.679      -24.32771      0.4574952
