#------------------------------------------------------------------------------
# Created by    : vladimir.rabinovich
# Created on    : 09/19/2023 17:20:54
#------------------------------------------------------------------------------
~Version Information Section
VERS.           2.0     :   CWLS log ASCII Standard - VERSION 2.0
WRAP.           NO      :   One line per depth step
~Well Information Section
#MNEM       .UNIT                                         VALUE :DESCRIPTION
#------------------------------------------------------------------------------
STRT        .FT                                            1092 :START DEPTH
STOP        .FT                                            8058 :STOP DEPTH
STEP        .FT                                             0.5 :STEP      
NULL        .                                           -999.25 :NULL      
COMP        .                                    EXXON CO U S A :COMPANY   
WELL        .                               OCS G03029 ST00BP00 :WELL      
FLD         .                                           WILDCAT :FIELD     
LOC         .                                                   :LOCATION  
CNTY        .                        MUSTANG ISLAND LARGE BLOCK :LOCATION  
STAT        .                                             TEXAS :STATE     
CTRY        .                                     UNITED STATES :COUNTRY   
SRVC        .                                                   :SERVICE COMPANY
DATE        .                             9/13/2023 11:19:13 AM :LOG DATE  
API         .                                    42702400190000 :API NUMBER
UWI         .                                    42702400190000 :UNIQUE WELL ID
XCOORD      .                                  486295.566528254 :SURFACE X 
YCOORD      .                                  10047803.1546112 :SURFACE Y 
LAT         .                                         27.643077 :LATITUDE  
LON         .                                        -96.564717 :LONGITUDE 
ELEV        .FT                                              70 :ELEVATION VALUE
ELEV_TYPE   .                                                KB :ELEVATION REFERENCE TYPE
~Curve Information Section
#MNEM       .UNIT                                      API CODE :CURVE DESCRIPTION
#------------------------------------------------------------------------------
DEPT        .FT                                                 :DEPTH     
ASN         .OHMM                                               :          
CALI        .IN                                                 :          
CIL         .MMHO                                               :          
DRHO        .G/C3                                               :          
DT          .US/F                                               :          
GR          .GAPI                                               :          
GR_NORM     .GAPI                                               :GammaRay Normalized
ILD         .OHMM                                               :          
NPHI        .%                                                  :          
RHOB        .G/C3                                               :          
SN          .OHMM                                               :          
SP          .MV                                                 :          
SP_NORM     .MV                                                 :SP Normalized
VSH_GR      .V/V                                                :Volume of Shale from GR
VSH_SP      .V/V                                                :Volume of Shale from SP
~A        DEPTH            ASN           CALI            CIL           DRHO             DT             GR        GR_NORM            ILD           NPHI           RHOB             SN             SP        SP_NORM         VSH_GR         VSH_SP
# ...
      5325.0000         1.0306        12.5878       1136.965         0.0513       135.2957        88.0028       84.51803         0.7757        40.7799         2.2652         1.0229       -75.8739      -1.023804              1              1
      5325.5000         1.0201        12.5877       1114.354         0.0444        134.165        86.6172       83.13194         0.7904        41.3326         2.2547         1.0446       -75.7769     -0.9338303              1              1
      5326.0000         1.0146        12.5875       1092.664         0.0456       132.3118        84.9181       81.43236         0.8133        40.3442         2.2577         1.0627       -75.3577     -0.5216522              1              1
      5326.5000         1.0094        12.5874       1075.504          0.048       130.4609        83.4351       79.94887          0.843        40.4625         2.2602         1.0758       -74.9862     -0.1571808      0.9989121              1
      5327.0000         1.0156        12.5867       1059.443         0.0471        129.238        85.3553       81.86859         0.8678        40.1444         2.2603         1.0834       -74.7794     0.04258728              1              1
      5327.5000         1.0218        12.5821       1049.135         0.0494       128.4563        87.0201       83.53291         0.8865        39.6766         2.2694         1.0838       -74.7673     0.04766846              1              1
      5328.0000         1.0409        12.5852       1044.885         0.0591       129.7747        86.9702       83.48252         0.8922        39.4393         2.2834         1.0786       -75.1813     -0.3733521              1              1
      5328.5000         1.0638         12.604       1050.832         0.0603       132.1533        85.7938       82.30564         0.8807        38.8124         2.2805         1.0679       -75.4899     -0.6889801              1              1
      5329.0000          1.079        12.6271       1077.688         0.0572       135.8098        84.6995       81.21085         0.8608        39.3989         2.2865         1.0565       -75.4999     -0.7060089              1              1
      5329.5000         1.0938         12.628       1103.869         0.0524       137.6929        85.9238       82.43467         0.8389        40.0041          2.284         1.0433       -75.3499     -0.5630341              1              1
      5330.0000         1.1081         12.622       1129.053         0.0468        137.804        87.3981       83.90849         0.8163        39.5258          2.272         1.0282       -75.2209     -0.4410629              1              1
      5330.5000         1.0996        12.6152       1143.541         0.0407       136.4575        89.3334        85.8433         0.8023        39.0108          2.269         1.0117        -75.301     -0.5281906              1              1
      5331.0000         1.0796        12.6226       1151.035         0.0347       135.2419        90.5177       87.02711         0.7957        38.5531         2.2726         1.0122       -75.2667     -0.5009079              1              1
      5331.5000         1.0689        12.6291       1153.469         0.0364        134.665        90.3754       86.88433         0.7928        38.1904         2.2763         1.0176       -75.1075      -0.348732              1              1
      5332.0000         1.0583        12.6349       1148.564         0.0383        134.323        89.4865       85.99495         0.7952        37.9711         2.2802         1.0295        -74.807     -0.0552597              1              1
      5332.5000         1.0485        12.6448        1143.66         0.0411       134.2722        90.1898       86.69776         0.7992        38.1063         2.2966         1.0416       -74.5776      0.1671143              1              1
      5333.0000         1.0432        12.6574       1130.813         0.0482       134.2275        89.8569       86.36439         0.8071        37.7216         2.3089         1.0625       -74.4003      0.3373871              1              1
      5333.5000         1.0378        12.6573       1117.746         0.0516       134.1467        88.3439        84.8509         0.8167        37.6649         2.3167         1.0847       -74.6809     0.04975891              1              1
      5334.0000         1.0333        12.6503       1100.801         0.0494       133.0818        85.7145       82.22102         0.8271        37.7477          2.321         1.0947       -75.2518     -0.5281677              1              1
      5334.5000         1.0309          12.64       1083.303          0.047       130.4861        84.9604       81.46643         0.8354        38.1033         2.3159         1.0994       -75.9165       -1.19989              1              1
      5335.0000         1.0386        12.6288       1069.439         0.0448       128.2061        85.0117       81.51725         0.8435         37.269         2.3157         1.0995        -75.348     -0.6384125              1              1
      5335.5000         1.0488        12.6332       1060.221         0.0431       127.8842        85.6711       82.17616         0.8534        37.9266         2.3162         1.0972       -74.8888     -0.1862411              1              1
      5336.0000          1.059        12.6432       1058.609         0.0461       128.2424        85.2141       81.71868         0.8555        38.3424         2.3268         1.0996       -75.0549     -0.3593674              1              1
      5336.5000         1.0766        12.6491       1063.893         0.0449       128.6897        84.1721       80.67619         0.8604        37.9401         2.3273         1.1025       -75.5161     -0.8275909              1              1
      5337.0000         1.0941        12.6562       1072.965         0.0381       129.3167        86.7697       83.27331         0.8507        37.3136         2.3254         1.1045       -76.0502      -1.368721              1              1
      5337.5000         1.1042        12.6638       1082.805         0.0359       130.1416        88.7611       85.26423         0.8411        36.9344         2.3153         1.0914       -76.2316      -1.557144              1              1
      5338.0000         1.1058        12.6585       1093.699         0.0378       131.1113         90.704       87.20664         0.8323        37.5636         2.3226           1.08       -76.0308      -1.363373              1              1
      5338.5000         1.1045         12.651       1104.768         0.0481       132.3804         91.353       87.85516         0.8262        38.3072         2.3256          1.068       -75.9584      -1.297989              1              1
      5339.0000         1.1053        12.6418       1116.088         0.0503       133.4487        90.6802       87.18187         0.8194        37.9564         2.3266         1.0573       -75.9116      -1.258217              1              1
      5339.5000         1.1066        12.6349       1126.982         0.0524       134.0708        89.3047       85.80589         0.8105        38.2625         2.3109         1.0519       -75.9282      -1.281845              1              1
      5340.0000         1.1079        12.6324       1137.352         0.0544       133.4836        88.2926        84.7933         0.8016        38.1047          2.307         1.0474       -75.7484       -1.10907              1              1
      5340.5000         1.0931        12.6341        1147.66         0.0553       133.1189          87.46       83.96022         0.7935        38.9153         2.2945           1.04       -75.3929     -0.7605972              1              1
      5341.0000         1.0797        12.6373       1157.693         0.0535       132.8918        86.4985       82.99823         0.7854        39.8607         2.2861         1.0306       -75.1517     -0.5264282              1              1
      5341.5000         1.0668        12.6434       1167.727         0.0523       132.9775        85.8285       82.32775         0.7806        39.5419         2.2856         1.0223       -75.2821     -0.6638489              1              1
