#------------------------------------------------------------------------------
# Created by    : vladimir.rabinovich
# Created on    : 09/19/2023 17:21:44
#------------------------------------------------------------------------------
~Version Information Section
VERS.           2.0     :   CWLS log ASCII Standard - VERSION 2.0
WRAP.           NO      :   One line per depth step
~Well Information Section
#MNEM       .UNIT                                         VALUE :DESCRIPTION
#------------------------------------------------------------------------------
STRT        .FT                                            3434 :START DEPTH
STOP        .FT                                            9802 :STOP DEPTH
STEP        .FT                                             0.5 :STEP      
NULL        .                                           -999.25 :NULL      
COMP        .                                  UMC PETROLEUM CO :COMPANY   
WELL        .                               OCS G11352 ST00BP00 :WELL      
FLD         .                            HIGH ISLAND BLOCK 0093 :FIELD     
LOC         .                                                   :LOCATION  
CNTY        .                           HIGH ISLAND LARGE BLOCK :LOCATION  
STAT        .                                             TEXAS :STATE     
CTRY        .                                     UNITED STATES :COUNTRY   
SRVC        .                                                   :SERVICE COMPANY
DATE        .                             9/13/2023 11:19:57 AM :LOG DATE  
API         .                                    42708403880000 :API NUMBER
UWI         .                                    42708403880000 :UNIQUE WELL ID
XCOORD      .                                  1243413.75648782 :SURFACE X 
YCOORD      .                                  10663707.7269925 :SURFACE Y 
LAT         .                                         29.377731 :LATITUDE  
LON         .                                        -94.246854 :LONGITUDE 
ELEV        .FT                                              85 :ELEVATION VALUE
ELEV_TYPE   .                                                KB :ELEVATION REFERENCE TYPE
~Curve Information Section
#MNEM       .UNIT                                      API CODE :CURVE DESCRIPTION
#------------------------------------------------------------------------------
DEPT        .FT                                                 :DEPTH     
CALI        .IN                                                 :          
CALI_1      .IN                                                 :          
DPHI        .%                                                  :          
DRHO        .G/C3                                               :          
DT          .US/F                                               :          
GR          .GAPI                                               :          
GR_1        .GAPI                                               :          
GR_NORM     .GAPI                                               :GammaRay Normalized
ILD         .OHMM                                               :          
ILM         .OHMM                                               :          
NPHI        .%                                                  :          
RFOC        .OHMM                                               :          
SP          .MV                                                 :          
SP_NORM     .MV                                                 :SP Normalized
VSH_GR      .V/V                                                :Volume of Shale from GR
VSH_SP      .V/V                                                :Volume of Shale from SP
~A        DEPTH           CALI         CALI_1           DPHI           DRHO             DT             GR           GR_1        GR_NORM            ILD            ILM           NPHI           RFOC             SP        SP_NORM         VSH_GR         VSH_SP
# ...
      8490.0000        -999.25        12.6046        -999.25        -999.25       120.7158        68.2664        -999.25       88.39574         0.5379         0.5178        -999.25         0.6119       -46.1208      -6.147606              1      0.9095941
      8490.5000        -999.25        12.5115        -999.25        -999.25        121.104        70.2505        -999.25       91.68117         0.5398         0.5205        -999.25         0.6144       -46.0605      -6.090614              1      0.9104322
      8491.0000        -999.25        12.4513        -999.25        -999.25       120.7234        71.8477        -999.25       94.32346         0.5422         0.5231        -999.25         0.6167       -46.0001       -6.03352              1      0.9112718
      8491.5000        -999.25         12.549        -999.25        -999.25       120.0366        72.8657        -999.25       96.00298         0.5459         0.5271        -999.25         0.6146       -45.9396       -5.97633              1      0.9121128
      8492.0000        -999.25         12.595        -999.25        -999.25       119.4971        72.4789        -999.25       95.34741         0.5502         0.5338        -999.25         0.6097       -45.8793      -5.919334              1       0.912951
      8492.5000        -999.25        12.5058        -999.25        -999.25       119.2202        71.8539        -999.25       94.29588         0.5536           0.54        -999.25         0.6046       -45.8189      -5.862244              1      0.9137905
      8493.0000        -999.25        12.3975        -999.25        -999.25       119.4351        71.7941        -999.25       94.18386         0.5542         0.5445        -999.25         0.6013       -45.7585      -5.805149              1      0.9146302
      8493.5000        -999.25        12.3233        -999.25        -999.25       119.9934        71.8291        -999.25       94.22943         0.5415         0.5427        -999.25          0.599       -45.6736      -5.723557              1      0.9158301
      8494.0000        -999.25        12.4303        -999.25        -999.25       120.7935        71.3678        -999.25          93.45         0.5302         0.5328        -999.25         0.5977       -45.5599      -5.613159              1      0.9174535
      8494.5000        -999.25         12.619        -999.25        -999.25       121.5259        70.0892        -999.25       91.31208         0.5211         0.5181        -999.25         0.5946       -45.6185      -5.675068              1      0.9165431
      8495.0000        -999.25        12.8213        -999.25        -999.25       122.0397        68.5837        -999.25       88.79694         0.5143         0.5013        -999.25         0.5913       -45.8253      -5.885174              1      0.9134533
      8495.5000        -999.25        13.0315        -999.25        -999.25       121.7606        68.8966        -999.25       89.30444         0.5169         0.4857        -999.25         0.5879       -45.7925      -5.855682              1       0.913887
      8496.0000        -999.25        12.8513        -999.25        -999.25       121.2823        68.7921        -999.25       89.11812         0.5303         0.4717        -999.25         0.5873       -45.7034       -5.76989              1      0.9151487
      8496.5000        -999.25        12.6393        -999.25        -999.25       121.1516        67.7505        -999.25       87.37411         0.5442         0.4971        -999.25           0.59       -45.5351      -5.604897              1      0.9175751
      8497.0000        -999.25         12.854        -999.25        -999.25       121.9165        66.3467        -999.25       85.02805         0.5573         0.5235        -999.25         0.5983       -45.2886      -5.361706              1      0.9211514
      8497.5000        -999.25        13.0543        -999.25        -999.25       121.6724        65.0544        -999.25       82.86731         0.5562         0.5433        -999.25         0.6073        -45.077      -5.153412              1      0.9242145
      8498.0000        -999.25        13.2203        -999.25        -999.25       119.8094         64.045        -999.25       81.17683         0.5508         0.5518        -999.25         0.6191       -45.1308      -5.210514              1      0.9233748
      8498.5000        -999.25         13.354        -999.25        -999.25       116.9098        63.7192        -999.25       80.62265         0.5454         0.5479        -999.25         0.6275       -45.3823      -5.465324              1      0.9196276
      8499.0000        -999.25        13.4055        -999.25        -999.25       114.3031        63.6831        -999.25       80.55004         0.5431         0.5389        -999.25         0.6184       -45.5847      -5.671032              1      0.9166025
      8499.5000        -999.25          13.38        -999.25        -999.25       114.1302        63.4052        -999.25       80.07549         0.5422         0.5219        -999.25         0.6019       -45.7077      -5.797337              1       0.914745
      8500.0000        -999.25         13.294        -999.25        -999.25       116.7545        62.2767        -999.25       78.18701         0.5445         0.5045        -999.25         0.5816       -45.7432      -5.836143      0.9614258      0.9141744
      8500.5000        -999.25        13.3233        -999.25        -999.25        120.766         61.028        -999.25       76.09876           0.55         0.5026        -999.25         0.5534        -45.669      -5.765251      0.9169949      0.9152169
      8501.0000        -999.25        13.6178        -999.25        -999.25       123.0897        60.2281        -999.25       74.75652         0.5578         0.5252        -999.25         0.5523       -45.5536       -5.65316      0.8884365      0.9168653
      8501.5000        -999.25        13.7898        -999.25        -999.25       124.7047        61.6517        -999.25       77.11026         0.5727         0.5513        -999.25         0.5658       -45.4128      -5.515667      0.9385162      0.9188873
      8502.0000        -999.25        13.6732        -999.25        -999.25       124.3492         63.244        -999.25       79.74442         0.5928         0.5777        -999.25         0.5812       -45.2764      -5.382576       0.994562      0.9208445
      8502.5000        -999.25        13.9933        -999.25        -999.25        122.043        63.4398        -999.25       80.05726         0.6159         0.6006        -999.25         0.6008        -45.148      -5.257477              1      0.9226842
      8503.0000        -999.25         14.204        -999.25        -999.25       117.3955        63.7165        -999.25       80.50458         0.6399         0.6234        -999.25         0.6257       -44.9612      -5.073986              1      0.9253826
      8503.5000        -999.25         14.169        -999.25        -999.25       113.2789        64.4791        -999.25       81.75958         0.6649         0.6478        -999.25         0.6448       -44.7442      -4.860294              1      0.9285251
      8504.0000        -999.25        14.1012        -999.25        -999.25       110.5396        64.3142        -999.25       81.47284         0.7093          0.654        -999.25          0.657       -44.7423      -4.861698              1      0.9285045
      8504.5000        -999.25        14.0017        -999.25        -999.25       109.6199        63.0754        -999.25       79.40106         0.7306         0.6436        -999.25         0.6609       -44.9665      -5.089207      0.9872566      0.9251587
      8505.0000        -999.25        14.0347        -999.25        -999.25       109.3007        61.5029        -999.25       76.77456          0.725         0.6225        -999.25         0.6569       -45.3029      -5.428913      0.9313736       0.920163
      8505.5000        -999.25        14.3503        -999.25        -999.25       109.6681        59.9156        -999.25       74.12349         0.7097          0.596        -999.25         0.6424       -45.4166      -5.545921      0.8749679      0.9184423
