#------------------------------------------------------------------------------
# Created by    : vladimir.rabinovich
# Created on    : 09/19/2023 17:20:05
#------------------------------------------------------------------------------
~Version Information Section
VERS.           2.0     :   CWLS log ASCII Standard - VERSION 2.0
WRAP.           NO      :   One line per depth step
~Well Information Section
#MNEM       .UNIT                                         VALUE :DESCRIPTION
#------------------------------------------------------------------------------
STRT        .FT                                             712 :START DEPTH
STOP        .FT                                            9469 :STOP DEPTH
STEP        .FT                                             0.5 :STEP      
NULL        .                                           -999.25 :NULL      
COMP        .                                 MESA PETROLEUM CO :COMPANY   
WELL        .                                ST TR 00279-L SW/4 :WELL      
FLD         .                                           WILDCAT :FIELD     
LOC         .                                                   :LOCATION  
CNTY        .                             GALVESTON LARGE BLOCK :LOCATION  
STAT        .                                             TEXAS :STATE     
CTRY        .                                     UNITED STATES :COUNTRY   
SRVC        .                                                   :SERVICE COMPANY
DATE        .                             9/13/2023 11:18:53 AM :LOG DATE  
API         .                                    42706300950000 :API NUMBER
UWI         .                                    42706300950000 :UNIQUE WELL ID
XCOORD      .                                  947289.050530544 :SURFACE X 
YCOORD      .                                  10490529.0152507 :SURFACE Y 
LAT         .                                         28.889695 :LATITUDE  
LON         .                                        -95.166438 :LONGITUDE 
ELEV        .FT                                              84 :ELEVATION VALUE
ELEV_TYPE   .                                                KB :ELEVATION REFERENCE TYPE
~Curve Information Section
#MNEM       .UNIT                                      API CODE :CURVE DESCRIPTION
#------------------------------------------------------------------------------
DEPT        .FT                                                 :DEPTH     
ASFL        .OHMM                                               :          
CILD        .MMHO                                               :          
GR          .GAPI                                               :          
GR_NORM     .GAPI                                               :GammaRay Normalized
ILD         .OHMM                                               :          
SP          .MV                                                 :          
SP_NORM     .MV                                                 :SP Normalized
VSH_GR      .V/V                                                :Volume of Shale from GR
VSH_SP      .V/V                                                :Volume of Shale from SP
~A        DEPTH           ASFL           CILD             GR        GR_NORM            ILD             SP        SP_NORM         VSH_GR         VSH_SP
# ...
      7681.5000         0.9003       2348.492        65.7792       64.65404         0.3894        -75.475      -41.05755      0.6734902       0.452566
      7682.0000         0.9169       2412.711        66.0958       65.05454         0.3757       -75.1714       -40.7529      0.6820115       0.456628
      7682.5000         0.9326       2476.184        66.4124       65.45505         0.3698       -72.2427      -37.82315      0.6905329      0.4956914
      7683.0000         0.9194       2521.977        66.7289       65.85543         0.3808       -69.1584       -34.7378      0.6990517      0.5368294
      7683.5000         0.8995       2418.738        67.0455       66.25594          0.402       -65.9409      -31.51925      0.7075731      0.5797434
      7684.0000         0.8853       2294.848         67.416       66.72462         0.4325       -62.7233      -28.30059      0.7175452      0.6226588
      7684.5000         0.8752       2181.039        67.8209       67.23662          0.463        -58.595      -24.17124      0.7284387      0.6777168
      7685.0000         0.8652       2067.227        68.2251       67.74773         0.4935       -52.0858      -17.66099      0.7393135      0.7645202
      7685.5000         0.8551       1953.418        68.6299       68.25959          0.524        -48.809      -14.38313       0.750204      0.8082249
      7686.0000         0.8478       1624.236        68.4709       68.05959         0.5545       -46.6735      -12.24658      0.7459488      0.8367122
      7686.5000         0.8541        1541.99        68.2433       67.77298         0.5849       -45.8303      -11.40233      0.7398506      0.8479689
      7687.0000         0.8616       1503.412        68.0153       67.48586         0.6018       -46.2913      -11.86228      0.7337418      0.8418363
      7687.5000         0.8741       1501.695        67.7876       67.19924         0.6151       -47.3187      -12.88863      0.7276434      0.8281516
      7688.0000         0.8865       1514.254        67.9918       67.45782         0.6283       -48.3462      -13.91507      0.7331452      0.8144657
      7688.5000          0.899       1526.801        68.2279       67.75668         0.6415       -48.1416      -13.70942      0.7395039      0.8172077
      7689.0000         0.9006       1549.352        68.6434       68.28207         0.6547       -47.4252      -12.99197      0.7506824      0.8267737
      7689.5000         0.8852       1592.672        69.1921       68.97562         0.6486       -46.7097      -12.27542      0.7654388      0.8363278
      7690.0000         0.8662       1635.994        69.7401        69.6683         0.6124       -45.8469      -11.41157      0.7801767      0.8478458
      7690.5000         0.8471       1679.314        69.6901       69.60606         0.5916       -44.9787      -10.54231      0.7788524      0.8594359
      7691.0000         0.8281       1722.586        67.9771       67.44394         0.5708       -44.1104      -9.672962      0.7328498      0.8710272
      7691.5000          0.809       1765.908        66.4343       65.49672           0.55       -43.2422      -8.803707      0.6914195      0.8826172
      7692.0000         0.7989       1809.229        64.8965       63.55581         0.5292       -51.9821      -17.54256      0.6501235      0.7660992
      7692.5000         0.8019         1852.5         63.408       61.67714         0.5099       -62.2457       -27.8051      0.6101519      0.6292653
      7693.0000         0.8267       1895.822        66.0714       65.04079         0.4906       -66.7554      -32.31376      0.6817189      0.5691499
      7693.5000         0.8515       1939.143        68.1029       67.60669         0.4708       -63.5786       -29.1359      0.7363126      0.6115213
      7694.0000         0.8768       1982.463        69.7173       69.64584         0.4464       -57.6767      -23.23295      0.7796986      0.6902273
      7694.5000         0.9129       2012.102        70.5109       70.64861         0.4412       -50.6714      -16.22659      0.8010342      0.7836455
      7695.0000         0.8383       2039.467        71.0896       71.38005         0.4536       -45.3397      -10.89384      0.8165968      0.8547488
      7695.5000         0.7997       2066.785        70.7654       70.97147          0.466       -40.7559      -6.308994      0.8079035      0.9158801
      7696.0000         0.7778       2054.582        70.4497       70.57361         0.4784       -39.1878      -4.739841      0.7994385      0.9368021
      7696.5000           0.76       1993.035        70.8403       71.06767         0.4908       -37.6383      -3.189289      0.8099505      0.9574761
      7697.0000         0.7423       1933.561        71.2316        71.5625         0.5032       -36.3878      -1.937733      0.8204787      0.9741636
      7697.5000         0.7246       1878.631        71.6759       72.12424         0.5305       -35.9111       -1.45998      0.8324307      0.9805336
      7698.0000         0.7086       1833.779        72.8187       73.56793         0.5579       -35.4343     -0.9821281      0.8631475       0.986905
      7698.5000         0.7075       1859.662        73.9629       75.01338         0.5643       -35.6463      -1.193081      0.8939018      0.9840922
      7699.0000         0.7155       1885.547        75.0687       76.41035         0.5532       -36.4627      -2.008427      0.9236246       0.973221
      7699.5000         0.7235       1911.455        75.9894       77.57373          0.531       -38.7417      -4.286373      0.9483773      0.9428484
      7700.0000         0.7314        1937.34        76.9102       78.73712         0.5089       -41.1187      -6.662319      0.9731302      0.9111691
      7700.5000         0.7425       1960.977        77.8839       79.96729         0.4867       -43.4921      -9.034668      0.9993041      0.8795378
      7701.0000         0.7544       1947.441        76.6163       78.36755         0.4883       -46.2913      -11.83282      0.9652669      0.8422291
      7701.5000         0.7663       1933.932        72.9064       73.68409         0.4965       -49.3644      -14.90487      0.8656189      0.8012685
      7702.0000         0.7782       1920.422        71.7573       72.23396         0.5047       -52.0118      -17.55121      0.8347652      0.7659838
      7702.5000         0.7859        1906.91        72.9805       73.77929          0.514       -53.2095      -18.74786      0.8676444      0.7500286
      7703.0000         0.7767       1893.377        74.2047       75.32575         0.5241       -51.2028      -16.74011      0.9005479      0.7767985
      7703.5000         0.7675       1879.865        75.4945       76.95505         0.5342       -49.1978      -14.73405      0.9352138       0.803546
      7704.0000         0.7581       1866.355        76.8237       78.63409         0.5443        -47.191      -12.72621       0.970938      0.8303173
      7704.5000         0.7485       1852.846        76.9447       78.78763         0.5544       -45.5229      -11.05705      0.9742048      0.8525726
      7705.0000         0.7389       1839.311         75.692        77.2067         0.5645       -43.9364      -9.469501       0.940568        0.87374
      7705.5000         0.7293       1825.801        74.6812       75.93118         0.5705        -42.348      -7.880047      0.9134294      0.8949327
      7706.0000         0.7197       1812.291        73.6704       74.65582          0.574       -40.7614      -6.292393      0.8862939      0.9161015
      7706.5000         0.7164       1800.213        72.5707       73.26805         0.5774        -38.999      -4.528946      0.8567671      0.9396141
      7707.0000         0.7132       1791.088        71.2699       71.62639         0.5809       -37.1959      -2.724792      0.8218381      0.9636694
      7707.5000         0.7104       1781.961        70.4146       70.54723           0.59        -36.546      -2.073841      0.7988771      0.9723488
