#------------------------------------------------------------------------------
# Created by    : vladimir.rabinovich
# Created on    : 09/19/2023 17:20:01
#------------------------------------------------------------------------------
~Version Information Section
VERS.           2.0     :   CWLS log ASCII Standard - VERSION 2.0
WRAP.           NO      :   One line per depth step
~Well Information Section
#MNEM       .UNIT                                         VALUE :DESCRIPTION
#------------------------------------------------------------------------------
STRT        .FT                                            3470 :START DEPTH
STOP        .FT                                           12708 :STOP DEPTH
STEP        .FT                                             0.5 :STEP      
NULL        .                                           -999.25 :NULL      
COMP        .                                     INEXCO OIL CO :COMPANY   
WELL        .                                     ST TR 00794-L :WELL      
FLD         .                                       BLOCK 794-L :FIELD     
LOC         .                                                   :LOCATION  
CNTY        .                        MUSTANG ISLAND LARGE BLOCK :LOCATION  
STAT        .                                             TEXAS :STATE     
CTRY        .                                     UNITED STATES :COUNTRY   
SRVC        .                                                   :SERVICE COMPANY
DATE        .                             9/13/2023 11:18:55 AM :LOG DATE  
API         .                                    42702301710000 :API NUMBER
UWI         .                                    42702301710000 :UNIQUE WELL ID
XCOORD      .                                  319607.894357718 :SURFACE X 
YCOORD      .                                   10038241.944616 :SURFACE Y 
LAT         .                                        27.6026524 :LATITUDE  
LON         .                                       -97.0775955 :LONGITUDE 
ELEV        .FT                                               0 :ELEVATION VALUE
ELEV_TYPE   .                                                GL :ELEVATION REFERENCE TYPE
~Curve Information Section
#MNEM       .UNIT                                      API CODE :CURVE DESCRIPTION
#------------------------------------------------------------------------------
DEPT        .FT                                                 :DEPTH     
ASFL        .OHMM                                               :          
CILD        .MMHO                                               :          
DT          .US/F                                               :          
GR          .GAPI                                               :          
GR_NORM     .GAPI                                               :GammaRay Normalized
ILD         .OHMM                                               :          
ILM         .OHMM                                               :          
SP          .MV                                                 :          
SP_NORM     .MV                                                 :SP Normalized
VSH_GR      .V/V                                                :Volume of Shale from GR
VSH_SP      .V/V                                                :Volume of Shale from SP
~A        DEPTH           ASFL           CILD             DT             GR        GR_NORM            ILD            ILM             SP        SP_NORM         VSH_GR         VSH_SP
# ...
     10242.5000         0.9558       782.7119       105.0345        57.1546       63.30561         0.9389         0.8155       -58.8314      -13.21737      0.6448002      0.5787114
     10243.0000         1.0454       775.1768       101.3812        54.2957       58.31915         0.9418         0.9279       -59.3036      -13.68957      0.5387054      0.5624287
     10243.5000         1.1159        778.332        99.0243         52.027       54.36271         0.9414         1.0675       -59.7711      -14.15707      0.4545258       0.546308
     10244.0000         1.1716       781.4863        97.9774        50.1429       51.07749         0.9409         1.1781       -59.0177      -13.40367      0.3846274      0.5722873
     10244.5000         1.3471       784.6416        98.7593        48.7836       48.70814         0.9405         1.2221       -58.1844      -12.57037      0.3342157      0.6010219
     10245.0000         1.4575        821.459        99.7589        49.9566       50.75822         0.9401         1.2218         -57.35      -11.73597      0.3778345      0.6297943
     10245.5000         1.4871       870.3867        100.184        52.3293       54.90202         0.9268         1.1727       -56.5156      -10.90157      0.4660004      0.6585667
     10246.0000          1.108       949.0195       100.8607         54.124       58.03709         0.9038         1.0629       -55.6218      -10.00777      0.5327041      0.6893874
     10246.5000         0.9325       1055.418       104.0908        55.9163       61.16798         0.8809         0.9661       -54.6931      -9.079067      0.5993188      0.7214115
     10247.0000         0.8826       1213.461       108.9069        57.4158       63.78785         0.8579         0.8633       -53.4777      -7.863667      0.6550605      0.7633218
     10247.5000          0.857       1296.561       112.2196        58.8501       66.29395          0.835         0.7964       -52.2853      -6.671268       0.708382       0.804439
     10248.0000         0.8305       1356.748       114.7103        60.0692       68.42451         0.8122         0.7533       -51.2283      -5.614265      0.7537129      0.8408874
     10248.5000         0.8009       1384.609        117.308        61.1987       70.39864         0.7893           0.72       -50.0407      -4.426666      0.7957158      0.8818391
     10249.0000         0.7972       1412.424       119.0532        62.3306       72.37698         0.7665         0.6995       -49.0974      -3.483368       0.837808      0.9143666
     10249.5000         0.8167       1430.236       119.5044        63.4891       74.40176         0.7437         0.6853       -48.5931      -2.979069      0.8808886      0.9317563
     10250.0000          0.832        1418.15        118.889        64.6501       76.43087         0.7225         0.6798          -48.5      -2.885967      0.9240611      0.9349666
     10250.5000         0.8473       1406.088       116.1259        65.9078       78.62878         0.7061         0.6739          -48.5      -2.885967      0.9708252      0.9349666
     10251.0000         0.8539       1393.906       114.3575        66.8293       80.23993         0.6897         0.6758       -48.6911      -3.077068              1       0.928377
     10251.5000         0.8577       1379.295        114.087        65.1943       77.38944         0.6732         0.6779       -48.9542      -3.340168      0.9444562      0.9193045
     10252.0000         0.8614       1364.709       115.3524        63.5593       74.53892         0.6832         0.6816       -49.1981      -3.584068      0.8838068      0.9108942
     10252.5000         0.8632         1350.1       117.8625         62.038       71.88686         0.6942         0.6879       -49.4089      -3.794868      0.8273799      0.9036252
     10253.0000         0.8635       1335.488       119.2319         60.981       70.04511         0.7076         0.6964       -49.6199      -4.005867      0.7881939      0.8963494
     10253.5000         0.8638       1317.287       119.5676        59.9265       68.20772          0.721         0.7089        -49.785      -4.170967      0.7491004      0.8906563
     10254.0000         0.8652       1298.695       119.1067        58.8694       66.36579         0.7345         0.7249       -49.8162      -4.202168      0.7099105      0.8895804
     10254.5000          0.874        1280.08       117.9623        58.0665       64.96747         0.7503          0.742       -49.8475      -4.233467      0.6801589      0.8885011
     10255.0000         0.8827       1256.904       118.3453        57.3638       63.74403         0.7683          0.756        -49.674      -4.059967      0.6541282      0.8944839
     10255.5000         0.8915       1233.168        119.339        56.6642       62.52602         0.7864         0.7634       -49.4409      -3.826866      0.6282132      0.9025218
     10256.0000         0.9003       1214.705       118.7212        56.1738        61.6731         0.8045         0.7633       -49.2081      -3.594067      0.6100659      0.9105494
     10256.5000         0.9217       1210.324       115.2551        55.6919       60.83501         0.8095         0.7596       -48.8671      -3.253067      0.5922342       0.922308
     10257.0000         0.9486       1205.943       113.9235         55.408       60.34249         0.8098         0.7501        -48.393      -2.778969       0.581755      0.9386563
     10257.5000         0.9698       1227.053       113.5081        55.2369        60.0468         0.7996         0.7376       -47.9286      -2.314568      0.5754639      0.9546701
     10258.0000         0.9857        1254.67       113.8431        55.0658       59.75114         0.7763         0.7218       -47.4697      -1.855667      0.5691733      0.9704942
     10258.5000         0.9943       1349.564       114.9875        56.7725       62.73262          0.753         0.7045       -47.0114      -1.397366      0.6326088      0.9862977
     10259.0000         0.9786       1459.068       116.2719        58.8864       66.42477         0.7297         0.6822       -46.7912      -1.177166      0.7111654      0.9938908
     10259.5000         0.8872       1569.156       117.9258        60.8915       69.92704         0.7068         0.6487       -46.6158      -1.001766      0.7856817      0.9999391
     10260.0000         0.8505        1609.93       119.5627        62.7151       73.11256          0.684         0.6157       -46.7339      -1.119865      0.8534586      0.9958667
     10260.5000         0.8351       1650.701       121.2021        64.0116       75.37814         0.6612         0.5888       -46.8522      -1.238167      0.9016626      0.9917874
     10261.0000         0.8271       1675.189       123.1771        65.3055       77.63921         0.6384         0.5703       -46.9703      -1.356266      0.9497705      0.9877149
     10261.5000         0.8251       1689.412       125.2324         66.094       79.01826         0.6258         0.5606       -46.9055      -1.291466       0.979112      0.9899495
     10262.0000         0.8231       1690.973       127.2683         66.833        80.3109         0.6147          0.556       -46.8022      -1.188168              1      0.9935114
     10262.5000         0.8211       1690.611       127.9202        67.5864       81.62869         0.6036         0.5522       -46.3897     -0.7756691              1              1
     10263.0000         0.8225        1690.25       126.9691        65.6683        78.2841         0.5924         0.5522       -45.9241     -0.3100662      0.9634916              1
     10263.5000         0.8261       1689.889       125.3954        64.6307       76.47623         0.5821         0.5531       -45.2396      0.3744316      0.9250261              1
     10264.0000         0.8296       1683.162       123.9895        63.5908       74.66429         0.5818          0.554       -44.7281      0.8859329      0.8864743              1
     10264.5000         0.8319       1673.139       123.2318        62.8669       73.40385         0.5815         0.5556       -44.4835       1.130531      0.8596565              1
