#------------------------------------------------------------------------------
# Created by    : vladimir.rabinovich
# Created on    : 09/19/2023 17:19:46
#------------------------------------------------------------------------------
~Version Information Section
VERS.           2.0     :   CWLS log ASCII Standard - VERSION 2.0
WRAP.           NO      :   One line per depth step
~Well Information Section
#MNEM       .UNIT                                         VALUE :DESCRIPTION
#------------------------------------------------------------------------------
STRT        .FT                                            3460 :START DEPTH
STOP        .FT                                           13634 :STOP DEPTH
STEP        .FT                                             0.5 :STEP      
NULL        .                                           -999.25 :NULL      
COMP        .                                SHELL OFFSHORE INC :COMPANY   
WELL        .                               OCS G06107 ST00BP00 :WELL      
FLD         .                                           WILDCAT :FIELD     
LOC         .                                                   :LOCATION  
CNTY        .                             GALVESTON LARGE BLOCK :LOCATION  
STAT        .                                             TEXAS :STATE     
CTRY        .                                     UNITED STATES :COUNTRY   
SRVC        .                                                   :SERVICE COMPANY
DATE        .                             9/13/2023 11:19:27 AM :LOG DATE  
API         .                                    42706401270000 :API NUMBER
UWI         .                                    42706401270000 :UNIQUE WELL ID
XCOORD      .                                  941908.785460496 :SURFACE X 
YCOORD      .                                  10441108.8632451 :SURFACE Y 
LAT         .                                         28.753553 :LATITUDE  
LON         .                                        -95.180411 :LONGITUDE 
ELEV        .FT                                              90 :ELEVATION VALUE
ELEV_TYPE   .                                                KB :ELEVATION REFERENCE TYPE
~Curve Information Section
#MNEM       .UNIT                                      API CODE :CURVE DESCRIPTION
#------------------------------------------------------------------------------
DEPT        .FT                                                 :DEPTH     
ASFL        .OHMM                                               :          
CALI        .IN                                                 :          
CILD        .MMHO                                               :          
DT          .US/F                                               :          
GR          .GAPI                                               :          
GR_1        .GAPI                                               :          
GR_NORM     .GAPI                                               :GammaRay Normalized
ILD         .OHMM                                               :          
ILM         .OHMM                                               :          
RHOB        .G/C3                                               :          
SP          .MV                                                 :          
VSH_GR      .V/V                                                :Volume of Shale from GR
~A        DEPTH           ASFL           CALI           CILD             DT             GR           GR_1        GR_NORM            ILD            ILM           RHOB             SP         VSH_GR
# ...
     12931.0000        -999.25         6.8209       3542.902       121.0991        -999.25        71.5531       97.35506         0.2892         0.2975         2.3807        -999.25              1
     12931.5000        -999.25         6.8186        3555.91       121.6573        -999.25        72.5651       98.83459         0.2884         0.2975         2.3678        -999.25              1
     12932.0000        -999.25         6.8149        3562.32        121.809        -999.25        73.1785       99.73137         0.2881         0.2979          2.359        -999.25              1
     12932.5000        -999.25         6.8173       3543.605       121.4116        -999.25        73.2797       99.87933         0.2889          0.298           2.36        -999.25              1
     12933.0000        -999.25         6.8083       3500.953       120.5043        -999.25        71.5131       97.29658           0.29          0.298         2.3649        -999.25              1
     12933.5000        -999.25         6.7917       3468.078        119.239        -999.25        68.8195       93.35857         0.2947          0.298         2.3759        -999.25              1
     12934.0000        -999.25         6.8026       3424.215       117.9536        -999.25        66.5056       89.97567         0.2988         0.2992         2.3892        -999.25              1
     12934.5000        -999.25         6.8395       3369.461       117.2705        -999.25        65.8872       89.07157         0.3021         0.3003         2.3847        -999.25              1
     12935.0000        -999.25         6.8154       3307.648       117.2214        -999.25        67.0054       90.70638         0.3056         0.3021         2.3773        -999.25              1
     12935.5000        -999.25         6.7974       3245.129       117.4048        -999.25        68.2297       92.49628         0.3096         0.3042         2.3747        -999.25              1
     12936.0000        -999.25            6.8       3187.449       117.3446        -999.25        66.9954       90.69175         0.3144         0.3072         2.3778        -999.25              1
     12936.5000        -999.25         6.8093       3120.895       117.1407        -999.25        64.8815       87.60125         0.3211         0.3103          2.383        -999.25              1
     12937.0000        -999.25         6.8118       3065.434       116.7368        -999.25        64.2394       86.66251         0.3281          0.313         2.3877        -999.25              1
     12937.5000        -999.25         6.8131       3014.109       116.0708        -999.25        65.6411       88.71178         0.3364         0.3171         2.3913        -999.25              1
     12938.0000        -999.25          6.813       2965.906         115.05        -999.25        67.5951        91.5685         0.3438         0.3214         2.3899        -999.25              1
     12938.5000        -999.25          6.815       2923.961       113.5654        -999.25        68.0648        92.2552         0.3493         0.3266         2.3883        -999.25              1
     12939.0000        -999.25         6.8152       2883.223        111.665        -999.25        67.1703       90.94745         0.3527         0.3328         2.3868        -999.25              1
     12939.5000        -999.25         6.8098       2868.234       110.5636        -999.25        65.6786        88.7666         0.3552         0.3376         2.3812        -999.25              1
     12940.0000        -999.25         6.8102       2887.254       110.7047        -999.25        64.1144       86.47977         0.3557         0.3399          2.375        -999.25              1
     12940.5000        -999.25         6.8125       2945.234       113.3134        -999.25        62.1879       83.66325         0.3495         0.3404         2.3749        -999.25              1
     12941.0000        -999.25         6.8145       3027.117       115.5314        -999.25        60.3439       80.96733         0.3403         0.3391         2.3811        -999.25              1
     12941.5000        -999.25         6.8158        3140.66       117.2731        -999.25        59.2045       79.30154         0.3283         0.3334         2.3804        -999.25      0.9851393
     12942.0000        -999.25         6.8138       3291.313       118.1918        -999.25        60.2539       80.83575         0.3137          0.322         2.3803        -999.25              1
     12942.5000        -999.25         6.8119       3449.828       118.5931        -999.25        62.5477       84.18927         0.2988         0.3117         2.3852        -999.25              1
     12943.0000        -999.25         6.8117       3568.008       118.9032        -999.25        65.1014       87.92274         0.2862          0.308         2.3916        -999.25              1
     12943.5000        -999.25         6.8116       3627.453       118.8105        -999.25        66.5581       90.05242         0.2797         0.3061          2.396        -999.25              1
     12944.0000        -999.25         6.8085       3646.309       117.9738        -999.25        67.5302       91.47362         0.2769         0.3058         2.3916        -999.25              1
     12944.5000        -999.25          6.803       3603.504       115.9548        -999.25        69.2343         93.965         0.2778         0.3091         2.3833        -999.25              1
     12945.0000        -999.25         6.7985        3467.98       114.4413        -999.25        71.0083       96.55856         0.2893         0.3149         2.3775        -999.25              1
     12945.5000        -999.25         6.7962       3321.965       113.5479        -999.25        71.6481       97.49395         0.3014         0.3225         2.3775        -999.25              1
     12946.0000        -999.25         6.7993       3181.602       112.4968        -999.25        68.8994       93.47537         0.3141         0.3311         2.3813        -999.25              1
     12946.5000        -999.25         6.8093       3033.168       111.4987        -999.25        66.1609       89.47172         0.3271         0.3403         2.3852        -999.25              1
     12947.0000        -999.25         6.8165       2879.086       110.5435        -999.25        64.2893       86.73546         0.3481         0.3493         2.3852        -999.25              1
     12947.5000        -999.25           6.82       2737.309       109.3462        -999.25        62.6027       84.26967         0.3655          0.358          2.385        -999.25              1
     12948.0000        -999.25         6.8227       2618.926       108.3556        -999.25        61.3809       82.48341          0.382         0.3664         2.3849        -999.25              1
     12948.5000        -999.25         6.8226        2524.34       107.3588        -999.25        60.2589       80.84307         0.3974         0.3745         2.3848        -999.25              1
     12949.0000        -999.25         6.8224        2431.57       106.7531        -999.25        59.3257       79.47874           0.41         0.3815         2.3855        -999.25      0.9889093
     12949.5000        -999.25         6.8288       2380.949       106.8439        -999.25        59.5156       79.75638         0.4197         0.3886         2.3874        -999.25      0.9948165
     12950.0000        -999.25          6.838       2355.535       107.3008        -999.25         59.876       80.28327         0.4227         0.3938         2.3905        -999.25              1
     12950.5000        -999.25         6.8474       2354.172       107.8755        -999.25        60.3351       80.95446         0.4246          0.397         2.3935        -999.25              1
     12951.0000        -999.25         6.8568        2403.48       108.7766        -999.25        60.7971        81.6299         0.4233         0.3967         2.3926        -999.25              1
