#------------------------------------------------------------------------------
# Created by    : vladimir.rabinovich
# Created on    : 09/19/2023 17:21:44
#------------------------------------------------------------------------------
~Version Information Section
VERS.           2.0     :   CWLS log ASCII Standard - VERSION 2.0
WRAP.           NO      :   One line per depth step
~Well Information Section
#MNEM       .UNIT                                         VALUE :DESCRIPTION
#------------------------------------------------------------------------------
STRT        .FT                                            3434 :START DEPTH
STOP        .FT                                            9802 :STOP DEPTH
STEP        .FT                                             0.5 :STEP      
NULL        .                                           -999.25 :NULL      
COMP        .                                  UMC PETROLEUM CO :COMPANY   
WELL        .                               OCS G11352 ST00BP00 :WELL      
FLD         .                            HIGH ISLAND BLOCK 0093 :FIELD     
LOC         .                                                   :LOCATION  
CNTY        .                           HIGH ISLAND LARGE BLOCK :LOCATION  
STAT        .                                             TEXAS :STATE     
CTRY        .                                     UNITED STATES :COUNTRY   
SRVC        .                                                   :SERVICE COMPANY
DATE        .                             9/13/2023 11:19:57 AM :LOG DATE  
API         .                                    42708403880000 :API NUMBER
UWI         .                                    42708403880000 :UNIQUE WELL ID
XCOORD      .                                  1243413.75648782 :SURFACE X 
YCOORD      .                                  10663707.7269925 :SURFACE Y 
LAT         .                                         29.377731 :LATITUDE  
LON         .                                        -94.246854 :LONGITUDE 
ELEV        .FT                                              85 :ELEVATION VALUE
ELEV_TYPE   .                                                KB :ELEVATION REFERENCE TYPE
~Curve Information Section
#MNEM       .UNIT                                      API CODE :CURVE DESCRIPTION
#------------------------------------------------------------------------------
DEPT        .FT                                                 :DEPTH     
CALI        .IN                                                 :          
CALI_1      .IN                                                 :          
DPHI        .%                                                  :          
DRHO        .G/C3                                               :          
DT          .US/F                                               :          
GR          .GAPI                                               :          
GR_1        .GAPI                                               :          
GR_NORM     .GAPI                                               :GammaRay Normalized
ILD         .OHMM                                               :          
ILM         .OHMM                                               :          
NPHI        .%                                                  :          
RFOC        .OHMM                                               :          
SP          .MV                                                 :          
SP_NORM     .MV                                                 :SP Normalized
VSH_GR      .V/V                                                :Volume of Shale from GR
VSH_SP      .V/V                                                :Volume of Shale from SP
~A        DEPTH           CALI         CALI_1           DPHI           DRHO             DT             GR           GR_1        GR_NORM            ILD            ILM           NPHI           RFOC             SP        SP_NORM         VSH_GR         VSH_SP
# ...
      9738.0000         7.2213        -999.25         18.089        -0.0302       127.9139        -999.25        87.8451       78.03692         0.4707         0.4937        41.2076         0.6982       -41.8565      -1.856499      0.9582323      0.9726986
      9738.5000         7.0997        -999.25        17.9789        -0.0406       127.4895        -999.25        87.1058       76.84952          0.472         0.4949        40.8281         0.6851       -42.1741      -2.174099      0.9329684      0.9680279
      9739.0000         6.9819        -999.25         17.875        -0.0476       127.1782        -999.25        87.3732       77.23509         0.4732          0.496        40.6922         0.6856       -43.2012      -3.201199      0.9411722      0.9529235
      9739.5000           6.88        -999.25        17.4786        -0.0375       127.2693        -999.25        87.8489       77.94612         0.4733         0.4951        40.9753         0.6944       -43.9446      -3.944599      0.9563004      0.9419912
      9740.0000         6.8046        -999.25        15.2352         0.0052       127.3131        -999.25        88.7581        79.3345         0.4723         0.4949        41.3694         0.6807        -43.903         -3.903      0.9858405      0.9426029
      9740.5000         6.7594        -999.25          6.873         0.1129       127.3212        -999.25        89.8995       81.08568         0.4712         0.4951        41.6418         0.6684       -43.2571      -3.257099              1      0.9521015
      9741.0000         6.7367        -999.25         4.8828          0.187       127.2251        -999.25        92.1003        84.4922         0.4702         0.4955        41.5627         0.6734        -42.538      -2.537998              1      0.9626765
      9741.5000         6.7266        -999.25         7.0903         0.1967       126.9252        -999.25        92.3342       84.82541         0.4692          0.497        41.0712         0.6808       -41.6661        -1.6661              1      0.9754986
      9742.0000         6.7068        -999.25          9.034         0.1781       126.4811        -999.25        91.3502       83.25566         0.4681         0.4985        40.8212         0.6743       -40.9506     -0.9505997              1      0.9860206
      9742.5000         6.6827        -999.25        12.0762         0.0776       126.0452        -999.25        90.5988       82.04936         0.4666         0.4986        40.8629         0.6728       -41.8648      -1.864799              1      0.9725765
      9743.0000         6.6618        -999.25        13.2691          0.027        126.041        -999.25        91.4122       83.28806         0.4646         0.4984        41.1851         0.6801       -43.4968      -3.496799              1      0.9485765
      9743.5000         6.6439        -999.25        12.5767          0.061       126.6395        -999.25        92.7537       85.35191         0.4624         0.4965        41.5883         0.6915        -44.801      -4.800999              1      0.9293971
      9744.0000         6.6425        -999.25        11.6745         0.0705       127.7396        -999.25        93.6318       86.69168         0.4594         0.4929        41.4008         0.6933       -45.7263      -5.726299              1      0.9157897
      9744.5000         6.6553        -999.25        10.6855         0.0563        128.907        -999.25        93.2406       86.04819         0.4567         0.4887        41.3365         0.6794       -45.2158      -5.215801              1       0.923297
      9745.0000         6.6842        -999.25         9.8897         0.0549       129.5208        -999.25        91.9836       84.05188         0.4541         0.4842        41.8138         0.6668       -44.3278      -4.327801              1      0.9363559
      9745.5000         6.7225        -999.25        10.3947         0.0665       129.4712        -999.25          91.76       83.67027         0.4505         0.4793        42.0475         0.6637       -43.8192      -3.819199              1      0.9438353
      9746.0000         6.7797        -999.25        11.7195         0.0842       129.2114        -999.25        91.7599       83.63786         0.4476         0.4776        41.6654          0.661       -44.3551      -4.355099              1      0.9359545
      9746.5000         6.8876        -999.25        13.1656         0.0886       128.6252        -999.25        -999.25        -999.25         0.4462         0.4791        41.1005         0.6589       -45.1326      -5.132599        -999.25      0.9245206
      9747.0000         6.9919        -999.25        14.1675         0.0864        127.908        -999.25        -999.25        -999.25         0.4493         0.4819        40.8123         0.6697       -44.8407      -4.840698        -999.25      0.9288133
      9747.5000         7.0297        -999.25        14.1353         0.0789       127.2806        -999.25        -999.25        -999.25         0.4544         0.4861        40.4838         0.6912       -43.3428        -3.3428        -999.25      0.9508412
      9748.0000          7.048        -999.25         13.964         0.0669       126.7767        -999.25        -999.25        -999.25          0.461         0.4903         40.014         0.6951       -41.6338      -1.633801        -999.25      0.9759735
      9748.5000         7.0619        -999.25        13.8145         0.0744       126.4169        -999.25        -999.25        -999.25         0.4694         0.4947        39.6888         0.6949        -41.032      -1.032001        -999.25      0.9848235
      9749.0000          7.077        -999.25        13.7047         0.0993       126.1892        -999.25        -999.25        -999.25         0.4769         0.4988        39.5975         0.6866       -40.5731      -0.573101        -999.25       0.991572
      9749.5000         7.0848        -999.25        13.7492         0.1094       126.0624        -999.25        -999.25        -999.25         0.4833         0.5025        39.5269         0.6786       -39.8415      0.1585007        -999.25              1
      9750.0000          7.088        -999.25        14.2968         0.0621       126.1102        -999.25        -999.25        -999.25         0.4884          0.505        38.3198         0.6771       -41.6089      -1.608898        -999.25      0.9763398
      9750.5000         7.0922        -999.25         15.263         0.0118       126.3433        -999.25        -999.25        -999.25         0.4907         0.5069        -999.25         0.6865       -43.3751      -3.375099        -999.25      0.9503662
      9751.0000         7.0873        -999.25        15.4615         0.0004       126.7549        -999.25        -999.25        -999.25         0.4913         0.5072        -999.25         0.6975       -44.4905      -4.490501        -999.25      0.9339632
      9751.5000         7.0873        -999.25        15.2253         0.0004       127.1827        -999.25        -999.25        -999.25         0.4899         0.5072        -999.25         0.7022       -45.4803      -5.480301        -999.25      0.9194074
      9752.0000         7.0793        -999.25        15.3379        -0.0037       127.7172        -999.25        -999.25        -999.25         0.4874         0.5069        -999.25         0.6983       -46.2715        -6.2715        -999.25      0.9077721
      9752.5000         7.0578        -999.25        16.2151        -0.0116       128.4019        -999.25        -999.25        -999.25         0.4847         0.5053        -999.25         0.6987       -44.2346        -4.2346        -999.25      0.9377265
      9753.0000         7.0181        -999.25        16.5154         0.0022       128.5908        -999.25        -999.25        -999.25         0.4813         0.5014        -999.25         0.7071        -42.605         -2.605        -999.25      0.9616912
      9753.5000         6.9245        -999.25        16.0465         0.0176       128.5752        -999.25        -999.25        -999.25         0.4772         0.4975        -999.25          0.675       -41.5257        -1.5257        -999.25      0.9775633
