#------------------------------------------------------------------------------
# Created by    : vladimir.rabinovich
# Created on    : 09/19/2023 17:20:33
#------------------------------------------------------------------------------
~Version Information Section
VERS.           2.0     :   CWLS log ASCII Standard - VERSION 2.0
WRAP.           NO      :   One line per depth step
~Well Information Section
#MNEM       .UNIT                                         VALUE :DESCRIPTION
#------------------------------------------------------------------------------
STRT        .FT                                             510 :START DEPTH
STOP        .FT                                            9509 :STOP DEPTH
STEP        .FT                                             0.5 :STEP      
NULL        .                                           -999.25 :NULL      
COMP        .                       BLUE DOLPHIN EXPLORATION CO :COMPANY   
WELL        .                                OCS 00714 ST00BP00 :WELL      
FLD         .                              GALVESTON BLOCK 0288 :FIELD     
LOC         .                                                   :LOCATION  
CNTY        .                             GALVESTON LARGE BLOCK :LOCATION  
STAT        .                                             TEXAS :STATE     
CTRY        .                                     UNITED STATES :COUNTRY   
SRVC        .                                                   :SERVICE COMPANY
DATE        .                             9/13/2023 11:19:25 AM :LOG DATE  
API         .                                    42706000660000 :API NUMBER
UWI         .                                    42706000660000 :UNIQUE WELL ID
XCOORD      .                                  1093932.46617998 :SURFACE X 
YCOORD      .                                  10479390.8980397 :SURFACE Y 
LAT         .                                         28.865655 :LATITUDE  
LON         .                                       -94.7077791 :LONGITUDE 
ELEV        .FT                                              83 :ELEVATION VALUE
ELEV_TYPE   .                                                KB :ELEVATION REFERENCE TYPE
~Curve Information Section
#MNEM       .UNIT                                      API CODE :CURVE DESCRIPTION
#------------------------------------------------------------------------------
DEPT        .FT                                                 :DEPTH     
ASN         .OHMM                                               :          
CALI        .IN                                                 :          
DT          .US/F                                               :          
IL          .OHMM                                               :          
SP          .MV                                                 :          
SP_NORM     .MV                                                 :SP Normalized
VSH_SP      .V/V                                                :Volume of Shale from SP
~A        DEPTH            ASN           CALI             DT             IL             SP        SP_NORM         VSH_SP
       510.0000         0.6859        -999.25        -999.25         0.9923       -48.1677       12.29741              1
       510.5000         0.9288        -999.25        -999.25         1.1073       -49.3152       11.14991              1
       511.0000         1.0804        -999.25        -999.25         1.1599       -50.2107       10.25441              1
       511.5000         1.2106        -999.25        -999.25         1.1861       -50.4929       9.972214              1
       512.0000         1.2885        -999.25        -999.25         1.4286       -49.8092       10.65591              1
       512.5000         1.3365        -999.25        -999.25         1.6032       -48.9699       11.49522              1
       513.0000         1.3783        -999.25        -999.25         1.5992        -50.481       9.984116              1
       513.5000         1.4127        -999.25        -999.25         1.5609       -52.1271       8.338013              1
       514.0000         1.4681        -999.25        -999.25         1.5368       -52.9794       7.485714              1
       514.5000         1.5067        -999.25        -999.25         1.5936       -53.5324       6.932716              1
       515.0000         1.5356        -999.25        -999.25         1.6882       -54.1078       6.357315              1
       515.5000         1.5793        -999.25        -999.25           1.77        -55.467       4.998116              1
       516.0000          1.619        -999.25        -999.25         1.8193       -56.4755       3.989616              1
       516.5000         1.6448        -999.25        -999.25         1.8379       -57.2967       3.168415              1
       517.0000         1.6641        -999.25        -999.25         1.8481       -58.1275       2.337616              1
       517.5000         1.6811        -999.25        -999.25         1.8143       -58.8115       1.653614              1
       518.0000         1.6842        -999.25        -999.25         1.7251       -59.1772       1.287914              1
       518.5000         1.6747        -999.25        -999.25         1.6275       -59.7548      0.7103157              1
       519.0000         1.6675        -999.25        -999.25         1.5645       -60.6224     -0.1572838              1
       519.5000         1.6445        -999.25        -999.25         1.5192       -61.5093      -1.044186              1
       520.0000         1.6071        -999.25        -999.25         1.5211       -61.8574      -1.392284              1
       520.5000         1.5895        -999.25        -999.25         1.5589        -61.713      -1.247887              1
       521.0000         1.5851        -999.25        -999.25         1.5972       -61.2974     -0.8322868              1
       521.5000         1.5952        -999.25        -999.25          1.618       -60.8417     -0.3765869              1
       522.0000          1.581        -999.25        -999.25         1.5986       -61.0284     -0.5632858              1
       522.5000         1.5788        -999.25        -999.25         1.5844       -61.5716      -1.106487              1
       523.0000          1.585        -999.25        -999.25         1.6307       -60.7173     -0.2521858              1
       523.5000         1.6056        -999.25        -999.25         1.7737       -60.7665      -0.301384              1
       524.0000         1.6321        -999.25        -999.25         1.8482       -61.4022     -0.9370842              1
       524.5000         1.6532        -999.25        -999.25          1.877       -59.4003       1.064816              1
       525.0000          1.668        -999.25        -999.25         1.8315       -59.4557       1.009415              1
       525.5000         1.6727        -999.25        -999.25         1.7532       -60.9787     -0.5135841              1
       526.0000         1.6661        -999.25        -999.25         1.6616       -61.9105      -1.445385              1
       526.5000          1.655        -999.25        -999.25         1.5991       -62.1664      -1.701286              1
       527.0000         1.6534        -999.25        -999.25         1.5637       -62.1454      -1.680286              1
       527.5000         1.6593        -999.25        -999.25         1.5345       -62.0532      -1.588085              1
       528.0000         1.6442        -999.25        -999.25          1.515        -61.964      -1.498886              1
       528.5000         1.6199        -999.25        -999.25         1.4999       -62.7498      -2.284687      0.9288282
       529.0000         1.6114        -999.25        -999.25         1.4874       -62.8993      -2.434185      0.8914537
       529.5000         1.6093        -999.25        -999.25         1.4728       -62.5737      -2.108585      0.9728537
       530.0000         1.5933        -999.25        -999.25          1.458       -62.1402      -1.675087              1
       530.5000          1.543        -999.25        -999.25         1.4436       -62.6335      -2.168385      0.9579039
       531.0000         1.5165        -999.25        -999.25          1.407       -63.2004      -2.735287      0.8161783
       531.5000          1.498        -999.25        -999.25         1.3623       -63.2669      -2.801785      0.7995539
       532.0000         1.4979        -999.25        -999.25         1.3328       -63.1461      -2.680984      0.8297539
       532.5000         1.4973        -999.25        -999.25         1.3404        -62.829      -2.363884       0.909029
       533.0000         1.4916        -999.25        -999.25         1.3413       -62.8472      -2.382084       0.904479
       533.5000         1.4746        -999.25        -999.25         1.3226       -63.3584      -2.893284       0.776679
       534.0000         1.4535        -999.25        -999.25         1.2847       -63.7687      -3.303585      0.6741037
       534.5000         1.4407        -999.25        -999.25         1.2587       -62.9617      -2.496586      0.8758535
       535.0000         1.4364        -999.25        -999.25         1.2516       -62.4586      -1.993484              1
       535.5000         1.4472        -999.25        -999.25         1.2722       -64.8806      -4.415485      0.3961287
       536.0000         1.4637        -999.25        -999.25         1.2967       -65.9081      -5.442982      0.1392546
       536.5000         1.4812        -999.25        -999.25         1.3236       -65.8263      -5.361187      0.1597033
       537.0000         1.4866        -999.25        -999.25         1.3354       -65.6075      -5.142384      0.2144041
       537.5000         1.4858        -999.25        -999.25          1.343       -65.8171      -5.351986      0.1620035
       538.0000         1.4857        -999.25        -999.25         1.3363       -65.6724      -5.207287      0.1981783
       538.5000         1.4899        -999.25        -999.25         1.3278       -65.2975      -4.832386      0.2919035
       539.0000         1.4971        -999.25        -999.25         1.3135       -65.1443      -4.679188      0.3302031
       539.5000         1.5049        -999.25        -999.25         1.3008       -65.2168      -4.751682      0.3120794
       540.0000         1.5106        -999.25        -999.25         1.2914       -65.4041      -4.938984       0.265254
       540.5000           1.51        -999.25        -999.25         1.2861       -65.4924      -5.027287      0.2431784
       541.0000         1.5104        -999.25        -999.25         1.2881       -65.4426      -4.977482      0.2556295
       541.5000         1.5226        -999.25        -999.25         1.2901       -65.0432      -4.578083      0.3554792
       542.0000         1.5359        -999.25        -999.25         1.2919       -64.5327      -4.067585      0.4831038
       542.5000         1.5481        -999.25        -999.25         1.3034       -64.1061      -3.640987      0.5897532
       543.0000         1.5573        -999.25        -999.25         1.3134       -63.9576      -3.492485      0.6268787
