#------------------------------------------------------------------------------
# Created by    : vladimir.rabinovich
# Created on    : 09/19/2023 17:19:44
#------------------------------------------------------------------------------
~Version Information Section
VERS.           2.0     :   CWLS log ASCII Standard - VERSION 2.0
WRAP.           NO      :   One line per depth step
~Well Information Section
#MNEM       .UNIT                                         VALUE :DESCRIPTION
#------------------------------------------------------------------------------
STRT        .FT                                             490 :START DEPTH
STOP        .FT                                           13420 :STOP DEPTH
STEP        .FT                                             0.5 :STEP      
NULL        .                                           -999.25 :NULL      
COMP        .                                 MESA PETROLEUM CO :COMPANY   
WELL        .                                     ST TR 00012-L :WELL      
FLD         .                                           WILDCAT :FIELD     
LOC         .                                                   :LOCATION  
CNTY        .                           HIGH ISLAND LARGE BLOCK :LOCATION  
STAT        .                                             TEXAS :STATE     
CTRY        .                                     UNITED STATES :COUNTRY   
SRVC        .                                                   :SERVICE COMPANY
DATE        .                             9/13/2023 11:19:15 AM :LOG DATE  
API         .                                    42708302120000 :API NUMBER
UWI         .                                    42708302120000 :UNIQUE WELL ID
XCOORD      .                                  1361115.25412243 :SURFACE X 
YCOORD      .                                  10723579.9964947 :SURFACE Y 
LAT         .                                        29.5453665 :LATITUDE  
LON         .                                       -93.8786547 :LONGITUDE 
ELEV        .FT                                              80 :ELEVATION VALUE
ELEV_TYPE   .                                                KB :ELEVATION REFERENCE TYPE
~Curve Information Section
#MNEM       .UNIT                                      API CODE :CURVE DESCRIPTION
#------------------------------------------------------------------------------
DEPT        .FT                                                 :DEPTH     
ASFL        .OHMM                                               :          
CILD        .MMHO                                               :          
GR          .GAPI                                               :          
GR_NORM     .GAPI                                               :GammaRay Normalized
ILD         .OHMM                                               :          
SP          .MV                                                 :          
SP_NORM     .MV                                                 :SP Normalized
VSH_GR      .V/V                                                :Volume of Shale from GR
~A        DEPTH           ASFL           CILD             GR        GR_NORM            ILD             SP        SP_NORM         VSH_GR
# ...
     10815.0000          1.271       2776.879        78.6398       86.62463         0.3546        -73.755     -0.5158081              1
     10815.5000         1.2996       2768.594        77.5549       85.30569         0.3552        -73.845     -0.6266327              1
     10816.0000         1.3282       2760.305        75.3865       82.68221         0.3558       -73.9351     -0.7375565              1
     10816.5000         1.3175       2751.688         73.213       80.05263         0.3564        -74.025     -0.8482819              1
     10817.0000         1.3031        2743.02        71.3928        77.8484          0.357       -74.1127     -0.9568024      0.9542212
     10817.5000         1.2903       2734.363         69.894       76.03112         0.3575       -74.1469      -1.011826      0.9155558
     10818.0000         1.2781       2725.707        70.9783       77.32384         0.3581       -74.1809       -1.06665      0.9430605
     10818.5000         1.2658       2672.855        72.3716       78.98857         0.3587       -74.5671      -1.473679      0.9784802
     10819.0000         1.2536       2691.785         73.765       80.65342         0.3593       -75.2675      -2.194901              1
     10819.5000         1.2565       2710.715        75.1559       82.31527         0.3599        -74.967      -1.915222              1
     10820.0000         1.2674       2729.668        76.5492          83.98         0.3604       -74.4763      -1.445351              1
     10820.5000         1.2782       2746.781        77.7046        85.3583         0.3609       -74.7861       -1.77597              1
     10821.0000         1.2475       2754.824        78.7496       86.60371         0.3614        -75.235      -2.245697              1
     10821.5000         1.2243       2734.719        79.5339       87.53522         0.3619       -75.6844      -2.715919              1
     10822.0000          1.217       2714.613          78.86        86.7111         0.3623       -75.8195      -2.871849              1
     10822.5000          1.214       2694.508         77.983       85.64246         0.3632       -75.1216      -2.194763              1
     10823.0000         1.2249       2674.402        77.1061       84.57394         0.3659       -74.5059      -1.599884              1
     10823.5000         1.2224       2667.191        76.2291       83.50529         0.3686       -73.9269      -1.041718              1
     10824.0000         1.1751       2687.641        77.1183       84.56311         0.3712       -74.2783      -1.413933              1
     10824.5000         1.1239       2708.043        78.0725       85.69917         0.3744       -74.6296      -1.786064              1
     10825.0000         1.0724        2708.09        78.6257       86.35245         0.3809       -74.7971       -1.97438              1
     10825.5000         0.9974       2658.855        79.1776       87.00415         0.3874       -74.8193      -2.017403              1
     10826.0000         0.9855       2609.523        78.4688       86.13802         0.3986       -74.8416      -2.060532              1
     10826.5000         1.0391        2555.09        77.6383       85.12536         0.4149       -74.8638      -2.103554              1
     10827.0000         1.1603       2470.938        76.8068        84.1115         0.4437       -75.5889       -2.84948              1
     10827.5000         1.2697       2386.984        75.9764       83.09896          0.472       -77.0558      -4.337204              1
     10828.0000         1.3451       2295.379         75.146       82.08642         0.4952        -78.557       -5.85923              1
     10828.5000         1.4204       2181.215        75.1265       82.05019         0.5183       -79.8915      -7.214554              1
     10829.0000         1.4886       2036.844        76.5222       83.71781         0.5414       -80.9708      -8.314674              1
     10829.5000         1.5557       1946.514        77.7634       85.19941         0.5468       -80.5599      -7.924599              1
     10830.0000          1.601       2034.098        79.0072       86.68416          0.537       -79.6965      -7.082024              1
     10830.5000         1.5625           2131        80.2484       88.16576         0.5272       -78.8342      -6.240547              1
     10831.0000         1.4871       2214.563        80.8739       88.90609         0.5168       -78.4702      -5.897369              1
     10831.5000         1.4119       2297.926        80.9978        89.0425         0.5061       -78.3063      -5.754288              1
     10832.0000         1.3365       2352.656        81.1221        89.1794         0.4954       -77.7721      -5.240921              1
     10832.5000         1.2612       2396.398        81.2458       89.31557         0.4846       -76.6019      -4.091537              1
     10833.0000         1.1723        2426.02        81.0907       89.11607         0.4739       -76.2671      -3.777565              1
     10833.5000         1.1197       2444.676        80.8834       88.85373         0.4632       -77.0533      -4.584587              1
     10834.0000         1.0999       2463.336        80.7599       88.69228         0.4525       -77.9205       -5.47261              1
     10834.5000         1.1285        2482.02        81.0984       89.08706         0.4418       -77.7745      -5.347435              1
     10835.0000          1.157       2500.387        81.4363       89.48113         0.4311        -77.076      -4.669754              1
     10835.5000         1.1855       2515.613        81.8295       89.94176         0.4231       -76.7522      -4.366783              1
     10836.0000         1.2048       2530.813        82.3102       90.50776         0.4219        -76.429      -4.064407              1
     10836.5000         1.1942       2546.039        82.7898       91.07241         0.4207       -76.1052      -3.761436              1
     10837.0000         1.1789       2561.242        83.2706       91.63852         0.4195       -75.7814      -3.458458              1
     10837.5000         1.1636       2576.445        81.7644       89.81233         0.4183       -75.4778      -3.175674              1
     10838.0000         1.1755       2584.586        79.8118        87.4487         0.4171        -75.189      -2.907707              1
     10838.5000         1.1889       2571.516         77.864       85.09085         0.4159       -74.9036      -2.643127              1
     10839.0000         1.2023       2559.355        76.1077       82.96355         0.4147       -74.8057      -2.566055              1
     10839.5000         1.2158       2547.168        74.5844       81.11678         0.4133        -74.708      -2.489174              1
     10840.0000         1.2292       2534.984        75.1215       81.75067         0.4116       -74.6102      -2.412193              1
     10840.5000         1.2472        2522.82        76.1003       82.91637         0.4099       -74.8407      -2.663521              1
     10841.0000         1.2476       2510.633        77.0791       84.08205         0.4082       -75.1086       -2.95224              1
     10841.5000         1.2339       2498.449        78.0554       85.24472         0.4064       -75.3767      -3.241173              1
     10842.0000         1.2203       2487.133        79.0391       86.41631         0.4047       -75.3236      -3.208893              1
     10842.5000         1.2068        2479.68        80.0571        87.6292          0.403       -75.0902      -2.996323              1
     10843.0000         1.2003       2472.238        81.0751       88.84209         0.4012       -75.1123      -3.039238              1
     10843.5000         1.2204       2464.781        82.0956       90.05797         0.4004       -75.4086      -3.356361              1
     10844.0000         1.2464       2457.328        81.4344       89.24915         0.4015       -75.7041      -3.672691              1
