#------------------------------------------------------------------------------
# Created by    : vladimir.rabinovich
# Created on    : 09/19/2023 17:22:53
#------------------------------------------------------------------------------
~Version Information Section
VERS.           2.0     :   CWLS log ASCII Standard - VERSION 2.0
WRAP.           NO      :   One line per depth step
~Well Information Section
#MNEM       .UNIT                                         VALUE :DESCRIPTION
#------------------------------------------------------------------------------
STRT        .FT                                             394 :START DEPTH
STOP        .FT                                            7700 :STOP DEPTH
STEP        .FT                                             0.5 :STEP      
NULL        .                                           -999.25 :NULL      
COMP        .                                   MARATHON OIL CO :COMPANY   
WELL        .                                     ST TR 00248-L :WELL      
FLD         .                                           WILDCAT :FIELD     
LOC         .                                                   :LOCATION  
CNTY        .                             GALVESTON LARGE BLOCK :LOCATION  
STAT        .                                             TEXAS :STATE     
CTRY        .                                     UNITED STATES :COUNTRY   
SRVC        .                                                   :SERVICE COMPANY
DATE        .                             9/13/2023 11:19:42 AM :LOG DATE  
API         .                                    42706000210000 :API NUMBER
UWI         .                                    42706000210000 :UNIQUE WELL ID
XCOORD      .                                  969160.596945075 :SURFACE X 
YCOORD      .                                  10521676.5956168 :SURFACE Y 
LAT         .                                        28.9764138 :LATITUDE  
LON         .                                       -95.0998408 :LONGITUDE 
ELEV        .FT                                              10 :ELEVATION VALUE
ELEV_TYPE   .                                                KB :ELEVATION REFERENCE TYPE
~Curve Information Section
#MNEM       .UNIT                                      API CODE :CURVE DESCRIPTION
#------------------------------------------------------------------------------
DEPT        .FT                                                 :DEPTH     
LAT         .OHMM                                               :          
LN          .OHMM                                               :          
SN          .OHMM                                               :          
SP          .MV                                                 :          
SP_NORM     .MV                                                 :SP Normalized
VSH_SP      .V/V                                                :Volume of Shale from SP
~A        DEPTH            LAT             LN             SN             SP        SP_NORM         VSH_SP
# ...
      6208.0000         0.5284         0.3952          0.485       -61.5399       1.965714              1
      6208.5000         0.5724         0.3985         0.4897       -62.4857      0.9951363              1
      6209.0000         0.6002         0.4018         0.4944       -74.2911      -10.83504      0.8800604
      6209.5000         0.6056         0.4114         0.4991       -82.2498      -18.81853      0.7827009
      6210.0000          0.611          0.421         0.5037       -79.9425        -16.536      0.8105366
      6210.5000         0.6163         0.4306         0.5084       -77.6331      -14.25139      0.8383977
      6211.0000         0.6217         0.4402         0.5131       -75.0609      -11.70396      0.8694639
      6211.5000          0.627         0.4498         0.5178       -72.0913      -8.759148      0.9053763
      6212.0000         0.6324         0.4594         0.5225       -69.1194      -5.812027      0.9413167
      6212.5000         0.6378          0.469         0.5272       -66.1497      -2.867104      0.9772304
      6213.0000         0.6431         0.4786         0.5319       -63.1801     0.07771301              1
      6213.5000         0.6413         0.4882         0.5366       -60.2081       3.024933              1
      6214.0000         0.6331         0.4978         0.5374       -57.7188       5.489452              1
      6214.5000         0.6249         0.5073         0.5378       -57.9703       5.213173              1
      6215.0000         0.6167         0.5169         0.5383       -58.2216       4.937088              1
      6215.5000         0.6085         0.5265         0.5387       -58.4732       4.660706              1
      6216.0000         0.6003         0.5361         0.5391       -58.7245       4.384628              1
      6216.5000         0.5921         0.5457         0.5396        -58.976       4.108345              1
      6217.0000         0.5839         0.5548           0.54       -59.2273       3.832268              1
      6217.5000         0.5757         0.5572         0.5405       -59.7952       3.239586              1
      6218.0000         0.5675         0.5597         0.5409       -60.4783       2.531708              1
      6218.5000         0.5657         0.5621         0.5413       -61.1607       1.824524              1
      6219.0000         0.5738         0.5646         0.5418       -61.8431       1.117344              1
      6219.5000         0.5819          0.567         0.5422       -62.5256      0.4100647              1
      6220.0000         0.5899         0.5695         0.5426       -63.2086     -0.2977142              1
      6220.5000          0.598         0.5719         0.5431       -63.2465     -0.3603935              1
      6221.0000          0.606         0.5744         0.5435       -63.2473     -0.3859749              1
      6221.5000         0.6141         0.5768          0.544        -63.248     -0.4114571              1
      6222.0000         0.6222         0.5793         0.5444        -63.268     -0.4562378              1
      6222.5000         0.6101         0.5817         0.5448        -63.357      -0.570015              1
      6223.0000          0.591         0.5842         0.5433        -63.446     -0.6837959              1
      6223.5000         0.5718         0.5866         0.5368        -63.535     -0.7975807              1
      6224.0000         0.5519         0.5891         0.5303        -63.624     -0.9113617              1
      6224.5000         0.4818         0.5846         0.5238       -63.7131      -1.025242      0.9996922
      6225.0000         0.4408         0.5755         0.5174       -63.8021      -1.139023      0.9983046
      6225.5000         0.4513         0.5663         0.5109       -63.8911      -1.252804       0.996917
      6226.0000         0.4618         0.5572         0.5044       -63.9801      -1.366581      0.9955295
      6226.5000         0.4723         0.5481         0.4979         -64.65      -2.061264      0.9870577
      6227.0000         0.4828          0.539         0.4914       -65.3582      -2.794243       0.978119
      6227.5000         0.4933         0.5298          0.485       -66.0663      -3.527122      0.9691814
      6228.0000         0.4971         0.5207         0.4785       -66.7739      -4.259506      0.9602499
      6228.5000         0.4957         0.5116         0.4718       -67.4821      -4.992485      0.9513112
      6229.0000         0.4943         0.5025          0.465       -68.1902      -5.725365      0.9423736
      6229.5000          0.493         0.4933         0.4583       -68.8977      -6.457642      0.9334434
      6230.0000         0.4916         0.4842         0.4515        -69.606      -7.190727      0.9245033
      6230.5000         0.4902         0.4775         0.4448       -70.9011      -8.510605      0.9084073
      6231.0000         0.4889         0.4743          0.438       -72.8817      -10.51598      0.8839514
      6231.5000         0.4875         0.4712         0.4313       -74.8622      -12.52126      0.8594968
      6232.0000         0.4784          0.468         0.4245       -76.8405      -14.52435      0.8350689
      6232.5000         0.4616         0.4649         0.4177       -78.8209      -16.52953      0.8106155
      6233.0000         0.4448         0.4617          0.411       -82.8208      -20.55421       0.761534
      6233.5000         0.4281         0.4586         0.4051       -88.7327      -26.49089      0.6891356
      6234.0000         0.4113         0.4554         0.3998       -94.2882      -32.07117      0.6210833
      6234.5000         0.3945         0.4523         0.3945       -98.8203      -36.62805      0.5655116
      6235.0000         0.3778         0.4491         0.3891      -103.2931      -41.12563       0.510663
      6235.5000          0.361          0.446         0.3838       -98.4686      -36.32591      0.5691962
      6236.0000         0.3442         0.4428         0.3785        -93.644      -31.52609      0.6277306
      6236.5000         0.3231         0.4404         0.3732       -98.8889      -36.79577      0.5634662
      6237.0000         0.3021         0.4408         0.3678      -105.0475      -42.97915      0.4880591
      6237.5000         0.2811         0.4413         0.3625      -110.1165      -48.07293      0.4259398
      6238.0000           0.26         0.4417         0.3572      -112.0581      -50.03931      0.4019596
      6238.5000         0.2428         0.4421          0.354      -114.0021      -52.00809      0.3779501
      6239.0000         0.2362         0.4426         0.3532      -115.9438      -53.97458      0.3539686
      6239.5000         0.2296          0.443         0.3524      -117.8878      -55.94336      0.3299591
      6240.0000          0.223         0.4435         0.3516      -119.2983      -57.37864      0.3124556
      6240.5000         0.2177         0.4439         0.3507      -119.3657      -57.47082      0.3113315
      6241.0000         0.2211         0.4443         0.3499      -108.0719       -46.2018      0.4487586
      6241.5000         0.2244         0.4448         0.3491       -98.1488      -36.30348      0.5694697
      6242.0000         0.2278         0.4452         0.3483       -90.5007      -28.68016      0.6624371
      6242.5000         0.2312         0.4456         0.3474       -82.8619      -21.06614       0.755291
      6243.0000         0.2377         0.4461         0.3466       -76.0637      -14.29272      0.8378937
      6243.5000         0.2598         0.4465         0.3458       -70.4032      -8.656998       0.906622
      6244.0000         0.2819          0.447          0.345       -66.1635      -4.442078      0.9580234
      6244.5000         0.3392         0.4474          0.353       -64.7402      -3.043556      0.9750786
      6245.0000         0.4348         0.4478         0.3621       -67.2234      -5.551537      0.9444935
      6245.5000         0.5306         0.4483         0.3712       -69.7087      -8.061623      0.9138827
