#------------------------------------------------------------------------------
# Created by    : vladimir.rabinovich
# Created on    : 09/19/2023 17:19:50
#------------------------------------------------------------------------------
~Version Information Section
VERS.           2.0     :   CWLS log ASCII Standard - VERSION 2.0
WRAP.           NO      :   One line per depth step
~Well Information Section
#MNEM       .UNIT                                         VALUE :DESCRIPTION
#------------------------------------------------------------------------------
STRT        .FT                                             880 :START DEPTH
STOP        .FT                                            8374 :STOP DEPTH
STEP        .FT                                             0.5 :STEP      
NULL        .                                           -999.25 :NULL      
COMP        .                                        EXXON CORP :COMPANY   
WELL        .                               OCS G04552 ST00BP00 :WELL      
FLD         .                                 BRAZOS BLOCK 0451 :FIELD     
LOC         .                                                   :LOCATION  
CNTY        .                                BRAZOS LARGE BLOCK :LOCATION  
STAT        .                                             TEXAS :STATE     
CTRY        .                                     UNITED STATES :COUNTRY   
SRVC        .                                                   :SERVICE COMPANY
DATE        .                             9/13/2023 11:19:08 AM :LOG DATE  
API         .                                    42704401130000 :API NUMBER
UWI         .                                    42704401130000 :UNIQUE WELL ID
XCOORD      .                                  760277.642000753 :SURFACE X 
YCOORD      .                                  10343629.6463693 :SURFACE Y 
LAT         .                                         28.475327 :LATITUDE  
LON         .                                        -95.739931 :LONGITUDE 
ELEV        .FT                                              95 :ELEVATION VALUE
ELEV_TYPE   .                                                KB :ELEVATION REFERENCE TYPE
~Curve Information Section
#MNEM       .UNIT                                      API CODE :CURVE DESCRIPTION
#------------------------------------------------------------------------------
DEPT        .FT                                                 :DEPTH     
ASFL        .OHMM                                               :          
CALI        .IN                                                 :          
CILD        .MMHO                                               :          
DT          .US/F                                               :          
GR          .GAPI                                               :          
GR_NORM     .GAPI                                               :GammaRay Normalized
ILD         .OHMM                                               :          
ILM         .OHMM                                               :          
RHOB        .G/C3                                               :          
SP          .MV                                                 :          
SP_NORM     .MV                                                 :SP Normalized
VSH_GR      .V/V                                                :Volume of Shale from GR
VSH_SP      .V/V                                                :Volume of Shale from SP
~A        DEPTH           ASFL           CALI           CILD             DT             GR        GR_NORM            ILD            ILM           RHOB             SP        SP_NORM         VSH_GR         VSH_SP
# ...
      6390.0000         1.1922        11.7975       1257.393        114.261        57.5179       87.86066         0.7935         0.8192         2.2925       -39.3639        -0.1482              1       0.997036
      6390.5000         1.1718        11.8016       1259.375       113.3785         58.079       88.69141         0.7872         0.8249         2.2861       -39.3427         -0.127              1        0.99746
      6391.0000         1.1381        11.7997       1257.355       113.1854        57.8516       88.35468          0.781         0.8321         2.2873        -39.288        -0.0723              1       0.998554
      6391.5000         1.1257        11.7978       1255.336        113.486        57.4269       87.72576         0.7747         0.8415         2.2887       -39.2332        -0.0175              1        0.99965
      6392.0000         1.1339        11.7957       1253.318        113.434        56.9802       87.06427         0.7685         0.8499         2.2593       -39.1783         0.0374              1              1
      6392.5000         1.1453         11.793       1251.299       113.2385        56.4625       86.29766         0.7649         0.8514         2.2419       -39.2209        -0.0052              1       0.999896
      6393.0000         1.1566        11.7902       1249.279       112.9895        55.9442       85.53026         0.7614         0.8497          2.263       -39.3063        -0.0906              1       0.998188
      6393.5000         1.1687        11.7874       1254.703       112.5811        55.4258       84.76246         0.7578         0.8393         2.2871       -39.3915        -0.1758              1       0.996484
      6394.0000         1.1786        11.7856       1266.838        112.036        55.8085       85.32917         0.7542         0.8175         2.2952       -39.4768        -0.2611              1       0.994778
      6394.5000         1.1653        11.7859       1278.984       111.3573        56.2985       86.05478         0.7506         0.7991         2.2496       -39.5621        -0.3464              1       0.993072
      6395.0000         1.1496        11.7861       1291.119       110.2323        56.7886       86.78053         0.7471         0.7864         2.2109       -39.5411        -0.3254              1       0.993492
      6395.5000          1.126        11.7864       1303.268       109.5248        57.1963       87.38429         0.7435         0.7797         2.1867       -39.5108        -0.2951              1       0.994098
      6396.0000         1.1024        11.7866       1317.566       111.2073         57.506        87.8429         0.7399          0.779         2.1766       -39.4805        -0.2648              1       0.994704
      6396.5000         1.0891        11.7869       1335.779       113.5623        57.3534       87.61692         0.7354         0.7725         2.2044       -39.4501        -0.2344              1       0.995312
      6397.0000         1.0764        11.7871        1354.02       115.9222        56.8935       86.93588         0.7307         0.7654         2.2412       -39.4197         -0.204              1        0.99592
      6397.5000         1.0781        11.7874       1372.234       117.5748        55.6998       85.16835          0.726         0.7559         2.2588       -39.3893        -0.1736              1       0.996528
      6398.0000         1.0798        11.7876       1390.449       117.2992        54.5073       83.40231         0.7213         0.7452         2.2315       -39.2981        -0.0824              1       0.998352
      6398.5000         1.0809        11.7879       1403.084       116.1598        53.3137       81.63492         0.7167         0.7331         2.2341       -39.1523         0.0634              1              1
      6399.0000         1.0798        11.7881       1411.965       116.0424        53.9808       82.62263          0.712          0.723         2.2374       -39.0067          0.209              1              1
      6399.5000         1.0784        11.7883       1420.861       116.5354        55.9385       85.52169         0.7073         0.7156         2.2281        -38.861         0.3547              1              1
      6400.0000         1.0681        11.7886       1429.742       116.6714        57.8937       88.41702         0.7026         0.7097         2.2179       -38.7154         0.5003              1              1
      6400.5000         1.0579        11.7888       1437.393       116.0598        58.7814       89.73157          0.695         0.7046         2.2252       -38.5696         0.6461              1              1
      6401.0000         1.0477        11.7891       1443.391        115.136        59.4618       90.73911          0.687          0.701         2.2415       -38.5106         0.7051              1              1
      6401.5000         1.0472        11.7893       1449.389       115.4897        59.5875       90.92525         0.6791         0.6988         2.2731       -38.4758         0.7399              1              1
      6402.0000         1.0503        11.7896       1455.389       117.4072         58.951        89.9827         0.6712         0.6966         2.2981       -38.4409         0.7748              1              1
      6402.5000         1.0534        11.7898        1463.82       118.9835        58.1425       88.78559         0.6632         0.6947         2.3177       -38.4059         0.8098              1              1
      6403.0000         1.0567        11.7901       1473.428       119.8445        57.1335       87.29143         0.6553         0.6928         2.3214        -38.371         0.8447              1              1
      6403.5000         1.0612        11.7903       1485.688       120.1189        57.5444       87.89976         0.6474          0.689          2.303       -38.3469         0.8688              1              1
      6404.0000         1.0657        11.7906         1500.6       120.0308        58.5496       89.38831         0.6403         0.6853         2.2808       -38.3622         0.8535              1              1
      6404.5000         1.0681        11.7908       1515.561       119.5735        59.5548       90.87684         0.6361          0.683         2.2755       -38.3776         0.8381              1              1
      6405.0000         1.0567        11.7911        1531.01       118.9307        60.0869       91.66492         0.6319         0.6808         2.2918       -38.3929         0.8228              1              1
      6405.5000         1.0453        11.7913       1544.709       118.6981        60.5468       92.34598         0.6277         0.6768         2.2923       -38.4082         0.8075              1              1
      6406.0000         1.0342        11.7915       1548.791       118.8959        60.3452       92.04743         0.6236         0.6719          2.281       -38.4235         0.7922              1              1
      6406.5000          1.034        11.7918       1552.875       118.8324        60.0386       91.59326         0.6194         0.6674         2.2768       -38.4388         0.7769              1              1
      6407.0000         1.0337         11.792       1556.957       118.7511        59.7031       91.09646         0.6174         0.6669         2.2862       -38.4542         0.7615              1              1
      6407.5000         1.0335        11.7923       1547.799       118.7423        59.3377       90.55534         0.6213         0.6664          2.298       -38.4695         0.7462              1              1
      6408.0000         1.0349        11.7925       1538.453       119.1686        58.9721       90.01395         0.6252         0.6663         2.2664       -38.5168         0.6989              1              1
      6408.5000         1.0382        11.7928       1534.719       119.8942        58.6064       89.47255         0.6292         0.6676         2.2379       -38.5798         0.6359              1              1
