#------------------------------------------------------------------------------
# Created by    : vladimir.rabinovich
# Created on    : 09/19/2023 17:22:28
#------------------------------------------------------------------------------
~Version Information Section
VERS.           2.0     :   CWLS log ASCII Standard - VERSION 2.0
WRAP.           NO      :   One line per depth step
~Well Information Section
#MNEM       .UNIT                                         VALUE :DESCRIPTION
#------------------------------------------------------------------------------
STRT        .FT                                            2000 :START DEPTH
STOP        .FT                                            7372 :STOP DEPTH
STEP        .FT                                             0.5 :STEP      
NULL        .                                           -999.25 :NULL      
COMP        .                       CORPUS CHRISTI OIL & GAS CO :COMPANY   
WELL        .                                ST TR 00596-L SE/4 :WELL      
FLD         .                                           WILDCAT :FIELD     
LOC         .                                                   :LOCATION  
CNTY        .                      MATAGORDA ISLAND LARGE BLOCK :LOCATION  
STAT        .                                             TEXAS :STATE     
CTRY        .                                     UNITED STATES :COUNTRY   
SRVC        .                                                   :SERVICE COMPANY
DATE        .                             9/13/2023 11:19:13 AM :LOG DATE  
API         .                                    42703300520000 :API NUMBER
UWI         .                                    42703300520000 :UNIQUE WELL ID
XCOORD      .                                  480173.649028781 :SURFACE X 
YCOORD      .                                  10231220.1013933 :SURFACE Y 
LAT         .                                        28.1462983 :LATITUDE  
LON         .                                       -96.6002451 :LONGITUDE 
ELEV        .FT                                              82 :ELEVATION VALUE
ELEV_TYPE   .                                                GL :ELEVATION REFERENCE TYPE
~Curve Information Section
#MNEM       .UNIT                                      API CODE :CURVE DESCRIPTION
#------------------------------------------------------------------------------
DEPT        .FT                                                 :DEPTH     
CILD        .MMHO                                               :          
ILD         .OHMM                                               :          
SN          .OHMM                                               :          
SP          .MV                                                 :          
SP_NORM     .MV                                                 :SP Normalized
VSH_SP      .V/V                                                :Volume of Shale from SP
~A        DEPTH           CILD            ILD             SN             SP        SP_NORM         VSH_SP
# ...
      3406.0000        1035.91         0.9653         1.2249       -25.5631      -5.425488       0.953356
      3406.5000       1011.279         0.9888          1.165       -26.5318      -6.404718      0.9345247
      3407.0000       986.6477         1.0135         1.1529       -27.5005      -7.383951      0.9156932
      3407.5000       962.0167         1.0395          1.113       -28.4692      -8.363184      0.8968619
      3408.0000       937.3857         1.0668          1.101        -29.438      -9.342516      0.8780285
      3408.5000       912.7548         1.0956         1.1889       -30.6169      -10.53195      0.8551549
      3409.0000       868.8502         1.1509         1.2168       -30.4526      -10.37818      0.8581119
      3409.5000       868.8583         1.1509         1.2368        -30.418      -10.35411      0.8585747
      3410.0000       884.8454         1.1301         1.2248       -29.5643      -9.510946      0.8747895
      3410.5000       918.6376         1.0886         1.2128       -28.7107      -8.667877      0.8910024
      3411.0000       952.4297         1.0499         1.1769       -27.8571       -7.82481      0.9072152
      3411.5000       986.2219          1.014         1.1719       -26.8285      -6.806744      0.9267934
      3412.0000       1020.014         0.9804          1.167       -27.4273      -7.416075      0.9150755
      3412.5000       1068.656         0.9358          1.162       -27.7967      -7.796007      0.9077691
      3413.0000       1064.661         0.9393         1.1369       -28.1662      -8.176041      0.9004608
      3413.5000       1080.649         0.9254         1.1209       -28.2277      -8.248072      0.8990756
      3414.0000       1084.652          0.922         1.1249       -30.4246      -10.45551      0.8566249
      3414.5000       1096.645         0.9119         1.1208       -29.8258      -9.867237      0.8679377
      3415.0000       1104.643         0.9053         1.1208       -28.7392       -8.79117      0.8886313
      3415.5000       1112.641         0.8988         1.1248       -27.6526      -7.715101       0.909325
      3416.0000       1120.647         0.8923         1.1288        -26.566      -6.639034      0.9300185
      3416.5000       1117.696         0.8947         1.1328       -25.4794      -5.562967      0.9507121
      3417.0000       1116.661         0.8955         1.1465       -23.6415        -3.7356      0.9858539
      3417.5000       1098.952           0.91         1.1487       -21.8921      -1.996731              1
      3418.0000       1092.709         0.9152         1.1527       -19.8511     0.03373528              1
      3418.5000       1077.328         0.9282         1.1567       -19.8516     0.02270317              1
      3419.0000       1061.947         0.9417         1.1607       -19.6521      0.2116718              1
      3419.5000       1046.567         0.9555         1.1807       -19.4532      0.4000397              1
      3420.0000       1031.186         0.9698         1.1945       -19.2543      0.5884075              1
      3420.5000       1015.805         0.9844         1.1966       -18.8557      0.9764748              1
      3421.0000       1000.425         0.9996         1.2006       -18.6568       1.164843              1
      3421.5000       985.0439         1.0152         1.2126       -18.2582        1.55291              1
      3422.0000       969.6632         1.0313         1.2245       -18.4585       1.342077              1
      3422.5000       954.2825         1.0479         1.2285        -19.058      0.7320442              1
      3423.0000        933.003         1.0718         1.2125       -19.9343     -0.1547871              1
      3423.5000       933.0089         1.0718         1.2045       -20.8106       -1.04162              1
      3424.0000       929.0161         1.0764         1.2005        -21.687      -1.928553              1
      3424.5000       929.0243         1.0764         1.1965       -22.5633      -2.815384              1
      3425.0000       929.0324         1.0764         1.1925       -23.4531      -3.715717      0.9862362
      3425.5000       933.0357         1.0718         1.1805       -23.4538       -3.72695      0.9860202
      3426.0000       949.0238         1.0537         1.1645       -23.2542      -3.537882      0.9896561
      3426.5000       966.3904         1.0348         1.1565       -21.9642      -2.258413              1
      3427.0000        983.757         1.0165         1.1538       -20.6614     -0.9661465              1
      3427.5000       1001.124         0.9989         1.1512        -20.662     -0.9772797              1
      3428.0000        1018.49         0.9818         1.1325        -20.662      -0.987812              1
      3428.5000       1035.857         0.9654         1.1205       -21.2711      -1.607443              1
      3429.0000       1056.947         0.9461         1.1205       -21.8801      -2.226976              1
      3429.5000       1056.954         0.9461         1.1165       -22.4891      -2.846508              1
      3430.0000       1064.946          0.939         1.1165       -23.0982      -3.466141      0.9910358
      3430.5000       1072.944          0.932         1.1245         -23.66      -4.038473      0.9800293
      3431.0000       1072.952          0.932         1.1324        -23.461      -3.850006      0.9836537
      3431.5000       1076.956         0.9285         1.1484       -22.5103      -2.909838              1
      3432.0000       1080.959         0.9251         1.1524       -21.5596      -1.969671              1
      3432.5000       1080.968         0.9251         1.1444       -20.6089      -1.029503              1
      3433.0000       1080.976         0.9251         1.1604       -19.6582    -0.08933449              1
      3433.5000       1057.014         0.9461         1.1564       -18.7075       0.850832              1
      3434.0000       1049.032         0.9533         1.1484       -17.7568          1.791              1
      3434.5000       1049.041         0.9533         1.1444       -16.8789       2.658367              1
      3435.0000       1049.049         0.9532         1.1403       -17.4694       2.057335              1
      3435.5000       1049.057         0.9532         1.1323         -18.06       1.456203              1
      3436.0000       1053.061         0.9496         1.1044       -18.6505      0.8551712              1
      3436.5000       1061.059         0.9425         1.0964       -19.2411      0.2540379              1
      3437.0000       1061.068         0.9424         1.0644       -19.8317     -0.3470936              1
      3437.5000       1069.066         0.9354         1.0564       -20.4222     -0.9481258              1
      3438.0000        1089.05         0.9182         1.0564       -21.0128      -1.549259              1
      3438.5000       1101.044         0.9082         1.0484       -21.6033      -2.150291              1
      3439.0000       1104.993          0.905         1.0723        -22.274      -2.831524              1
      3439.5000       1108.941         0.9018         1.0763       -22.4742      -3.042255      0.9991874
      3440.0000        1117.05         0.8952         1.0854       -22.4749      -3.053488      0.9989714
      3440.5000       1129.044         0.8857         1.0923       -22.6752       -3.26432      0.9949169
      3441.0000       1121.062          0.892         1.1059       -22.6758      -3.275454      0.9947028
      3441.5000        1105.09         0.9049         1.1602       -22.6765      -3.286686      0.9944868
      3442.0000       1077.132         0.9284         1.1801       -22.4775      -3.098219      0.9981112
      3442.5000       1053.169         0.9495         1.2081        -22.079      -2.710251              1
      3443.0000       1049.182         0.9531         1.2121       -21.7335      -2.375282              1
      3443.5000       1037.489         0.9639         1.2041       -20.6831      -1.335415              1
