#------------------------------------------------------------------------------
# Created by    : vladimir.rabinovich
# Created on    : 09/19/2023 17:22:45
#------------------------------------------------------------------------------
~Version Information Section
VERS.           2.0     :   CWLS log ASCII Standard - VERSION 2.0
WRAP.           NO      :   One line per depth step
~Well Information Section
#MNEM       .UNIT                                         VALUE :DESCRIPTION
#------------------------------------------------------------------------------
STRT        .FT                                             270 :START DEPTH
STOP        .FT                                            9392 :STOP DEPTH
STEP        .FT                                             0.5 :STEP      
NULL        .                                           -999.25 :NULL      
COMP        .                                     TALOS ERT LLC :COMPANY   
WELL        .                               OCS G12363 ST00BP00 :WELL      
FLD         .                                 BRAZOS BLOCK 0453 :FIELD     
LOC         .                                                   :LOCATION  
CNTY        .                                BRAZOS LARGE BLOCK :LOCATION  
STAT        .                                             TEXAS :STATE     
CTRY        .                                     UNITED STATES :COUNTRY   
SRVC        .                                                   :SERVICE COMPANY
DATE        .                             9/13/2023 11:19:08 AM :LOG DATE  
API         .                                    42704401340000 :API NUMBER
UWI         .                                    42704401340000 :UNIQUE WELL ID
XCOORD      .                                  788791.944469438 :SURFACE X 
YCOORD      .                                  10354739.7167093 :SURFACE Y 
LAT         .                                         28.507622 :LATITUDE  
LON         .                                        -95.652007 :LONGITUDE 
ELEV        .FT                                             100 :ELEVATION VALUE
ELEV_TYPE   .                                                KB :ELEVATION REFERENCE TYPE
~Curve Information Section
#MNEM       .UNIT                                      API CODE :CURVE DESCRIPTION
#------------------------------------------------------------------------------
DEPT        .FT                                                 :DEPTH     
DPHI        .%                                                  :          
DT          .US/F                                               :          
GR          .GAPI                                               :          
GR_NORM     .GAPI                                               :GammaRay Normalized
ILD         .OHMM                                               :          
ILM         .OHMM                                               :          
LL          .OHMM                                               :          
NPHI        .%                                                  :          
SP          .MV                                                 :          
SP_NORM     .MV                                                 :SP Normalized
VSH_GR      .V/V                                                :Volume of Shale from GR
VSH_SP      .V/V                                                :Volume of Shale from SP
~A        DEPTH           DPHI             DT             GR        GR_NORM            ILD            ILM             LL           NPHI             SP        SP_NORM         VSH_GR         VSH_SP
# ...
      3960.0000        26.6549       128.2585        38.8426       43.82903         0.4643         0.5353         0.6053        39.0487       -54.7882       -20.0056       0.230405      0.3085072
      3960.5000        27.0879       124.2206        39.5538       44.66763         0.4641         0.5678         0.6095        38.8279        -53.578       -18.7954      0.2482474      0.3518036
      3961.0000        25.7677       118.6234        44.1393       50.08576         0.4778         0.5983         0.7384        38.3811       -51.4343       -16.6517      0.3635269      0.4284393
      3961.5000        24.2229       113.0212         51.388       58.65188         0.5066         0.6388         0.8092        37.3086       -48.4965       -13.7139      0.5457847      0.5334393
      3962.0000        21.6388       108.8234         56.057       64.16872          0.548         0.6887         0.8524        35.5554       -45.8065       -11.0239      0.6631643      0.6295857
      3962.5000        20.3832       108.6383        57.5332       65.91155         0.5926         0.7606         0.8878        33.6961       -44.0471        -9.2645      0.7002458      0.6924964
      3963.0000        21.1033       109.1831        58.2125       66.71244         0.6427         0.8025         0.9051        32.6523       -43.8237        -9.0411       0.717286      0.7005536
      3963.5000        21.9254       109.5818        58.7348       67.32774         0.6905         0.8276         0.9363        32.4537       -44.1482        -9.3656      0.7303774      0.7361546
      3964.0000        22.6204       109.6735        59.1843       67.85697         0.7204         0.8331         0.9592        33.0125       -44.8103       -10.0277      0.7416377      0.7161545
      3964.5000        23.0697       109.1244        59.2785       67.96626         0.7309         0.8336         0.9646        33.2791       -45.8776        -11.095      0.7439631      0.6838788
      3965.0000        22.7062        107.745        58.8942       67.50993         0.7349         0.8298         0.9764        33.3743       -47.0872       -12.3046      0.7342538      0.6472879
      3965.5000         21.739       104.8492         57.749       66.15417         0.7401         0.8252         1.0045        33.5037       -47.8618       -13.0792       0.705408      0.6238788
      3966.0000        20.4712       101.3892        58.4528       66.98402          0.752         0.8202         1.0386        34.3466       -47.8904       -13.1078      0.7230642      0.6230788
      3966.5000        18.8484        98.5527        60.1411       68.97758         0.7815         0.8178         1.0523        35.9384       -47.7554       -12.9728      0.7654805      0.6272333
      3967.0000        17.4098        99.0012         60.814       69.77088         0.7949         0.8187         1.0392         36.783       -47.3652       -12.5826      0.7823592      0.6391212
      3967.5000        16.7855       101.3768         61.313       70.35864         0.8093         0.8237         1.0037        36.6542       -46.1204       -11.3378      0.7948647      0.6769091
      3968.0000         16.791       107.9553        61.7632       70.88871         0.8252         0.8298         0.9777        36.8113       -44.2064        -9.4238      0.8061427      0.7349727
      3968.5000        18.9928       115.8641        63.1132       72.48239         0.8307         0.8332         0.9539        38.1321       -41.8953        -7.1127      0.8400509      0.8050697
      3969.0000        21.0583       123.3599        65.4832       75.28172         0.8264         0.8336         0.9311        40.5085       -40.2057        -5.4231      0.8996111      0.8563364
      3969.5000        21.9364       129.0356        68.4258        78.7579         0.8229          0.831         0.9083        43.4669       -38.8264        -4.0438      0.9735724       0.898197
      3970.0000        22.7301       134.9377         71.621       82.53267         0.8197         0.8212         0.8652        46.1335        -37.751        -2.9684              1      0.9308485
      3970.5000        23.4521       139.7947        72.8042       83.92916         0.8158         0.8183         0.8332        46.7497       -36.8425        -2.0599              1      0.9584454
      3971.0000        24.2089        143.127        70.6438       81.37341         0.8081         0.8174         0.8168        45.8963       -36.1467        -1.3641              1      0.9795939
      3971.5000        24.9905        145.022        68.8384        79.2373         0.7944         0.8097         0.8134        45.0562       -35.8329        -1.0503      0.9837725      0.9891667
      3972.0000        25.4712       146.6414        69.3749       79.86938         0.7796         0.7881         0.8215        46.9821       -35.6274        -0.8448      0.9972209      0.9954606
      3972.5000        25.6995       147.9778        71.9128       82.86721         0.7602          0.756          0.821        51.9883        -35.488        -0.7054              1      0.9997485
      3973.0000         25.785       149.2837        72.1539        83.1501         0.7408         0.7357         0.8042        57.1448       -35.4438        -0.6612              1              1
      3973.5000        25.8206        150.752        72.1406        83.1323         0.7324         0.7255         0.7883        58.7292       -35.4736         -0.691              1              1
      3974.0000        25.8688       151.8196         72.819       83.93212         0.7266         0.7175         0.7726        58.2589       -35.7222        -0.9396              1      0.9928455
      3974.5000        25.9326       151.7446        73.4901       84.72331         0.7252         0.7146         0.7604        58.3276       -36.1783        -1.3957              1      0.9790879
      3975.0000        26.0877       151.2598        72.4327       83.47134          0.724         0.7143         0.7509        58.2409        -36.454        -1.6714              1         0.9708
      3975.5000        26.3111       150.6326        70.5715       81.26927         0.7258         0.7156         0.7431        56.3875        -36.304        -1.5214              1      0.9754091
      3976.0000        26.4555        150.209        68.7065       79.06271         0.7275         0.7213         0.7433        52.6807       -36.0886         -1.306      0.9800576          0.982
      3976.5000        26.6546       150.6714        70.0099        80.6013         0.7301         0.7271          0.749        51.3706       -36.0909        -1.3083              1      0.9819939
      3977.0000        26.8989       150.7766        75.2429       86.78478         0.7333         0.7331         0.7543        51.5746       -36.2103        -1.4277              1      0.9784424
      3977.5000        27.0289       150.5637        79.0162       91.24289         0.7297         0.7393         0.7543        53.7503       -36.4777        -1.6951              1       0.970403
      3978.0000        26.6739       150.1252        77.0011       88.85889         0.7176         0.7448         0.7555        55.7864       -37.0792        -2.2966              1      0.9522394
      3978.5000        26.3456       146.5994        72.8005       83.89157         0.7053         0.7483         0.7584        47.6245       -38.4683        -3.6857              1      0.9102121
      3979.0000        26.7728       140.5498        68.6735       79.01124         0.6953         0.7391         0.7652        40.2198       -40.2891        -5.5065      0.9789625         0.8551
      3979.5000        26.9204       134.5444        63.7324       73.16862         0.6877         0.7296         0.7808        37.1627       -42.2643        -7.4817      0.8546515      0.7953091
      3980.0000        25.9496       127.1077        58.0482       66.44764         0.6818         0.7281         0.8092         35.137       -44.3867        -9.6041      0.7116519      0.7310606
