#------------------------------------------------------------------------------
# Created by    : vladimir.rabinovich
# Created on    : 09/19/2023 17:21:25
#------------------------------------------------------------------------------
~Version Information Section
VERS.           2.0     :   CWLS log ASCII Standard - VERSION 2.0
WRAP.           NO      :   One line per depth step
~Well Information Section
#MNEM       .UNIT                                         VALUE :DESCRIPTION
#------------------------------------------------------------------------------
STRT        .FT                                            3400 :START DEPTH
STOP        .FT                                            8653 :STOP DEPTH
STEP        .FT                                             0.5 :STEP      
NULL        .                                           -999.25 :NULL      
COMP        .                          KING RANCH OIL & GAS INC :COMPANY   
WELL        .                               OCS G13784 ST00BP00 :WELL      
FLD         .                                           WILDCAT :FIELD     
LOC         .                                                   :LOCATION  
CNTY        .                             GALVESTON LARGE BLOCK :LOCATION  
STAT        .                                             TEXAS :STATE     
CTRY        .                                     UNITED STATES :COUNTRY   
SRVC        .                                                   :SERVICE COMPANY
DATE        .                             9/13/2023 11:19:54 AM :LOG DATE  
API         .                                    42706403430000 :API NUMBER
UWI         .                                    42706403430000 :UNIQUE WELL ID
XCOORD      .                                   967589.17441186 :SURFACE X 
YCOORD      .                                  10424680.8833423 :SURFACE Y 
LAT         .                                         28.709654 :LATITUDE  
LON         .                                        -95.099391 :LONGITUDE 
ELEV        .FT                                             106 :ELEVATION VALUE
ELEV_TYPE   .                                                KB :ELEVATION REFERENCE TYPE
~Curve Information Section
#MNEM       .UNIT                                      API CODE :CURVE DESCRIPTION
#------------------------------------------------------------------------------
DEPT        .FT                                                 :DEPTH     
CALI        .IN                                                 :          
DPHI        .%                                                  :          
DRHO        .G/C3                                               :          
DTLN        .US/F                                               :          
GR          .GAPI                                               :          
GR_1        .GAPI                                               :          
GR_NORM     .GAPI                                               :GammaRay Normalized
ILD         .OHMM                                               :          
ILM         .OHMM                                               :          
NPHI        .%                                                  :          
SFL         .OHMM                                               :          
SP          .MV                                                 :          
SP_NORM     .MV                                                 :SP Normalized
VSH_GR      .V/V                                                :Volume of Shale from GR
VSH_SP      .V/V                                                :Volume of Shale from SP
~A        DEPTH           CALI           DPHI           DRHO           DTLN             GR           GR_1        GR_NORM            ILD            ILM           NPHI            SFL             SP        SP_NORM         VSH_GR         VSH_SP
# ...
      5151.0000        -999.25        -999.25        -999.25       110.1897        -999.25        70.8265       80.49621         0.7259         0.7294        -999.25         0.7358       -56.1804      -4.742039              1      0.9362317
      5151.5000        -999.25        -999.25        -999.25       111.2539        -999.25        69.2865       77.98975         0.7389         0.7431        -999.25         0.7415       -55.3871      -3.949909      0.9572287      0.9546533
      5152.0000        -999.25        -999.25        -999.25        112.576        -999.25         67.179       74.55949         0.7512         0.7571        -999.25         0.7465       -54.1675      -2.731483      0.8842444      0.9829888
      5152.5000        -999.25        -999.25        -999.25       113.8806        -999.25        65.1378       71.23716         0.7651         0.7713        -999.25         0.7319       -53.1752      -1.740356      0.8135566              1
      5153.0000        -999.25        -999.25        -999.25       113.1732        -999.25        63.8101       69.07624         0.7791         0.7858        -999.25         0.7202       -52.8586      -1.424931      0.7675796              1
      5153.5000        -999.25        -999.25        -999.25       111.9363        -999.25        62.9296       67.64327         0.7903         0.8006        -999.25         0.7278       -52.7168      -1.284306      0.7370909              1
      5154.0000        -999.25        -999.25        -999.25       110.8883        -999.25         62.239       66.51941         0.8001         0.8061        -999.25         0.7686       -52.6573      -1.225975      0.7131789              1
      5154.5000        -999.25        -999.25        -999.25       110.1177        -999.25        61.6402         65.545         0.8099          0.811        -999.25          0.809         -52.62       -1.18985      0.6924468              1
      5155.0000        -999.25        -999.25        -999.25       109.6072        -999.25        61.2092        64.8437         0.8164         0.8168        -999.25         0.8243       -52.3417     -0.9127235      0.6775255              1
      5155.5000        -999.25        -999.25        -999.25       109.9143        -999.25        61.1676       64.77627         0.8221         0.8225        -999.25         0.8321       -51.9395     -0.5116959      0.6760908              1
      5156.0000        -999.25        -999.25        -999.25       111.0173        -999.25        62.5744       67.06649         0.8247         0.8257        -999.25         0.8266       -51.3152      0.1114311      0.7248189              1
      5156.5000        -999.25        -999.25        -999.25       112.7952        -999.25        65.1342       71.23354         0.8261         0.8282        -999.25         0.8091       -50.5742      0.8512573      0.8134797              1
      5157.0000        -999.25        -999.25        -999.25       114.8071        -999.25        67.3744       74.88034         0.8245         0.8254        -999.25         0.7803       -49.8234       1.600883      0.8910711              1
      5157.5000        -999.25        -999.25        -999.25       116.6313        -999.25        68.2983       76.38454         0.8211         0.8226        -999.25         0.7525        -49.295       2.128113      0.9230753              1
      5158.0000        -999.25        -999.25        -999.25       117.4977        -999.25         68.186       76.20199         0.8177         0.8191        -999.25         0.7477       -48.9802       2.441734      0.9191912              1
      5158.5000        -999.25        -999.25        -999.25        117.858        -999.25        67.7209       75.44521         0.8051         0.8155        -999.25         0.7444       -48.9884       2.432365      0.9030895              1
      5159.0000        -999.25        -999.25        -999.25       116.8667        -999.25         67.093       74.42342         0.7921         0.8113        -999.25         0.7406       -49.2363       2.183289      0.8813493              1
      5159.5000        -999.25        -999.25        -999.25       115.4056        -999.25        66.0706       72.75945         0.7775         0.8076        -999.25         0.7359       -49.4843        1.93412      0.8459458              1
      5160.0000        -999.25        -999.25        -999.25        113.788        -999.25         63.925        69.2672          0.763         0.8054        -999.25         0.7346       -50.0231       1.394142      0.7716426              1
      5160.5000        -999.25        -999.25        -999.25         112.71        -999.25        61.7499        65.7269         0.7445         0.8026        -999.25         0.7569       -50.7807      0.6353683       0.696317              1
      5161.0000        -999.25        -999.25        -999.25       112.0161        -999.25        59.7947       62.54457          0.721          0.795        -999.25         0.8343        -52.801      -1.386101      0.6286078              1
      5161.5000        -999.25        -999.25        -999.25       111.8032        -999.25        58.3016       60.11442         0.6854         0.7712        -999.25         0.8826       -56.7531      -5.339378      0.5769025        0.92234
      5162.0000        -999.25        -999.25        -999.25       112.0924        -999.25        59.0143       61.27481         0.6544         0.7378        -999.25         0.8619       -61.1082      -9.695648      0.6015918      0.8210315
      5162.5000        -999.25        -999.25        -999.25        112.176        -999.25         60.521       63.72765         0.6276         0.7062        -999.25         0.7907       -65.4683      -14.05692      0.6537799      0.7196065
      5163.0000        -999.25        -999.25        -999.25       111.5043        -999.25        61.2448       64.90612         0.6089         0.6752        -999.25         0.7544       -68.1324      -16.72219      0.6788536      0.6576234
      5163.5000        -999.25        -999.25        -999.25       110.9901        -999.25        60.4982       63.69109         0.5939         0.6447        -999.25          0.749       -69.6267      -18.21767      0.6530019      0.6228449
      5164.0000        -999.25        -999.25        -999.25       110.7272        -999.25        60.1157       63.06876          0.587         0.6225        -999.25         0.7271       -68.8821      -17.47424      0.6397609      0.6401339
      5164.5000        -999.25        -999.25        -999.25       110.6207        -999.25        62.4307        66.8373         0.5777         0.6262        -999.25         0.6893       -67.2194      -15.81271      0.7199426      0.6787741
      5165.0000        -999.25        -999.25        -999.25       111.0492        -999.25        64.4275       70.08794         0.5647         0.6342        -999.25         0.6893       -65.2692      -13.86369      0.7891051      0.7241002
      5165.5000        -999.25        -999.25        -999.25       111.6477        -999.25        64.6539       70.45674         0.5468         0.6431        -999.25         0.6969       -63.9457      -12.54136      0.7969519      0.7548521
      5166.0000        -999.25        -999.25        -999.25       112.1954        -999.25        64.1781       69.68253         0.5239         0.6511        -999.25         0.6701       -65.5051      -14.10193      0.7804793      0.7185597
      5166.5000        -999.25        -999.25        -999.25        112.762        -999.25        62.5093       66.96638          0.502         0.6175        -999.25         0.6467       -68.2799      -16.87791      0.7226889      0.6540022
      5167.0000        -999.25        -999.25        -999.25       113.5076        -999.25        58.9111       61.10962          0.477         0.5609        -999.25         0.6881       -73.2838      -21.88298       0.598077      0.5376051
      5167.5000        -999.25        -999.25        -999.25       114.9636        -999.25        54.4528       53.85281         0.4543         0.5196        -999.25         0.6952       -78.2878      -26.88816      0.4436768      0.4212056
