#------------------------------------------------------------------------------
# Created by    : vladimir.rabinovich
# Created on    : 09/19/2023 17:21:24
#------------------------------------------------------------------------------
~Version Information Section
VERS.           2.0     :   CWLS log ASCII Standard - VERSION 2.0
WRAP.           NO      :   One line per depth step
~Well Information Section
#MNEM       .UNIT                                         VALUE :DESCRIPTION
#------------------------------------------------------------------------------
STRT        .FT                                             682 :START DEPTH
STOP        .FT                                            8542 :STOP DEPTH
STEP        .FT                                             0.5 :STEP      
NULL        .                                           -999.25 :NULL      
COMP        .                       CORPUS CHRISTI OIL & GAS CO :COMPANY   
WELL        .                               OCS G08551 ST00BP00 :WELL      
FLD         .                                           WILDCAT :FIELD     
LOC         .                                                   :LOCATION  
CNTY        .                             GALVESTON LARGE BLOCK :LOCATION  
STAT        .                                             TEXAS :STATE     
CTRY        .                                     UNITED STATES :COUNTRY   
SRVC        .                                                   :SERVICE COMPANY
DATE        .                             9/13/2023 11:19:36 AM :LOG DATE  
API         .                                    42706401950000 :API NUMBER
UWI         .                                    42706401950000 :UNIQUE WELL ID
XCOORD      .                                   976199.22633255 :SURFACE X 
YCOORD      .                                  10415950.2633902 :SURFACE Y 
LAT         .                                         28.686063 :LATITUDE  
LON         .                                        -95.072067 :LONGITUDE 
ELEV        .FT                                              81 :ELEVATION VALUE
ELEV_TYPE   .                                                KB :ELEVATION REFERENCE TYPE
~Curve Information Section
#MNEM       .UNIT                                      API CODE :CURVE DESCRIPTION
#------------------------------------------------------------------------------
DEPT        .FT                                                 :DEPTH     
CALI        .IN                                                 :          
DPHI        .%                                                  :          
DRHO        .G/C3                                               :          
DT          .US/F                                               :          
GR          .GAPI                                               :          
GR_1        .GAPI                                               :          
GR_NORM     .GAPI                                               :GammaRay Normalized
ILD         .OHMM                                               :          
ILM         .OHMM                                               :          
NPHI        .%                                                  :          
SFL         .OHMM                                               :          
SP_NORM     .MV                                                 :SP Normalized
SPS         .MV                                                 :          
VSH_GR      .V/V                                                :Volume of Shale from GR
VSH_SP      .V/V                                                :Volume of Shale from SP
~A        DEPTH           CALI           DPHI           DRHO             DT             GR           GR_1        GR_NORM            ILD            ILM           NPHI            SFL        SP_NORM            SPS         VSH_GR         VSH_SP
# ...
      7278.0000        -999.25        -999.25        -999.25        111.135        60.6533        -999.25       78.88447         0.7439         0.7657        -999.25         0.8635      -1.771626       -54.5494      0.9762653      0.9869216
      7278.5000        -999.25        -999.25        -999.25       110.1736         59.976        -999.25       77.61446         0.7356           0.75        -999.25         0.8578      -2.151627       -54.9294      0.9492439      0.9804809
      7279.0000        -999.25        -999.25        -999.25       109.1644        59.3394        -999.25        76.4209         0.7317         0.7476        -999.25         0.8484      -2.575825       -55.3536      0.9238489      0.9732911
      7279.5000        -999.25        -999.25        -999.25        108.333        58.7429        -999.25        75.3026         0.7315           0.75        -999.25         0.8696      -3.006824       -55.7846      0.9000554       0.965986
      7280.0000        -999.25        -999.25        -999.25       107.6565        59.3131        -999.25       76.37495         0.7398         0.7566        -999.25         0.9142      -3.464226        -56.242      0.9228712      0.9582335
      7280.5000        -999.25        -999.25        -999.25        107.338        61.3945        -999.25       80.28481         0.7505         0.7671        -999.25         0.9575      -3.061325       -55.8391              1      0.9650623
      7281.0000        -999.25        -999.25        -999.25       107.4384        63.9633        -999.25       85.10976         0.7654         0.7826        -999.25         0.9746      -2.523827       -55.3016              1      0.9741724
      7281.5000        -999.25        -999.25        -999.25        107.349        63.6776        -999.25       84.57507         0.7805         0.7982        -999.25         0.9585      -1.945526       -54.7233              1      0.9839742
      7282.0000        -999.25        -999.25        -999.25       106.8575        60.4196        -999.25       78.45947          0.792          0.811        -999.25         0.9422      -1.551426       -54.3292      0.9672226      0.9906538
      7282.5000        -999.25        -999.25        -999.25       106.3674        57.4021        -999.25       72.79546         0.8033         0.8239        -999.25         0.9489      -1.123524       -53.9013      0.8467118      0.9979064
      7283.0000        -999.25        -999.25        -999.25       105.9248        55.1816        -999.25        68.6279         0.8055         0.8371        -999.25         0.9782      -1.095726       -53.8735      0.7580404      0.9983775
      7283.5000        -999.25        -999.25        -999.25       105.9476         54.536        -999.25       67.41744         0.8047         0.8506        -999.25          1.009      -1.019127       -53.7969       0.732286      0.9996758
      7284.0000        -999.25        -999.25        -999.25       106.8613        55.7004        -999.25       69.60546         0.8009         0.8568        -999.25         1.0322     -0.9201241       -53.6979      0.7788396       1.001354
      7284.5000        -999.25        -999.25        -999.25       107.7198        57.8307        -999.25       73.60709         0.7967         0.8575        -999.25          0.994     -0.7940254       -53.5718      0.8639807       1.003491
      7285.0000        -999.25        -999.25        -999.25       108.4961        60.4948        -999.25       78.61104         0.7925         0.8543        -999.25         0.9606     -0.7055244       -53.4833      0.9704476       1.004991
      7285.5000        -999.25        -999.25        -999.25       109.0609        62.9057        -999.25       83.13953         0.7884         0.8466        -999.25         0.9499     -0.7362251        -53.514              1       1.004471
      7286.0000        -999.25        -999.25        -999.25       109.4849        64.9858        -999.25       87.04691         0.7843           0.84        -999.25         0.9471     -0.6071243       -53.3849              1       1.006659
      7286.5000        -999.25        -999.25        -999.25       109.6504        66.5321        -999.25         89.952         0.7836          0.834        -999.25         0.9341     -0.6017265       -53.3795              1        1.00675
      7287.0000        -999.25        -999.25        -999.25       109.3452        66.4645        -999.25       89.82681          0.786         0.8307        -999.25         0.9116     -0.7306252       -53.5084              1       1.004566
      7287.5000        -999.25        -999.25        -999.25       107.9282        65.3279        -999.25       87.69444         0.7886         0.8291        -999.25         0.9267      -1.042927       -53.8207              1      0.9992724
      7288.0000        -999.25        -999.25        -999.25       106.6617        64.1829        -999.25       85.54627         0.7922         0.8337        -999.25          0.957      -1.274727       -54.0525              1      0.9953436
      7288.5000        -999.25        -999.25        -999.25       105.8872        64.2966        -999.25       85.76147         0.7959         0.8407        -999.25         1.0026      -1.258125       -54.0359              1       0.995625
      7289.0000        -999.25        -999.25        -999.25         106.55        66.3491        -999.25       89.61705         0.7956         0.8561        -999.25          1.016      -1.201424       -53.9792              1       0.996586
      7289.5000        -999.25        -999.25        -999.25       107.6759        66.5409        -999.25        89.9789         0.7944         0.8683        -999.25         1.0052      -1.002525       -53.7803              1      0.9999572
      7290.0000        -999.25        -999.25        -999.25       108.8005        65.6499        -999.25       88.30766         0.7922         0.8725        -999.25         1.0032     -0.8405266       -53.6183              1       1.002703
      7290.5000        -999.25        -999.25        -999.25       109.8561        63.3768        -999.25       84.04133         0.7882         0.8393        -999.25          0.974     -0.7987251       -53.5765              1       1.003411
      7291.0000        -999.25        -999.25        -999.25       110.3273        61.4622        -999.25       80.44815         0.7841          0.813        -999.25         0.9224     -0.8781242       -53.6559              1       1.002066
      7291.5000        -999.25        -999.25        -999.25       109.7242         60.272        -999.25        78.2151         0.7833         0.8012        -999.25         0.8819      -1.101227        -53.879      0.9620235      0.9982843
      7292.0000        -999.25        -999.25        -999.25       108.8042        59.8945        -999.25       77.50806          0.787         0.7976        -999.25         0.8809      -1.546425       -54.3242      0.9469799              1
      7292.5000        -999.25        -999.25        -999.25       108.0813        58.7843        -999.25       75.42523         0.7907         0.7966        -999.25         0.9163      -2.016327       -54.7941      0.9026645              1
      7293.0000        -999.25        -999.25        -999.25       108.3402        57.4297        -999.25       72.88351          0.789         0.7945        -999.25         0.9602      -2.513126       -55.2909      0.8485854              1
      7293.5000        -999.25        -999.25        -999.25       108.6477        56.3082        -999.25        70.7795         0.7851         0.7918        -999.25         0.9909      -2.849224        -55.627      0.8038191              1
      7294.0000        -999.25        -999.25        -999.25       109.2535         56.129        -999.25       70.44473         0.7829         0.7933        -999.25         0.9869      -3.132423       -55.9102      0.7966963       0.996847
      7294.5000        -999.25        -999.25        -999.25       110.0707        59.6927        -999.25       77.13778         0.7829         0.7952        -999.25         0.9483      -3.319824       -56.0976      0.9391017      0.9923851
