#------------------------------------------------------------------------------
# Created by    : vladimir.rabinovich
# Created on    : 09/19/2023 17:22:50
#------------------------------------------------------------------------------
~Version Information Section
VERS.           2.0     :   CWLS log ASCII Standard - VERSION 2.0
WRAP.           NO      :   One line per depth step
~Well Information Section
#MNEM       .UNIT                                         VALUE :DESCRIPTION
#------------------------------------------------------------------------------
STRT        .FT                                            1142 :START DEPTH
STOP        .FT                                           15630 :STOP DEPTH
STEP        .FT                                             0.5 :STEP      
NULL        .                                           -999.25 :NULL      
COMP        .                                     PRIMARY FUELS :COMPANY   
WELL        .                                ST TR 00520-L SE/4 :WELL      
FLD         .                                          EL GORDO :FIELD     
LOC         .                                                   :LOCATION  
CNTY        .                      MATAGORDA ISLAND LARGE BLOCK :LOCATION  
STAT        .                                             TEXAS :STATE     
CTRY        .                                     UNITED STATES :COUNTRY   
SRVC        .                                                   :SERVICE COMPANY
DATE        .                             9/13/2023 11:19:05 AM :LOG DATE  
API         .                                    42703303520000 :API NUMBER
UWI         .                                    42703303520000 :UNIQUE WELL ID
XCOORD      .                                  629148.716839967 :SURFACE X 
YCOORD      .                                   10306131.761235 :SURFACE Y 
LAT         .                                        28.3634759 :LATITUDE  
LON         .                                       -96.1446235 :LONGITUDE 
ELEV        .FT                                             101 :ELEVATION VALUE
ELEV_TYPE   .                                                KB :ELEVATION REFERENCE TYPE
~Curve Information Section
#MNEM       .UNIT                                      API CODE :CURVE DESCRIPTION
#------------------------------------------------------------------------------
DEPT        .FT                                                 :DEPTH     
DT          .US/F                                               :          
ILD         .OHMM                                               :          
SP          .MV                                                 :          
SP_NORM     .MV                                                 :SP Normalized
VSH_SP      .V/V                                                :Volume of Shale from SP
~A        DEPTH             DT            ILD             SP        SP_NORM         VSH_SP
      1142.0000       183.7708          0.196       124.7218      -3.421921        -999.25
      1142.5000       184.6265         0.1951       124.7882      -3.355522        -999.25
      1143.0000        185.804         0.3649       124.8674      -3.276321        -999.25
      1143.5000       187.1616         9.0675       124.9369      -3.206825        -999.25
      1144.0000       188.3489        19.7815       124.9712      -3.172523        -999.25
      1144.5000       189.2021        17.2029       124.9889      -3.154823        -999.25
      1145.0000         189.47          0.207       125.0269      -3.116821        -999.25
      1145.5000       188.7786         0.6446       124.8645      -1.812553        -999.25
      1146.0000       187.2703          0.844       120.3829      -2.948051        -999.25
      1146.5000       185.0315         0.9273       115.5396      -4.445244        -999.25
      1147.0000       182.7974           0.98       111.9344       -4.70433        -999.25
      1147.5000       180.5725         1.0566       108.6129      -4.679726        -999.25
      1148.0000       178.2837         1.2376         105.36       -4.58651        -999.25
      1148.5000       175.9026         1.1696       103.7086        -2.8918        -999.25
      1149.0000       173.9038         1.1096       102.3391     -0.9151917        -999.25
      1149.5000       172.0586         1.0526       101.2562     -0.1539764        -999.25
      1150.0000       171.7507         1.0249       100.2299     -0.4958572        -999.25
      1150.5000       172.7507          1.003         99.333     -0.7083206        -999.25
      1151.0000       174.0815         0.9908        98.7031     -0.6537857        -999.25
      1151.5000       175.8647         0.9917        98.3778     -0.2946548        -999.25
      1152.0000       177.0896         1.0347        98.0222     0.03417206        -999.25
      1152.5000       175.9917         1.1028         97.609      0.3054047        -999.25
      1153.0000        174.571         1.1309        97.1619      0.5427399        -999.25
      1153.5000        172.321          1.128        96.6123      0.6775665        -999.25
      1154.0000        170.877         1.1247         96.019      0.7686996        -999.25
      1154.5000       171.2043         1.1197        95.4336      0.8269501        -999.25
      1155.0000       172.1448         1.1148        94.9449      0.4011841        -999.25
      1155.5000       173.0496         1.1099        94.7261      0.2453232        -999.25
      1156.0000       173.6526         1.1052        94.8435      0.4256592        -999.25
      1156.5000       174.2559         1.1016        94.9609      0.6059952        -999.25
      1157.0000       174.3193         1.0979        94.8539      0.5619278        -999.25
      1157.5000       170.4478         1.0999        94.7389      0.5098648        -999.25
      1158.0000       166.3335         1.1026        94.5607      0.3946075        -999.25
      1158.5000       163.6487         1.1157        94.3595        0.25634        -999.25
      1159.0000       162.8867          1.131        94.1112     0.07097626        -999.25
      1159.5000       163.4502         1.1464        93.8083     -0.1689911        -999.25
      1160.0000       164.5825          1.162         93.501      -0.413353        -999.25
      1160.5000       165.7144         1.1777        93.1876     -0.6638184        -999.25
      1161.0000         166.95         1.1844        92.8372     -0.9512787        -999.25
      1161.5000       168.9453         1.1849        92.4619      -1.263641        -999.25
      1162.0000       170.8582         1.1855        92.3895      -1.273102        -999.25
      1162.5000       172.2117         1.1845        92.6283     -0.9713669        -999.25
      1163.0000       171.4126         1.1832        93.1299     -0.4068375        -999.25
      1163.5000       170.0896         1.1646        93.1329     -0.3409042        -999.25
      1164.0000       169.2817         1.1501        93.0475     -0.3633575        -999.25
      1164.5000       168.4741         1.1542        92.9843     -0.3636246        -999.25
      1165.0000       168.4084         1.1673        92.9769     -0.3080902        -999.25
      1165.5000       168.1389         1.1839        92.9988     -0.2232513        -999.25
      1166.0000       166.6128         1.2059        93.0206     -0.1385193        -999.25
      1166.5000       160.8962         1.2282        93.1176     0.02141571        -999.25
      1167.0000       155.1558         1.2576        93.2191      0.1858597        -999.25
      1167.5000       151.2642         1.2943        93.4136      0.4432907        -999.25
      1168.0000       148.1755         1.3285        93.6398      0.7324295        -999.25
      1168.5000       145.5291         1.3571        93.5193      0.6748657        -999.25
      1169.0000       143.4785         1.3863        93.1892      0.4076996        -999.25
      1169.5000       143.8093         1.3861        92.6532    -0.06536102        -999.25
      1170.0000       146.4695         1.3841        91.9728     -0.6828232        -999.25
      1170.5000       149.6411         1.3822        91.4772      -1.115486        -999.25
      1171.0000       152.2192         1.3698        91.3386      -1.191154        -999.25
      1171.5000       154.2729         1.3512        91.5531     -0.9137192        -999.25
      1172.0000       153.7942         1.3267        91.7675     -0.6363831        -999.25
      1172.5000       153.0913         1.3037        91.8008     -0.5401459        -999.25
      1173.0000       153.1489         1.2963        91.8303     -0.4477081        -999.25
      1173.5000       153.2568         1.2889        91.7351     -0.4802933        -999.25
      1174.0000       153.1248         1.2793        91.6129     -0.5805054        -999.25
      1174.5000       152.7651         1.2689        91.4955     -0.6759186        -999.25
      1175.0000       152.1365         1.2588        91.5237     -0.6257324        -999.25
      1175.5000       151.8916         1.2497        91.5518     -0.5756302        -999.25
      1176.0000       152.9045         1.2378        91.6567     -0.4487457        -999.25
      1176.5000       154.7402         1.2205        91.7815     -0.3019562        -999.25
      1177.0000       157.0686         1.2023        91.9053     -0.1561737        -999.25
      1177.5000       158.3267         1.1865        92.0177    -0.02177429        -999.25
      1178.0000       159.0483         1.1798        92.1296       0.112114        -999.25
      1178.5000       158.4795         1.1799        92.2357      0.2402039        -999.25
      1179.0000       157.2019          1.184        92.3286      0.3550873        -999.25
      1179.5000       156.3596         1.1905        92.3938      0.4422836        -999.25
      1180.0000       156.5129         1.1951        92.4257        0.49617        -999.25
      1180.5000       157.9133         1.1687        92.2213      0.3137589        -999.25
      1181.0000       159.4395         1.1428        91.9991      0.1135483        -999.25
      1181.5000       161.6904         1.1022        91.5997     -0.2638626        -999.25
      1182.0000       164.1838         1.0516        91.2003     -0.6412659        -999.25
      1182.5000       166.9363         0.9991         90.741      -1.078583        -999.25
      1183.0000       169.7883         0.9454        90.2611      -1.536491        -999.25
      1183.5000       172.0815         0.8958        89.8752      -1.900406        -999.25
      1184.0000       173.9619         0.8618        89.5386      -2.215012        -999.25
      1184.5000       175.3784         0.8389        89.3636      -2.368019        -999.25
      1185.0000       176.4092         0.8473        89.8101      -1.899536        -999.25
      1185.5000       176.9221         0.8584        90.5099      -1.177742        -999.25
