#------------------------------------------------------------------------------
# Created by    : vladimir.rabinovich
# Created on    : 09/19/2023 17:19:40
#------------------------------------------------------------------------------
~Version Information Section
VERS.           2.0     :   CWLS log ASCII Standard - VERSION 2.0
WRAP.           NO      :   One line per depth step
~Well Information Section
#MNEM       .UNIT                                         VALUE :DESCRIPTION
#------------------------------------------------------------------------------
STRT        .FT                                            4790 :START DEPTH
STOP        .FT                                           12963 :STOP DEPTH
STEP        .FT                                             0.5 :STEP      
NULL        .                                           -999.25 :NULL      
COMP        .                         ATLANTIC RICHFIELD CO THE :COMPANY   
WELL        .                               OCS G06150 ST00BP00 :WELL      
FLD         .                                           WILDCAT :FIELD     
LOC         .                                                   :LOCATION  
CNTY        .                           HIGH ISLAND LARGE BLOCK :LOCATION  
STAT        .                                             TEXAS :STATE     
CTRY        .                                     UNITED STATES :COUNTRY   
SRVC        .                                                   :SERVICE COMPANY
DATE        .                             9/13/2023 11:19:59 AM :LOG DATE  
API         .                                    42708402440000 :API NUMBER
UWI         .                                    42708402440000 :UNIQUE WELL ID
XCOORD      .                                  1291497.32246636 :SURFACE X 
YCOORD      .                                   10652058.279547 :SURFACE Y 
LAT         .                                         29.347015 :LATITUDE  
LON         .                                        -94.095521 :LONGITUDE 
ELEV        .FT                                             105 :ELEVATION VALUE
ELEV_TYPE   .                                                KB :ELEVATION REFERENCE TYPE
~Curve Information Section
#MNEM       .UNIT                                      API CODE :CURVE DESCRIPTION
#------------------------------------------------------------------------------
DEPT        .FT                                                 :DEPTH     
ALL         .OHMM                                               :          
CILD        .MMHO                                               :          
GR          .GAPI                                               :          
GR_NORM     .GAPI                                               :GammaRay Normalized
ILD         .OHMM                                               :          
SP          .MV                                                 :          
SP_NORM     .MV                                                 :SP Normalized
VSH_GR      .V/V                                                :Volume of Shale from GR
VSH_SP      .V/V                                                :Volume of Shale from SP
~A        DEPTH            ALL           CILD             GR        GR_NORM            ILD             SP        SP_NORM         VSH_GR         VSH_SP
# ...
      7546.0000         0.7501       1425.852        71.1862         67.758         0.6658       -44.8015      -7.933723      0.7395318      0.8779427
      7546.5000         0.7404       1413.605        71.9259       68.71889         0.6653        -44.204      -7.337666      0.7599765      0.8871129
      7547.0000          0.728       1397.512        72.6658       69.68007         0.6647       -43.7153       -6.85041       0.780427      0.8946091
      7547.5000         0.7156       1374.951        73.4055       70.64098         0.6642       -43.4384      -6.574951      0.8008718      0.8988469
      7548.0000         0.7032       1352.418        74.1442       71.60054         0.6682       -43.1614      -6.299393      0.8212881      0.9030862
      7548.5000         0.6936       1329.885        74.8839       72.56145         0.6722       -42.8839      -6.023335      0.8417331      0.9073333
      7549.0000         0.6883       1325.268        75.6238       73.52261         0.6762        -42.607      -5.747875      0.8621833      0.9115711
      7549.5000         0.6829       1349.291        76.3087       74.41065         0.6802         -42.33      -5.472321      0.8810777      0.9158105
      7550.0000         0.6817       1373.289        76.7877       75.02487         0.6842       -42.0526      -5.196362      0.8941462       0.920056
      7550.5000         0.6846       1414.635        77.2667       75.63911         0.6883       -41.7756      -4.920803      0.9072151      0.9242954
      7551.0000         0.6874        1440.32        77.7458       76.25346         0.6923       -41.5448      -4.691444      0.9202865       0.927824
      7551.5000         0.6903       1460.484        78.2249       76.86782         0.6963       -41.4901      -4.638187      0.9333579      0.9286433
      7552.0000         0.6932       1473.525        78.7032       77.48112         0.7003       -41.4352      -4.584728      0.9464069      0.9294657
      7552.5000          0.696       1486.568        79.1681        78.0766            0.7       -41.3803      -4.531269      0.9590766      0.9302882
      7553.0000         0.6989       1490.361        79.5972       78.62447         0.6993       -41.3256      -4.478008      0.9707333      0.9311076
      7553.5000         0.7055        1493.34        78.9313       77.71622         0.6987       -41.2707      -4.424549       0.951409        0.93193
      7554.0000         0.7194        1496.32         78.234       76.76623          0.698       -41.2158      -4.371094      0.9311963      0.9327524
      7554.5000         0.7332       1499.299        77.4536       75.70571         0.6974       -41.1611      -4.317833      0.9086322      0.9335718
      7555.0000         0.7471       1502.277        76.6719       74.64349         0.6967       -41.1062      -4.264378      0.8860316      0.9343942
      7555.5000         0.7619       1505.256        75.8901       73.58112         0.6961       -41.0513      -4.210918       0.863428      0.9352167
      7556.0000         0.7869       1508.236        75.1084       72.51888         0.6954       -40.9966      -4.157661      0.8408273       0.936036
      7556.5000         0.8119       1511.215         74.826       72.12061         0.6948       -40.9417      -4.104202      0.8323533      0.9368584
      7557.0000         0.8212       1514.193        75.2903       72.71529         0.6941       -40.9133      -4.077244      0.8450062      0.9372731
      7557.5000         0.8299       1515.979        75.7101       73.25079         0.6932       -40.8878      -4.053185      0.8563998      0.9376433
      7558.0000         0.7901       1516.445        76.1299       73.78629         0.6922       -40.8622       -4.02903      0.8677934      0.9380149
      7558.5000         0.7548       1516.912        76.5498       74.32194         0.6912       -40.8367      -4.004971      0.8791901      0.9383851
      7559.0000         0.7288       1517.379        76.9696       74.85744         0.6902       -40.8111      -3.980812      0.8905839      0.9387568
      7559.5000           0.72       1517.846        77.3894       75.39294         0.6892       -40.7856      -3.956753      0.9019775      0.9391269
      7560.0000         0.7112       1518.313        77.8093       75.92859         0.6901         -40.76      -3.932594      0.9133742      0.9394985
      7560.5000         0.7024       1518.779        78.2291       76.46409         0.6921       -40.7344      -3.908436      0.9247679      0.9398702
      7561.0000         0.6936        1520.26        78.6489        76.9996         0.6941       -40.7089      -3.884377      0.9361618      0.9402404
      7561.5000         0.6848       1522.684        79.0367       77.49255         0.6961       -40.6833      -3.860218      0.9466499       0.940612
      7562.0000         0.6768       1525.109        79.3546       77.89254         0.6981       -40.7073      -3.885658      0.9551604      0.9402207
      7562.5000         0.6705       1541.799        78.6606       76.94694         0.7001       -40.7336      -3.913403      0.9350412      0.9397938
      7563.0000         0.6642       1572.025        77.4795       75.35358         0.7021       -40.7601      -3.941345      0.9011399      0.9393639
      7563.5000         0.6579       1602.303        76.2994       73.76156          0.704       -40.7866      -3.969284      0.8672672      0.9389341
      7564.0000         0.6516        1634.02        74.9825       71.98763         0.6972        -40.813      -3.997128      0.8295239      0.9385057
      7564.5000         0.6442       1668.764        72.6349       68.84307         0.6836        -41.452      -4.637569      0.7626185      0.9286528
      7565.0000         0.6476       1700.107        68.0161       62.67831         0.6699       -42.2999      -5.486912      0.6314534       0.915586
      7565.5000         0.6914       1720.633        66.0087       59.98615         0.6563       -44.2123      -7.400753      0.5741734      0.8861423
      7566.0000         0.7613       1732.432        64.0038       57.29733         0.6426       -48.0298       -11.2197      0.5169644      0.8273893
      7566.5000         0.8948       1749.047        62.7856       55.65464          0.629       -50.7745      -13.96584      0.4820137      0.7851409
      7567.0000         0.9712       1768.107        60.6945       52.85118         0.6153       -54.3552      -17.54798      0.4223655      0.7300311
      7567.5000          1.042       1787.168        58.3566       49.71954         0.6106       -61.8531      -25.04732      0.3557349      0.6146566
      7568.0000         1.1002       1747.781        56.0213       46.59134         0.6073       -63.7803      -26.97596      0.2891774      0.5849853
      7568.5000         1.1441       1700.828         53.686       43.46315         0.6039       -65.5669        -28.764      0.2226202      0.5574769
      7569.0000          1.188       1653.426        51.3481        40.3315         0.6006       -66.9578      -30.15635      0.1559893      0.5360562
      7569.5000         1.2218       1604.486        49.0128        37.2033         0.5973       -64.7235      -27.92349     0.08943193      0.5704079
      7570.0000         1.2516       1555.498        49.7206       38.12179         0.5939       -60.8063      -24.00773      0.1089743      0.6306503
      7570.5000         1.2815       1506.559         56.882       47.62219         0.5906       -56.7744      -19.97727      0.3111105      0.6926574
      7571.0000          1.324       1467.693        61.1334       53.25291         0.5872       -52.4094      -15.61371      0.4309129       0.759789
      7571.5000         1.3097        1431.76        64.1764       57.27671         0.5955       -48.9952      -12.20095      0.5165257       0.812293
      7572.0000         1.2312       1396.412        70.3958       65.52444         0.6086       -45.9842      -9.191395      0.6920094      0.8585939
