#------------------------------------------------------------------------------
# Created by    : vladimir.rabinovich
# Created on    : 09/19/2023 17:22:39
#------------------------------------------------------------------------------
~Version Information Section
VERS.           2.0     :   CWLS log ASCII Standard - VERSION 2.0
WRAP.           NO      :   One line per depth step
~Well Information Section
#MNEM       .UNIT                                         VALUE :DESCRIPTION
#------------------------------------------------------------------------------
STRT        .FT                                            2600 :START DEPTH
STOP        .FT                                            8208 :STOP DEPTH
STEP        .FT                                             0.5 :STEP      
NULL        .                                           -999.25 :NULL      
COMP        .                          SEAGULL ENERGY E & P INC :COMPANY   
WELL        .                               OCS G09039 ST00BP00 :WELL      
FLD         .                              GALVESTON BLOCK 0273 :FIELD     
LOC         .                                                   :LOCATION  
CNTY        .                             GALVESTON LARGE BLOCK :LOCATION  
STAT        .                                             TEXAS :STATE     
CTRY        .                                     UNITED STATES :COUNTRY   
SRVC        .                                                   :SERVICE COMPANY
DATE        .                             9/13/2023 11:19:54 AM :LOG DATE  
API         .                                    42706403220000 :API NUMBER
UWI         .                                    42706403220000 :UNIQUE WELL ID
XCOORD      .                                  1018306.80056624 :SURFACE X 
YCOORD      .                                  10490966.5196098 :SURFACE Y 
LAT         .                                         28.894284 :LATITUDE  
LON         .                                        -94.944599 :LONGITUDE 
ELEV        .FT                                             103 :ELEVATION VALUE
ELEV_TYPE   .                                                KB :ELEVATION REFERENCE TYPE
~Curve Information Section
#MNEM       .UNIT                                      API CODE :CURVE DESCRIPTION
#------------------------------------------------------------------------------
DEPT        .FT                                                 :DEPTH     
DCAL        .IN                                                 :          
DPHI        .%                                                  :          
DTL         .US/F                                               :          
GR          .GAPI                                               :          
GR_1        .GAPI                                               :          
GR_NORM     .GAPI                                               :GammaRay Normalized
ILD         .OHMM                                               :          
ILM         .OHMM                                               :          
NPHI        .%                                                  :          
SFL         .OHMM                                               :          
SP          .MV                                                 :          
SP_NORM     .MV                                                 :SP Normalized
VSH_GR      .V/V                                                :Volume of Shale from GR
VSH_SP      .V/V                                                :Volume of Shale from SP
~A        DEPTH           DCAL           DPHI            DTL             GR           GR_1        GR_NORM            ILD            ILM           NPHI            SFL             SP        SP_NORM         VSH_GR         VSH_SP
# ...
      6686.0000        -999.25        -999.25        -999.25        64.7091        51.4529       84.13161         0.8003         0.7867         56.423         0.8566        -34.637      -1.299448              1      0.9783425
      6686.5000        -999.25        -999.25        -999.25        63.0671        51.0179       82.23293         0.7889         0.7646        52.3342         0.8366       -34.9151      -1.593299              1       0.973445
      6687.0000        -999.25        -999.25        -999.25        62.6251         51.125       81.72314         0.7999         0.7785         49.403         0.8545       -34.7883      -1.451104              1      0.9758149
      6687.5000        -999.25        -999.25        -999.25        62.5986        52.7933       81.69426         0.8169         0.8235        48.6076         0.8823       -34.6037      -1.246663              1      0.9792223
      6688.0000        -999.25        -999.25        -999.25        63.7719        56.2986       83.05404         0.8455           0.87        51.4891          0.898       -34.4347      -1.059024              1      0.9823496
      6688.5000        -999.25        -999.25        -999.25        65.8788        59.5684       85.49436         0.8834         0.9029        54.0051         0.9161       -34.4206      -1.038196              1      0.9826967
      6689.0000        -999.25        -999.25        -999.25        67.1152        58.1105       86.92717         0.9098         0.9027        53.4338         0.9469       -34.6557       -1.28574              1       0.978571
      6689.5000        -999.25        -999.25        -999.25        66.4612        55.0774       86.17201         0.9062         0.9002        52.3089         0.9845       -34.7568      -1.388977              1      0.9768504
      6690.0000        -999.25        -999.25        -999.25        64.2245        52.3978       83.58504          0.912         0.8961         54.212         0.9803       -34.9255      -1.565011              1      0.9739165
      6690.5000        -999.25        -999.25        -999.25        62.7049        50.6155       81.82803         0.9509         0.9228         54.812         0.9875       -35.2418           -1.9              1      0.9683333
      6691.0000        -999.25        -999.25        -999.25        61.4936        50.1552       80.42785           0.98         0.9663        54.6196         1.0188       -35.2901      -1.946377              1      0.9675604
      6691.5000        -999.25        -999.25        -999.25        61.7637        50.6093       80.74226         0.9841         0.9724         54.389         1.0212       -34.8362      -1.451922              1      0.9758013
      6692.0000        -999.25        -999.25        -999.25        63.2971        50.9446       82.51881         0.9932         0.9703         56.725         0.9996       -34.3302     -0.9013578              1      0.9849774
      6692.5000        -999.25        -999.25        -999.25        65.1666         50.435       84.68438         1.0246         0.9839        57.2503          1.008       -33.8943     -0.4262848              1      0.9928952
      6693.0000        -999.25        -999.25        -999.25        66.8607         48.895       86.64693         1.0331         1.0087        56.5242         1.0291       -33.9771     -0.5098114              1      0.9915031
      6693.5000        -999.25        -999.25        -999.25        67.4756        47.7863        87.3604         1.0323         1.0111        55.0154         1.0308       -34.4716      -1.036709              1      0.9827215
      6694.0000        -999.25        -999.25        -999.25        66.2948        48.0143       85.99552         1.0333         0.9729        53.0157         1.0166       -34.9849      -1.583855              1      0.9736024
      6694.5000        -999.25        -999.25        -999.25        64.2588        54.6572       83.64082         1.0175         0.9378        52.5446         0.9996        -35.492      -2.124321              1      0.9645947
      6695.0000        -999.25        -999.25        -999.25        63.0749        55.9463       82.27237         0.9997         0.9131        53.3073         0.9967       -35.8404      -2.493881              1      0.9584353
      6695.5000        -999.25        -999.25        -999.25        63.1404        55.5359       82.34997         0.9767         0.8939         54.575         0.9806       -36.1726      -2.845993              1      0.9525668
      6696.0000        -999.25        -999.25        -999.25        64.8485        53.6362       84.32873         0.9382         0.8801        57.1015         0.9176       -36.5002      -3.193151              1      0.9467808
      6696.5000        -999.25        -999.25        -999.25        67.0828        51.2878        86.9165         0.8971         0.8763         58.274         0.8775       -36.7726      -3.480864              1      0.9419856
      6697.0000        -999.25        -999.25        -999.25        69.4271        48.9098       89.63161         0.8861         0.8779        56.9854          0.866       -36.8837      -3.594869              1      0.9400855
      6697.5000        -999.25        -999.25        -999.25        70.2935        46.2475       90.63617         0.8765         0.8733        55.7921         0.8771       -36.8867      -3.592458              1      0.9401257
      6698.0000        -999.25        -999.25        -999.25        69.5959        43.5505       89.83056         0.8686         0.8542        56.7266         0.9267       -36.8463      -3.543308              1      0.9409449
      6698.5000        -999.25        -999.25        -999.25        68.2317        40.8412       88.25341         0.8649         0.8507        -999.25         0.9451       -36.7773      -3.463364              1      0.9422773
      6699.0000        -999.25        -999.25        -999.25        66.7671        38.1295       86.56007         0.8655         0.8642        -999.25         0.9498       -36.7115      -3.386858              1      0.9435524
      6699.5000        -999.25        -999.25        -999.25        65.6923         35.524       85.31786         0.8709         0.8867        -999.25         0.9841       -36.6956      -3.364095              1      0.9439318
      6700.0000        -999.25        -999.25        -999.25         65.048        33.8573       84.57393         0.8839          0.904        -999.25         1.0006       -36.6107      -3.267024              1      0.9455496
      6700.5000        -999.25        -999.25        -999.25        64.2001        33.8159       83.59534         0.8946         0.9156        -999.25         0.9446       -36.4523      -3.090801              1      0.9484866
      6701.0000        -999.25        -999.25        -999.25        62.7147        34.7157       81.88047         0.9036          0.923        -999.25         0.8792       -36.2053      -2.819155              1      0.9530141
      6701.5000        -999.25        -999.25        -999.25        61.4899        36.5696       80.46722         0.9106         0.9114        -999.25         0.8348       -35.8181       -2.39653              1      0.9600579
      6702.0000        -999.25        -999.25        -999.25        62.4431        37.7958       81.57481         0.9116         0.8959        -999.25         0.8185       -35.5039      -2.052519              1      0.9657913
      6702.5000        -999.25        -999.25        -999.25        61.5278        37.6647       80.51977         0.9068         0.8786        -999.25         0.8513       -35.4013      -1.936386              1      0.9677269
      6703.0000        -999.25        -999.25        -999.25        57.3677        36.5573       75.70919         0.9009         0.8839        -999.25         0.9272       -35.5775        -2.1205      0.9087062      0.9646583
      6703.5000        -999.25        -999.25        -999.25        55.6033        34.9789       73.67141         0.8942         0.8872        -999.25          0.959        -35.845      -2.402939      0.8653491       0.959951
