#------------------------------------------------------------------------------
# Created by    : vladimir.rabinovich
# Created on    : 09/19/2023 17:20:35
#------------------------------------------------------------------------------
~Version Information Section
VERS.           2.0     :   CWLS log ASCII Standard - VERSION 2.0
WRAP.           NO      :   One line per depth step
~Well Information Section
#MNEM       .UNIT                                         VALUE :DESCRIPTION
#------------------------------------------------------------------------------
STRT        .FT                                             504 :START DEPTH
STOP        .FT                                            9361 :STOP DEPTH
STEP        .FT                                             0.5 :STEP      
NULL        .                                           -999.25 :NULL      
COMP        .                                      SHELL OIL CO :COMPANY   
WELL        .                                OCS 00704 ST00BP00 :WELL      
FLD         .                                           WILDCAT :FIELD     
LOC         .                                                   :LOCATION  
CNTY        .                             GALVESTON LARGE BLOCK :LOCATION  
STAT        .                                             TEXAS :STATE     
CTRY        .                                     UNITED STATES :COUNTRY   
SRVC        .                                                   :SERVICE COMPANY
DATE        .                             9/13/2023 11:19:25 AM :LOG DATE  
API         .                                    42706000430000 :API NUMBER
UWI         .                                    42706000430000 :UNIQUE WELL ID
XCOORD      .                                  1136254.96267488 :SURFACE X 
YCOORD      .                                  10526383.5552877 :SURFACE Y 
LAT         .                                         28.996505 :LATITUDE  
LON         .                                        -94.577519 :LONGITUDE 
ELEV        .FT                                              42 :ELEVATION VALUE
ELEV_TYPE   .                                                KB :ELEVATION REFERENCE TYPE
~Curve Information Section
#MNEM       .UNIT                                      API CODE :CURVE DESCRIPTION
#------------------------------------------------------------------------------
DEPT        .FT                                                 :DEPTH     
ASN         .OHMM                                               :          
DT          .US/F                                               :          
LN          .OHMM                                               :          
SP          .MV                                                 :          
SP_NORM     .MV                                                 :SP Normalized
VSH_SP      .V/V                                                :Volume of Shale from SP
~A        DEPTH            ASN             DT             LN             SP        SP_NORM         VSH_SP
# ...
      8142.0000         1.5367        95.4975        -999.25       -48.5596      -1.525684      0.9853976
      8142.5000         1.5127        97.5323        -999.25       -48.8682      -1.835403      0.9767944
      8143.0000          1.487         99.636        -999.25       -49.1848      -2.153126      0.9679687
      8143.5000         1.4466       100.3069        -999.25       -49.1284      -2.097843      0.9695044
      8144.0000         1.4158        100.435        -999.25       -48.9079      -1.878468      0.9755981
      8144.5000         1.3919       100.1434        -999.25       -48.6871      -1.658787      0.9817004
      8145.0000         1.3748        99.4212        -999.25       -48.4667       -1.43951      0.9877914
      8145.5000         1.3666        98.1497        -999.25       -48.2822      -1.256126      0.9928854
      8146.0000         1.3794        96.8465        -999.25       -48.2258      -1.200848      0.9944209
      8146.5000         1.4024        95.5432        -999.25       -48.1694      -1.145569      0.9959564
      8147.0000         1.4309        94.0579        -999.25        -48.113       -1.09029       0.997492
      8147.5000         1.4595        92.9709        -999.25       -48.0507       -1.02911      0.9991914
      8148.0000         1.4849         92.174        -999.25       -47.9872      -0.966732              1
      8148.5000         1.5031         91.957        -999.25       -47.9236     -0.9042511              1
      8149.0000         1.5199        95.0801        -999.25       -47.8601     -0.8418732              1
      8149.5000         1.5168        95.3087        -999.25       -47.7982     -0.7810898              1
      8150.0000         1.4948        94.9324        -999.25        -47.759     -0.7430115              1
      8150.5000         1.4245        95.0056        -999.25       -47.7198     -0.7049332              1
      8151.0000         1.3984        95.2239        -999.25       -47.6805     -0.6667557              1
      8151.5000         1.3882        96.3521        -999.25       -47.6923     -0.6796722              1
      8152.0000         1.3786        97.6182        -999.25       -48.2803      -1.268795      0.9925334
      8152.5000          1.369        97.3289        -999.25       -49.0439      -2.033516      0.9712912
      8153.0000         1.3576        97.9515        -999.25       -49.9495      -2.940239      0.9461045
      8153.5000         1.3422        98.4906        -999.25        -50.791       -3.78286      0.9226983
      8154.0000         1.3269        94.3029        -999.25        -51.554      -4.546978      0.9014728
      8154.5000         1.3293        88.9673        -999.25       -52.0012        -4.9953      0.8890194
      8155.0000         1.3583        83.6318        -999.25       -52.4749      -5.470119        0.87583
      8155.5000         1.4717        77.6814        -999.25       -53.2453      -6.241642      0.8543988
      8156.0000         1.5479        77.2469        -999.25       -57.2529      -10.25036      0.7430456
      8156.5000         1.6773        80.3032        -999.25       -64.3309      -17.32948      0.5464032
      8157.0000         1.6837         84.916        -999.25       -65.5559       -18.5556      0.5123444
      8157.5000         1.6661        89.5288        -999.25       -65.8132      -18.81403      0.5051659
      8158.0000         1.6486        94.1461        -999.25       -66.0707      -19.07264      0.4979821
      8158.5000         1.3756        92.9416        -999.25        -67.068      -20.07106      0.4702482
      8159.0000         1.3128        91.8994        -999.25       -68.2834      -21.28759      0.4364559
      8159.5000         1.2768         93.713        -999.25       -69.3579      -22.36321      0.4065775
      8160.0000         1.2731        91.5384        -999.25        -69.858      -22.86443      0.3926548
      8160.5000         1.2694        91.7567        -999.25        -69.207      -22.21455      0.4107071
      8161.0000         1.2658        92.4078        -999.25       -68.3127      -21.32137      0.4355176
      8161.5000         1.2618        93.3715        -999.25        -66.809      -19.81879      0.4772559
      8162.0000         1.2565        95.1525        -999.25       -64.5923      -17.60321      0.5387998
      8162.5000         1.2511        99.5739        -999.25       -62.8014      -15.81343      0.5885159
      8163.0000         1.2458        98.6352        -999.25       -61.5601      -14.57325      0.6229653
      8163.5000         1.2405        93.7967        -999.25       -60.4462      -13.46047      0.6538758
      8164.0000         1.2442        88.9581        -999.25       -58.3252      -11.34059      0.7127613
      8164.5000         1.2989        85.5985        -999.25       -55.4529       -8.46941      0.7925164
      8165.0000         1.3965        85.8893        -999.25       -54.6003      -7.617931      0.8161685
      8165.5000         1.4321        89.7846        -999.25       -53.7882      -6.806953      0.8386958
      8166.0000         1.4248        95.5928        -999.25       -52.9693      -5.989174      0.8614118
      8166.5000         1.4067       101.2648        -999.25        -51.362      -4.382992       0.906028
      8167.0000         1.3737        99.3197        -999.25       -49.2579      -2.280014       0.964444
      8167.5000         1.3408        98.0756        -999.25        -48.537      -1.560234      0.9844379
      8168.0000         1.3102        98.4389        -999.25       -48.2098      -1.234158      0.9934956
      8168.5000         1.2798       102.5729        -999.25       -47.9454     -0.9708748              1
      8169.0000         1.2573       102.1385        -999.25       -47.9944      -1.020996      0.9994168
      8169.5000         1.2352       101.9943        -999.25       -48.0435      -1.071217      0.9980218
      8170.0000         1.2145       103.1126        -999.25       -48.0926      -1.121441      0.9966266
      8170.5000         1.2015       104.4591        -999.25       -48.1415      -1.171455      0.9952374
      8171.0000         1.1884       104.8971        -999.25       -48.1761       -1.20718       0.994245
      8171.5000         1.1753       104.6077        -999.25       -48.1805        -1.2127      0.9940917
      8172.0000         1.1631       102.7646        -999.25       -48.1849       -1.21822      0.9939383
      8172.5000         1.1634       100.1132        -999.25       -48.1894      -1.223839      0.9937823
      8173.0000          1.173        99.0987        -999.25       -48.1938      -1.229362      0.9936288
      8173.5000         1.1858        98.8783        -999.25       -48.1818      -1.218483      0.9939311
      8174.0000         1.2099        98.3153        -999.25       -48.1541      -1.191902      0.9946694
      8174.5000         1.2339        97.8681        -999.25       -48.1264      -1.165325      0.9954076
      8175.0000         1.2491        97.9548        -999.25       -48.0988      -1.138844      0.9961432
      8175.5000         1.2516         98.566        -999.25       -48.0765      -1.117664      0.9967315
      8176.0000         1.2541        101.861        -999.25       -48.0945      -1.136787      0.9962003
      8176.5000         1.2569       100.2956        -999.25       -48.1126      -1.156006      0.9956665
      8177.0000         1.2607        97.9282        -999.25       -48.1306      -1.175125      0.9951354
      8177.5000         1.2645        95.3343        -999.25       -48.0479      -1.093548      0.9974015
      8178.0000         1.2684        94.8274        -999.25       -47.9229     -0.9696693              1
      8178.5000         1.2722        95.2633        -999.25       -47.7979     -0.8457909              1
      8179.0000         1.2787        97.6201        -999.25        -47.306     -0.3550072              1
      8179.5000         1.2929       100.3072        -999.25       -46.9825    -0.03262711              1
