#------------------------------------------------------------------------------
# Created by    : vladimir.rabinovich
# Created on    : 09/19/2023 17:20:30
#------------------------------------------------------------------------------
~Version Information Section
VERS.           2.0     :   CWLS log ASCII Standard - VERSION 2.0
WRAP.           NO      :   One line per depth step
~Well Information Section
#MNEM       .UNIT                                         VALUE :DESCRIPTION
#------------------------------------------------------------------------------
STRT        .FT                                             609 :START DEPTH
STOP        .FT                                           12866 :STOP DEPTH
STEP        .FT                                             0.5 :STEP      
NULL        .                                           -999.25 :NULL      
COMP        .                                        SUN OIL CO :COMPANY   
WELL        .                               OCS G01769 ST00BP00 :WELL      
FLD         .                                           WILDCAT :FIELD     
LOC         .                                                   :LOCATION  
CNTY        .                             GALVESTON LARGE BLOCK :LOCATION  
STAT        .                                             TEXAS :STATE     
CTRY        .                                     UNITED STATES :COUNTRY   
SRVC        .                                                   :SERVICE COMPANY
DATE        .                             9/13/2023 11:19:24 AM :LOG DATE  
API         .                                    42706001410000 :API NUMBER
UWI         .                                    42706001410000 :UNIQUE WELL ID
XCOORD      .                                  1110717.91749569 :SURFACE X 
YCOORD      .                                  10538856.4752018 :SURFACE Y 
LAT         .                                         29.029845 :LATITUDE  
LON         .                                        -94.657945 :LONGITUDE 
ELEV        .FT                                              65 :ELEVATION VALUE
ELEV_TYPE   .                                                KB :ELEVATION REFERENCE TYPE
~Curve Information Section
#MNEM       .UNIT                                      API CODE :CURVE DESCRIPTION
#------------------------------------------------------------------------------
DEPT        .FT                                                 :DEPTH     
ASN         .OHMM                                               :          
CALI        .IN                                                 :          
CILD        .MMHO                                               :          
DT          .US/F                                               :          
ILD         .OHMM                                               :          
SP          .MV                                                 :          
SP_NORM     .MV                                                 :SP Normalized
VSH_SP      .V/V                                                :Volume of Shale from SP
~A        DEPTH            ASN           CALI           CILD             DT            ILD             SP        SP_NORM         VSH_SP
# ...
      2231.5000         0.7225        12.2696       1771.117       139.6143         0.5125       -84.7102      -4.503471      0.8156068
      2232.0000         0.7245        12.3946       1794.963       146.1128         0.5122       -84.8757      -4.672775      0.8066961
      2232.5000         0.7265        12.5706        1830.26        148.627         0.5123       -85.2192      -5.020073      0.7884172
      2233.0000         0.7285        12.4488       1867.199       150.6338         0.5123        -85.563      -5.367676      0.7701223
      2233.5000         0.7305        12.2624       1910.188       153.6992         0.5145       -85.9053      -5.713768      0.7519069
      2234.0000         0.7325         12.408        1943.77       155.6472           0.52       -86.2357      -6.047974      0.7343172
      2234.5000         0.7344        12.5141       1924.695       156.6006         0.5256        -86.566      -6.382072       0.716733
      2235.0000         0.7361        12.5419       1900.338       154.2046         0.5311       -86.8965       -6.71637      0.6991385
      2235.5000         0.7377        12.4727       1873.025       151.6519         0.5366       -86.8379      -6.661568      0.7020227
      2236.0000         0.7394        12.4099       1845.699       150.4307         0.5422       -86.4226      -6.250069      0.7236806
      2236.5000          0.741        12.4086       1818.387       153.0222         0.5512       -86.0074      -5.838669      0.7453332
      2237.0000         0.7427        12.4235       1760.121       156.9705         0.5622       -85.5923      -5.427368      0.7669806
      2237.5000         0.7444          12.39       1640.551       152.8242         0.5733       -84.9697      -4.808571      0.7995489
      2238.0000          0.746        12.4276       1589.566       148.0593         0.5843       -84.2961      -4.138763      0.8348019
      2238.5000         0.7477        12.5004       1569.617       145.0286         0.5953       -83.6229      -3.469368      0.8700333
      2239.0000         0.7492        12.7569       1556.848       141.5078         0.6064       -83.1089      -2.959175      0.8968855
      2239.5000         0.7503        13.1259       1544.895       142.5291         0.6102       -82.6663       -2.52037      0.9199805
      2240.0000         0.7514        13.2864         1539.6       138.9546         0.6131       -82.2236      -2.081474      0.9430803
      2240.5000         0.7525        13.1242       1534.895       136.1094          0.616       -81.9366      -1.798271      0.9579857
      2241.0000         0.7536        12.8052       1535.621       133.7649         0.6189        -81.771      -1.636475      0.9665014
      2241.5000         0.7547        12.4538       1538.281       132.7871         0.6135       -81.6053      -1.474571      0.9750226
      2242.0000         0.7558        12.3214       1540.941       133.3547         0.6049       -81.4397      -1.312767      0.9835386
      2242.5000         0.7569        12.2633        1552.35       132.4014         0.5963        -81.274      -1.150871      0.9920594
      2243.0000          0.758        12.3489         1566.5       131.2314         0.5877       -81.1136     -0.9942703              1
      2243.5000          0.758        12.4135        1580.65       132.5793         0.5791       -81.0461     -0.9305649              1
      2244.0000         0.7567        12.3751       1597.084       140.7395         0.5706       -81.1749      -1.063164      0.9966756
      2244.5000         0.7555        12.5253       1623.396       143.0608          0.562       -81.8102      -1.702271      0.9630384
      2245.0000         0.7543         12.568       1649.129       146.5371         0.5534       -82.5173       -2.41317      0.9256226
      2245.5000          0.753         12.565       1674.764       154.1387         0.5448       -83.3035      -3.203163      0.8840441
      2246.0000         0.7518        12.5327       1760.627       156.3574         0.5346       -84.0894      -3.992867      0.8424807
      2246.5000         0.7499        12.7687       1800.207       157.9014         0.5233       -84.8361      -4.743362      0.8029809
      2247.0000         0.7428         13.496       1832.494        157.925          0.512       -85.5626      -5.473663       0.764544
      2247.5000         0.7356        13.9097       1844.436       153.8687         0.5007       -86.2748      -6.189667      0.7268596
      2248.0000         0.7304        12.7376       1856.381         143.52         0.4947       -86.7526      -6.671265      0.7015124
      2248.5000         0.7375        12.3271       1863.781        141.885         0.4963       -87.2305      -7.152962      0.6761599
      2249.0000         0.7446        12.3342       1855.838        139.259         0.4979       -87.0817      -7.007965      0.6837913
      2249.5000         0.7517        12.4211       1834.889       137.6304         0.5126       -86.6145      -6.544563      0.7081809
      2250.0000         0.7589         12.508       1788.311       131.2974           0.53        -86.144      -6.077866      0.7327439
      2250.5000          0.766        12.4951       1713.492       128.9673         0.5474       -85.6497      -5.587364      0.7585598
      2251.0000         0.7731        12.3709       1590.887       127.2295         0.5648       -85.1555       -5.09697        0.78437
      2251.5000         0.7838        12.2956       1540.988       128.3152         0.5815       -84.6614      -4.606667      0.8101754
      2252.0000         0.7955        12.3126       1516.465       120.6306         0.5965        -84.167      -4.116066      0.8359965
      2252.5000         0.8071        12.3442       1495.484       114.1234         0.6115       -83.7219      -3.674767      0.8592228
      2253.0000         0.8187        12.3481       1474.738       111.7361         0.6264       -83.4336      -3.390266      0.8741965
      2253.5000          0.821        12.2495       1460.254       122.3296         0.6414       -83.1451      -3.105568      0.8891807
      2254.0000         0.8185        12.2883        1451.01       131.6011         0.6431       -83.0078      -2.972061      0.8962073
      2254.5000         0.8161        12.3949       1465.598       134.3437         0.6328       -83.0262      -2.994263      0.8950388
      2255.0000         0.8136         12.472       1480.186       136.0869         0.6224       -83.0446      -3.016464      0.8938703
      2255.5000         0.8111        12.5468       1501.457       134.5771          0.612       -83.0629      -3.038559      0.8927074
      2256.0000         0.8069        12.5384       1524.512       135.2537         0.6015       -82.9707      -2.950165      0.8973597
      2256.5000         0.7986        12.3813       1573.486       134.8777         0.5907       -82.6678      -2.651062       0.913102
      2257.0000         0.7903        12.4355       1628.693       134.2302         0.5798        -82.365      -2.352058       0.928839
      2257.5000         0.7821        12.3735       1637.883        135.833          0.569       -80.9458     -0.9366608              1
      2258.0000         0.7738        12.2682       1647.072       129.7317         0.5581       -79.5167      0.4886398              1
      2258.5000         0.7687        12.1573       1653.031       124.7327         0.5473       -78.7739       1.227638              1
      2259.0000         0.7649         12.155       1654.631       126.6797         0.5386       -78.7131       1.285995              1
      2259.5000          0.761        12.2149       1656.229       130.4907         0.5386       -79.3185      0.6790771              1
      2260.0000         0.7572        12.2236       1657.828       132.9448         0.5387       -80.4023       -0.40625              1
      2260.5000         0.7533        12.1842       1659.691        133.792         0.5388       -80.5811     -0.5865707              1
