#------------------------------------------------------------------------------
# Created by    : vladimir.rabinovich
# Created on    : 09/19/2023 17:20:02
#------------------------------------------------------------------------------
~Version Information Section
VERS.           2.0     :   CWLS log ASCII Standard - VERSION 2.0
WRAP.           NO      :   One line per depth step
~Well Information Section
#MNEM       .UNIT                                         VALUE :DESCRIPTION
#------------------------------------------------------------------------------
STRT        .FT                                             994 :START DEPTH
STOP        .FT                                           14137 :STOP DEPTH
STEP        .FT                                             0.5 :STEP      
NULL        .                                           -999.25 :NULL      
COMP        .                                   MARATHON OIL CO :COMPANY   
WELL        .                                     ST TR 00841-L :WELL      
FLD         .                                           WILDCAT :FIELD     
LOC         .                                                   :LOCATION  
CNTY        .                        MUSTANG ISLAND LARGE BLOCK :LOCATION  
STAT        .                                             TEXAS :STATE     
CTRY        .                                     UNITED STATES :COUNTRY   
SRVC        .                                                   :SERVICE COMPANY
DATE        .                             9/13/2023 11:18:55 AM :LOG DATE  
API         .                                    42702301400000 :API NUMBER
UWI         .                                    42702301400000 :UNIQUE WELL ID
XCOORD      .                                  272565.632686387 :SURFACE X 
YCOORD      .                                  9953986.84876921 :SURFACE Y 
LAT         .                                         27.367086 :LATITUDE  
LON         .                                       -97.2136853 :LONGITUDE 
ELEV        .FT                                              88 :ELEVATION VALUE
ELEV_TYPE   .                                                KB :ELEVATION REFERENCE TYPE
~Curve Information Section
#MNEM       .UNIT                                      API CODE :CURVE DESCRIPTION
#------------------------------------------------------------------------------
DEPT        .FT                                                 :DEPTH     
ASFL        .OHMM                                               :          
CILD        .MMHO                                               :          
GR          .GAPI                                               :          
GR_NORM     .GAPI                                               :GammaRay Normalized
ILD         .OHMM                                               :          
SP          .MV                                                 :          
SP_NORM     .MV                                                 :SP Normalized
VSH_GR      .V/V                                                :Volume of Shale from GR
VSH_SP      .V/V                                                :Volume of Shale from SP
~A        DEPTH           ASFL           CILD             GR        GR_NORM            ILD             SP        SP_NORM         VSH_GR         VSH_SP
# ...
      9739.0000         3.2767        403.894        53.4705        73.7831         2.4896       -70.9114      -16.67592      0.8677254       0.643729
      9739.5000         3.2454       432.8096        53.5268       72.36525         2.4376       -70.0264      -15.84147      0.8375585      0.6626938
      9740.0000         3.1373       457.6802         53.583       72.36525         2.2784       -68.9594      -14.82502      0.8375585      0.6857949
      9740.5000         3.0293       482.6006        53.6393       72.36525         2.0863        -67.891      -13.80718      0.8375585      0.7089278
      9741.0000         2.9214        507.521        53.6877       72.36525         1.9322       -67.0671      -13.03383      0.8375585      0.7265038
      9741.5000          2.792       532.3916        53.7341       72.36525          1.813       -66.2719      -12.28918      0.8375585      0.7434277
      9742.0000         2.6354       553.5918        53.7805       73.21595         1.7902       -65.2858      -11.35363      0.8556585      0.7646902
      9742.5000         2.3002       571.7949         53.827       74.06666         1.8318        -63.962      -10.08039      0.8737587      0.7936275
      9743.0000         2.1523        589.998        53.8867       74.70469         1.8734       -62.5697      -8.738644      0.8873338      0.8241217
      9743.5000         2.0004       596.0166        53.9785       75.34271          1.915       -63.2852      -9.504696      0.9009088      0.8067114
      9744.0000         2.0014       583.4814        54.0701       75.98076         1.9566       -63.9845      -10.25455      0.9144842      0.7896693
      9744.5000         2.1968       570.9463        54.1617       76.61879           1.97       -64.1689       -10.4895      0.9280593      0.7843295
      9745.0000         2.4216       558.3857        54.2535       76.61879          1.977       -63.5345      -9.905655      0.9280593      0.7975988
      9745.5000         2.7373       545.8506        54.3451       76.61879         1.9838       -62.8987      -9.320408      0.9280593      0.8108998
      9746.0000         3.0756       533.3154        54.4367       76.61879         1.9809       -62.1857      -8.657959      0.9280593      0.8259555
      9746.5000          3.827       520.7803        54.5284       75.76807          1.978        -61.459      -7.981812       0.909959      0.8413225
      9747.0000         4.0513        509.269        54.6201       74.91737         1.9751       -60.8669      -7.440269      0.8918589      0.8536302
      9747.5000         3.6251       520.3555        54.7117       74.91737         1.9722       -60.1265       -6.75042      0.8918589      0.8693087
      9748.0000          3.216       547.4736        54.8033       74.91737         1.9446       -59.4821      -6.156574      0.8918589      0.8828051
      9748.5000         2.9989        579.835        54.5949       75.42779          1.904       -60.2898      -7.014824      0.9027189      0.8632994
      9749.0000          2.829        617.291        54.8246       75.93822         1.8573       -61.0203      -7.795879      0.9135792      0.8455482
      9749.5000         2.4755       658.9912        55.0944       76.44864         1.7456       -61.1069      -7.933029      0.9244391      0.8424311
      9750.0000         2.0049       700.6924         55.265       76.95907         1.5323       -60.7716      -7.648281      0.9352993      0.8489027
      9750.5000         1.8741       747.1875        55.3134       77.46948         1.3118       -60.4369      -7.364136      0.9461592      0.8553606
      9751.0000         1.7338       803.3203        55.3618       77.46948          1.389       -60.1016      -7.079391      0.9461592       0.861832
      9751.5000         1.6117       734.7021        55.4103       77.46948         1.4567       -59.7663      -6.794643      0.9461592      0.8683035
      9752.0000         1.7368       655.6953        55.3328       77.46948         1.5244       -59.2103      -6.289196      0.9461592       0.879791
      9752.5000         2.0005       545.2266        54.5513       77.29935         1.5921       -58.5671      -5.696548      0.9425393      0.8932602
      9753.0000         2.1908       495.6851        53.9854       77.12921         1.5522       -57.9239      -5.103901      0.9389194      0.9067295
      9753.5000         2.5692       474.4106        53.7859       76.95907         1.5096       -57.1287      -4.359253      0.9352993      0.9236534
      9754.0000         2.4438       525.4502        54.3929       76.78893         1.4683         -56.21      -3.491104      0.9316792       0.943384
      9754.5000         2.3182       576.4893        55.0012       76.61879          1.427       -55.5219      -2.853558      0.9280593      0.9578737
      9755.0000         2.1928       624.7324        55.6083       76.44865         1.3857       -55.2966      -2.678814      0.9244393      0.9618452
      9755.5000         2.0524         652.25        56.2502       76.27851         1.3443       -55.4985      -2.931267      0.9208194      0.9561076
      9756.0000         2.1528       679.7666        56.9059       76.10836          1.303       -55.7001      -3.183418      0.9171991      0.9503769
      9756.5000         2.2711       707.2842        57.2556       75.93822           1.26       -55.9017       -3.43557      0.9135792      0.9446461
      9757.0000         2.3233        731.793        57.3804       75.76807          1.215       -55.7849      -3.369324       0.909959      0.9461517
      9757.5000         2.3756       742.1309         57.505       75.59793           1.17       -55.4583      -3.080795      0.9063389      0.9527092
      9758.0000         2.4279       752.4688        57.6298        75.4278         1.1076       -55.1464      -2.779835      0.9027191      0.9595492
      9758.5000         2.4802       762.8066        57.7545       75.25765         1.0381       -54.8777      -2.522076       0.899099      0.9654074
      9759.0000         2.5186       790.0859        57.7057       75.08751         0.9868       -54.6085      -2.263817      0.8954789      0.9712769
      9759.5000         2.4347       827.5918        57.5837       74.91737         0.9705       -54.3392      -2.005455      0.8918589      0.9771488
      9760.0000         2.3509        870.541        57.4615       74.06666         0.9542         -54.07      -1.747196      0.8737587      0.9830183
      9760.5000          2.267       920.1826        57.3394       73.53402         0.9716       -53.7811      -1.469238      0.8624259      0.9893355
      9761.0000         2.1704       898.0586        57.1827       73.27602         1.0463       -53.5112      -1.210278      0.8569367       0.995221
      9761.5000         2.0642       865.6465        56.8885       72.79218          1.121       -53.3149      -1.024918       0.846642      0.9994337
      9762.0000          2.022       833.1855        56.5943       72.30832         1.1779       -53.6926      -1.413555      0.8363472       0.990601
      9762.5000         2.0684       800.7236        56.3007       71.82545          1.229       -54.0697      -1.801594      0.8260735       0.981782
      9763.0000         2.1324       772.8818        56.0066       71.34181         1.2801        -54.453      -2.195835      0.8157833       0.972822
      9763.5000         2.2076       753.7793        55.6033       70.67873         1.2949       -54.8806      -2.634377      0.8016752      0.9628551
      9764.0000         2.2828       734.7021         55.187       69.99434         1.3076       -55.0678      -2.832516      0.7871136      0.9583519
      9764.5000          2.358       715.5996          54.77       69.30878         1.3152       -54.8201      -2.595757      0.7725273      0.9637328
      9765.0000         2.4331       721.0811        53.8994       67.87811         1.2958       -54.5723      -2.358898      0.7420874       0.969116
