#------------------------------------------------------------------------------
# Created by    : vladimir.rabinovich
# Created on    : 09/19/2023 17:22:39
#------------------------------------------------------------------------------
~Version Information Section
VERS.           2.0     :   CWLS log ASCII Standard - VERSION 2.0
WRAP.           NO      :   One line per depth step
~Well Information Section
#MNEM       .UNIT                                         VALUE :DESCRIPTION
#------------------------------------------------------------------------------
STRT        .FT                                            2600 :START DEPTH
STOP        .FT                                            8208 :STOP DEPTH
STEP        .FT                                             0.5 :STEP      
NULL        .                                           -999.25 :NULL      
COMP        .                          SEAGULL ENERGY E & P INC :COMPANY   
WELL        .                               OCS G09039 ST00BP00 :WELL      
FLD         .                              GALVESTON BLOCK 0273 :FIELD     
LOC         .                                                   :LOCATION  
CNTY        .                             GALVESTON LARGE BLOCK :LOCATION  
STAT        .                                             TEXAS :STATE     
CTRY        .                                     UNITED STATES :COUNTRY   
SRVC        .                                                   :SERVICE COMPANY
DATE        .                             9/13/2023 11:19:54 AM :LOG DATE  
API         .                                    42706403220000 :API NUMBER
UWI         .                                    42706403220000 :UNIQUE WELL ID
XCOORD      .                                  1018306.80056624 :SURFACE X 
YCOORD      .                                  10490966.5196098 :SURFACE Y 
LAT         .                                         28.894284 :LATITUDE  
LON         .                                        -94.944599 :LONGITUDE 
ELEV        .FT                                             103 :ELEVATION VALUE
ELEV_TYPE   .                                                KB :ELEVATION REFERENCE TYPE
~Curve Information Section
#MNEM       .UNIT                                      API CODE :CURVE DESCRIPTION
#------------------------------------------------------------------------------
DEPT        .FT                                                 :DEPTH     
DCAL        .IN                                                 :          
DPHI        .%                                                  :          
DTL         .US/F                                               :          
GR          .GAPI                                               :          
GR_1        .GAPI                                               :          
GR_NORM     .GAPI                                               :GammaRay Normalized
ILD         .OHMM                                               :          
ILM         .OHMM                                               :          
NPHI        .%                                                  :          
SFL         .OHMM                                               :          
SP          .MV                                                 :          
SP_NORM     .MV                                                 :SP Normalized
VSH_GR      .V/V                                                :Volume of Shale from GR
VSH_SP      .V/V                                                :Volume of Shale from SP
~A        DEPTH           DCAL           DPHI            DTL             GR           GR_1        GR_NORM            ILD            ILM           NPHI            SFL             SP        SP_NORM         VSH_GR         VSH_SP
# ...
      7478.0000        -0.0172        24.5802       114.5619        60.2755        67.3738       65.91026         0.9314         0.9233        45.1078         0.8543       -44.6666       -3.16524      0.7002182       0.947246
      7478.5000        -0.1081        23.5015       115.6886         61.287        66.4338       66.98831          0.958         0.9429        44.4777          0.903       -45.1119      -3.639155      0.7231556      0.9393474
      7479.0000        -0.2148        20.9362       116.2661        62.6058        63.3064       68.39359         1.0018         0.9735        41.0552         0.9533       -45.5209      -4.073977       0.753055      0.9321004
      7479.5000        -0.2877        15.3488       110.1792        63.0906        59.1677        68.9108         1.0377          1.038         32.609         0.9615        -46.171      -4.768445      0.7640597      0.9205259
      7480.0000        -0.2679        12.4366        99.3615        59.6723        55.2283       65.27194         1.0677         1.1461        20.5536         1.0054       -47.5748      -6.274585       0.686637      0.8954236
      7480.5000         -0.237         13.264        86.3622        51.3924        54.1422       56.45639         1.0814         1.2473        25.3491         1.7118       -49.2574      -8.080977       0.499072       0.865317
      7481.0000        -0.1218         19.744        79.5205        47.0601        57.7897       51.84429         1.0507         1.2899         33.653         3.3309       -50.0722      -8.952814      0.4009424      0.8507864
      7481.5000         0.0598        22.4783        79.1809        46.3779        67.9717       51.11887         0.9887          1.243        45.2013         2.9771       -50.5848      -9.499205      0.3855079      0.8416799
      7482.0000        -0.0133        23.9819        83.2784        48.1752        77.5237       53.03366         0.9061         1.0162         48.078         2.3496       -50.1117      -8.984065      0.4262482      0.8502656
      7482.5000           -0.1        24.4839        97.8939        59.3861        79.4331       64.97219         0.8225         0.8736        46.0554         0.6776       -48.4482      -7.186965      0.6802594      0.8802173
      7483.0000         0.0031        24.6709       104.9736        66.1362        77.4745        72.1608         0.7689         0.7878        42.7842         0.5775       -46.6027      -5.193862      0.8332084      0.9134356
      7483.5000         0.1104         24.796       115.0874        73.8536        74.8392        80.3794         0.7314         0.7339        41.5639         0.5648       -45.1878      -3.664486              1      0.9389253
      7484.0000         0.1006        25.0429       117.4473        73.8759        72.3146       80.40414         0.7031         0.7233        41.5179         0.6259       -44.5241      -2.944091              1      0.9509318
      7484.5000        -0.2311        25.9185       117.1083        72.1316        73.4047       78.54779         0.7027          0.724         43.244         0.7516       -44.2999      -2.697003      0.9691019      0.9550499
      7485.0000        -0.3897        26.8794       116.5251         70.861        78.3652       77.19584         0.7168          0.733        44.3043         0.8665       -44.3709      -2.767823       0.940337      0.9538696
      7485.5000        -0.5006        26.9479       115.6774        70.8462        80.5515       77.18108         0.7453         0.7571        44.0966         0.8667       -44.4475      -2.844674      0.9400229      0.9525887
      7486.0000        -0.5032        26.5984       115.4097        72.3215        80.4247         78.753         0.7667         0.7742        43.2877         0.8284        -44.527      -2.924647      0.9734681      0.9512559
      7486.5000        -0.5013         26.327       116.1298        74.7418        78.9852       81.33116         0.7844         0.7838        42.8688         0.8091       -44.3437      -2.721607              1      0.9546399
      7487.0000        -0.4876         26.205       117.2627        76.2881        78.6093       82.97868         0.7909         0.7899        42.7661         0.7985        -44.076      -2.427674              1      0.9595388
      7487.5000        -0.4845        26.4041       116.8599        76.8889        79.1722       83.61942         0.7939         0.7952        43.0579         0.8159       -43.8058       -2.13105              1      0.9644825
      7488.0000        -0.5036        26.7346       116.2147          76.79        81.4852       83.51511         0.7859          0.798         44.964         0.8391       -43.5852       -1.88784              1       0.968536
      7488.5000        -0.4963        26.8231       116.2562        76.7687         82.873       83.49343         0.7735          0.793        46.5907          0.855       -43.4686      -1.756631              1      0.9707228
      7489.0000        -0.4487        26.3329       116.9838        76.7919        80.4222       83.51913         0.7593          0.789        45.6461         0.8302       -43.2292      -1.493172              1      0.9751138
      7489.5000        -0.4568        25.6857       117.9097        76.0988        76.9517       82.78212         0.7592         0.7873        44.3547         0.7373       -42.8909      -1.123209              1      0.9812799
      7490.0000        -0.4784        25.1873       118.9049        73.1727        76.0203       79.66735          0.765         0.7899        44.8899         0.6545       -42.5171     -0.7150128      0.9929224      0.9880831
      7490.5000        -0.5131        25.0156        119.514         71.236        77.1201       77.60612         0.7798         0.7927        45.3566         0.6624       -42.2397     -0.4106328      0.9490663      0.9931561
      7491.0000        -0.5479        24.9832       119.8085         69.752        77.7378       76.02693         0.7841         0.7957        45.0381         0.8008       -42.0966     -0.2508838      0.9154666      0.9958186
      7491.5000        -0.5826        25.2041       118.6521        68.7682        75.2501       74.98038         0.7967         0.8057        44.3155         0.8552       -41.9631     -0.1014751      0.8931995      0.9983088
      7492.0000        -0.5878        25.7939       116.2488        68.5276        75.8112       74.72518         0.8152         0.8146        44.3823         0.8281       -41.8422     0.03436456      0.8877698              1
      7492.5000        -0.5227        26.5413       115.8245        69.0254        77.3613       75.25623         0.8245         0.8222        44.3865         0.8067       -41.7145       0.177529      0.8990688              1
      7493.0000        -0.4576        27.1804       115.8407        70.5648        78.3436       76.89641         0.8247         0.8291        43.7429          0.866       -41.5768      0.3314608      0.9339661              1
      7493.5000         -0.495        27.5276       115.6111        73.6957        75.2649       80.23124         0.8164         0.8336         42.897         0.9818       -41.4757      0.4459792              1              1
      7494.0000        -0.6568        27.5211       115.1643        76.5034        71.6256       83.22192         0.7995         0.8328        42.5311         0.9854        -41.452      0.4771476              1              1
      7494.5000        -0.7479        27.0395       114.3574        78.1996        71.6859       85.02907         0.7818         0.8179        43.1001         0.7987       -41.3972      0.5418015              1              1
      7495.0000        -0.7236        26.1999       114.0414        79.1732        72.6019       86.06676         0.7491            0.8        43.4301         0.7059       -41.2642      0.6906762              1              1
      7495.5000        -0.5527        26.0901       113.6918        78.0503        72.5459       84.87209         0.7252         0.7659        42.4936         0.6844       -41.1415      0.8284549              1              1
