#------------------------------------------------------------------------------
# Created by    : vladimir.rabinovich
# Created on    : 09/19/2023 17:21:40
#------------------------------------------------------------------------------
~Version Information Section
VERS.           2.0     :   CWLS log ASCII Standard - VERSION 2.0
WRAP.           NO      :   One line per depth step
~Well Information Section
#MNEM       .UNIT                                         VALUE :DESCRIPTION
#------------------------------------------------------------------------------
STRT        .FT                                             957 :START DEPTH
STOP        .FT                                           10053 :STOP DEPTH
STEP        .FT                                             0.5 :STEP      
NULL        .                                           -999.25 :NULL      
COMP        .                                    EXXON CO U S A :COMPANY   
WELL        .                               OCS G03237 ST00BP00 :WELL      
FLD         .                                           WILDCAT :FIELD     
LOC         .                                                   :LOCATION  
CNTY        .                           HIGH ISLAND LARGE BLOCK :LOCATION  
STAT        .                                             TEXAS :STATE     
CTRY        .                                     UNITED STATES :COUNTRY   
SRVC        .                                                   :SERVICE COMPANY
DATE        .                             9/13/2023 11:20:04 AM :LOG DATE  
API         .                                    42708400420000 :API NUMBER
UWI         .                                    42708400420000 :UNIQUE WELL ID
XCOORD      .                                  1163347.66403634 :SURFACE X 
YCOORD      .                                  10583934.5995257 :SURFACE Y 
LAT         .                                         29.155753 :LATITUDE  
LON         .                                        -94.495054 :LONGITUDE 
ELEV        .FT                                              94 :ELEVATION VALUE
ELEV_TYPE   .                                                KB :ELEVATION REFERENCE TYPE
~Curve Information Section
#MNEM       .UNIT                                      API CODE :CURVE DESCRIPTION
#------------------------------------------------------------------------------
DEPT        .FT                                                 :DEPTH     
CALI        .IN                                                 :          
DRHO        .G/C3                                               :          
DT          .US/F                                               :          
GR          .GAPI                                               :          
GR_1        .GAPI                                               :          
GR_NORM     .GAPI                                               :GammaRay Normalized
ILD         .OHMM                                               :          
NPHI        .%                                                  :          
RHOB        .G/C3                                               :          
SFL         .OHMM                                               :          
SP          .MV                                                 :          
SP_NORM     .MV                                                 :SP Normalized
VSH_GR      .V/V                                                :Volume of Shale from GR
VSH_SP      .V/V                                                :Volume of Shale from SP
~A        DEPTH           CALI           DRHO             DT             GR           GR_1        GR_NORM            ILD           NPHI           RHOB            SFL             SP        SP_NORM         VSH_GR         VSH_SP
# ...
      6447.0000        15.0346         0.0166       124.8091        81.7334        -999.25       81.10505         0.6104        45.5969         2.2973         0.6248       -46.6585      -3.659306              1      0.9614593
      6447.5000        14.9814         0.0138       126.2761        79.7914        -999.25        78.4307         0.6087        44.1077         2.2922         0.6248       -47.2368      -4.239815      0.9666107      0.9530461
      6448.0000        14.8492         0.0135       128.4705        79.2729        -999.25       77.69601         0.6076        43.2488         2.2867         0.6313       -45.8613       -2.86652      0.9509789       0.972949
      6448.5000        14.7074         0.0139       129.0435        78.8593        -999.25       77.10423         0.6092        42.2491         2.2818         0.6431       -45.5675      -2.574924      0.9383879       0.977175
      6449.0000        14.7245         0.0144       126.8051         77.926        -999.25       75.80433          0.608        40.7969         2.2838         0.6491        -43.636     -0.6456299      0.9107304              1
      6449.5000         14.798         0.0147       124.2924        76.8943        -999.25       74.37035         0.6071        40.9237          2.297         0.6504         -42.96     0.02816772      0.8802201              1
      6450.0000        14.8739         0.0123        122.387        75.6012        -999.25       72.58016         0.6066        41.9124         2.3082         0.6465       -43.3126     -0.3266373      0.8421311              1
      6450.5000         14.942         0.0147        121.528        74.7255        -999.25       71.35875         0.6081        43.6122         2.3154         0.6404       -41.9164       1.067352      0.8161436              1
      6451.0000        14.9899         0.0183       121.4601        75.3448        -999.25       72.17437         0.6105        44.1573          2.323         0.6392       -42.9799    0.001647949      0.8334972              1
      6451.5000        14.9553         0.0209       121.9584        74.8741        -999.25       71.50481         0.6129        43.6174          2.315         0.6504       -43.2736     -0.2942581      0.8192512              1
      6452.0000        14.8375         0.0234        122.368        72.9927        -999.25       68.91303         0.6153        43.5078         2.3182         0.6707       -43.9373     -0.9601631       0.764107              1
      6452.5000        14.8088         0.0223       120.8123        71.8198        -999.25       67.28664         0.6178        42.9492         2.3208         0.6977       -46.6709      -3.695965       0.729503       0.960928
      6453.0000        14.8501         0.0198       117.8464         71.429        -999.25       66.72593         0.6202        41.9531         2.3183         0.7253       -44.7042      -1.731476       0.717573      0.9893989
      6453.5000        14.9527         0.0154       115.6277        71.9517        -999.25       67.40993         0.6228        41.1254         2.3211         0.6851       -42.6953       0.275219      0.7321263              1
      6454.0000        15.0645         0.0168       115.2872        72.3325        -999.25       67.90059         0.6279        40.5745         2.3342         0.6611       -40.0786       2.889713      0.7425658              1
      6454.5000        15.1734          0.023       116.1982        72.5648        -999.25        68.1889         0.6348        40.5785         2.3453         0.6532       -38.9697        3.99641      0.7487001              1
      6455.0000         15.157         0.0359        116.854        72.2148        -999.25       67.68379          0.647        40.8236         2.3555         0.6581       -39.1066       3.857304       0.737953              1
      6455.5000        15.0343         0.0401       116.9551         71.764        -999.25       67.04131         0.6572        41.1892         2.3622         0.6732       -39.8751       3.086597      0.7242833              1
      6456.0000        14.9025         0.0338       115.6007        71.0197        -999.25       65.99894         0.6656        41.3745         2.3575         0.6986       -41.3928       1.566692      0.7021051              1
      6456.5000        14.8732         0.0294       113.1174        70.6877        -999.25       65.51835         0.6701         41.662         2.3579         0.7286       -42.5234      0.4338875      0.6918797              1
      6457.0000        14.8698         0.0288       111.3529        71.4531        -999.25       66.53305         0.6704        41.9539         2.3711         0.7189       -41.2073       1.747784      0.7134691              1
      6457.5000         14.889         0.0343       112.0055        71.9851        -999.25       67.22974         0.6599        42.2831         2.3845         0.6685       -41.5574       1.395477      0.7282923              1
      6458.0000        14.9064         0.0406       113.6904        72.2537        -999.25        67.5675         0.6467        41.8882         2.3781         0.6519       -45.9683      -3.017628      0.7354786       0.970759
      6458.5000        14.8625         0.0438       115.0864        72.2438        -999.25       67.52579         0.6277        41.5955         2.3638          0.656       -46.3765      -3.428036      0.7345914      0.9648111
      6459.0000        14.6673         0.0441       115.8389        71.3776        -999.25       66.31731         0.6004        41.4743         2.3636         0.6592       -46.4573       -3.51104      0.7088789      0.9636081
      6459.5000        14.5827         0.0408       114.9774        70.2294        -999.25       64.72458         0.5625        41.4702         2.3251         0.6623       -47.6307      -4.686646       0.674991      0.9465703
      6460.0000        14.5601         0.0375       114.1257         68.826        -999.25       62.78413         0.5253        41.6424         2.2856         0.6726       -50.3892       -7.44735      0.6337049      0.9065601
      6460.5000        14.5244         0.0342       114.1613         67.061        -999.25       60.35096         0.5015        40.7361         2.2748         0.6883       -57.5634      -14.62376      0.5819354      0.8025542
      6461.0000        14.3844         0.0369       115.2101        65.2422        -999.25       57.84451         0.4841        39.7393          2.231         0.7007       -64.5844      -21.64696      0.5286065      0.7007686
      6461.5000        14.1937         0.0349       116.5166        65.6169        -999.25       58.32684         0.4699        39.5166         2.2126         0.6266        -66.292      -23.35677      0.5388689      0.6759889
      6462.0000        14.1008         0.0281       118.0179        66.5582        -999.25       59.58121         0.4572        39.2186         2.2232         0.5679       -63.9559      -21.02287      0.5655577      0.7098134
      6462.5000        14.1321         0.0217       117.4767        67.1708        -999.25       60.38771         0.4506        37.8094         2.2568         0.5806        -56.616      -13.68518      0.5827173      0.8161568
      6463.0000        14.2737         0.0188       115.5591        67.2961        -999.25       60.53023         0.4482        35.9694          2.279         0.6206       -55.4044      -12.47578      0.5857496      0.8336843
      6463.5000         14.287         0.0245       113.7101        67.6147        -999.25       60.93613         0.4492        35.4962         2.2921          0.659       -54.8365      -11.91009      0.5943857      0.8418828
      6464.0000        14.1906           0.03        112.738         68.981        -999.25        62.7696         0.4526        35.4264         2.2956         0.6981       -59.2308       -16.3066      0.6333957      0.7781652
      6464.5000        14.2587         0.0353       112.9894        70.5911        -999.25       64.93529         0.4585        35.6405         2.2964         0.7284       -61.9125       -18.9905      0.6794742      0.7392681
