#------------------------------------------------------------------------------
# Created by    : vladimir.rabinovich
# Created on    : 09/19/2023 17:22:50
#------------------------------------------------------------------------------
~Version Information Section
VERS.           2.0     :   CWLS log ASCII Standard - VERSION 2.0
WRAP.           NO      :   One line per depth step
~Well Information Section
#MNEM       .UNIT                                         VALUE :DESCRIPTION
#------------------------------------------------------------------------------
STRT        .FT                                            1142 :START DEPTH
STOP        .FT                                           15630 :STOP DEPTH
STEP        .FT                                             0.5 :STEP      
NULL        .                                           -999.25 :NULL      
COMP        .                                     PRIMARY FUELS :COMPANY   
WELL        .                                ST TR 00520-L SE/4 :WELL      
FLD         .                                          EL GORDO :FIELD     
LOC         .                                                   :LOCATION  
CNTY        .                      MATAGORDA ISLAND LARGE BLOCK :LOCATION  
STAT        .                                             TEXAS :STATE     
CTRY        .                                     UNITED STATES :COUNTRY   
SRVC        .                                                   :SERVICE COMPANY
DATE        .                             9/13/2023 11:19:05 AM :LOG DATE  
API         .                                    42703303520000 :API NUMBER
UWI         .                                    42703303520000 :UNIQUE WELL ID
XCOORD      .                                  629148.716839967 :SURFACE X 
YCOORD      .                                   10306131.761235 :SURFACE Y 
LAT         .                                        28.3634759 :LATITUDE  
LON         .                                       -96.1446235 :LONGITUDE 
ELEV        .FT                                             101 :ELEVATION VALUE
ELEV_TYPE   .                                                KB :ELEVATION REFERENCE TYPE
~Curve Information Section
#MNEM       .UNIT                                      API CODE :CURVE DESCRIPTION
#------------------------------------------------------------------------------
DEPT        .FT                                                 :DEPTH     
DT          .US/F                                               :          
ILD         .OHMM                                               :          
SP          .MV                                                 :          
SP_NORM     .MV                                                 :SP Normalized
VSH_SP      .V/V                                                :Volume of Shale from SP
~A        DEPTH             DT            ILD             SP        SP_NORM         VSH_SP
# ...
     12670.0000        88.5833         1.1317        122.661      -3.539124       0.956964
     12670.5000        90.0203         1.1661        122.733      -3.480797      0.9579526
     12671.0000        89.9701         1.2075       122.8795      -3.347969      0.9602039
     12671.5000        86.2435         1.2613       123.0688      -3.172333      0.9631808
     12672.0000        82.9283         1.3408       123.2323      -3.022507      0.9657202
     12672.5000        81.0876         1.4273       123.3163      -2.952179      0.9669122
     12673.0000         80.218         1.5271       122.9293      -3.352852      0.9601212
     12673.5000        80.4131         1.6062       122.1934      -4.102425      0.9474165
     12674.0000        80.4601         1.6719       121.3933      -4.916191      0.9336239
     12674.5000        80.4161         1.7324       120.5784      -5.744766      0.9195802
     12675.0000        80.0494          1.787       120.0103      -6.326538      0.9097197
     12675.5000        79.2545         1.8312       119.7069      -6.643608      0.9043456
     12676.0000        78.6238         1.8765       119.5988      -6.765381      0.9022817
     12676.5000        79.2695         1.9207       118.8655      -7.512352      0.8896211
     12677.0000        80.3529         1.9646        117.401      -8.990524      0.8645674
     12677.5000        80.8344          1.927       115.6003      -10.80489      0.8338153
     12678.0000        80.2902          1.866       113.6293      -12.78957      0.8001769
     12678.5000        79.2018         1.8013       111.2368      -15.19574      0.7593942
     12679.0000        78.2413          1.739       112.5057      -13.94051      0.7806693
     12679.5000        78.2639         1.7515       114.4769      -11.98299      0.8138477
     12680.0000        80.3553         1.8045       116.0668      -10.40675      0.8405635
     12680.5000        82.4719         1.8388       116.8016      -9.685631      0.8527859
     12681.0000        84.5232         1.8586       115.5352       -10.9657      0.8310899
     12681.5000        81.7296         1.8509       114.1383      -12.37627      0.8071818
     12682.0000        78.0082         1.8197       112.5559      -13.97234      0.7801298
     12682.5000        75.0339         1.7945       112.9622      -13.57972      0.7867844
     12683.0000        76.8496         1.8367       114.1333      -12.42229      0.8064019
     12683.5000        78.5072         1.8738       115.3044      -11.26486      0.8260193
     12684.0000        79.5529         1.8623       116.2587      -10.32423      0.8419623
     12684.5000        78.8871           1.78       117.0599      -9.536697      0.8553102
     12685.0000        78.3855         1.6977        117.895      -8.715271      0.8692327
     12685.5000        77.8865         1.6744       118.7753       -7.84864      0.8839213
     12686.0000        78.6727         1.6562       119.5878      -7.049812      0.8974608
     12686.5000        79.7548         1.6382       120.3413      -6.309982      0.9100003
     12687.0000        80.5836         1.6216       121.0416      -5.623352      0.9216381
     12687.5000        81.0155         1.5975       121.3583      -5.320328      0.9267741
     12688.0000         81.307         1.5576       121.6768      -5.015495      0.9319407
     12688.5000         82.097         1.5133        122.051      -4.654968      0.9380514
     12689.0000        82.8944         1.5093       122.4247      -4.294945      0.9441535
     12689.5000        82.8444         1.5013       122.7532      -3.980118      0.9494895
     12690.0000        82.0731         1.4737       123.0247       -3.72229      0.9538595
     12690.5000        81.4739         1.4161       123.2961      -3.464561      0.9582278
     12691.0000         82.349         1.3603       123.5082      -3.266129      0.9615911
     12691.5000        83.1841         1.2896       123.6008      -3.187202      0.9629288
     12692.0000        83.9728         1.2225       123.6935      -3.108177      0.9642682
     12692.5000        84.7615          1.151       123.7544      -3.060944      0.9650688
     12693.0000        85.7395         1.0832       123.7274      -3.101616      0.9643794
     12693.5000        87.4523         1.0413       123.7003      -3.142387      0.9636884
     12694.0000         90.286          1.001       123.5061      -3.350258      0.9601651
     12694.5000        93.9774         0.9722       123.2014      -3.668633       0.954769
     12695.0000        97.6888         0.9473       122.7526      -4.131104      0.9469305
     12695.5000        99.1033         0.9489       123.3269       -3.57048      0.9564325
     12696.0000        93.8571         0.9521       123.8384      -3.072639      0.9648705
     12696.5000        88.9419         0.9588       124.2961      -2.628616      0.9723963
     12697.0000        85.2053         0.9931       124.4679      -2.470482      0.9750766
     12697.5000        83.6105         1.0476        124.182      -2.770058       0.969999
     12698.0000         86.058         1.1308       123.7814      -3.184326      0.9629775
     12698.5000        87.8285         1.2272       123.3707      -3.608704      0.9557847
     12699.0000        88.4303         1.3333       122.9331      -4.059975       0.948136
     12699.5000        86.3087         1.4497       122.4705      -4.536247      0.9400636
     12700.0000        80.6462         1.5927       122.0078      -5.012619      0.9319895
     12700.5000        76.2227         1.7526       121.5238      -5.510284      0.9235545
     12701.0000        73.0428         1.9233       121.0372      -6.010559      0.9150752
     12701.5000         70.693         1.9509       120.5682      -6.493233      0.9068944
     12702.0000        70.3947          1.846       120.8505      -6.224602      0.9114474
     12702.5000        74.5875         1.7467       121.4033      -5.685478      0.9205851
     12703.0000        80.3553         1.5772       122.1708      -4.931648      0.9333619
     12703.5000        85.8523           1.43       122.9381      -4.178017      0.9461353
     12704.0000         90.276         1.3125       123.3457      -3.784088      0.9528121
     12704.5000         94.489         1.2403       123.6246       -3.51886      0.9573075
     12705.0000        94.7297         1.1694         123.66      -3.497131      0.9576758
     12705.5000         92.879         1.0773       123.5728      -3.598007       0.955966
     12706.0000        91.0283         1.0536       123.4779      -3.706581      0.9541258
     12706.5000        89.2178         1.1239       123.2134      -3.984749       0.949411
     12707.0000        87.4272          1.208       122.9495      -4.262321      0.9447064
     12707.5000        85.5966         1.3034       122.6498      -4.575691      0.9393951
     12708.0000        83.6405         1.4076       122.2021      -5.037056      0.9315753
     12708.5000        81.5391         1.5202       121.7545      -5.498329      0.9237571
     12709.0000        78.7805         1.6176       121.3495         -5.917       0.916661
     12709.5000        76.4734         1.7105       121.0254      -6.254776       0.910936
     12710.0000        74.8596         1.7853       120.8009      -6.492943      0.9068993
     12710.5000        75.6007          1.849        121.073       -6.23452      0.9112793
     12711.0000        77.9279         1.8291       121.6366      -5.684593      0.9206001
     12711.5000        80.5009         1.7956       122.2372      -5.097664      0.9305481
     12712.0000        82.2412         1.6517       122.8365      -4.512032       0.940474
     12712.5000        82.7101         1.5205       122.9779      -4.384308      0.9426389
     12713.0000        82.4719         1.4001       123.0063      -4.369576      0.9428886
     12713.5000        81.5992         1.3392       123.0348      -4.354752      0.9431398
