#------------------------------------------------------------------------------
# Created by    : vladimir.rabinovich
# Created on    : 09/19/2023 17:21:40
#------------------------------------------------------------------------------
~Version Information Section
VERS.           2.0     :   CWLS log ASCII Standard - VERSION 2.0
WRAP.           NO      :   One line per depth step
~Well Information Section
#MNEM       .UNIT                                         VALUE :DESCRIPTION
#------------------------------------------------------------------------------
STRT        .FT                                             957 :START DEPTH
STOP        .FT                                           10053 :STOP DEPTH
STEP        .FT                                             0.5 :STEP      
NULL        .                                           -999.25 :NULL      
COMP        .                                    EXXON CO U S A :COMPANY   
WELL        .                               OCS G03237 ST00BP00 :WELL      
FLD         .                                           WILDCAT :FIELD     
LOC         .                                                   :LOCATION  
CNTY        .                           HIGH ISLAND LARGE BLOCK :LOCATION  
STAT        .                                             TEXAS :STATE     
CTRY        .                                     UNITED STATES :COUNTRY   
SRVC        .                                                   :SERVICE COMPANY
DATE        .                             9/13/2023 11:20:04 AM :LOG DATE  
API         .                                    42708400420000 :API NUMBER
UWI         .                                    42708400420000 :UNIQUE WELL ID
XCOORD      .                                  1163347.66403634 :SURFACE X 
YCOORD      .                                  10583934.5995257 :SURFACE Y 
LAT         .                                         29.155753 :LATITUDE  
LON         .                                        -94.495054 :LONGITUDE 
ELEV        .FT                                              94 :ELEVATION VALUE
ELEV_TYPE   .                                                KB :ELEVATION REFERENCE TYPE
~Curve Information Section
#MNEM       .UNIT                                      API CODE :CURVE DESCRIPTION
#------------------------------------------------------------------------------
DEPT        .FT                                                 :DEPTH     
CALI        .IN                                                 :          
DRHO        .G/C3                                               :          
DT          .US/F                                               :          
GR          .GAPI                                               :          
GR_1        .GAPI                                               :          
GR_NORM     .GAPI                                               :GammaRay Normalized
ILD         .OHMM                                               :          
NPHI        .%                                                  :          
RHOB        .G/C3                                               :          
SFL         .OHMM                                               :          
SP          .MV                                                 :          
SP_NORM     .MV                                                 :SP Normalized
VSH_GR      .V/V                                                :Volume of Shale from GR
VSH_SP      .V/V                                                :Volume of Shale from SP
~A        DEPTH           CALI           DRHO             DT             GR           GR_1        GR_NORM            ILD           NPHI           RHOB            SFL             SP        SP_NORM         VSH_GR         VSH_SP
# ...
      2271.0000        -999.25        -999.25        -999.25        -999.25        98.2454        81.4934         0.6755        -999.25        -999.25         0.7126       -59.4758      -2.039104              1      0.9986034
      2271.5000        -999.25        -999.25        -999.25        -999.25         99.264       82.31744         0.6601        -999.25        -999.25         0.6767       -59.4471      -1.999237              1              1
      2272.0000        -999.25        -999.25        -999.25        -999.25        99.8358       82.77868         0.6466        -999.25        -999.25         0.6458       -59.5597      -2.100666              1      0.9964048
      2272.5000        -999.25        -999.25        -999.25        -999.25       100.3549       83.19714         0.6403        -999.25        -999.25         0.6106        -59.658      -2.187798              1      0.9932929
      2273.0000        -999.25        -999.25        -999.25        -999.25       101.0334       83.74504         0.6303        -999.25        -999.25         0.5803       -59.8768      -2.395428              1      0.9858776
      2273.5000        -999.25        -999.25        -999.25        -999.25       101.7604        84.3323         0.6188        -999.25        -999.25         0.5567       -60.2749      -2.782356              1      0.9720587
      2274.0000        -999.25        -999.25        -999.25        -999.25       102.4496       84.88889          0.607        -999.25        -999.25         0.5597       -60.4935      -2.989792              1      0.9646503
      2274.5000        -999.25        -999.25        -999.25        -999.25       102.9274       85.27379         0.5987        -999.25        -999.25         0.5661       -59.5836      -2.068722              1      0.9975457
      2275.0000        -999.25        -999.25        -999.25        -999.25       103.1388       85.44241         0.5911        -999.25        -999.25         0.5656       -59.3279      -1.801853              1              1
      2275.5000        -999.25        -999.25        -999.25        -999.25       103.2684       85.54461         0.5865        -999.25        -999.25         0.5611       -59.3634      -1.826183              1              1
      2276.0000        -999.25        -999.25        -999.25        -999.25       103.2625       85.53677         0.5831        -999.25        -999.25          0.553       -59.5022      -1.953815              1              1
      2276.5000        -999.25        -999.25        -999.25        -999.25       103.1023       85.40365         0.5798        -999.25        -999.25         0.5529       -59.6907      -2.131145              1      0.9953162
      2277.0000        -999.25        -999.25        -999.25        -999.25       102.7156       85.08662         0.5751        -999.25        -999.25         0.5511       -59.9868       -2.41608              1        0.98514
      2277.5000        -999.25        -999.25        -999.25        -999.25       101.5121       84.10636         0.5694        -999.25        -999.25         0.5493        -60.249       -2.66711              1      0.9761747
      2278.0000        -999.25        -999.25        -999.25        -999.25       100.9802       83.67143         0.5674        -999.25        -999.25         0.5457       -60.5471      -2.954041              1      0.9659271
      2278.5000        -999.25        -999.25        -999.25        -999.25       102.5624       84.95311         0.5646        -999.25        -999.25         0.5426       -60.6228       -3.01857              1      0.9636225
      2279.0000        -999.25        -999.25        -999.25        -999.25       102.1923       84.64956         0.5616        -999.25        -999.25         0.5402       -60.6901      -3.074703              1      0.9616178
      2279.5000        -999.25        -999.25        -999.25        -999.25       101.3391       83.95373         0.5584        -999.25        -999.25           0.54       -60.6841      -3.057533              1       0.962231
      2280.0000        -999.25        -999.25        -999.25        -999.25       103.3219       85.56068         0.5551        -999.25        -999.25         0.5385       -60.7191      -3.081367              1      0.9613797
      2280.5000        -999.25        -999.25        -999.25        -999.25        105.072       86.97868          0.553        -999.25        -999.25         0.5376       -60.6038      -2.954899              1      0.9658965
      2281.0000        -999.25        -999.25        -999.25        -999.25       104.7695       86.73002         0.5519        -999.25        -999.25         0.5353       -60.5869      -2.926826              1       0.966899
      2281.5000        -999.25        -999.25        -999.25        -999.25       104.2808       86.33015         0.5478        -999.25        -999.25         0.5341       -60.4852      -2.813957              1      0.9709301
      2282.0000        -999.25        -999.25        -999.25        -999.25       103.4548       85.65643         0.5448        -999.25        -999.25         0.5357       -60.3436       -2.66119              1      0.9763861
      2282.5000        -999.25        -999.25        -999.25        -999.25       102.4827       84.86405          0.539        -999.25        -999.25         0.5382       -60.1548       -2.46122              1      0.9835278
      2283.0000        -999.25        -999.25        -999.25        -999.25       101.4557       84.02712         0.5355        -999.25        -999.25         0.5424       -59.8899      -2.185154              1      0.9933873
      2283.5000        -999.25        -999.25        -999.25        -999.25       100.6404       83.36208         0.5356        -999.25        -999.25         0.5435       -59.4143      -1.698383              1              1
      2284.0000        -999.25        -999.25        -999.25        -999.25       101.1736       83.79198         0.5348        -999.25        -999.25         0.5436       -58.6471     -0.9200134              1              1
      2284.5000        -999.25        -999.25        -999.25        -999.25       102.5153       84.87837         0.5363        -999.25        -999.25         0.5457       -57.7556    -0.01734543              1              1
      2285.0000        -999.25        -999.25        -999.25        -999.25       103.4874       85.66466         0.5377        -999.25        -999.25         0.5461       -57.7809    -0.03147507              1              1
      2285.5000        -999.25        -999.25        -999.25        -999.25       104.0986       86.15789         0.5402        -999.25        -999.25         0.5475       -58.5951      -0.834507              1              1
      2286.0000        -999.25        -999.25        -999.25        -999.25       104.0505       86.11581         0.5411        -999.25        -999.25         0.5507       -58.8939      -1.122143              1              1
      2286.5000        -999.25        -999.25        -999.25        -999.25       103.2905       85.49566         0.5397        -999.25        -999.25         0.5526       -59.0529       -1.26997              1              1
      2287.0000        -999.25        -999.25        -999.25        -999.25       102.2744       84.66756         0.5383        -999.25        -999.25         0.5544       -59.2329      -1.438801              1              1
      2287.5000        -999.25        -999.25        -999.25        -999.25       102.2078       84.61045         0.5378        -999.25        -999.25         0.5559       -59.4342      -1.628933              1              1
      2288.0000        -999.25        -999.25        -999.25        -999.25       104.2711       86.28277         0.5418        -999.25        -999.25         0.5579       -59.6243      -1.807861              1              1
      2288.5000        -999.25        -999.25        -999.25        -999.25        106.177       87.82728          0.542        -999.25        -999.25         0.5591       -59.7081      -1.880493              1              1
