#------------------------------------------------------------------------------
# Created by    : vladimir.rabinovich
# Created on    : 09/19/2023 17:20:49
#------------------------------------------------------------------------------
~Version Information Section
VERS.           2.0     :   CWLS log ASCII Standard - VERSION 2.0
WRAP.           NO      :   One line per depth step
~Well Information Section
#MNEM       .UNIT                                         VALUE :DESCRIPTION
#------------------------------------------------------------------------------
STRT        .FT                                             507 :START DEPTH
STOP        .FT                                            6530 :STOP DEPTH
STEP        .FT                                             0.5 :STEP      
NULL        .                                           -999.25 :NULL      
COMP        .                                      SHELL OIL CO :COMPANY   
WELL        .                                ST TR 00692-L SE/4 :WELL      
FLD         .                                           WILDCAT :FIELD     
LOC         .                                                   :LOCATION  
CNTY        .                      MATAGORDA ISLAND LARGE BLOCK :LOCATION  
STAT        .                                             TEXAS :STATE     
CTRY        .                                     UNITED STATES :COUNTRY   
SRVC        .                                                   :SERVICE COMPANY
DATE        .                             9/13/2023 11:12:05 AM :LOG DATE  
API         .                                    42703000180000 :API NUMBER
UWI         .                                    42703000180000 :UNIQUE WELL ID
XCOORD      .                                  399042.886430441 :SURFACE X 
YCOORD      .                                  10159669.4462586 :SURFACE Y 
LAT         .                                        27.9430215 :LATITUDE  
LON         .                                       -96.8445442 :LONGITUDE 
ELEV        .FT                                              84 :ELEVATION VALUE
ELEV_TYPE   .                                                DF :ELEVATION REFERENCE TYPE
~Curve Information Section
#MNEM       .UNIT                                      API CODE :CURVE DESCRIPTION
#------------------------------------------------------------------------------
DEPT        .FT                                                 :DEPTH     
ASN         .OHMM                                               :          
CILD        .MMHO                                               :          
ILD         .OHMM                                               :          
SP          .MV                                                 :          
SP_NORM     .MV                                                 :SP Normalized
VSH_SP      .V/V                                                :Volume of Shale from SP
~A        DEPTH            ASN           CILD            ILD             SP        SP_NORM         VSH_SP
# ...
      2901.0000         0.9734       2937.805         0.3429       -73.8894       -35.0659      0.3246544
      2901.5000         0.9832       2934.273         0.3425       -75.3854       -36.5683      0.2919935
      2902.0000          0.993       2929.074         0.3422       -76.6869       -37.8763      0.2635587
      2902.5000         1.0028       2922.332         0.3418       -78.1351        -39.331      0.2319348
      2903.0000         0.9977       2915.594         0.3415        -79.374       -40.5763       0.204863
      2903.5000         0.9796       2908.855         0.3411        -80.624       -41.8328      0.1775478
      2904.0000          0.961       2905.273         0.3408       -80.9872       -42.2024       0.169513
      2904.5000         0.9473       2908.918         0.3375       -80.2032       -41.4249      0.1864152
      2905.0000         0.9351       2923.047         0.3325       -78.7871       -40.0152      0.2170608
      2905.5000          0.923       2936.613         0.3275       -77.3704        -38.605      0.2477174
      2906.0000         0.9108       2949.316         0.3224       -76.4203       -37.6613      0.2682326
      2906.5000         0.8986       2962.016         0.3174        -75.474       -36.7215       0.288663
      2907.0000         0.8864       2974.457         0.3124       -74.4713       -35.7252      0.3103217
      2907.5000          0.876       2986.059         0.3074       -74.8894       -36.1498      0.3010913
      2908.0000         0.8961       2988.449         0.3023       -77.2185       -38.4854      0.2503174
      2908.5000         0.9061       2976.684         0.2973       -78.8435       -40.1168      0.2148522
      2909.0000         0.8941        2964.91         0.2923       -80.1716       -41.4514      0.1858391
      2909.5000          0.856       2953.137         0.2873       -81.1656       -42.4518      0.1640913
      2910.0000         0.8179       2915.324         0.2819       -82.1591       -43.4518      0.1423521
      2910.5000         0.7855       2903.555         0.2742       -83.0175       -44.3166      0.1235522
      2911.0000          0.753        2926.84         0.2666       -83.2471       -44.5527      0.1184196
      2911.5000         0.7206        3137.25         0.2589        -81.799        -43.111      0.1497609
      2912.0000         0.7054        3302.43         0.2513       -80.6053       -41.9238      0.1755695
      2912.5000         0.6908       3467.605         0.2443       -79.4224       -40.7473      0.2011457
      2913.0000         0.6809       3632.785         0.2378       -78.2231       -39.5545      0.2270761
      2913.5000         0.6736       3488.316         0.2388       -77.3726       -38.7105      0.2454239
      2914.0000         0.6775       3255.363         0.2688       -77.0923       -38.4366      0.2513783
      2914.5000         0.6964        3022.41         0.3177       -76.9169       -38.2677        0.25505
      2915.0000         0.7195       2789.359         0.3777       -76.7778        -38.135      0.2579348
      2915.5000          0.748       2556.406         0.4615       -76.6584       -38.0221      0.2603891
      2916.0000         0.7765       2323.453         0.5576       -75.0768       -36.4469      0.2946326
      2916.5000         0.8028         2090.5         0.7866       -67.9647       -29.3413      0.4491022
      2917.0000         0.8132       1929.875         0.8197       -60.8527       -22.2357      0.6035717
      2917.5000         0.8233       1814.688         0.8115       -53.7407       -15.1302      0.7580391
      2918.0000         0.8318       1699.438         0.8034       -46.6286        -8.0246      0.9125087
      2918.5000         0.8402        1584.25         0.7952       -43.5268        -4.9292         0.9798
      2919.0000         0.8487           1469         0.7871       -43.4704        -4.8793      0.9808848
      2919.5000         0.9144        1353.75         0.7789       -45.1028        -6.5181      0.9452587
      2920.0000         0.9135       1238.563         0.7708       -45.7405        -7.1623      0.9312543
      2920.5000         0.9171       1170.391         0.7595       -44.8955        -6.3237      0.9494848
      2921.0000         0.9229       1187.602         0.7368        -44.154        -5.5887       0.965463
      2921.5000         0.9287       1205.906         0.7142       -43.5993        -5.0404      0.9773826
      2922.0000         0.9345       1229.887         0.6915       -43.0447        -4.4923      0.9892978
      2922.5000         0.9403       1265.385         0.6709       -42.4903        -3.9443              1
      2923.0000         0.9461       1298.924         0.6563       -41.9357        -3.3962              1
      2923.5000         0.9519       1326.693         0.6418       -41.6492        -3.1162              1
      2924.0000         0.9577       1358.514         0.6273       -41.4445        -2.9179              1
      2924.5000          0.978       1406.668         0.6127       -41.3125        -2.7924              1
      2925.0000         1.0216       1441.572         0.6021       -45.3594        -6.8457      0.9381369
      2925.5000         1.0652       1484.428         0.5933       -52.2285       -13.7213      0.7886674
      2926.0000         1.1078       1550.865         0.5845        -55.932       -17.4312      0.7080174
      2926.5000         1.1421       1601.572         0.5757       -58.1879       -19.6936      0.6588348
      2927.0000         1.1881       1618.115         0.5753       -60.8676       -22.3797      0.6004413
      2927.5000         1.3015        1620.76          0.578       -64.8772       -26.3958      0.5131348
      2928.0000         1.3087       1624.281         0.5808       -65.4026       -26.9277      0.5015717
      2928.5000         1.3087       1634.326         0.5835       -65.6316       -27.1631      0.4964544
      2929.0000         1.3087       1644.365         0.5863       -65.8123       -27.3503      0.4923848
      2929.5000         1.3087       1637.578          0.589       -66.0656         -27.61      0.4867391
      2930.0000         1.3088       1614.367         0.5918       -67.4219       -28.9728      0.4571131
      2930.5000         1.3081       1599.051         0.5946        -65.218       -26.7753      0.5048848
      2931.0000         1.3058       1583.885         0.5973       -63.7957       -25.3595       0.535663
      2931.5000         1.2335        1575.24         0.5995       -62.7195       -24.2897      0.5589195
      2932.0000         1.0695       1587.496         0.6016       -61.3279       -22.9046      0.5890304
      2932.5000         1.0059       1599.752         0.6037       -58.9875       -20.5706      0.6397696
      2933.0000         0.9568           1612         0.6058       -55.1245       -16.7141      0.7236065
      2933.5000         0.9119       1624.256         0.6079       -53.4593       -15.0554      0.7596652
      2934.0000         0.8688       1636.512           0.61       -51.7885        -13.391      0.7958478
      2934.5000         0.8371         1641.4         0.6098       -51.0332       -12.6422      0.8121261
      2935.0000         0.8093       1644.623         0.6092       -50.5988       -12.2142      0.8214304
      2935.5000         0.7833       1647.846         0.6087       -50.2283       -11.8502      0.8293435
      2936.0000         0.7609       1657.414         0.6082       -49.8376       -11.4659      0.8376978
      2936.5000         0.7483       1671.453         0.6076       -49.3472        -10.982      0.8482174
      2937.0000         0.7419       1748.207         0.6071       -48.8448        -10.486          0.859
      2937.5000         0.7361       1744.641         0.6027       -48.1585        -9.8062      0.8737783
      2938.0000         0.7308       1726.582          0.597       -47.1903        -8.8444      0.8946869
      2938.5000         0.7275       1702.641         0.5914       -46.3641        -8.0247      0.9125065
