#------------------------------------------------------------------------------
# Created by    : vladimir.rabinovich
# Created on    : 09/19/2023 17:21:15
#------------------------------------------------------------------------------
~Version Information Section
VERS.           2.0     :   CWLS log ASCII Standard - VERSION 2.0
WRAP.           NO      :   One line per depth step
~Well Information Section
#MNEM       .UNIT                                         VALUE :DESCRIPTION
#------------------------------------------------------------------------------
STRT        .FT                                            2893 :START DEPTH
STOP        .FT                                           11505 :STOP DEPTH
STEP        .FT                                             0.5 :STEP      
NULL        .                                           -999.25 :NULL      
COMP        .                               SEAGULL ENERGY CORP :COMPANY   
WELL        .                               OCS G06105 ST00BP00 :WELL      
FLD         .                              GALVESTON BLOCK 0343 :FIELD     
LOC         .                                                   :LOCATION  
CNTY        .                             GALVESTON LARGE BLOCK :LOCATION  
STAT        .                                             TEXAS :STATE     
CTRY        .                                     UNITED STATES :COUNTRY   
SRVC        .                                                   :SERVICE COMPANY
DATE        .                             9/13/2023 11:19:54 AM :LOG DATE  
API         .                                    42706403720000 :API NUMBER
UWI         .                                    42706403720000 :UNIQUE WELL ID
XCOORD      .                                  915246.934514234 :SURFACE X 
YCOORD      .                                  10428990.3748243 :SURFACE Y 
LAT         .                                         28.718869 :LATITUDE  
LON         .                                        -95.262866 :LONGITUDE 
ELEV        .FT                                              96 :ELEVATION VALUE
ELEV_TYPE   .                                                KB :ELEVATION REFERENCE TYPE
~Curve Information Section
#MNEM       .UNIT                                      API CODE :CURVE DESCRIPTION
#------------------------------------------------------------------------------
DEPT        .FT                                                 :DEPTH     
CAL         .IN                                                 :          
CNCSS       .%                                                  :          
CORR        .G/CM3                                              :          
DT24        .US/FT                                              :          
GR_NORM     .GAPI                                               :GammaRay Normalized
GRR         .GAPI                                               :          
ILD         .OHMM                                               :          
ILM         .OHMM                                               :          
PORDSS      .%                                                  :          
RFOC        .OHMM                                               :          
SP          .MV                                                 :          
SP_NORM     .MV                                                 :SP Normalized
VSH_GR      .V/V                                                :Volume of Shale from GR
VSH_SP      .V/V                                                :Volume of Shale from SP
~A        DEPTH            CAL          CNCSS           CORR           DT24        GR_NORM            GRR            ILD            ILM         PORDSS           RFOC             SP        SP_NORM         VSH_GR         VSH_SP
# ...
      2983.0000          15.13        56.8846         -0.096       133.6735       72.11422           31.2          0.981         0.7627        55.2692            0.9        -7.0588       -10.9804      0.8322175      0.8431371
      2983.5000          15.17        56.8846         -0.084       137.7551       71.65508           31.4              1         0.7774        57.2308         0.9352        -7.3529       -11.2745      0.8224484      0.8389357
      2984.0000          15.33        56.6538         -0.068        142.549       71.19595           31.6         1.0274         0.7924        57.1154          0.981        -7.9412       -11.8628      0.8126799      0.8305314
      2984.5000        16.2892        56.6538         -0.096            160       69.67583           31.2              1            0.8        55.3846         0.9442            -10       -13.9216      0.7803369        0.80112
      2985.0000        17.8971        55.8462         -0.152       160.8163       68.50937             31         0.9352         0.8146          53.64         0.8919       -12.6471       -16.5687      0.7555185      0.7633043
      2985.5000        19.3333           55.5        -0.2078       166.1224       69.81859           32.2          0.868         0.8447          51.84         0.8447          -15.9       -19.8216      0.7833742      0.7168343
      2986.0000          20.73        55.1538        -0.2196       167.1429       69.71312           32.6         0.8524          0.868          50.52         0.8073          -20.7       -24.6216      0.7811302      0.6482629
      2986.5000          21.05        54.6923        -0.2235       162.2449       69.96133           33.2         0.8146         0.8919          50.52         0.8146          -25.5       -29.4216      0.7864113      0.5796914
      2987.0000           19.5             54        -0.2235       149.2157       72.33154             35         0.7774         0.9262          50.52         0.8838       -30.2941       -34.2157      0.8368412      0.5112043
      2987.5000          18.25          52.32         -0.152       136.3265       75.40908           37.2         0.7555         0.9174        44.7059         0.9717       -34.1176       -38.0392      0.9023209      0.4565829
      2988.0000         17.348             51         -0.088       128.6275       78.84029           39.6         0.7412         0.8838           39.5         1.0367       -38.2353       -42.1569      0.9753254      0.3977586
      2988.5000        17.0735          49.44         -0.048       123.3333       80.81527        41.1765         0.7272         0.8524          33.48         1.0555       -42.6471       -46.5687              1      0.3347329
      2989.0000        16.9559          48.12         -0.032        125.098       83.46984        43.1373         0.7067         0.8295          31.32          1.046       -47.1429       -51.0645              1      0.2705072
      2989.5000        16.9167        46.7059         -0.016       128.0392       80.57658        41.9608         0.6751         0.7849             30         1.0274       -51.4286       -55.3502              1      0.2092828
      2990.0000        16.9951        44.9412              0       131.0204       77.33658        40.5882         0.6165         0.7203        28.5882          1.009       -54.7959       -58.7175      0.9433315      0.1611786
      2990.5000        17.1531         43.173              0       132.4532       75.11955        39.7941         0.5578         0.6629        28.1176         0.9902       -57.8571       -61.7787      0.8961607      0.1174471
      2991.0000        17.3119        42.8142         -0.004       131.4421       75.33805        40.3773         0.5046          0.611        29.1765         0.9711       -59.6939       -63.6155      0.9008096     0.09120712
      2991.5000        17.4315        42.8084         -0.008       129.2387       76.59457        41.5475         0.4472         0.5681          30.48         0.9708          -60.9       -64.8216      0.9275439     0.07397711
      2992.0000        17.5903        43.0378         -0.012       126.4939        76.8113        42.1297         0.4152         0.5281          31.32         0.9434          -61.8       -65.7216      0.9321554     0.06111995
      2992.5000        17.7099        43.2673         -0.016       127.6822       73.19817        40.5461         0.3963         0.5046          31.56         0.9171          -62.7       -66.6216      0.8552801     0.04826289
      2993.0000        17.8687         45.026         -0.016       130.4635       68.49239        38.3446         0.3819         0.4773          31.68         0.8835            -63       -66.9216      0.7551572     0.04397714
      2993.5000        17.9491         47.373         -0.012       133.5134       65.54009        37.1347         0.3646         0.4773          32.16         0.8512            -63       -66.9216      0.6923424     0.04397714
      2994.0000        18.0295        48.6743         -0.008       136.9624       64.35611        36.9248         0.3545         0.4729          32.76          0.859            -63       -66.9216      0.6671513     0.04397714
      2994.5000        18.1098        49.5082         -0.004       139.3931       62.81849        36.5149         0.3416         0.4599          33.24         0.8751          -63.3       -67.2216      0.6344358     0.03969138
      2995.0000        18.2696        50.1022              0       139.5958       61.63452         36.305         0.3353         0.4472          33.36         0.8916          -63.6       -67.5216      0.6092451     0.03540573
      2995.5000        18.4781        50.8161         -0.024       138.1829       61.86168        36.8931         0.3322         0.4349          33.48         0.8666          -63.3       -67.2216      0.6140782     0.03969138
      2996.0000         18.768          52.25         -0.024       137.5797       59.61672        36.0832         0.3322         0.4229          34.08         0.8422          -60.6       -64.5216      0.5663132     0.07826287
      2996.5000        19.1396         52.844          -0.02       140.1985       55.95708        34.4733         0.3292         0.4113           34.8         0.8182       -55.7143       -59.6359      0.4884485      0.1480586
      2997.0000        19.4694        53.3181         -0.024       159.3878       52.65111        33.0634         0.3448         0.4075          35.16          0.795       -50.5102       -54.4318      0.4181088      0.2224028
      2997.5000        19.7165        55.0846         -0.036       163.8776       49.69882        31.8535         0.3646         0.4349          35.28         0.7947       -46.2245       -50.1461       0.355294      0.2836272
      2998.0000         19.922        57.0713         -0.048          175.2       49.22218        32.0436          0.389         0.4642          35.64         0.7944       -40.5882       -44.5098      0.3451527      0.3641457
      2998.5000        19.9633        58.7101          -0.06            178       50.51388        33.2337         0.4113            0.5        36.1229         0.8091       -32.0588       -35.9804      0.3726358      0.4859943
      2999.0000        19.7999          59.52          -0.06          177.8       51.80558        34.4238         0.4729         0.5329        37.5957         0.8246          -25.2       -29.1216      0.4001188      0.5839772
      2999.5000        19.7186          59.88         -0.076          176.2       53.45094        35.8139         0.5378         0.5733        40.6597         0.8084            -18       -21.9216      0.4351265      0.6868343
      3000.0000        20.1683          60.96         -0.168          178.4       49.79131         34.204          0.611            0.6        45.4134          0.793       -12.9412       -16.8628       0.357262      0.7591028
      3000.5000          20.77        59.0588        -0.2077          183.8       46.14211           32.6         0.6937         0.6335          49.44         0.7859        -8.5262       -12.4478      0.2796193      0.8221743
