#------------------------------------------------------------------------------
# Created by    : vladimir.rabinovich
# Created on    : 09/19/2023 17:20:12
#------------------------------------------------------------------------------
~Version Information Section
VERS.           2.0     :   CWLS log ASCII Standard - VERSION 2.0
WRAP.           NO      :   One line per depth step
~Well Information Section
#MNEM       .UNIT                                         VALUE :DESCRIPTION
#------------------------------------------------------------------------------
STRT        .FT                                             309 :START DEPTH
STOP        .FT                                            9124 :STOP DEPTH
STEP        .FT                                             0.5 :STEP      
NULL        .                                           -999.25 :NULL      
COMP        .                         SONAT EXPLORATION GOM INC :COMPANY   
WELL        .                               OCS G03084 ST00BP00 :WELL      
FLD         .                                           WILDCAT :FIELD     
LOC         .                                                   :LOCATION  
CNTY        .                      MATAGORDA ISLAND LARGE BLOCK :LOCATION  
STAT        .                                             TEXAS :STATE     
CTRY        .                                     UNITED STATES :COUNTRY   
SRVC        .                                                   :SERVICE COMPANY
DATE        .                             9/13/2023 11:12:09 AM :LOG DATE  
API         .                                    42703400260000 :API NUMBER
UWI         .                                    42703400260000 :UNIQUE WELL ID
XCOORD      .                                  563826.313549269 :SURFACE X 
YCOORD      .                                  10238444.2560225 :SURFACE Y 
LAT         .                                         28.172716 :LATITUDE  
LON         .                                        -96.341662 :LONGITUDE 
ELEV        .FT                                              97 :ELEVATION VALUE
ELEV_TYPE   .                                                KB :ELEVATION REFERENCE TYPE
~Curve Information Section
#MNEM       .UNIT                                      API CODE :CURVE DESCRIPTION
#------------------------------------------------------------------------------
DEPT        .FT                                                 :DEPTH     
ASFL        .OHMM                                               :          
CILD        .MMHO                                               :          
DT          .US/F                                               :          
GR          .GAPI                                               :          
GR_NORM     .GAPI                                               :GammaRay Normalized
ILD         .OHMM                                               :          
SP          .MV                                                 :          
SP_NORM     .MV                                                 :SP Normalized
VSH_GR      .V/V                                                :Volume of Shale from GR
VSH_SP      .V/V                                                :Volume of Shale from SP
~A        DEPTH           ASFL           CILD             DT             GR        GR_NORM            ILD             SP        SP_NORM         VSH_GR         VSH_SP
# ...
       897.0000         0.8834       948.2627        -999.25        30.7906       35.03175         1.0321       -94.5734       1.886749      0.0432288      0.7304644
       897.5000         0.8864       942.6621        -999.25        30.3797       34.35637         1.0392       -94.7482       1.704544       0.028859      0.7564937
       898.0000          0.895       912.1924        -999.25        30.6145       34.74027         1.0536       -94.9231        1.52224     0.03702699      0.7825372
       898.5000         0.9112       881.6914        -999.25        31.1002       35.53576         1.0937       -95.0979       1.340034     0.05395232      0.8085665
       899.0000         0.9899       851.0469        -999.25        32.4351       37.72437         1.1341       -95.1499       1.280624      0.1005186      0.8170537
       899.5000         1.0343       821.1641        -999.25        35.6243       42.95497         1.1758       -95.1788       1.244324      0.2118079      0.8222395
       900.0000         1.0797       793.6309        -999.25        42.3198       53.93766         1.2174        -95.009       1.406715      0.4454822      0.7990407
       900.5000         1.0918       766.0986        -999.25        43.7301       56.24997         1.2516       -94.8016        1.60672      0.4946803      0.7704686
       901.0000         1.1006       744.0811        -999.25        44.7992       58.00254         1.2816       -94.5942       1.806709      0.5319689      0.7418987
       901.5000         1.0895       732.8447        -999.25        44.9895       58.31343         1.3027       -94.3868       2.006706      0.5385836      0.7133277
       902.0000         1.0456       748.6787        -999.25        44.7755       57.96107         1.3191       -94.1794       2.206703      0.5310866      0.6847567
       902.5000         1.0118       764.5127        -999.25        44.5674       57.61837         1.3143       -94.1029       2.275803      0.5237951      0.6748853
       903.0000         0.9821       780.3437        -999.25        44.5527       57.59298         1.2846       -94.1021       2.269196      0.5232548      0.6758292
       903.5000         0.9569       796.1787        -999.25         44.538       57.56755         1.2224       -94.1011       2.262794      0.5227138      0.6767436
       904.0000         0.9403       809.2725        -999.25        44.7678       57.94323         1.1772       -94.1526        2.20388      0.5307071        0.68516
       904.5000         0.9208       821.8477        -999.25        44.7715       57.94802         1.1388       -94.2146       2.134476       0.530809      0.6950749
       905.0000         0.9064       834.4229        -999.25        44.0269        56.7252         1.1283       -94.2765       2.065178      0.5047916      0.7049746
       905.5000         0.9221       831.5049        -999.25        43.1598       55.30144         1.1224       -94.3436       1.990669      0.4744987      0.7156187
       906.0000         0.9694       807.3496        -999.25        41.8903       53.21751         1.1868       -94.5668       1.760063      0.4301598      0.7485624
       906.5000         1.1345       783.1904        -999.25         40.976        51.7163         1.2526         -94.79       1.529457      0.3982193      0.7815061
       907.0000         1.1788       755.4209        -999.25        40.5026       50.93839         1.2917       -95.0815        1.23056      0.3816679      0.8242057
       907.5000         1.2157       726.9395        -999.25        40.7693       51.37461         1.3928       -95.4128      0.8918457      0.3909492      0.8725935
       908.0000         1.2433       698.4609        -999.25         41.247       52.15698         1.4643        -95.744      0.5532455      0.4075953      0.9209649
       908.5000         1.2732       675.6318        -999.25        41.6945       52.88982         1.5413       -96.0498      0.2400436      0.4231876      0.9657081
       909.0000         1.2047       656.8643        -999.25         40.409       50.77965         1.5949       -95.6614      0.6210403      0.3782905        0.91128
       909.5000           1.08       679.0937        -999.25        39.1781       48.75907         1.4045       -95.2729       1.002129      0.3352993      0.8568388
       910.0000         0.9553       707.6436        -999.25        37.9335       46.71599          1.304       -94.8846       1.383026      0.2918296      0.8024248
       910.5000         0.8956       736.4033        -999.25        36.6913       44.67686         1.2118       -94.4962       1.764023      0.2484438      0.7479967
       911.0000         0.8562       765.8301        -999.25         35.518       42.75076         1.1309       -94.1078       2.145012       0.207463      0.6935697
       911.5000         0.8385       795.4951        -999.25        35.2073       42.23976         1.0662       -93.7261       2.519318      0.1965907      0.6400975
       912.0000         0.8223       838.7617        -999.25        35.3073       42.40251         1.0154       -93.6257       2.612305      0.2000534      0.6268136
       912.5000         0.8231       885.3809        -999.25        35.4073       42.56527         0.9966       -93.5253       2.705307      0.2035163      0.6135276
       913.0000         0.8445       930.5391        -999.25        35.5074       42.72819         0.9894       -93.4287       2.794495      0.2069827      0.6007865
       913.5000         0.8639       954.6006        -999.25        35.4483       42.62993         0.9994       -93.5132       2.702599      0.2048922      0.6139145
       914.0000         0.8756       926.3945        -999.25        34.9642       41.83447         1.0212       -93.5975       2.610886      0.1879674      0.6270164
       914.5000         0.8881       898.1875        -999.25          34.48       41.03884         1.0483        -93.682        2.51899      0.1710392      0.6401443
       915.0000         0.8997       869.9775        -999.25        34.3505        40.8251         1.0703       -93.7665       2.427078      0.1664915      0.6532745
       915.5000         0.9104        859.791        -999.25        34.5738       41.19012         1.0902       -93.6993       2.486877      0.1742578      0.6447318
       916.0000         0.9208       849.8936        -999.25        34.4001       40.90387         1.1036        -93.599       2.579773      0.1681675       0.631461
       916.5000         0.9261       844.7002        -999.25        33.8318       39.97028         1.1083       -93.4987       2.672661      0.1483037      0.6181913
       917.0000         0.9291       846.9297        -999.25        32.5518       37.86914         1.1024       -93.3983       2.765663      0.1035987      0.6049052
       917.5000         0.9257       849.1611        -999.25        31.1946       35.64135         1.0969       -93.2104       2.946152     0.05619885      0.5791212
       918.0000         0.9224       855.7598        -999.25        29.8066       33.36304          1.092       -92.9681       3.181053    0.007724275      0.5455638
       918.5000         0.9188       865.5029        -999.25        27.9992        30.3967         1.0871       -92.7257       3.416046              0      0.5119934
       919.0000          0.915       875.2461        -999.25        26.9473       28.66975         1.0822       -92.4834       3.650948              0      0.4784361
       919.5000         0.9113       884.9893        -999.25        27.1024       28.92289         1.0756       -92.3401       3.786835              0      0.4590236
       920.0000         0.9075       894.7324        -999.25        27.4222       29.44624          1.067       -92.3391       3.780434              0       0.459938
       920.5000         0.9082       903.2705        -999.25        27.7421       29.96973         1.0583       -92.3383       3.773827              0      0.4608819
       921.0000         0.9096       909.6543        -999.25        28.0619       30.49307         1.0496       -92.3374       3.767326              0      0.4618105
