#------------------------------------------------------------------------------
# Created by    : vladimir.rabinovich
# Created on    : 09/19/2023 17:22:38
#------------------------------------------------------------------------------
~Version Information Section
VERS.           2.0     :   CWLS log ASCII Standard - VERSION 2.0
WRAP.           NO      :   One line per depth step
~Well Information Section
#MNEM       .UNIT                                         VALUE :DESCRIPTION
#------------------------------------------------------------------------------
STRT        .FT                                             890 :START DEPTH
STOP        .FT                                            9058 :STOP DEPTH
STEP        .FT                                             0.5 :STEP      
NULL        .                                           -999.25 :NULL      
COMP        .                            COASTAL OIL & GAS CORP :COMPANY   
WELL        .                               OCS G01773 ST00BP00 :WELL      
FLD         .                                           WILDCAT :FIELD     
LOC         .                                                   :LOCATION  
CNTY        .                             GALVESTON LARGE BLOCK :LOCATION  
STAT        .                                             TEXAS :STATE     
CTRY        .                                     UNITED STATES :COUNTRY   
SRVC        .                                                   :SERVICE COMPANY
DATE        .                             9/13/2023 11:19:54 AM :LOG DATE  
API         .                                    42706403500000 :API NUMBER
UWI         .                                    42706403500000 :UNIQUE WELL ID
XCOORD      .                                  1074939.13305719 :SURFACE X 
YCOORD      .                                   10531967.363633 :SURFACE Y 
LAT         .                                         29.009472 :LATITUDE  
LON         .                                        -94.769566 :LONGITUDE 
ELEV        .FT                                              83 :ELEVATION VALUE
ELEV_TYPE   .                                                KB :ELEVATION REFERENCE TYPE
~Curve Information Section
#MNEM       .UNIT                                      API CODE :CURVE DESCRIPTION
#------------------------------------------------------------------------------
DEPT        .FT                                                 :DEPTH     
DCAL        .IN                                                 :          
DPSS        .V/V                                                :          
DRHO        .G/CM3                                              :          
DTLF        .US/FT                                              :          
DTLN        .US/FT                                              :          
GR          .GAPI                                               :          
GRS         .GAPI                                               :          
NPSS        .V/V                                                :Neutron Porosity Sandstone
SFL         .OHMM                                               :          
SP          .MV                                                 :          
SP_NORM     .MV                                                 :SP Normalized
SPHI_SAN    .V/V                                                :          
TENS        .LB                                                 :          
VSH_SP      .V/V                                                :Volume of Shale from SP
~A        DEPTH           DCAL           DPSS           DRHO           DTLF           DTLN             GR            GRS           NPSS            SFL             SP        SP_NORM       SPHI_SAN           TENS         VSH_SP
# ...
      5012.0000         0.9231        -999.25        -999.25        -999.25        -999.25        50.8163        -999.25        -999.25         0.8146       -37.6471      -38.77704         0.3312           2260      0.4829728
      5012.5000              1        -999.25        -999.25        -999.25        -999.25        52.2449        -999.25        -999.25            0.8       -39.4118      -40.54174         0.3312           2300      0.4594434
      5013.0000         1.0385        -999.25        -999.25        -999.25        -999.25        52.6531        -999.25        -999.25         0.7849            -40      -41.12994         0.3324           2280      0.4516008
      5013.5000         1.1154        -999.25        -999.25        -999.25        -999.25        53.2653        -999.25        -999.25         0.7412       -38.8235      -39.95345         0.3324           2280      0.4672874
      5014.0000         1.1538        -999.25        -999.25        -999.25        -999.25        54.0816        -999.25        -999.25         0.6751       -36.1765      -37.30644         0.3324           2280      0.5025808
      5014.5000         1.1538        -999.25        -999.25        -999.25        -999.25        55.5102        -999.25        -999.25         0.6278       -30.5882      -31.71814         0.3324           2280      0.5770914
      5015.0000         1.1538        -999.25        -999.25        -999.25        -999.25        55.9184        -999.25        -999.25            0.6       -25.8824      -27.01234           0.33           2280      0.6398354
      5015.5000         1.1538        -999.25        -999.25        -999.25        -999.25        56.7347        -999.25        -999.25         0.6278       -19.4118      -20.54174         0.3276           2280      0.7261101
      5016.0000         1.1538        -999.25        -999.25        -999.25        -999.25        57.3469        -999.25        -999.25         0.7412       -17.0588      -18.18874         0.3252           2280      0.7574834
      5016.5000         1.1538        -999.25        -999.25        -999.25        -999.25        58.1633        -999.25        -999.25         0.8146       -17.0588      -18.18874          0.324           2280      0.7574834
      5017.0000         1.1538        -999.25        -999.25        -999.25        -999.25        58.1633        -999.25        -999.25         0.8146       -18.2353      -19.36524         0.3228           2280      0.7417967
      5017.5000         1.1538        -999.25        -999.25        -999.25        -999.25        57.3469        -999.25        -999.25            0.8       -17.9412      -19.07114          0.324           2280      0.7457181
      5018.0000         1.1538        -999.25        -999.25        -999.25        -999.25        56.7347        -999.25        -999.25         0.7774       -16.7647      -17.89464         0.3264           2260      0.7614048
      5018.5000         1.1154        -999.25        -999.25        -999.25        -999.25        56.3265        -999.25        -999.25         0.7555       -15.8824      -17.01234         0.3276           2260      0.7731687
      5019.0000         1.1154        -999.25        -999.25        -999.25        -999.25        56.3265        -999.25        -999.25         0.7135            -15      -16.12994           0.33           2260      0.7849341
      5019.5000         1.1538        -999.25        -999.25        -999.25        -999.25        55.7143        -999.25        -999.25         0.7342            -15      -16.12994         0.3276           2260      0.7849341
      5020.0000         1.1538        -999.25        -999.25        -999.25        -999.25        54.4898        -999.25        -999.25            0.8       -15.8824      -17.01234         0.3204           2260      0.7731687
      5020.5000         1.1923        -999.25        -999.25        -999.25        -999.25        54.2857        -999.25        -999.25          0.868       -17.0588      -18.18874         0.3108           2240      0.7574834
      5021.0000         1.1538        -999.25        -999.25        -999.25        -999.25        55.3061        -999.25        -999.25         0.9532       -18.2353      -19.36524         0.3048           2240      0.7417967
      5021.5000         1.1538        -999.25        -999.25        -999.25        -999.25        57.1429        -999.25        -999.25         0.9352       -19.1176      -20.24754         0.3024           2240      0.7300327
      5022.0000         1.1538        -999.25        -999.25        -999.25        -999.25        59.1837        -999.25        -999.25         0.8524       -18.5294      -19.65934         0.3072           2260      0.7378754
      5022.5000         1.1538        -999.25        -999.25        -999.25        -999.25        59.7959        -999.25        -999.25         0.7774       -17.9412      -19.07114         0.3132           2260      0.7457181
      5023.0000         1.1538        -999.25        -999.25        -999.25        -999.25        58.3673        -999.25        -999.25         0.7272       -18.2353      -19.36524          0.318           2260      0.7417967
      5023.5000         1.1538        -999.25        -999.25        -999.25        -999.25        55.7143        -999.25        -999.25         0.8073       -21.1765      -22.30644         0.3192           2260      0.7025807
      5024.0000         1.1923        -999.25        -999.25        -999.25        -999.25        54.4898        -999.25        -999.25         0.8073       -25.2941      -26.42404          0.318           2260      0.6476794
      5024.5000         1.1923        -999.25        -999.25        -999.25        -999.25        55.5102        -999.25        -999.25         0.7342       -29.1176      -30.24754          0.318           2260      0.5966994
      5025.0000         1.1538        -999.25        -999.25        -999.25        -999.25        56.9388        -999.25        -999.25         0.6751       -30.8824      -32.01234         0.3204           2260      0.5731688
      5025.5000         1.1538        -999.25        -999.25        -999.25        -999.25        55.7143        -999.25        -999.25          0.651       -29.4118      -30.54174         0.3192           2280      0.5927767
      5026.0000         1.1538        -999.25        -999.25        -999.25        -999.25        52.8571        -999.25        -999.25         0.7924       -28.8235      -29.95344         0.3108           2280      0.6006207
      5026.5000         1.1538        -999.25        -999.25        -999.25        -999.25        50.6122        -999.25        -999.25         0.9262       -28.8235      -29.95344         0.3036           2280      0.6006207
      5027.0000         1.1154        -999.25        -999.25        -999.25        -999.25        52.0408        -999.25        -999.25         0.9174       -29.1176      -30.24754            0.3           2280      0.5966994
      5027.5000         1.1154        -999.25        -999.25        -999.25        -999.25        54.0816        -999.25        -999.25         0.8447       -28.8235      -29.95344         0.3036           2260      0.6006207
      5028.0000              1        -999.25        -999.25        -999.25        -999.25         55.102        -999.25        -999.25         0.8146       -27.6471      -28.77704         0.3072           2280      0.6163061
      5028.5000         0.9615        -999.25        -999.25        -999.25        -999.25        53.6735        -999.25        -999.25         0.8601       -27.6471      -28.77704          0.312           2280      0.6163061
      5029.0000         0.8846        -999.25        -999.25        -999.25        -999.25         52.449        -999.25        -999.25         0.9087       -28.5294      -29.65934          0.312           2280      0.6045421
      5029.5000         0.8077        -999.25        -999.25        -999.25        -999.25        53.6735        -999.25        -999.25         0.8838            -30      -31.12994         0.3132           2280      0.5849341
