#------------------------------------------------------------------------------
# Created by    : vladimir.rabinovich
# Created on    : 09/19/2023 17:20:18
#------------------------------------------------------------------------------
~Version Information Section
VERS.           2.0     :   CWLS log ASCII Standard - VERSION 2.0
WRAP.           NO      :   One line per depth step
~Well Information Section
#MNEM       .UNIT                                         VALUE :DESCRIPTION
#------------------------------------------------------------------------------
STRT        .FT                                             780 :START DEPTH
STOP        .FT                                            9803 :STOP DEPTH
STEP        .FT                                             0.5 :STEP      
NULL        .                                           -999.25 :NULL      
COMP        .                                  SAMEDAN OIL CORP :COMPANY   
WELL        .                               OCS G04076 ST00BP00 :WELL      
FLD         .                            HIGH ISLAND BLOCK 0105 :FIELD     
LOC         .                                                   :LOCATION  
CNTY        .                           HIGH ISLAND LARGE BLOCK :LOCATION  
STAT        .                                             TEXAS :STATE     
CTRY        .                                     UNITED STATES :COUNTRY   
SRVC        .                                                   :SERVICE COMPANY
DATE        .                             9/13/2023 11:19:59 AM :LOG DATE  
API         .                                    42708401630000 :API NUMBER
UWI         .                                    42708401630000 :UNIQUE WELL ID
XCOORD      .                                  1167393.84075462 :SURFACE X 
YCOORD      .                                  10652000.2522841 :SURFACE Y 
LAT         .                                        29.3430877 :LATITUDE  
LON         .                                       -94.4850788 :LONGITUDE 
ELEV        .FT                                              87 :ELEVATION VALUE
ELEV_TYPE   .                                                KB :ELEVATION REFERENCE TYPE
~Curve Information Section
#MNEM       .UNIT                                      API CODE :CURVE DESCRIPTION
#------------------------------------------------------------------------------
DEPT        .FT                                                 :DEPTH     
ASFL        .OHMM                                               :          
CILD        .MMHO                                               :          
DT          .US/F                                               :          
GR          .GAPI                                               :          
GR_1        .GAPI                                               :          
GR_NORM     .GAPI                                               :GammaRay Normalized
ILD         .OHMM                                               :          
SP          .MV                                                 :          
SP_NORM     .MV                                                 :SP Normalized
VSH_GR      .V/V                                                :Volume of Shale from GR
VSH_SP      .V/V                                                :Volume of Shale from SP
~A        DEPTH           ASFL           CILD             DT             GR           GR_1        GR_NORM            ILD             SP        SP_NORM         VSH_GR         VSH_SP
# ...
      9780.0000         0.6707       1872.803       120.7585        76.9313       119.1804       79.07605         0.5917       -44.8031      0.3581924      0.9803415              1
      9780.5000         0.6735        1865.24        120.531        75.3734       119.1824       80.32185         0.5915        -44.782      0.3792915              1              1
      9781.0000         0.6763       1855.277       120.3105        75.1691       119.1843       82.50488         0.5913        -44.761      0.4002914              1              1
      9781.5000         0.6791       1845.316       120.0996        76.3718       119.1864       81.46772          0.591       -44.7399      0.4213943              1              1
      9782.0000         0.6819       1835.354        119.952        78.2373       119.1884       74.86218         0.5908       -44.7559      0.4053917      0.8906847              1
      9782.5000         0.6846       1825.381       119.7869        81.9539       119.1903       80.22202         0.5914       -44.8353      0.3259926              1              1
      9783.0000         0.6872       1815.418       119.6533        97.5979       119.1923       81.02038         0.5929       -44.9146      0.2466927              1              1
      9783.5000         0.6898       1805.455       119.6208       118.2969       119.1943       81.81413         0.5944       -44.9941      0.1671944              1              1
      9784.0000         0.6925       1795.494       119.6105       126.4113       119.1963       80.06495         0.5959       -45.0735     0.08779144              1              1
      9784.5000         0.6959       1791.383       119.5673       140.8586       119.1982       78.35181         0.5974       -45.0475      0.1137924      0.9649321              1
      9785.0000         0.6998       1787.869       119.5221       150.1887       119.2002       78.13453         0.5989       -44.9491      0.2121925      0.9603091              1
      9785.5000         0.7036       1784.357       119.3834       151.5459       119.2023       81.46542         0.6004       -44.8508      0.3104935              1              1
      9786.0000         0.7075       1780.852       119.0895       151.7712       119.2042       81.95993         0.6002       -44.7525      0.4087944              1              1
      9786.5000         0.7114       1777.338        118.863       151.6069       119.2062       75.03709         0.5995       -44.6541      0.5071945      0.8944061              1
      9787.0000         0.7113       1773.832        118.743       151.5569       119.2081       83.06775         0.5988       -44.5558      0.6054916              1              1
      9787.5000         0.7109        1770.32       118.8186       151.5151       119.2102       76.48398         0.5982       -44.4843      0.6769943       0.925191              1
      9788.0000         0.7104       1767.836       119.0652       151.5063       119.2122       77.46052         0.5975        -44.416      0.7452927      0.9459684              1
      9788.5000         0.7092       1766.402       119.5394       151.4805       119.2141       78.01294         0.5968        -44.348      0.8132935      0.9577221              1
      9789.0000         0.7076       1764.967       119.8698       151.4504       119.2161       78.80894         0.5961       -44.2797      0.8815918      0.9746584              1
      9789.5000          0.706       1763.529        -999.25        -999.25       119.2181       83.78797         0.5955       -44.2513      0.9099922              1              1
      9790.0000         0.7043       1762.094        -999.25        -999.25       119.2201        81.1617         0.5953       -44.4751      0.6861916              1              1
      9790.5000         0.7027       1760.658        -999.25        -999.25        119.222       82.20724         0.5951       -44.6991      0.4621925              1              1
      9791.0000         0.7011       1759.225        -999.25        -999.25        119.224       82.07944         0.5949       -44.9229      0.2383919              1              1
      9791.5000         0.7008       1757.789        -999.25        -999.25       119.2261       76.55185         0.5947       -45.0901      0.0711937      0.9266351              1
      9792.0000         0.7012       1756.414        -999.25        -999.25        119.228       82.37701         0.5946       -45.2305    -0.06920624              1              1
      9792.5000         0.7016        1755.57        -999.25        -999.25         119.23       82.48112         0.5944       -45.3712     -0.2099075              1              1
      9793.0000         0.7019       1754.727        -999.25        -999.25       119.2321       77.37144         0.5942       -45.5116     -0.3503075      0.9440733              1
      9793.5000         0.7023       1753.887        -999.25        -999.25        119.234       78.51889          0.595       -45.4838      -0.322506       0.968487              1
      9794.0000         0.7027       1753.043        -999.25        -999.25        119.236       80.94235         0.5959       -45.4277      -0.266407              1              1
      9794.5000         0.7033        1765.24        -999.25        -999.25       119.2379       83.95502         0.5969       -45.3718     -0.2105064              1              1
      9795.0000         0.7039       1782.912        -999.25        -999.25         119.24        76.0953         0.5979       -45.3158     -0.1545067      0.9169213              1
      9795.5000         0.7045       1808.246        -999.25        -999.25       119.2419       83.85009         0.5988       -45.2598    -0.09850693              1              1
      9796.0000         0.7051       1841.607        -999.25        -999.25       119.2439       81.79841         0.5998       -45.2039    -0.04260635              1              1
      9796.5000         0.7057       1856.393        -999.25        -999.25       119.2458       82.94468         0.6017       -45.1479      0.0133934              1              1
      9797.0000         0.7059       1863.527        -999.25        -999.25       119.2479       83.38495         0.6045       -45.0919     0.06939316              1              1
      9797.5000        -999.25        -999.25        -999.25        -999.25        -999.25       83.21893        -999.25        -999.25        -999.25              1        -999.25
      9798.0000        -999.25        -999.25        -999.25        -999.25        -999.25       84.00819        -999.25        -999.25        -999.25              1        -999.25
      9798.5000        -999.25        -999.25        -999.25        -999.25        -999.25       84.03838        -999.25        -999.25        -999.25              1        -999.25
      9799.0000        -999.25        -999.25        -999.25        -999.25        -999.25       75.51528        -999.25        -999.25        -999.25      0.9045805        -999.25
      9799.5000        -999.25        -999.25        -999.25        -999.25        -999.25        81.2285        -999.25        -999.25        -999.25              1        -999.25
      9800.0000        -999.25        -999.25        -999.25        -999.25        -999.25       79.54513        -999.25        -999.25        -999.25      0.9903219        -999.25
      9800.5000        -999.25        -999.25        -999.25        -999.25        -999.25        77.3972        -999.25        -999.25        -999.25      0.9446213        -999.25
      9801.0000        -999.25        -999.25        -999.25        -999.25        -999.25        75.2131        -999.25        -999.25        -999.25      0.8981512        -999.25
      9801.5000        -999.25        -999.25        -999.25        -999.25        -999.25       78.75399        -999.25        -999.25        -999.25      0.9734892        -999.25
      9802.0000        -999.25        -999.25        -999.25        -999.25        -999.25       83.76075        -999.25        -999.25        -999.25              1        -999.25
