#------------------------------------------------------------------------------
# Created by    : vladimir.rabinovich
# Created on    : 09/19/2023 17:20:36
#------------------------------------------------------------------------------
~Version Information Section
VERS.           2.0     :   CWLS log ASCII Standard - VERSION 2.0
WRAP.           NO      :   One line per depth step
~Well Information Section
#MNEM       .UNIT                                         VALUE :DESCRIPTION
#------------------------------------------------------------------------------
STRT        .FT                                             504 :START DEPTH
STOP        .FT                                            9762 :STOP DEPTH
STEP        .FT                                             0.5 :STEP      
NULL        .                                           -999.25 :NULL      
COMP        .                                      SHELL OIL CO :COMPANY   
WELL        .                                OCS 00703 ST00BP00 :WELL      
FLD         .                                           WILDCAT :FIELD     
LOC         .                                                   :LOCATION  
CNTY        .                             GALVESTON LARGE BLOCK :LOCATION  
STAT        .                                             TEXAS :STATE     
CTRY        .                                     UNITED STATES :COUNTRY   
SRVC        .                                                   :SERVICE COMPANY
DATE        .                             9/13/2023 11:19:25 AM :LOG DATE  
API         .                                    42706000420000 :API NUMBER
UWI         .                                    42706000420000 :UNIQUE WELL ID
XCOORD      .                                  1132503.99790541 :SURFACE X 
YCOORD      .                                  10523078.0194322 :SURFACE Y 
LAT         .                                         28.987276 :LATITUDE  
LON         .                                        -94.589113 :LONGITUDE 
ELEV        .FT                                              83 :ELEVATION VALUE
ELEV_TYPE   .                                                KB :ELEVATION REFERENCE TYPE
~Curve Information Section
#MNEM       .UNIT                                      API CODE :CURVE DESCRIPTION
#------------------------------------------------------------------------------
DEPT        .FT                                                 :DEPTH     
ASN         .OHMM                                               :          
CILD        .MMHO                                               :          
DT          .US/F                                               :          
ILD         .OHMM                                               :          
LAT         .OHMM                                               :          
LN          .OHMM                                               :          
SP          .MV                                                 :          
SP_NORM     .MV                                                 :SP Normalized
VSH_SP      .V/V                                                :Volume of Shale from SP
~A        DEPTH            ASN           CILD             DT            ILD            LAT             LN             SP        SP_NORM         VSH_SP
# ...
      6042.5000         0.7638           1669       119.2173         0.5568        -999.25         0.5568       -58.8373       -20.5175      0.6580417
      6043.0000         0.7498        1492.25       120.0494         0.6136        -999.25         0.6136       -53.4866      -15.16254      0.7472909
      6043.5000         0.7685       1353.369       120.8815         0.7068        -999.25         0.7068       -44.4758      -6.147491      0.8975418
      6044.0000         0.7872       1307.029       121.7136         0.7999        -999.25         0.7999       -43.9346      -5.602039      0.9066327
      6044.5000         0.8278        1211.48       122.5458         0.8888        -999.25         0.8888        -44.762      -6.425186      0.8929136
      6045.0000         0.9423       1067.664       123.3779         0.9508        -999.25         0.9508       -45.5602      -7.219131      0.8796812
      6045.5000         0.9925       949.4668         124.21         0.9935        -999.25         0.9935       -46.2811       -7.93578       0.867737
      6046.0000         1.0036        908.666       124.7115         0.9744        -999.25         0.9744       -46.6879      -8.338326      0.8610279
      6046.5000         1.0128       877.4473       124.0881         0.9553        -999.25         0.9553       -46.9827      -8.628872      0.8561855
      6047.0000         1.0185       872.6934       123.4452         0.9361        -999.25         0.9361       -47.1835      -8.825417      0.8529097
      6047.5000         1.0235       896.4004       122.8023          0.917        -999.25          0.917       -47.3176      -8.955265      0.8507456
      6048.0000         1.0293       925.5791       122.1595         0.8978        -999.25         0.8978       -47.4515      -9.084911      0.8485848
      6048.5000         1.0343       999.0205       121.5166         0.8723        -999.25         0.8723       -47.7132      -9.342358       0.844294
      6049.0000         1.0092       1042.863       120.8737         0.8452        -999.25         0.8452       -48.0513      -9.676205      0.8387299
      6049.5000         0.9711       1053.184       120.2308          0.818        -999.25          0.818       -48.3972      -10.01785      0.8330358
      6050.0000         0.9584        1054.43        119.588         0.7909        -999.25         0.7909        -47.337        -8.9534      0.8507767
      6050.5000         0.9457       1055.098       118.9451         0.7559        -999.25         0.7559       -46.4588      -8.070946      0.8654842
      6051.0000         0.9351       1053.719       118.3022         0.7107        -999.25         0.7107       -45.6141      -7.221992      0.8796335
      6051.5000         0.9264       1052.338       117.6593         0.6654        -999.25         0.6654       -45.3349      -6.938538      0.8843577
      6052.0000         0.9178       1074.662       117.0165         0.6201        -999.25         0.6201       -45.3571      -6.956486      0.8840586
      6052.5000         0.9145       1099.342       116.3736         0.5785        -999.25         0.5785       -45.3793       -6.97443      0.8837595
      6053.0000         0.9137       1139.672       115.7307         0.5385        -999.25         0.5385       -45.4432      -7.034077      0.8827654
      6053.5000          0.917       1324.635       115.0879         0.4986        -999.25         0.4986       -48.2052      -9.791824      0.8368029
      6054.0000         0.9203       1509.797        114.445         0.4787        -999.25         0.4787       -55.3172      -16.89957      0.7183405
      6054.5000         0.9255       1694.957       113.8021         0.4605        -999.25         0.4605       -60.6407      -22.21882      0.6296863
      6055.0000         0.9323       1879.922       113.1592         0.4603        -999.25         0.4603        -64.297      -25.87086      0.5688189
      6055.5000         0.9392       1838.033       112.5333         0.4756        -999.25         0.4756       -66.3976      -27.96721      0.5338798
      6056.0000         0.9459       1777.697       113.9845          0.491        -999.25          0.491       -70.3661      -31.93146      0.4678091
      6056.5000         0.9302       1717.361       115.3984         0.5063        -999.25         0.5063       -62.0328      -23.59391      0.6067683
      6057.0000         0.9119       1657.074       116.8123         0.5241        -999.25         0.5241       -56.0232      -17.58006      0.7069991
      6057.5000         0.8911       1596.738       118.2262         0.5428        -999.25         0.5428       -53.3405       -14.8931      0.7517816
      6058.0000          0.875       1536.453       119.6401         0.5614        -999.25         0.5614         -50.95      -12.49835      0.7916942
      6058.5000         0.8649       1508.461        121.054         0.5801        -999.25         0.5801       -44.3804      -5.924496      0.9012584
      6059.0000         0.8717       1501.643       122.4679         0.5988        -999.25         0.5988       -42.4124       -3.95224      0.9341294
      6059.5000         0.8784       1500.594       123.8818         0.6138        -999.25         0.6138       -41.2976      -2.833187      0.9527802
      6060.0000         0.8826        1490.51        125.315          0.627        -999.25          0.627       -40.5547      -2.086033      0.9652328
      6060.5000         0.8868       1359.254        125.319         0.6402        -999.25         0.6402       -40.2098      -1.736881       0.971052
      6061.0000          0.891       1323.795       125.2414         0.6534        -999.25         0.6534       -39.9437      -1.466526      0.9755579
      6061.5000         0.8952       1279.012       125.1637         0.6666        -999.25         0.6666       -39.7455      -1.264072      0.9789321
      6062.0000         0.8994       1251.145       125.0438         0.6796        -999.25         0.6796       -39.5833      -1.097622      0.9817063
      6062.5000          0.904       1232.146       124.6824         0.6887        -999.25         0.6887       -39.4913      -1.001366      0.9833106
      6063.0000         0.9087       1223.912       124.4485         0.6978        -999.25         0.6978       -39.3993     -0.9051132      0.9849148
      6063.5000         0.9134       1215.678        124.234          0.706        -999.25          0.706       -39.7828      -1.284359       0.978594
      6064.0000         0.9206       1218.553         123.75         0.6878        -999.25         0.6878       -40.3216      -1.818909      0.9696848
      6064.5000          0.928        1221.98       123.2659         0.6695        -999.25         0.6695       -41.1626      -2.655655      0.9557391
      6065.0000         0.9402       1254.457       122.8069         0.6513        -999.25         0.6513       -42.1906      -3.679401      0.9386767
      6065.5000         0.9599       1273.326       122.4578         0.6331        -999.25         0.6331       -43.2187      -4.703247      0.9216126
      6066.0000         0.9937       1292.563       121.6548          0.614        -999.25          0.614       -44.8102      -6.290493      0.8951585
      6066.5000         0.9648       1326.416       120.6897         0.5923        -999.25         0.5923       -48.9137      -10.38974      0.8268377
      6067.0000         0.9363       1501.883       119.7246         0.5706        -999.25         0.5706        -51.433      -12.90479      0.7849203
      6067.5000         0.9096       1600.498       118.7595         0.5489        -999.25         0.5489       -53.4123      -14.87983      0.7520028
      6068.0000         0.8937       1645.256       117.7944         0.5272        -999.25         0.5272       -55.8721      -17.33538       0.711077
      6068.5000         0.8704       1775.076       116.8292         0.5104        -999.25         0.5104        -58.379      -19.83803      0.6693662
