#------------------------------------------------------------------------------
# Created by    : vladimir.rabinovich
# Created on    : 09/19/2023 17:22:53
#------------------------------------------------------------------------------
~Version Information Section
VERS.           2.0     :   CWLS log ASCII Standard - VERSION 2.0
WRAP.           NO      :   One line per depth step
~Well Information Section
#MNEM       .UNIT                                         VALUE :DESCRIPTION
#------------------------------------------------------------------------------
STRT        .FT                                             411 :START DEPTH
STOP        .FT                                           10036 :STOP DEPTH
STEP        .FT                                             0.5 :STEP      
NULL        .                                           -999.25 :NULL      
COMP        .                          HUMBLE OIL & REFINING CO :COMPANY   
WELL        .                                     ST TR 00278-L :WELL      
FLD         .                                           WILDCAT :FIELD     
LOC         .                                                   :LOCATION  
CNTY        .                             GALVESTON LARGE BLOCK :LOCATION  
STAT        .                                             TEXAS :STATE     
CTRY        .                                     UNITED STATES :COUNTRY   
SRVC        .                                                   :SERVICE COMPANY
DATE        .                             9/13/2023 11:19:42 AM :LOG DATE  
API         .                                    42706000220000 :API NUMBER
UWI         .                                    42706000220000 :UNIQUE WELL ID
XCOORD      .                                  941560.719964966 :SURFACE X 
YCOORD      .                                  10497824.1170516 :SURFACE Y 
LAT         .                                        28.9094621 :LATITUDE  
LON         .                                       -95.1847519 :LONGITUDE 
ELEV        .FT                                              10 :ELEVATION VALUE
ELEV_TYPE   .                                                KB :ELEVATION REFERENCE TYPE
~Curve Information Section
#MNEM       .UNIT                                      API CODE :CURVE DESCRIPTION
#------------------------------------------------------------------------------
DEPT        .FT                                                 :DEPTH     
LAT         .OHMM                                               :          
LN          .OHMM                                               :          
SN          .OHMM                                               :          
SP          .MV                                                 :          
SP_NORM     .MV                                                 :SP Normalized
VSH_SP      .V/V                                                :Volume of Shale from SP
~A        DEPTH            LAT             LN             SN             SP        SP_NORM         VSH_SP
# ...
      2957.0000         0.9497         1.1263         1.2441        58.9972      -1.150242      0.9972177
      2957.5000         0.9683         1.1086         1.2965        59.8765       -1.97644      0.9819178
      2958.0000         0.9869         1.0915         1.3489        60.7558      -2.802639      0.9666178
      2958.5000         1.0056         1.0759         1.4013        61.6351      -3.628841      0.9513177
      2959.0000         1.0242         1.0603         1.4338        62.5144       -4.45504      0.9360178
      2959.5000         1.0745         1.0446          1.417        63.3937      -5.281239      0.9207178
      2960.0000         1.1343          1.029         1.3963        63.8323      -5.666733       0.913579
      2960.5000         1.1941         1.0201         1.3498        64.1571      -5.938431      0.9085476
      2961.0000         1.2674         1.0363         1.3033        64.4819      -6.210136       0.903516
      2961.5000         1.3441         1.0526         1.2568        64.8069      -6.482033      0.8984809
      2962.0000         1.4194         1.0689         1.2102        64.8785      -6.500534      0.8981383
      2962.5000         1.3735         1.0851         1.1637        64.9044      -6.473335      0.8986419
      2963.0000         1.3275         1.1014         1.1172        63.6074       -5.12323      0.9236439
      2963.5000         1.2815         1.1177         1.0923        61.6642       -3.12693      0.9606124
      2964.0000         1.2355         1.1311         1.0889        59.7209      -1.130531      0.9975827
      2964.5000         1.2009         1.1433         1.0854        57.7014      0.9420738              1
      2965.0000         1.1891         1.1556          1.082        55.6384       3.058174              1
      2965.5000         1.1773         1.1679         1.0786        53.5767       5.172977              1
      2966.0000         1.1655         1.1801         1.0752        51.7133       7.089478              1
      2966.5000         1.1545         1.1924         1.0717        49.9603       8.895576              1
      2967.0000         1.1978         1.2002         1.0795        50.0208       8.888176              1
      2967.5000         1.2411         1.2017         1.0897        51.1285       7.833576              1
      2968.0000         1.2844         1.2032         1.1034        52.2358       6.779377              1
      2968.5000         1.3277         1.2048         1.1646        53.4821       5.586182              1
      2969.0000         1.3709         1.1972         1.2258        55.9268       3.194584              1
      2969.5000         1.4142          1.167         1.2869        58.3726      0.8018837              1
      2970.0000         1.4576         1.1368         1.3481        60.8185      -1.590916      0.9890571
      2970.5000         1.4843         1.1066         1.4093        61.8881      -2.607414      0.9702331
      2971.0000         1.4726         1.0764         1.4705         61.585      -2.251213      0.9768294
      2971.5000         1.4608         1.0462          1.526        60.6533      -1.266415      0.9950664
      2972.0000         1.4491         1.0309         1.5696        59.7215     -0.2815132              1
      2972.5000         1.4243         1.0192         1.6132        58.7898       0.703289              1
      2973.0000         1.3899         1.0075         1.6167        58.7612      0.7849922              1
      2973.5000         1.3554         0.9998         1.5881        58.9117      0.6875916              1
      2974.0000         1.3209         1.0357         1.4359        59.0622      0.5901947              1
      2974.5000         1.2864         1.0716         1.2519        59.2127       0.492794              1
      2975.0000          1.252         1.1075         1.1155        59.3715      0.3870964              1
      2975.5000          1.232         1.1435         1.0262        59.5342      0.2774963              1
      2976.0000         1.2427         1.1794         0.9532        59.6968      0.1679955              1
      2976.5000         1.2534         1.2153         0.9552        59.8596      0.0582962              1
      2977.0000          1.264         1.2253         0.9571        60.0222    -0.05120087              1
      2977.5000         1.2747         1.2243          0.959        59.6819      0.3422012              1
      2978.0000         1.2854         1.2076         0.9876        58.9249       1.152302              1
      2978.5000         1.3037         1.1876         1.0215        58.1678       1.962502              1
      2979.0000         1.3326         1.1572         1.0553        57.4107       2.772701              1
      2979.5000         1.3615         1.1267         1.1326        56.6408       3.595703              1
      2980.0000         1.3904         1.0962         1.2571        55.8043       4.485306              1
      2980.5000         1.4193         1.0657         1.3816        54.9683       5.374405              1
      2981.0000         1.4482         1.0353         1.4975        54.1323       6.263504              1
      2981.5000         1.4771         1.0048         1.5904        53.5272       6.921711              1
      2982.0000          1.506          0.986         1.6833        53.2947        7.20731              1
      2982.5000         1.5318         0.9858          1.704        53.0624        7.49271              1
      2983.0000         1.5513         0.9856         1.5424        52.8299       7.778313              1
      2983.5000         1.5707         0.9853         1.3807        52.0723       8.589012              1
      2984.0000         1.5901         0.9851         1.2626        51.1953       9.519112              1
      2984.5000         1.6095         0.9849         1.2074        50.3182       10.44931              1
      2985.0000         1.5712         0.9847         1.1522        50.1022       10.71841              1
      2985.5000         1.4939         0.9876         1.0969        50.2792       10.59452              1
      2986.0000         1.4166         0.9974         1.0417        50.8676       10.05922              1
      2986.5000         1.3393         1.0071         0.9865        51.6762       9.631248              1
      2987.0000         1.2964         1.0169          0.974        58.7601       6.636124              1
      2987.5000         1.2852         1.0267         0.9943        64.1191       5.365906              1
      2988.0000         1.2739         1.0364         1.0145        68.4182       5.155594              1
      2988.5000         1.2627         1.0462         1.0348         76.549       1.113564              1
      2989.0000         1.2514          1.056          1.055        83.3645      -1.613152      0.9886453
      2989.5000         1.2402         1.0541         1.0753        86.5853      -0.745163              1
      2990.0000         1.2281         1.0376         1.0956        89.5532     -0.3001175              1
      2990.5000         1.1992         1.0211         1.1158        91.7688      0.2720871              1
      2991.0000         1.1703         1.0046         1.1361        93.9845      0.8441925              1
      2991.5000         1.1414         0.9881         1.1598        95.4821       2.134392              1
      2992.0000         1.1125         0.9715          1.187        96.3403       3.631157              1
      2992.5000         1.0836          0.955         1.2142        97.1985       2.576172              1
      2993.0000          1.029         0.9385         1.2414        98.0568       1.521088              1
      2993.5000         0.9553         0.9294         1.2687        98.9149      0.4662018              1
      2994.0000         0.8815         0.9203         1.2958        99.7988     -0.6144791              1
      2994.5000         0.8078         0.9113         1.3231       100.6877      -1.700165       0.987034
