#------------------------------------------------------------------------------
# Created by    : vladimir.rabinovich
# Created on    : 09/19/2023 17:22:52
#------------------------------------------------------------------------------
~Version Information Section
VERS.           2.0     :   CWLS log ASCII Standard - VERSION 2.0
WRAP.           NO      :   One line per depth step
~Well Information Section
#MNEM       .UNIT                                         VALUE :DESCRIPTION
#------------------------------------------------------------------------------
STRT        .FT                                            1126 :START DEPTH
STOP        .FT                                            9906 :STOP DEPTH
STEP        .FT                                             0.5 :STEP      
NULL        .                                           -999.25 :NULL      
COMP        .                                        EXXON CORP :COMPANY   
WELL        .                               OCS G06053 ST00BP00 :WELL      
FLD         .                                           WILDCAT :FIELD     
LOC         .                                                   :LOCATION  
CNTY        .                      MATAGORDA ISLAND LARGE BLOCK :LOCATION  
STAT        .                                             TEXAS :STATE     
CTRY        .                                     UNITED STATES :COUNTRY   
SRVC        .                                                   :SERVICE COMPANY
DATE        .                             9/13/2023 11:12:11 AM :LOG DATE  
API         .                                    42703402640000 :API NUMBER
UWI         .                                    42703402640000 :UNIQUE WELL ID
XCOORD      .                                  440255.018680432 :SURFACE X 
YCOORD      .                                  10152284.9344853 :SURFACE Y 
LAT         .                                         27.926249 :LATITUDE  
LON         .                                        -96.716438 :LONGITUDE 
ELEV        .FT                                              94 :ELEVATION VALUE
ELEV_TYPE   .                                                KB :ELEVATION REFERENCE TYPE
~Curve Information Section
#MNEM       .UNIT                                      API CODE :CURVE DESCRIPTION
#------------------------------------------------------------------------------
DEPT        .FT                                                 :DEPTH     
GR          .GAPI                                               :          
GR_NORM     .GAPI                                               :GammaRay Normalized
ILD         .OHMM                                               :          
SP          .MV                                                 :          
SP_NORM     .MV                                                 :SP Normalized
VSH_GR      .V/V                                                :Volume of Shale from GR
VSH_SP      .V/V                                                :Volume of Shale from SP
~A        DEPTH             GR        GR_NORM            ILD             SP        SP_NORM         VSH_GR         VSH_SP
# ...
      1695.5000        49.3079       72.88847         0.6906       -61.7632      -11.34257      0.8486909      0.7537484
      1696.0000        45.8297       67.84612         0.6669       -63.8253      -13.40914      0.7414067      0.7045444
      1696.5000        43.4059       64.33215         0.6435        -65.542      -15.13031      0.6666414       0.663564
      1697.0000         42.386       62.85324         0.6301       -66.8723      -16.46508      0.6351753      0.6317837
      1697.5000        42.0891       62.42232         0.6232        -68.417      -18.01426      0.6260068      0.5948986
      1698.0000        41.4711       61.52596         0.6298       -69.6195      -19.22123      0.6069352      0.5661612
      1698.5000        39.5341       58.71765         0.6387       -70.0729       -19.6791      0.5471841      0.5552594
      1699.0000        38.1569        56.7208         0.6488       -69.5437      -19.15438      0.5046979       0.567753
      1699.5000        37.1854       55.31202         0.6569        -67.978      -17.59314      0.4747239      0.6049252
      1700.0000        37.0627       55.13363         0.6629        -65.915      -15.53462      0.4709283      0.6539376
      1700.5000        38.9747       57.90463         0.6625       -64.0941      -13.71819      0.5298857      0.6971859
      1701.0000        40.8867       60.67562         0.6595        -62.901      -12.52957      0.5888431      0.7254865
      1701.5000        42.3021        62.7268         0.6531       -62.3646      -11.99764      0.6324852      0.7381514
      1702.0000        44.6889       66.18606         0.6376       -62.1305      -11.76801      0.7060863      0.7436187
      1702.5000        48.6127       71.87325         0.6187       -62.2315      -11.87348      0.8270903      0.7411076
      1703.0000        51.4628       76.00408         0.5988       -62.3744      -12.02085      0.9149805      0.7375987
      1703.5000        53.2349       78.57229         0.5809       -62.6118      -12.26273      0.9696231      0.7318398
      1704.0000        54.2164       79.99448         0.5679       -62.7911       -12.4465      0.9998825      0.7274643
      1704.5000        54.3331       80.16309         0.5552       -62.8188      -12.47868              1      0.7266982
      1705.0000        55.6061       82.00784          0.543       -62.7733      -12.43764              1      0.7276751
      1705.5000        57.6068       84.90742         0.5311       -62.6175      -12.28632              1      0.7312781
      1706.0000        58.6385       86.40237         0.5196       -62.3493      -12.02259              1      0.7375574
      1706.5000        56.2672       82.96452         0.5088       -61.8008      -11.47857              1      0.7505103
      1707.0000        55.1167       81.29629          0.509       -61.5723      -11.25454              1      0.7558444
      1707.5000        54.9749       81.09021         0.5109       -61.4232      -11.10991              1       0.759288
      1708.0000        54.5844       80.52363         0.5198       -61.3417      -11.03288              1      0.7611219
      1708.5000        53.5782       79.06456         0.5329       -61.3937      -11.08935       0.980097      0.7597774
      1709.0000        53.4764       78.91646          0.546       -61.4838      -11.18393      0.9769459      0.7575256
      1709.5000        53.7151       79.26193         0.5594        -61.512       -11.2166      0.9842964      0.7567477
      1710.0000        53.9427       79.59131         0.5752       -61.4592      -11.16827      0.9913045      0.7578982
      1710.5000         53.867       79.48106         0.5896       -61.4244      -11.13794      0.9889587      0.7586204
      1711.0000        52.2432       77.12675         0.5973       -61.4094      -11.12741       0.938867      0.7588711
      1711.5000         50.376        74.4196         0.6011       -61.3761      -11.09859      0.8812681      0.7595574
      1712.0000        50.2755       74.27338         0.6044       -61.3279      -11.05486       0.878157      0.7605986
      1712.5000        50.4539       74.53146         0.6071       -61.1818      -10.91323       0.883648      0.7639706
      1713.0000        50.6904       74.87373          0.614       -61.0214      -10.75731      0.8909304      0.7676832
      1713.5000        51.0576       75.40546         0.6242       -60.4892      -10.22958      0.9022439      0.7802481
      1714.0000        51.2451       75.67672         0.6375       -59.8841      -9.628952      0.9080153      0.7945487
      1714.5000        50.5936        74.7318          0.652       -59.0364      -8.785721      0.8879107      0.8146257
      1715.0000        47.3965       70.09692         0.6705       -58.1794      -7.933197      0.7892963      0.8349239
      1715.5000        49.1484       72.63586         0.6878       -57.5511      -7.309368      0.8433161      0.8497769
      1716.0000         54.193       79.94771         0.7015       -58.3799      -8.142643      0.9988874      0.8299371
      1716.5000        55.7254       82.16846         0.7125       -59.4559       -9.22311              1      0.8042117
      1717.0000        55.1243        81.2966         0.7181       -60.2358      -10.00749              1       0.785536
      1717.5000        54.0651        79.7607         0.7157       -60.8476      -10.62376      0.9949086      0.7708629
      1718.0000         53.322       78.68301         0.7097       -61.1579      -10.93853      0.9719788      0.7633683
      1718.5000        52.9928        78.2053          0.701       -61.3773       -11.1624      0.9618149       0.758038
      1719.0000        53.3926       78.78428         0.6898        -61.115      -10.90458      0.9741336      0.7641768
      1719.5000          53.77       79.33081         0.6711       -60.8184      -10.61245      0.9857619      0.7711322
      1720.0000        54.1218       79.84022         0.6468       -60.4688      -10.26732      0.9966004      0.7793496
      1720.5000        55.1895       81.38737          0.622       -59.6942      -9.497192              1      0.7976859
      1721.0000        55.9869       82.54271         0.6047       -58.9193      -8.726765              1      0.8160294
      1721.5000        56.3817       83.11443         0.5887       -58.3456      -8.157539              1      0.8295824
      1722.0000          54.28       80.06739         0.5752        -59.475      -9.291409              1      0.8025855
      1722.5000        51.6996       76.32645         0.5677          -60.4      -10.22088      0.9218393      0.7804552
      1723.0000        51.9005       76.61713         0.5625        -61.209      -11.03436       0.928024      0.7610868
      1723.5000        52.8806        78.0373         0.5576       -61.9686      -11.79843      0.9582404      0.7428946
      1724.0000         53.962       79.60429         0.5538       -62.4662       -12.3005      0.9915807      0.7309404
      1724.5000        54.1528       79.88033         0.5506       -62.9332      -12.77197      0.9974537      0.7197149
      1725.0000        53.7632       79.31506         0.5494       -63.1106      -12.95385      0.9854267      0.7153846
      1725.5000        52.9798       78.17896         0.5489       -63.0599      -12.90762      0.9612545      0.7164853
      1726.0000        52.2213       77.07893         0.5493       -62.7756      -12.62779      0.9378496      0.7231479
      1726.5000        51.7625       76.41335         0.5484       -62.4673      -12.32396      0.9236882      0.7303818
      1727.0000        51.9849       76.73518         0.5469       -62.0739      -11.93503      0.9305359      0.7396421
      1727.5000         51.935       76.66231         0.5434       -61.6805      -11.54611      0.9289853      0.7489022
      1728.0000        51.1877       75.57854         0.5381       -61.4266      -11.29668      0.9059265       0.754841
      1728.5000          49.84       73.62446         0.5336       -61.2103      -11.08485      0.8643502      0.7598844
