#------------------------------------------------------------------------------
# Created by    : vladimir.rabinovich
# Created on    : 09/19/2023 17:21:25
#------------------------------------------------------------------------------
~Version Information Section
VERS.           2.0     :   CWLS log ASCII Standard - VERSION 2.0
WRAP.           NO      :   One line per depth step
~Well Information Section
#MNEM       .UNIT                                         VALUE :DESCRIPTION
#------------------------------------------------------------------------------
STRT        .FT                                            2957 :START DEPTH
STOP        .FT                                            7390 :STOP DEPTH
STEP        .FT                                             0.5 :STEP      
NULL        .                                           -999.25 :NULL      
COMP        .                              DEVON LOUISIANA CORP :COMPANY   
WELL        .                               OCS G09039 ST00BP00 :WELL      
FLD         .                              GALVESTON BLOCK 0273 :FIELD     
LOC         .                                                   :LOCATION  
CNTY        .                             GALVESTON LARGE BLOCK :LOCATION  
STAT        .                                             TEXAS :STATE     
CTRY        .                                     UNITED STATES :COUNTRY   
SRVC        .                                                   :SERVICE COMPANY
DATE        .                             9/13/2023 11:19:54 AM :LOG DATE  
API         .                                    42706403330000 :API NUMBER
UWI         .                                    42706403330000 :UNIQUE WELL ID
XCOORD      .                                  1020560.14583294 :SURFACE X 
YCOORD      .                                  10500181.0477632 :SURFACE Y 
LAT         .                                        28.9197225 :LATITUDE  
LON         .                                       -94.9380297 :LONGITUDE 
ELEV        .FT                                              98 :ELEVATION VALUE
ELEV_TYPE   .                                                KB :ELEVATION REFERENCE TYPE
~Curve Information Section
#MNEM       .UNIT                                      API CODE :CURVE DESCRIPTION
#------------------------------------------------------------------------------
DEPT        .FT                                                 :DEPTH     
CALI        .IN                                                 :          
DCAL        .IN                                                 :          
DPHI        .%                                                  :          
DRHO        .G/C3                                               :          
GR          .GAPI                                               :          
GR_NORM     .GAPI                                               :GammaRay Normalized
ILD         .OHMM                                               :          
ILM         .OHMM                                               :          
LL3         .OHMM                                               :          
NPHI        .%                                                  :          
SP          .MV                                                 :          
SP_NORM     .MV                                                 :SP Normalized
VSH_GR      .V/V                                                :Volume of Shale from GR
VSH_SP      .V/V                                                :Volume of Shale from SP
~A        DEPTH           CALI           DCAL           DPHI           DRHO             GR        GR_NORM            ILD            ILM            LL3           NPHI             SP        SP_NORM         VSH_GR         VSH_SP
# ...
      5603.0000        10.3873         0.4581        25.1836         0.0416        64.2139       67.93492         0.3656         0.4173         0.7291        35.6581       -31.8983      -31.38105      0.7432962      0.5516993
      5603.5000         10.383         0.4653        24.8415         0.0408        65.6746       69.60954         0.3745         0.4232         0.6508        36.4017       -27.6826      -27.16755      0.7789264      0.6118922
      5604.0000         10.384         0.4847        25.1005          0.037         66.089        70.0844         0.3802         0.4215         0.6515        37.5361       -24.9401      -24.42725      0.7890297      0.6510393
      5604.5000        10.3909         0.5044        25.7588         0.0371        66.3104       70.33796         0.3815         0.4151         0.6677        38.6845       -24.9267      -24.41605      0.7944247      0.6511993
      5605.0000        10.4045         0.5131         26.224         0.0408        66.9666       71.09008         0.3783           0.41         0.5757        39.5884       -26.1946      -25.68615      0.8104272       0.633055
      5605.5000        10.4231         0.5162        26.3626         0.0465        68.9388       73.35121         0.3676          0.408         0.5076        40.0212       -25.9173      -25.41105      0.8585364      0.6369851
      5606.0000        10.4365         0.5076         26.205         0.0501        70.1112       74.69524          0.347         0.4063         0.5685        40.1157       -23.5513      -23.04725      0.8871328      0.6707536
      5606.5000        10.4357         0.4834        25.8756         0.0512        70.3597       74.97988         0.3181         0.3994         0.6877        39.9211       -20.8494      -20.34755       0.893189      0.7093207
      5607.0000        10.4239         0.4582        25.6635         0.0558        69.5393       74.03883         0.2876         0.3833         0.5861        39.3506       -20.8726      -20.37295      0.8731665      0.7089579
      5607.5000        10.3941         0.4376        26.0586         0.0605        65.4786       69.38224         0.2612         0.3592         0.5458        38.4584       -25.1967      -24.69925      0.7740902      0.6471536
      5608.0000        10.3651         0.4132        27.5295         0.0584         61.551       64.87827         0.2408         0.3323         0.5622        37.4745       -32.9896      -32.49435       0.678261       0.535795
      5608.5000        10.3549         0.4088        29.0101         0.0517        56.5928       59.19255         0.2255         0.3067         0.6241         36.453       -41.9317      -41.43865      0.5572884      0.4080193
      5609.0000         10.363         0.4061        30.0686         0.0484        50.2467       51.91536         0.2143         0.2877         0.5944        35.4234       -50.4747      -49.98385      0.4024545       0.285945
      5609.5000        10.4025         0.4339        30.5143          0.053        46.7234         47.875         0.2083         0.2803         0.5314        34.3526       -56.3375      -55.84885      0.3164894      0.2021593
      5610.0000        10.4741         0.5353        30.1958         0.0611        45.1733       46.09723         0.2107         0.2873         0.5667        33.1242       -57.5694      -57.08295      0.2786645      0.1845293
      5610.5000        10.5434         0.6644         28.576         0.0626        45.2338       46.16629          0.224          0.308         0.6798         31.915       -54.3751      -53.89085      0.2801338      0.2301308
      5611.0000        10.6019         0.7754        26.2614          0.052        46.1035       47.16322         0.2488         0.3402         0.7463        30.8738       -48.9485      -48.46645      0.3013451      0.3076221
      5611.5000        10.6691         0.9081         23.947         0.0362        46.7722       47.92968         0.2863         0.3784         0.7674        29.9465       -44.0903      -43.61045      0.3176528      0.3769936
      5612.0000          10.89         1.0804        23.3449         0.0283        46.9078       48.08485         0.3358         0.4203         0.7984        29.0789       -41.2591      -40.78145      0.3209542      0.4174079
      5612.5000        11.0417         1.1216        23.4492         0.0336        44.9805       45.87456          0.395          0.469         0.8384        28.5836       -39.8189      -39.34345      0.2739268      0.4379507
      5613.0000         11.042         1.0694        23.9159         0.0471        44.1234       44.89143          0.459         0.5252         0.9055        28.4191       -38.1135      -37.64025      0.2530091      0.4622822
      5613.5000        11.0053         1.0361           24.2         0.0616        48.3729       49.76386         0.5215         0.5793          1.244        28.5815       -35.1121      -34.64104      0.3566779      0.5051279
      5614.0000        10.8963          0.964        24.2694         0.0695        56.6865       59.29648         0.5749         0.6194         1.3886        29.3594       -30.0655      -29.59665      0.5594996      0.5771908
      5614.5000        10.7796         0.8264        23.7419         0.0694        64.9904       68.81796         0.6187         0.6412         0.9076        31.1951       -23.5418      -23.07515      0.7620843       0.670355
      5615.0000        10.7244          0.753        22.8915         0.0645        71.9949       76.84948         0.6513         0.6511          0.637        33.7803       -16.8203      -16.35585      0.9329677       0.766345
      5615.5000        10.6971         0.7555        22.2208         0.0588        73.9642       79.10728         0.6686         0.6566         0.6596        36.6522       -11.3767      -10.91445      0.9810059      0.8440793
      5616.0000         10.679         0.7389          21.81         0.0552        74.7384       79.99472         0.6689         0.6566          0.726        39.3036        -8.2506      -7.790547      0.9998876      0.8887064
      5616.5000        10.6626         0.7317        21.8233         0.0533        76.2577       81.73651         0.6551         0.6493         0.7496        41.0556        -7.0659      -6.608047              1      0.9055994
      5617.0000        10.6449         0.7127        22.5434         0.0516        78.6665       84.49828         0.6322         0.6369          0.673        41.7924        -6.5939      -6.138247              1      0.9123108
      5617.5000        10.6226         0.6942        23.3833         0.0533         80.851       87.00286         0.6051         0.6221         0.6142        41.9191          -6.28      -5.826547              1      0.9167636
      5618.0000        10.5994         0.6782        24.1124         0.0563        82.4708       88.85992         0.5751          0.606         0.5904        42.1625        -6.0424      -5.591146              1      0.9201265
      5618.5000        10.5916         0.6672        24.6652         0.0537        83.1415       89.62867         0.5412         0.5867         0.6064        42.9377        -5.8974      -5.448347              1      0.9221665
      5619.0000        10.5943         0.6799        24.8959          0.054        79.9708       85.99261         0.5028         0.5616         0.5985        44.1005        -6.0779      -5.631047              1      0.9195565
      5619.5000        10.6855         0.7489        25.1573         0.0522        74.7043       79.95338           0.46         0.5276           0.53        44.9973        -7.0876      -6.642947       0.999008      0.9051008
      5620.0000        10.8389         0.9113        25.6963         0.0485        66.6471       70.71413         0.4135         0.4847         0.6262        44.8575       -10.4896      -10.04715      0.8024284      0.8564693
      5620.5000        11.0466         1.1362         26.989         0.0464        58.6392       61.53141         0.3697          0.439         0.7951        43.3923       -17.6695      -17.22925      0.6070514      0.7538679
