#------------------------------------------------------------------------------
# Created by    : vladimir.rabinovich
# Created on    : 09/19/2023 17:22:39
#------------------------------------------------------------------------------
~Version Information Section
VERS.           2.0     :   CWLS log ASCII Standard - VERSION 2.0
WRAP.           NO      :   One line per depth step
~Well Information Section
#MNEM       .UNIT                                         VALUE :DESCRIPTION
#------------------------------------------------------------------------------
STRT        .FT                                            3493 :START DEPTH
STOP        .FT                                            8566 :STOP DEPTH
STEP        .FT                                             0.5 :STEP      
NULL        .                                           -999.25 :NULL      
COMP        .                          SEAGULL ENERGY E & P INC :COMPANY   
WELL        .                               OCS G09038 ST00BP00 :WELL      
FLD         .                                           WILDCAT :FIELD     
LOC         .                                                   :LOCATION  
CNTY        .                             GALVESTON LARGE BLOCK :LOCATION  
STAT        .                                             TEXAS :STATE     
CTRY        .                                     UNITED STATES :COUNTRY   
SRVC        .                                                   :SERVICE COMPANY
DATE        .                             9/13/2023 11:19:36 AM :LOG DATE  
API         .                                    42706402070000 :API NUMBER
UWI         .                                    42706402070000 :UNIQUE WELL ID
XCOORD      .                                  986976.405819811 :SURFACE X 
YCOORD      .                                  10491452.3738699 :SURFACE Y 
LAT         .                                         28.894171 :LATITUDE  
LON         .                                        -95.042508 :LONGITUDE 
ELEV        .FT                                              93 :ELEVATION VALUE
ELEV_TYPE   .                                                KB :ELEVATION REFERENCE TYPE
~Curve Information Section
#MNEM       .UNIT                                      API CODE :CURVE DESCRIPTION
#------------------------------------------------------------------------------
DEPT        .FT                                                 :DEPTH     
DCAL        .IN                                                 :          
DPHI        .%                                                  :          
DRHO        .G/C3                                               :          
GR          .GAPI                                               :          
GR_NORM     .GAPI                                               :GammaRay Normalized
ILD         .OHMM                                               :          
ILM         .OHMM                                               :          
NPHI        .%                                                  :          
SGRD        .OHMM                                               :          
SP          .MV                                                 :          
SP_NORM     .MV                                                 :SP Normalized
VSH_GR      .V/V                                                :Volume of Shale from GR
VSH_SP      .V/V                                                :Volume of Shale from SP
~A        DEPTH           DCAL           DPHI           DRHO             GR        GR_NORM            ILD            ILM           NPHI           SGRD             SP        SP_NORM         VSH_GR         VSH_SP
# ...
      8547.0000          0.517        30.6888         0.2737        -999.25        -999.25         0.6371         0.6809        -999.25         0.8575       -36.9669       2.581123        -999.25              1
      8547.5000         0.5399        30.5331         0.2759        -999.25        -999.25         0.6418         0.6956        -999.25         0.8649       -36.8164       2.731625        -999.25              1
      8548.0000         0.5632        30.4346         0.2778        -999.25        -999.25         0.6599         0.7163        -999.25         0.8725        -36.628       2.920025        -999.25              1
      8548.5000         0.5866        30.3261         0.2822        -999.25        -999.25         0.6977         0.7437        -999.25         0.8871       -36.3869       3.161121        -999.25              1
      8549.0000         0.5969        30.2577         0.2837        -999.25        -999.25          0.739         0.7803        -999.25         0.9129       -36.4221       3.125923        -999.25              1
      8549.5000         0.6059        30.4491         0.2814        -999.25        -999.25         0.7764         0.8151        -999.25         0.9645       -37.2387       2.309322        -999.25              1
      8550.0000          0.602        30.7768         0.2773        -999.25        -999.25         0.8078         0.8515        -999.25         1.0236       -39.1577      0.3903236        -999.25              1
      8550.5000         0.5973        31.1146         0.2722        -999.25        -999.25         0.8296          0.883        -999.25         1.0063        -41.109      -1.560978        -999.25      0.9804878
      8551.0000          0.603         31.309         0.2683        -999.25        -999.25         0.8317         0.9093        -999.25         0.9989       -42.8257      -3.277676        -999.25      0.9590291
      8551.5000         0.6154        31.3712         0.2643        -999.25        -999.25         0.8164         0.9101        -999.25         1.0123       -45.0067      -5.458675        -999.25      0.9317666
      8552.0000         0.6282        31.2561         0.2617        -999.25        -999.25          0.794         0.8652        -999.25          1.044       -46.7435      -7.195477        -999.25      0.9100565
      8552.5000         0.6251        30.8481         0.2625        -999.25        -999.25         0.7724          0.809        -999.25         1.0764       -48.0722      -8.524178        -999.25      0.8934478
      8553.0000          0.586        30.4836         0.2672        -999.25        -999.25         0.7526         0.7835        -999.25         1.0752       -48.1039      -8.555878        -999.25      0.8930515
      8553.5000         0.2786        30.9039         0.2792        -999.25        -999.25          0.745         0.7759        -999.25         1.0093        -48.088      -8.539978        -999.25      0.8932503
      8554.0000         -0.043        33.5287         0.3076        -999.25        -999.25         0.7673         0.7979        -999.25         0.9716       -48.0551      -8.507076        -999.25      0.8936616
      8554.5000        -999.25        -999.25        -999.25        -999.25        -999.25         0.7947         0.8765        -999.25         1.1398        -48.009      -8.460976        -999.25      0.8942378
      8555.0000        -999.25        -999.25        -999.25        -999.25        -999.25         0.8032         0.9842        -999.25         1.2663       -48.1246      -8.576576        -999.25      0.8927928
      8555.5000        -999.25        -999.25        -999.25        -999.25        -999.25         0.7954          1.029        -999.25         1.3308       -48.3401      -8.792076        -999.25       0.890099
      8556.0000        -999.25        -999.25        -999.25        -999.25        -999.25         0.7885         1.0029        -999.25         1.2489       -48.4706      -8.922577        -999.25      0.8884678
      8556.5000        -999.25        -999.25        -999.25        -999.25        -999.25         0.7869         0.9657        -999.25         1.0618       -48.4701      -8.922077        -999.25       0.888474
      8557.0000        -999.25        -999.25        -999.25        -999.25        -999.25         0.7859         0.9199        -999.25         0.9459       -48.4688      -8.920776        -999.25      0.8884903
      8557.5000        -999.25        -999.25        -999.25        -999.25        -999.25         0.7854            0.9        -999.25         0.9065       -48.4646      -8.916576        -999.25      0.8885428
      8558.0000        -999.25        -999.25        -999.25        -999.25        -999.25         0.7864         0.8985        -999.25         0.9464       -48.4025      -8.854477        -999.25      0.8893191
      8558.5000        -999.25        -999.25        -999.25        -999.25        -999.25         0.7881         0.8962        -999.25         0.9824       -48.1287      -8.580677        -999.25      0.8927416
      8559.0000        -999.25        -999.25        -999.25        -999.25        -999.25         0.7895         0.8949        -999.25         1.0061       -47.9581      -8.410076        -999.25       0.894874
      8559.5000        -999.25        -999.25        -999.25        -999.25        -999.25         0.7909         0.8936        -999.25         1.0037       -47.8511      -8.303078        -999.25      0.8962115
      8560.0000        -999.25        -999.25        -999.25        -999.25        -999.25         0.7921         0.8933        -999.25         0.9665       -47.8324      -8.284378        -999.25      0.8964453
      8560.5000        -999.25        -999.25        -999.25        -999.25        -999.25          0.793         0.8935        -999.25         0.9256       -47.8016      -8.253578        -999.25      0.8968303
      8561.0000        -999.25        -999.25        -999.25        -999.25        -999.25         0.7928         0.8937        -999.25         0.9129       -47.8387      -8.290676        -999.25      0.8963665
      8561.5000        -999.25        -999.25        -999.25        -999.25        -999.25         0.7906         0.8939        -999.25         0.9057       -47.9218      -8.373775        -999.25      0.8953278
      8562.0000        -999.25        -999.25        -999.25        -999.25        -999.25         0.7899          0.893        -999.25         0.9012       -47.9578      -8.409779        -999.25      0.8948778
      8562.5000        -999.25        -999.25        -999.25        -999.25        -999.25         0.7901         0.8909        -999.25         0.8987       -47.9937      -8.445675        -999.25      0.8944291
      8563.0000        -999.25        -999.25        -999.25        -999.25        -999.25         0.7899          0.889        -999.25          0.897       -48.0672      -8.519176        -999.25      0.8935103
      8563.5000        -999.25        -999.25        -999.25        -999.25        -999.25         0.7894         0.8876        -999.25         0.8957       -48.1992      -8.651176        -999.25      0.8918603
      8564.0000        -999.25        -999.25        -999.25        -999.25        -999.25         0.7889         0.8866        -999.25         0.8929       -48.1974      -8.649376        -999.25      0.8918828
      8564.5000        -999.25        -999.25        -999.25        -999.25        -999.25         0.7884          0.886        -999.25         0.8897        -48.146      -8.597977        -999.25      0.8925253
      8565.0000        -999.25        -999.25        -999.25        -999.25        -999.25         0.7877         0.8852        -999.25          0.893        -48.124      -8.575977        -999.25      0.8928003
      8565.5000        -999.25        -999.25        -999.25        -999.25        -999.25         0.7866         0.8839        -999.25         0.8953       -48.1294      -8.581375        -999.25      0.8927328
