#------------------------------------------------------------------------------
# Created by    : vladimir.rabinovich
# Created on    : 09/19/2023 17:22:39
#------------------------------------------------------------------------------
~Version Information Section
VERS.           2.0     :   CWLS log ASCII Standard - VERSION 2.0
WRAP.           NO      :   One line per depth step
~Well Information Section
#MNEM       .UNIT                                         VALUE :DESCRIPTION
#------------------------------------------------------------------------------
STRT        .FT                                            3493 :START DEPTH
STOP        .FT                                            8566 :STOP DEPTH
STEP        .FT                                             0.5 :STEP      
NULL        .                                           -999.25 :NULL      
COMP        .                          SEAGULL ENERGY E & P INC :COMPANY   
WELL        .                               OCS G09038 ST00BP00 :WELL      
FLD         .                                           WILDCAT :FIELD     
LOC         .                                                   :LOCATION  
CNTY        .                             GALVESTON LARGE BLOCK :LOCATION  
STAT        .                                             TEXAS :STATE     
CTRY        .                                     UNITED STATES :COUNTRY   
SRVC        .                                                   :SERVICE COMPANY
DATE        .                             9/13/2023 11:19:36 AM :LOG DATE  
API         .                                    42706402070000 :API NUMBER
UWI         .                                    42706402070000 :UNIQUE WELL ID
XCOORD      .                                  986976.405819811 :SURFACE X 
YCOORD      .                                  10491452.3738699 :SURFACE Y 
LAT         .                                         28.894171 :LATITUDE  
LON         .                                        -95.042508 :LONGITUDE 
ELEV        .FT                                              93 :ELEVATION VALUE
ELEV_TYPE   .                                                KB :ELEVATION REFERENCE TYPE
~Curve Information Section
#MNEM       .UNIT                                      API CODE :CURVE DESCRIPTION
#------------------------------------------------------------------------------
DEPT        .FT                                                 :DEPTH     
DCAL        .IN                                                 :          
DPHI        .%                                                  :          
DRHO        .G/C3                                               :          
GR          .GAPI                                               :          
GR_NORM     .GAPI                                               :GammaRay Normalized
ILD         .OHMM                                               :          
ILM         .OHMM                                               :          
NPHI        .%                                                  :          
SGRD        .OHMM                                               :          
SP          .MV                                                 :          
SP_NORM     .MV                                                 :SP Normalized
VSH_GR      .V/V                                                :Volume of Shale from GR
VSH_SP      .V/V                                                :Volume of Shale from SP
~A        DEPTH           DCAL           DPHI           DRHO             GR        GR_NORM            ILD            ILM           NPHI           SGRD             SP        SP_NORM         VSH_GR         VSH_SP
# ...
      3835.0000        10.0538        32.9404         0.0114        40.7357       49.45626         0.3948         0.5417        33.2989         1.2973      -116.0405      -57.24695      0.3501331      0.1455679
      3835.5000        10.1887        32.9012         0.0112        39.2471       47.41487         0.4063         0.5607        33.6304         1.2958      -115.6171      -56.82541      0.3066994      0.1518596
      3836.0000        10.0751         32.838          0.011        37.9026       45.57063          0.418         0.5816        33.9486         1.2796      -115.2505      -56.46067      0.2674601      0.1573035
      3836.5000         9.9497        32.7343         0.0108        38.1962       45.96745         0.4273         0.5963        34.2422         1.2615      -115.0398      -56.25182      0.2759031      0.1604206
      3837.0000         9.9829        32.5604         0.0106        38.6516       46.58564         0.4386         0.5942        34.4997         1.2503      -114.8494      -56.06328      0.2890562      0.1632347
      3837.5000        10.0958        32.3159         0.0103        39.1935       47.32215         0.4508         0.5995        34.7208         1.2461      -114.6755      -55.89123      0.3047267      0.1658025
      3838.0000         10.199        32.0837         0.0101        40.3533       48.90402         0.4637         0.6092        34.8791         1.2584      -114.7739      -55.99149      0.3383835      0.1643061
      3838.5000        10.1918        31.8094         0.0099        42.0684        51.2456         0.4745         0.6237        35.0141         1.2864      -114.9683      -56.18774      0.3882043       0.161377
      3839.0000         9.9473        31.3947         0.0097        43.8483       53.67583         0.4844         0.6412        35.1683         1.3175      -115.3059       -56.5272      0.4399112      0.1563104
      3839.5000         9.5948         30.896         0.0098        43.2341       52.83069         0.4926         0.6608        35.0988         1.3528      -115.7296      -56.95276      0.4219296      0.1499588
      3840.0000          9.209        30.3296           0.01        42.2435       51.47061         0.4984         0.6822        34.8643         1.3864      -116.1881      -57.41312      0.3929917      0.1430878
      3840.5000         8.8401        29.8891         0.0109        40.9436       49.68738         0.5013         0.7032        34.4793         1.4177      -116.7557      -57.98257      0.3550506      0.1345885
      3841.0000         8.6638        29.6318         0.0124        39.2347       47.34459         0.4928          0.682        34.0287         1.4053      -117.3376      -58.56633      0.3052041      0.1258757
      3841.5000         8.6466        29.4914         0.0137        37.9806       45.62401         0.4766         0.6556        33.9975          1.351      -117.9413      -59.17188       0.268596      0.1168376
      3842.0000         8.9213        30.0725         0.0145        38.3608       46.13933         0.4557          0.631        34.3325         1.2996        -118.49      -59.72244      0.2795602      0.1086203
      3842.5000         9.4017        31.3488         0.0154        38.8307       46.77734         0.4369         0.6057        34.5081         1.2738      -118.8147        -60.049       0.293135      0.1037463
      3843.0000         9.7743        32.7117         0.0156        39.2248       47.31166         0.4196         0.5835        34.6135         1.2652      -118.9271      -60.16325      0.3045035       0.102041
      3843.5000        10.1217        33.9476         0.0158        39.4215       47.57592         0.4044         0.5653        34.7784         1.2571      -118.8353      -60.07331      0.3101259      0.1033835
      3844.0000        10.2769        34.9766         0.0156        38.7632       46.67046         0.3918         0.5521         34.993         1.2425       -118.613      -59.85287      0.2908608      0.1066736
      3844.5000        10.2906        35.5892         0.0148        36.8477       44.04502         0.3821         0.5448        35.2548         1.2235      -118.2701      -59.51183      0.2350005      0.1117638
      3845.0000        10.4661        35.5529          0.012        35.2839       41.90076         0.3744           0.54        35.4548         1.2118      -117.8754      -59.11898      0.1893778      0.1176272
      3845.5000        10.6951        35.2405         0.0095        35.7411        42.5214         0.3722         0.5354        35.4697         1.2188      -117.4421      -58.68754      0.2025831      0.1240666
      3846.0000        10.9499        34.9619         0.0077        35.9147       42.75406         0.3712         0.5368         35.453         1.2458      -117.1714      -58.41869      0.2075331      0.1280792
      3846.5000        11.1175        34.9156         0.0061        39.5985       47.78899         0.3706         0.5342        35.4642         1.2349      -116.9395      -58.18865      0.3146594      0.1315127
      3847.0000        10.9311        34.8652         0.0047         42.207       51.35282         0.3706         0.5297        36.0451         1.2038      -116.7704      -58.02141      0.3904856      0.1340088
      3847.5000        10.8713        34.8927         0.0024        43.6016       53.25592         0.3704         0.5254        37.3394         1.1753      -116.5479      -57.80076       0.430977      0.1373021
      3848.0000        10.9713        35.1492        -0.0009        43.3826       52.95146         0.3693         0.5209        38.5065          1.151      -116.3036      -57.55832      0.4244991      0.1409207
      3848.5000        11.0577        35.7096        -0.0035         45.261       55.51644         0.3692         0.5172        39.5915         1.1324      -116.1284      -57.38498      0.4790732      0.1435078
      3849.0000        11.1166          36.31        -0.0047        45.1125       55.30843         0.3696         0.5166         40.604         1.1221      -115.9933      -57.25173      0.4746474      0.1454965
      3849.5000        11.1547        36.9037         0.0008        43.7526       53.44312         0.3739         0.5199        41.3647          1.115      -115.9626      -57.22289      0.4349599       0.145927
      3850.0000        11.1751        37.6323           0.01        41.9435       50.96325         0.3784         0.5258        41.8814         1.1003        -115.97      -57.23215      0.3821967      0.1457888
      3850.5000        11.1737        38.3765         0.0193        39.8212        48.0549         0.3834         0.5316        42.3174         1.0844      -115.9178       -57.1818       0.320317      0.1465403
      3851.0000        11.1685        39.3531         0.0277        37.7684       45.24162         0.3889         0.5378        42.7874         1.0666      -115.6278      -56.89366        0.26046      0.1508409
      3851.5000        11.1715        39.1297         0.0361        39.0627        47.0075         0.3949         0.5443        42.9362         1.0546      -115.3857      -56.65341       0.298032      0.1544267
      3852.0000        11.1744        38.3586         0.0442        41.1404       49.84514         0.4011          0.551         42.035          1.057      -115.1725      -56.44207      0.3584072       0.157581
      3852.5000        11.1843        38.6266         0.0499        42.8517       52.18152         0.4076         0.5586        40.9642         1.0661      -115.0225      -56.29393      0.4081175      0.1597921
      3853.0000        11.1901        38.0458         0.0489        43.6757       53.30398         0.4158         0.5681        39.8164         1.0796      -114.8633      -56.13658      0.4319996      0.1621406
      3853.5000        11.1988        37.2504         0.0448        42.6191        51.8536         0.4251         0.5775        38.7494         1.0927      -114.7312      -56.00634      0.4011404      0.1640845
