#------------------------------------------------------------------------------
# Created by    : vladimir.rabinovich
# Created on    : 09/19/2023 17:19:22
#------------------------------------------------------------------------------
~Version Information Section
VERS.           2.0     :   CWLS log ASCII Standard - VERSION 2.0
WRAP.           NO      :   One line per depth step
~Well Information Section
#MNEM       .UNIT                                         VALUE :DESCRIPTION
#------------------------------------------------------------------------------
STRT        .FT                                            2350 :START DEPTH
STOP        .FT                                            7008 :STOP DEPTH
STEP        .FT                                             0.5 :STEP      
NULL        .                                           -999.25 :NULL      
COMP        .                                  W&T OFFSHORE INC :COMPANY   
WELL        .                               OCS G04565 ST00BP00 :WELL      
FLD         .                              GALVESTON BLOCK 0303 :FIELD     
LOC         .                                                   :LOCATION  
CNTY        .                             GALVESTON LARGE BLOCK :LOCATION  
STAT        .                                             TEXAS :STATE     
CTRY        .                                     UNITED STATES :COUNTRY   
SRVC        .                                                   :SERVICE COMPANY
DATE        .                             9/13/2023 11:19:03 AM :LOG DATE  
API         .                                    42706403950000 :API NUMBER
UWI         .                                    42706403950000 :UNIQUE WELL ID
XCOORD      .                                  979190.041446607 :SURFACE X 
YCOORD      .                                   10483081.623763 :SURFACE Y 
LAT         .                                        28.8707847 :LATITUDE  
LON         .                                       -95.0663777 :LONGITUDE 
ELEV        .FT                                              91 :ELEVATION VALUE
ELEV_TYPE   .                                                KB :ELEVATION REFERENCE TYPE
~Curve Information Section
#MNEM       .UNIT                                      API CODE :CURVE DESCRIPTION
#------------------------------------------------------------------------------
DEPT        .FT                                                 :DEPTH     
AF20        .OHMM                                               :          
AFCO        .MMHO                                               :          
AO90        .OHMM                                               :          
AT10        .OHMM                                               :          
AT20        .OHMM                                               :          
AT30        .OHMM                                               :          
AT60        .OHMM                                               :          
AT90        .OHMM                                               :          
DCAL        .IN                                                 :          
DPHI        .%                                                  :          
DRHO        .G/C3                                               :          
GR          .GAPI                                               :          
GR_NORM     .GAPI                                               :GammaRay Normalized
GRN         .GAPI                                               :          
NPOR        .%                                                  :          
RWA         .OHMM                                               :          
SP          .MV                                                 :          
SP_NORM     .MV                                                 :SP Normalized
TENR        .LBF                                                :          
TPHI        .%                                                  :          
VSH_GR      .V/V                                                :Volume of Shale from GR
VSH_SP      .V/V                                                :Volume of Shale from SP
~A        DEPTH           AF20           AFCO           AO90           AT10           AT20           AT30           AT60           AT90           DCAL           DPHI           DRHO             GR        GR_NORM            GRN           NPOR            RWA             SP        SP_NORM           TENR           TPHI         VSH_GR         VSH_SP
# ...
      5194.0000            0.3       4166.664           0.24           0.47           0.33           0.29           0.26           0.26          6.725           36.3          -0.01           35.1       37.83857         26.016        42.4531           0.04            -78      -62.94726           2550           36.2      0.1029482              0
      5194.5000            0.3       4545.453           0.22           0.43           0.31           0.27           0.25           0.25          7.125        35.4999              0           32.8       35.75773         25.016        42.0809           0.04          -78.6      -63.54327           2550           36.2     0.05867508              0
      5195.0000           0.29       5263.156           0.19           0.38           0.28           0.25           0.23           0.24          7.725        34.9999              0           30.9        34.0369         24.016        43.0974           0.03       -78.2999      -63.23919           2550           36.3     0.02206161              0
      5195.5000           0.28       5555.555           0.18           0.36           0.27           0.24           0.22           0.23          8.225           34.4           0.01           27.3       30.78606         23.344        44.8463           0.03          -78.1      -63.03531           2460           37.2              0              0
      5196.0000           0.28       5555.555           0.18           0.35           0.26           0.23           0.21           0.22          8.625        34.5999              0             27       30.50523         23.438        46.5598           0.03            -78      -62.93132           2460           37.1              0              0
      5196.5000           0.28       5555.555           0.18           0.35           0.26           0.23           0.21           0.22          8.625           35.1          -0.01           24.7       28.42439         23.781        46.7787           0.03       -77.3999      -62.32724           2460        37.7999              0              0
      5197.0000           0.28       5263.156           0.19           0.36           0.27           0.23           0.22           0.22          8.825           35.1          -0.02             27       30.48355         24.875        45.9414           0.03          -77.5      -62.42336           2460           38.7              0              0
      5197.5000           0.28       5263.156           0.19           0.37           0.27           0.24           0.22           0.23          9.225           34.9          -0.02           28.7       32.00272         23.453        44.2865           0.03       -77.3999      -62.31928           2475           39.6              0              0
      5198.0000           0.29       5263.156           0.19           0.39           0.28           0.25           0.23           0.23          9.325        34.4999          -0.02           27.1       30.55188         23.453          42.12           0.03       -77.3999       -62.3153           2475        38.4999              0              0
      5198.5000            0.3       5263.156           0.19           0.41            0.3           0.25           0.23           0.24          9.425           33.9              0           25.9       29.46105         22.781          40.62           0.03       -77.3999      -62.31131           2475           38.8              0              0
      5199.0000           0.31       5263.156           0.19           0.43           0.31           0.26           0.23           0.24          9.625           34.2              0           27.4       30.80021         23.438          41.88           0.03       -77.2999      -62.20732           2475           37.6              0              0
      5199.5000           0.31       5263.156           0.19           0.45           0.32           0.27           0.24           0.24          9.625           35.6              0           31.9       34.83938         24.109          45.66           0.03          -77.5      -62.40344           2465           38.8     0.03913571              0
      5200.0000           0.32       5263.156           0.19           0.47           0.33           0.28           0.24           0.25         10.125        35.4999           0.01           31.1       34.10854         24.016          49.92           0.03       -77.3999      -62.29936           2465        36.5999     0.02358603              0
      5200.5000           0.33       5263.156           0.19           0.49           0.34           0.28           0.24           0.25         10.325        35.2999           0.01           28.6       31.84771         24.016          50.52           0.03          -77.5      -62.39548           2465           37.7              0              0
      5201.0000           0.33           5000            0.2           0.49           0.34           0.28           0.24           0.25         10.425        35.2999              0           29.7       32.82687         23.688          51.36           0.03       -77.7999      -62.69139           2465           38.3              0              0
      5201.5000           0.33           5000            0.2           0.49           0.34           0.28           0.24           0.25         11.025           35.2          -0.01           31.5       34.43604         23.344           55.8           0.03       -77.7999      -62.68741           2485        39.4999     0.03055402              0
      5202.0000           0.32       5263.156           0.19           0.47           0.33           0.27           0.23           0.24         10.825        34.9999          -0.01           31.9        34.7852         23.016           57.3           0.03          -78.1      -62.98353           2485        40.0999     0.03798302              0
      5202.5000           0.32       5555.555           0.18           0.45           0.32           0.26           0.23           0.24         11.725        36.0999          -0.01           29.5       32.61437         23.453           54.3           0.03          -77.6      -62.47955           2485        39.3999              0              0
      5203.0000           0.31       5555.555           0.18           0.43           0.31           0.26           0.22           0.23         11.925           37.5          -0.01           29.4       32.51353         23.875           51.3           0.04          -77.6      -62.47556           2485        39.4999              0              0
      5203.5000           0.31       5555.555           0.18           0.42            0.3           0.25           0.22           0.23         11.925           38.4          -0.01           29.6       32.68269         25.875          49.02           0.04          -77.2      -62.07158           2535           38.3              0              0
      5204.0000            0.3       5555.555           0.18           0.41            0.3           0.25           0.22           0.23         12.125           37.9          -0.01           29.3       32.40186         26.781          46.92           0.04       -77.3999       -62.2675           2535           39.1              0              0
      5204.5000            0.3       5555.555           0.18           0.41           0.29           0.24           0.22           0.22         12.625        37.9999          -0.01           29.4       32.48102         27.688           46.2           0.04          -77.5      -62.36362           2535           39.2              0              0
      5205.0000            0.3       5555.555           0.18           0.41           0.29           0.24           0.22           0.22         12.525           38.4          -0.01             27       30.31018         26.016          48.18           0.04       -77.2999      -62.15953           2535        41.9999              0              0
      5205.5000            0.3       5555.555           0.18            0.4           0.29           0.25           0.22           0.22         13.025        39.7999          -0.01           24.9       28.40935         24.344           52.2           0.04       -77.2999      -62.15554           2505           40.8              0              0
