#------------------------------------------------------------------------------
# Created by    : vladimir.rabinovich
# Created on    : 09/19/2023 17:20:57
#------------------------------------------------------------------------------
~Version Information Section
VERS.           2.0     :   CWLS log ASCII Standard - VERSION 2.0
WRAP.           NO      :   One line per depth step
~Well Information Section
#MNEM       .UNIT                                         VALUE :DESCRIPTION
#------------------------------------------------------------------------------
STRT        .FT                                             601 :START DEPTH
STOP        .FT                                            9006 :STOP DEPTH
STEP        .FT                                             0.5 :STEP      
NULL        .                                           -999.25 :NULL      
COMP        .                                        SUN OIL CO :COMPANY   
WELL        .                               OCS G01715 ST00BP00 :WELL      
FLD         .                                           WILDCAT :FIELD     
LOC         .                                                   :LOCATION  
CNTY        .                                BRAZOS LARGE BLOCK :LOCATION  
STAT        .                                             TEXAS :STATE     
CTRY        .                                     UNITED STATES :COUNTRY   
SRVC        .                                                   :SERVICE COMPANY
DATE        .                             9/13/2023 11:18:52 AM :LOG DATE  
API         .                                    42704000710000 :API NUMBER
UWI         .                                    42704000710000 :UNIQUE WELL ID
XCOORD      .                                  842225.693118258 :SURFACE X 
YCOORD      .                                  10368215.6352389 :SURFACE Y 
LAT         .                                          28.54781 :LATITUDE  
LON         .                                        -95.486614 :LONGITUDE 
ELEV        .FT                                              79 :ELEVATION VALUE
ELEV_TYPE   .                                                KB :ELEVATION REFERENCE TYPE
~Curve Information Section
#MNEM       .UNIT                                      API CODE :CURVE DESCRIPTION
#------------------------------------------------------------------------------
DEPT        .FT                                                 :DEPTH     
ASN         .OHMM                                               :          
CALI        .IN                                                 :          
CILD        .MMHO                                               :          
DT          .US/F                                               :          
ILD         .OHMM                                               :          
SP          .MV                                                 :          
SP_NORM     .MV                                                 :SP Normalized
VSH_SP      .V/V                                                :Volume of Shale from SP
~A        DEPTH            ASN           CALI           CILD             DT            ILD             SP        SP_NORM         VSH_SP
       601.0000          0.093        15.1974       430.3618        179.168         0.9666        49.6678       2.426963              1
       601.5000         0.2124         15.201       662.5781       178.2476         0.6961        47.0481      0.5963123              1
       602.0000         0.4703        15.2024       894.8193       179.2317         0.4411        37.6052       3.275531              1
       602.5000         0.8694        15.2023       1127.061        185.002         0.4493        19.6094       1.968351              1
       603.0000         1.1719        15.2013       1147.518       194.4509         0.6062         4.5562       2.383731              1
       603.5000         1.6189        15.1998       1163.484       198.7229         1.1833        -2.6938       2.417685              1
       604.0000         1.8296        15.1984       1175.629        199.459         1.4607        -7.7813       3.657677              1
       604.5000              2        15.1903       1186.279       148.0415         1.7746       -12.1851       3.098819              1
       605.0000         1.8661        15.1809       1192.355       111.9166         2.0262       -16.0694       2.556036              1
       605.5000         1.9026        15.1716       1116.268       136.7805         2.2494       -18.0645     -0.8530709              1
       606.0000         1.9101        15.1626       962.3477       188.7888          2.116       -19.9313     -0.0287088              1
       606.5000         1.8879        15.1542       808.4404        201.407         1.9531       -21.8142     0.08404922              1
       607.0000         1.8964        15.1591       649.4678       200.7761         1.8803       -23.7233     -0.9165535              1
       607.5000         1.9287         15.164       600.2861        200.488         1.9387       -25.4705      -1.755255              1
       608.0000         1.9561        15.1689       560.1445       200.2061         2.0398       -26.6363      -2.012554      0.9986051
       608.5000         1.9898        15.1738       519.0635       199.9805         2.1146       -27.4871      -1.954855              1
       609.0000         2.0264        15.1767       522.6123       199.7551         2.1012       -28.1925      -1.751755              1
       609.5000         2.0513        15.1717       527.4883       199.9626          2.043       -28.8576      -1.508356              1
       610.0000         2.0728        15.1667       535.5449       200.5674          1.974       -29.6127      -1.354958              1
       610.5000         2.1094        15.1617       543.6006       200.9255         1.9439        -30.152     -0.9857597              1
       611.0000         2.1351        15.1568       551.6572       201.2839         1.9741       -30.3945     -0.3197613              1
       611.5000         2.1463        15.1525       559.7129       201.4834         2.0345       -30.5027      0.4673138              1
       612.0000         2.1687        15.1482       565.0742       201.5059         2.1071       -30.6495      0.8396568              1
       612.5000         2.2105        15.1439          566.5       201.5156         2.2074       -30.8275       1.180798              1
       613.0000         2.2714        15.1391       556.0488       201.7583         2.3253        -31.291       1.236439              1
       613.5000          2.347        15.1335       545.5986       202.0525         2.4425       -32.2027      0.8438797              1
       614.0000         2.4528        15.1279        534.957       202.3674         2.5893        -33.507     0.05872345              1
       614.5000         2.5482        15.1223       522.4219       202.1699         2.7277       -34.7604     -0.6755333              1
       615.0000         2.6201        15.1257       509.8867       202.1885         2.8391       -36.0085      -1.404488              1
       615.5000         2.6618         15.131       497.3521       202.2239         2.8991       -37.3571      -2.233948      0.9740058
       616.0000         2.6768        15.1363       483.3354       202.1648         2.9346       -38.4154      -2.773106      0.9140994
       616.5000         2.6843        15.1415       467.0664       201.6763         2.9277       -38.3466      -2.185162      0.9794265
       617.0000         2.6758        15.1461       450.8853       201.2625         2.8934       -38.5775      -1.896919              1
       617.5000         2.6767        15.1506        434.938       201.0244         2.8526        -39.274      -2.074276      0.9917471
       618.0000         2.6617        15.1552       418.9927       200.8699         2.8139       -39.9965      -2.277634      0.9691518
       618.5000          2.641        15.1583       417.3188       200.7002         2.7776       -40.8066      -2.568592      0.9368231
       619.0000         2.6096        15.1605       420.0562        200.156         2.7224       -41.5369      -2.779751       0.913361
       619.5000         2.5552        15.1628       425.3145       199.7983         2.6583       -42.2325      -2.956207      0.8937547
       620.0000         2.4955        15.1647       431.3823       200.0447         2.5898       -42.8079      -3.012466      0.8875037
       620.5000          2.459        15.1646       437.4502       200.4526         2.5437       -43.3032      -2.988625      0.8901528
       621.0000         2.4454        15.1646       443.5181       200.6199         2.5245       -43.1848       -2.82592      0.9082311
       621.5000         2.4465        15.1647       449.5859       200.6584         2.5149        -42.656      -2.467461      0.9480599
       622.0000         2.4697        15.1659       455.6538       200.4695         2.5053       -42.0883      -2.070107      0.9922104
       622.5000         2.4915        15.1671       460.8149       200.1553         2.4936       -41.4601      -1.612247              1
       623.0000         2.4952        15.1683       463.7471       199.8911         2.4736       -40.7115      -1.033993              1
       623.5000         2.4774        15.1631       466.6792       200.1621         2.4565       -39.9668     -0.4596405              1
       624.0000         2.4666        15.1576       469.6108       200.2744         2.4411       -39.3929    -0.05607986              1
       624.5000         2.4661        15.1521        472.543       200.3503         2.4325        -39.153     0.01347351              1
       625.0000         2.4485        15.1466       475.4751       200.4023         2.4466        -38.937     0.05913162              1
       625.5000         2.4681        15.1413       478.4067       200.4546         2.4715       -38.7268     0.09898758              1
       626.0000          2.474         15.136       481.1021       200.6792         2.5016       -38.9298      -0.274353              1
       626.5000         2.4629        15.1326       480.1167       200.9199         2.5273       -39.1587     -0.6735992              1
       627.0000         2.4366        15.1346       479.1313       201.1943         2.5501        -38.969     -0.6542435              1
       627.5000         2.4435        15.1365        478.146       201.0903         2.5741       -38.2839     -0.1394882              1
       628.0000         2.4771        15.1385        476.939       199.9631         2.5996       -37.9122     0.06187057              1
       628.5000         2.5198        15.1409       473.0981       199.0432         2.6288       -38.6776     -0.8738747              1
       629.0000         2.5612        15.1445       469.2568        198.426         2.6675       -39.0828      -1.449417              1
       629.5000         2.5938        15.1481        465.416       198.1045         2.6907       -38.3717     -0.9086609              1
       630.0000         2.6112        15.1517       461.5747       198.2246         2.7049       -37.2325     0.06019974              1
