#------------------------------------------------------------------------------
# Created by    : vladimir.rabinovich
# Created on    : 09/19/2023 17:19:56
#------------------------------------------------------------------------------
~Version Information Section
VERS.           2.0     :   CWLS log ASCII Standard - VERSION 2.0
WRAP.           NO      :   One line per depth step
~Well Information Section
#MNEM       .UNIT                                         VALUE :DESCRIPTION
#------------------------------------------------------------------------------
STRT        .FT                                            3966 :START DEPTH
STOP        .FT                                           12200 :STOP DEPTH
STEP        .FT                                             0.5 :STEP      
NULL        .                                           -999.25 :NULL      
COMP        .                       HOUSTON OIL & MINERALS CORP :COMPANY   
WELL        .                                ST TR 00526-L SW/4 :WELL      
FLD         .                                           CAVALLO :FIELD     
LOC         .                                                   :LOCATION  
CNTY        .                      MATAGORDA ISLAND LARGE BLOCK :LOCATION  
STAT        .                                             TEXAS :STATE     
CTRY        .                                     UNITED STATES :COUNTRY   
SRVC        .                                                   :SERVICE COMPANY
DATE        .                             9/13/2023 11:19:05 AM :LOG DATE  
API         .                                    42703302090000 :API NUMBER
UWI         .                                    42703302090000 :UNIQUE WELL ID
XCOORD      .                                  601997.830501628 :SURFACE X 
YCOORD      .                                  10286578.1750905 :SURFACE Y 
LAT         .                                        28.3077871 :LATITUDE  
LON         .                                       -96.2273179 :LONGITUDE 
ELEV        .FT                                             113 :ELEVATION VALUE
ELEV_TYPE   .                                                KB :ELEVATION REFERENCE TYPE
~Curve Information Section
#MNEM       .UNIT                                      API CODE :CURVE DESCRIPTION
#------------------------------------------------------------------------------
DEPT        .FT                                                 :DEPTH     
ASFL        .OHMM                                               :          
CILD        .MMHO                                               :          
ILD         .OHMM                                               :          
SP          .MV                                                 :          
SP_NORM     .MV                                                 :SP Normalized
VSH_SP      .V/V                                                :Volume of Shale from SP
~A        DEPTH           ASFL           CILD            ILD             SP        SP_NORM         VSH_SP
# ...
     11072.0000         1.4319       704.8511         1.6471       -47.0588      -5.142632      0.9297859
     11072.5000         1.3689        697.051         1.6078       -50.2941      -8.377934      0.8749503
     11073.0000         1.3649       693.2548          1.549       -53.5294      -11.61323      0.8201147
     11073.5000         2.0398       689.4545         1.5098       -56.7647      -14.84853      0.7652791
     11074.0000         2.0478       693.6503         1.4706          -60.3      -18.38383      0.7053588
     11074.5000         2.0677       705.8422          1.451          -63.6      -21.68383      0.6494266
     11075.0000         2.0876         726.03         1.4314          -66.9      -24.98383      0.5934944
     11075.5000          2.239       754.2138         1.3725          -70.5      -28.58383      0.5324774
     11076.0000         2.2789       810.3241         1.3725          -73.8      -31.88383      0.4765452
     11076.5000         2.2789       834.3613         1.3529          -77.1      -35.18383      0.4206131
     11077.0000         2.2988       834.5404         1.3333         -84.75      -42.83383       0.290952
     11077.5000         2.3586       834.7192         1.3137          -88.8      -46.88383      0.2223079
     11078.0000         2.3586       842.8347         1.2941       -90.5882      -48.67204      0.1919994
     11078.5000         2.4183       843.0089         1.2549       -94.1177      -52.20153      0.1321775
     11079.0000          2.502       846.3654         1.2745            -95      -53.08383      0.1172232
     11079.5000          2.502       835.4308         1.2941       -95.2941      -53.37793      0.1122385
     11080.0000         2.5817       823.7647         1.3333       -95.5882      -53.67204      0.1072536
     11080.5000         2.6414            800         1.3529       -95.8823      -53.96613      0.1022689
     11081.0000         2.7211            792         1.3922       -96.4706      -54.55443     0.09229783
     11081.5000         2.8008            788         1.3922       -96.7647      -54.84853     0.08731299
     11082.0000          2.761            780         1.3922       -97.0588      -55.14263     0.08232828
     11082.5000         2.7211            776         1.3922       -98.1676      -56.25143     0.06353501
     11083.0000         2.6414            772         1.3922       -98.1676      -56.25143     0.06353501
     11083.5000         2.5219            768         1.3922       -98.1676      -56.25143     0.06353501
     11084.0000         2.4183            764         1.3922       -98.4647      -56.54853     0.05849948
     11084.5000         2.3984            760         1.3725       -98.4647      -56.54853     0.05849948
     11085.0000         2.3984            760         1.3529       -98.7618      -56.84563     0.05346382
     11085.5000         2.3785            760         1.3333       -98.7618      -56.84563     0.05346382
     11086.0000         2.3586            760         1.2941       -99.0588      -57.14263     0.04842997
     11086.5000         2.3586            760         1.2745       -99.3559      -57.43974     0.04339432
     11087.0000         2.3586            764         1.2549       -99.3559      -57.43974     0.04339432
     11087.5000         2.3984            768         1.2549       -99.3559      -57.43974     0.04339432
     11088.0000         2.4582            768         1.2549       -99.3559      -57.43974     0.04339432
     11088.5000         2.5418            772         1.2549       -99.3559      -57.43974     0.04339432
     11089.0000         2.5418            776         1.2549       -99.3559      -57.43974     0.04339432
     11089.5000         2.6215            776         1.2745       -99.0588      -57.14263     0.04842997
     11090.0000         2.6813            780         1.2745       -98.7618      -56.84563     0.05346382
     11090.5000          2.761            784         1.2934        -98.766      -56.84983      0.0533927
     11091.0000         2.8367            784         1.3124       -98.8404      -56.92423     0.05213165
     11091.5000         2.8367       778.6667         1.3118       -98.3295      -56.41333     0.06079102
     11092.0000         2.8367            776         1.3308       -98.0358      -56.11963       0.065769
     11092.5000         2.7769            776         1.3499       -97.0928      -55.17663     0.08175207
     11093.0000         2.6653            776         1.3492       -95.9165      -54.00033      0.1016894
     11093.5000         2.5378            776         1.3486        -95.034      -53.11783       0.116647
     11094.0000         2.5339            784         1.3282        -93.557      -51.64083      0.1416808
     11094.5000         2.5737            788         1.3078       -92.3737      -50.45753      0.1617367
     11095.0000         2.6135       789.3333         1.2874       -92.0791      -50.16293      0.1667299
     11095.5000         2.6733            796         1.2669          -87.6      -45.68383      0.2426469
     11096.0000         2.5339       803.9216         1.2162          -82.8      -40.88383      0.3240028
     11096.5000         2.3745       811.8431         1.1258            -78      -36.08383      0.4053588
     11097.0000         2.2351       823.6863         1.1249          -73.5      -31.58383        0.48163
     11097.5000          1.945       835.6078         1.1042          -68.7      -26.78383       0.562986
     11098.0000         1.5841       850.3007         1.1033       -59.1176      -17.20143      0.7253995
     11098.5000         1.3243       898.0392         1.1025       -54.7059      -12.78973      0.8001741
     11099.0000          1.192       906.9804         1.1016            -50      -8.083832       0.879935
     11099.5000         1.1602        910.902         1.1207            -50      -8.083832       0.879935
     11100.0000          1.102       918.8235           1.18            -50      -8.083832       0.879935
     11100.5000         1.0717       926.8067         1.2197       -45.2941      -3.377934      0.9596961
     11101.0000         1.0438       926.8683         1.2395          -40.5       1.416168              1
     11101.5000         1.0438       926.9302          1.319          -39.9       2.016167              1
     11102.0000         1.0398       879.3701         1.4182          -39.9       2.016167              1
     11102.5000         1.0438       784.0401         1.4973          -39.9       2.016167              1
     11103.0000         1.0478       760.1959         1.5962          -39.9       2.016167              1
     11103.5000         2.2112       712.4046          1.675          -39.9       2.016167              1
     11104.0000         2.2112       664.6661         1.7735          -39.6        2.31617              1
     11104.5000         2.2112       640.7447         1.7727          -39.6        2.31617              1
     11105.0000         2.2112       640.8231          1.772          -39.6        2.31617              1
     11105.5000         2.2112       696.5789         1.6922          -39.9       2.016167              1
     11106.0000         2.2112       752.2874         1.6323          -39.9       2.016167              1
     11106.5000         1.9737        800.103         1.5724          -40.2       1.716167              1
     11107.0000         1.6295       843.9523         1.4733         -40.35        1.56617              1
     11107.5000         1.4446            960         1.4729          -40.8       1.116169              1
     11108.0000         1.3657       939.6813         1.4724          -40.8       1.116169              1
     11108.5000          1.243       919.8206         1.4719          -41.1      0.8161697              1
     11109.0000         1.1163       879.9202         1.4911          -41.1      0.8161697              1
     11109.5000         1.1163         839.98         1.5103          -41.1      0.8161697              1
