#------------------------------------------------------------------------------
# Created by    : vladimir.rabinovich
# Created on    : 09/19/2023 17:20:40
#------------------------------------------------------------------------------
~Version Information Section
VERS.           2.0     :   CWLS log ASCII Standard - VERSION 2.0
WRAP.           NO      :   One line per depth step
~Well Information Section
#MNEM       .UNIT                                         VALUE :DESCRIPTION
#------------------------------------------------------------------------------
STRT        .FT                                             546 :START DEPTH
STOP        .FT                                            8737 :STOP DEPTH
STEP        .FT                                             0.5 :STEP      
NULL        .                                           -999.25 :NULL      
COMP        .                                      SHELL OIL CO :COMPANY   
WELL        .                                OCS 00702 ST00BP00 :WELL      
FLD         .                                           WILDCAT :FIELD     
LOC         .                                                   :LOCATION  
CNTY        .                             GALVESTON LARGE BLOCK :LOCATION  
STAT        .                                             TEXAS :STATE     
CTRY        .                                     UNITED STATES :COUNTRY   
SRVC        .                                                   :SERVICE COMPANY
DATE        .                             9/13/2023 11:19:42 AM :LOG DATE  
API         .                                    42706000140000 :API NUMBER
UWI         .                                    42706000140000 :UNIQUE WELL ID
XCOORD      .                                  1138683.88536091 :SURFACE X 
YCOORD      .                                  10533063.1188688 :SURFACE Y 
LAT         .                                         29.014964 :LATITUDE  
LON         .                                        -94.570199 :LONGITUDE 
ELEV        .FT                                              72 :ELEVATION VALUE
ELEV_TYPE   .                                                KB :ELEVATION REFERENCE TYPE
~Curve Information Section
#MNEM       .UNIT                                      API CODE :CURVE DESCRIPTION
#------------------------------------------------------------------------------
DEPT        .FT                                                 :DEPTH     
ASN         .OHMM                                               :          
CILD        .MMHO                                               :          
ILD         .OHMM                                               :          
SP          .MV                                                 :          
SP_NORM     .MV                                                 :SP Normalized
VSH_SP      .V/V                                                :Volume of Shale from SP
~A        DEPTH            ASN           CILD            ILD             SP        SP_NORM         VSH_SP
       546.0000         0.0191        -999.25         0.0884       -32.4047     -0.6973839              1
       546.5000         0.0228        -999.25          0.147       -31.2895      0.4178181              1
       547.0000         0.0364        -999.25         0.2697       -30.3724       1.334917              1
       547.5000         0.0501        -999.25         0.4378       -30.1087       1.598618              1
       548.0000         0.0752        -999.25         0.6506       -30.0726       1.634718              1
       548.5000         0.1641        -999.25         0.8021       -30.0722       1.635117              1
       549.0000         0.2705        -999.25          0.966       -30.2811       1.426218              1
       549.5000         0.3063        -999.25         1.0818       -35.9924      -4.285084      0.9183899
       550.0000          0.346        -999.25         1.1747       -63.1435      -31.43618              0
       550.5000         1.6543        -999.25         1.2356       -67.5154      -35.80809              0
       551.0000          1.698        -999.25         1.2712        -71.885      -40.17768              0
       551.5000         1.7337        -999.25         1.3001       -73.3453      -41.18218              0
       552.0000          1.757        -999.25          1.323       -74.6053       -35.3054              0
       552.5000         1.7547        -999.25         1.3417       -75.5059      -29.06922     0.03324223
       553.0000         1.7518        -999.25         1.3604       -75.9966      -22.42314      0.2706022
       553.5000         1.7493        -999.25         1.3798        -76.157      -15.44676      0.5197586
       554.0000         1.7473        -999.25         1.4025       -76.3458      -8.498787      0.7679005
       554.5000         1.7479        -999.25         1.4252       -76.7184        -6.0214      0.8563786
       555.0000         1.7669        -999.25         1.4461       -77.5376      -6.898849      0.8250411
       555.5000         1.7936        -999.25          1.459       -78.6858      -8.105309      0.7819533
       556.0000         1.8363        -999.25         1.4445       -79.5475      -9.025261      0.7490978
       556.5000         1.8629        -999.25           1.43       -80.4092      -9.945213      0.7162424
       557.0000         1.8514        -999.25         1.4155       -80.9619      -10.55617      0.6944226
       557.5000         1.8413        -999.25         1.3995       -81.5098      -11.16232      0.6727742
       558.0000         1.8312        -999.25         1.3821       -81.9641      -11.67487      0.6544688
       558.5000         1.8211        -999.25         1.3647         -81.75      -11.51902       0.660035
       559.0000          1.811        -999.25         1.3472       -81.3127      -11.13998      0.6735722
       559.5000         1.7978        -999.25         1.3385       -80.8756      -10.76113      0.6871024
       560.0000         1.7878        -999.25         1.3395        -81.189      -11.13278      0.6738292
       560.5000         1.8239        -999.25         1.3503       -81.7236      -11.72564      0.6526557
       561.0000         1.8886        -999.25         1.3612       -82.2584      -12.31869      0.6314754
       561.5000         1.9292        -999.25         1.3791       -82.6039      -12.72243      0.6170559
       562.0000         1.9973        -999.25         1.3984        -82.873      -13.04979      0.6053647
       562.5000         2.0534        -999.25         1.4189       -83.1422      -13.37724      0.5936699
       563.0000         2.1048        -999.25         1.3782       -83.3588       -13.6521      0.5838536
       563.5000         2.1247        -999.25         1.3044       -83.4403      -13.79185      0.5788626
       564.0000         2.1446        -999.25         1.2368       -83.5219       -13.9317      0.5738678
       564.5000         2.1644        -999.25         1.2349       -83.6034      -14.07146      0.5688766
       565.0000         2.1843        -999.25         1.3489       -83.6849       -14.2112      0.5638856
       565.5000         2.2054        -999.25         1.4271       -83.7223      -14.30685      0.5604695
       566.0000         2.2294        -999.25          1.462       -83.1233      -13.76611      0.5797817
       566.5000         2.2533        -999.25          1.473       -82.5242      -13.22527      0.5990977
       567.0000         2.2735        -999.25         1.4841        -81.925      -12.68432      0.6184172
       567.5000         2.2896        -999.25         1.4909         -81.05      -11.86758      0.6475865
       568.0000         2.3014        -999.25         1.4902       -80.0762      -10.95203      0.6802848
       568.5000         2.2638        -999.25         1.4896       -79.1532      -10.08727      0.7111688
       569.0000         2.1722        -999.25         1.4889       -79.8105      -10.80283      0.6856133
       569.5000         2.0722        -999.25         1.4883       -80.4679      -11.51849      0.6600541
       570.0000         1.9932        -999.25         1.4853       -81.1525      -12.26133      0.6335239
       570.5000         1.8774        -999.25         1.4801       -81.9769      -13.14398      0.6020007
       571.0000         1.7762        -999.25          1.475       -82.7297      -13.95504      0.5730343
       571.5000         1.7659        -999.25         1.4699       -83.3214        -14.605      0.5498216
       572.0000         1.7798        -999.25         1.4648       -83.9132      -15.25504      0.5266056
       572.5000         1.7936        -999.25         1.4602       -84.4814      -15.88149      0.5042324
       573.0000         1.8074        -999.25         1.4625       -84.9529      -16.41125      0.4853123
       573.5000         1.8058        -999.25         1.4647        -84.342       -15.8586      0.5050498
       574.0000         1.7873        -999.25          1.467       -83.7312      -15.30605      0.5247838
       574.5000         1.7702        -999.25         1.4999       -83.0867      -14.71981      0.5457211
       575.0000         1.7582        -999.25         1.5291       -82.3557      -14.04706      0.5697479
       575.5000         1.7463        -999.25         1.5518       -81.6249      -13.37451      0.5937675
       576.0000         1.7343        -999.25         1.5373       -81.7616      -13.56946       0.586805
       576.5000         1.7223        -999.25          1.525       -82.1904      -14.05652        0.56941
       577.0000         1.7164        -999.25         1.5132       -82.6193      -14.54367      0.5520118
       577.5000         1.7125        -999.25         1.5013       -83.0481      -15.03072       0.534617
       578.0000         1.7393        -999.25         1.4895       -83.3789      -15.41978      0.5207223
       578.5000         1.7678        -999.25         1.4777       -83.6438      -15.74293      0.5091811
       579.0000         1.7929        -999.25         1.4763       -83.6237      -15.78108      0.5078185
       579.5000           1.82        -999.25          1.478        -83.692      -15.90764      0.5032986
       580.0000         1.8763        -999.25         1.4961       -83.9995      -16.27338      0.4902363
       580.5000         1.9635        -999.25         1.5574       -84.3071      -16.63924      0.4771701
       581.0000         2.1454        -999.25         1.6284       -84.6157      -17.00609      0.4640683
       581.5000         2.2232        -999.25         1.7012       -84.9534      -17.40205      0.4499269
       582.0000         2.2818        -999.25         1.7688       -85.2911        -17.798      0.4357858
       582.5000         2.3405        -999.25          1.809        -85.533      -18.09814      0.4250663
       583.0000         2.3828        -999.25         1.8492       -85.6323      -18.25571       0.419439
       583.5000         2.4223        -999.25         1.8619       -85.7317      -18.41335      0.4138088
