#------------------------------------------------------------------------------
# Created by    : vladimir.rabinovich
# Created on    : 09/19/2023 17:21:04
#------------------------------------------------------------------------------
~Version Information Section
VERS.           2.0     :   CWLS log ASCII Standard - VERSION 2.0
WRAP.           NO      :   One line per depth step
~Well Information Section
#MNEM       .UNIT                                         VALUE :DESCRIPTION
#------------------------------------------------------------------------------
STRT        .FT                                            4500 :START DEPTH
STOP        .FT                                           11014 :STOP DEPTH
STEP        .FT                                             0.5 :STEP      
NULL        .                                           -999.25 :NULL      
COMP        .                              FIELDWOOD ENERGY LLC :COMPANY   
WELL        .                               OCS G06156 ST00BP00 :WELL      
FLD         .                            HIGH ISLAND BLOCK 0116 :FIELD     
LOC         .                                                   :LOCATION  
CNTY        .                           HIGH ISLAND LARGE BLOCK :LOCATION  
STAT        .                                             TEXAS :STATE     
CTRY        .                                     UNITED STATES :COUNTRY   
SRVC        .                                                   :SERVICE COMPANY
DATE        .                             9/13/2023 11:19:57 AM :LOG DATE  
API         .                                    42708404240000 :API NUMBER
UWI         .                                    42708404240000 :UNIQUE WELL ID
XCOORD      .                                  1333979.30181128 :SURFACE X 
YCOORD      .                                  10635798.2403082 :SURFACE Y 
LAT         .                                         29.303317 :LATITUDE  
LON         .                                        -93.961735 :LONGITUDE 
ELEV        .FT                                             101 :ELEVATION VALUE
ELEV_TYPE   .                                                KB :ELEVATION REFERENCE TYPE
~Curve Information Section
#MNEM       .UNIT                                      API CODE :CURVE DESCRIPTION
#------------------------------------------------------------------------------
DEPT        .FT                                                 :DEPTH     
AT10        .OHMM                                               :          
AT20        .OHMM                                               :          
AT30        .OHMM                                               :          
AT60        .OHMM                                               :          
AT90        .OHMM                                               :          
CALI        .IN                                                 :          
DCAL        .IN                                                 :          
DPHI        .DEC                                                :          
DRHO        .G/C3                                               :          
DT2R        .US/F                                               :          
DT4P        .US/F                                               :          
GR          .GAPI                                               :          
GR_NORM     .GAPI                                               :GammaRay Normalized
NPOR        .DEC                                                :          
SP          .MV                                                 :          
SP_NORM     .MV                                                 :SP Normalized
TENS        .LBF                                                :          
VSH_GR      .V/V                                                :Volume of Shale from GR
VSH_SP      .V/V                                                :Volume of Shale from SP
~A        DEPTH           AT10           AT20           AT30           AT60           AT90           CALI           DCAL           DPHI           DRHO           DT2R           DT4P             GR        GR_NORM           NPOR             SP        SP_NORM           TENS         VSH_GR         VSH_SP
      4500.0000          3.439         0.6135         1.9563        17.7863        30.6975        11.9539        -999.25         0.5401        -999.25       133.0669        -999.25        42.0439       75.69559        -999.25       -26.5336      0.3156095       2688.621      0.9084167              1
      4500.5000         1.1841         0.5915         0.4928        13.6386         8.0176        11.9639        -999.25         0.5401        -999.25       130.6692        -999.25        39.9441       73.59578        -999.25       -27.4299      -1.209344       2688.621        0.86374      0.9827237
      4501.0000         0.3537         0.4287         0.2847         1.4337          2.094        11.9739        -999.25         0.4653        -0.8082       130.6692        -999.25        38.0457       71.29834        -999.25       -28.7275      -3.417069       2688.609      0.8148583      0.9511847
      4501.5000          0.139         0.4006         0.1518         0.5084         0.9728        12.0441        -999.25          0.412        -0.6495        132.667        -999.25        37.7499       70.06403        -999.25       -29.9254      -5.455161        2708.57      0.7885963      0.9220691
      4502.0000         0.1026         0.4483         0.1068         0.1054         0.5716        12.2649        -999.25         0.4293        -0.4828       136.6646        -999.25        40.0411       71.41673        -999.25       -30.7215      -6.809638       2718.563      0.8173772      0.9027194
      4502.5000         0.1918         0.6586         0.3286         0.3003         0.8859        12.9057        -999.25         0.4952          -0.39       142.6597        -999.25        45.5511       75.98822        -999.25        -31.017      -7.312398       2708.559       0.914643      0.8955372
      4503.0000         0.3434         0.8364         0.5854         0.5469         1.2256        13.3666        -999.25          0.506        -0.2672        148.252        -999.25        52.2648       81.76341        -999.25       -30.9118      -7.133412       2688.621              1      0.8980941
      4503.5000         0.5736           1.38         0.8859         0.7943          0.957        13.8777        -999.25         0.4557        -0.1615       151.8486        -999.25        53.7672       82.32732        -999.25       -30.7064      -6.783946       2678.641              1      0.9030865
      4504.0000         0.4927         1.4304         0.7079         0.8543         0.6114        14.3586        -999.25         0.4281        -0.0777       152.6472        -999.25        55.0704         82.692        -999.25       -30.4009      -6.264172       2688.621              1      0.9105119
      4504.5000         0.2281          0.848         0.3133         0.3025           0.26        14.8396        -999.25         0.3994        -0.0607       151.8479        -999.25        56.3727        83.0558        -999.25       -29.9948      -5.573239       2688.621              1      0.9203823
      4505.0000         0.2399         0.5038         0.1395         0.1516         0.2197        15.1703        -999.25         0.3982        -0.0507       150.6497        -999.25        56.9739        82.7185        -999.25       -30.3907      -6.246817       2688.621              1      0.9107597
      4505.5000         0.3674           0.44          0.213         0.4773         0.8449          15.08        -999.25         0.3982        -0.0437       150.6492        -999.25        56.4728       81.27889        -999.25        -30.486       -6.40896       2678.641              1      0.9084435
      4506.0000         0.5125          0.399         0.4758         2.1885         1.7738        14.7394        -999.25          0.394        -0.0437       151.0488        -999.25        55.9719       79.83949        -999.25       -29.9799      -5.547888       2678.641       0.996585      0.9207445
      4506.5000         0.5773         0.3876         0.6064         6.2233         1.1641        14.1082        -999.25         0.3778        -0.0477       150.2498        -999.25        56.6735       79.60258        -999.25       -29.4739      -4.686984       2678.641      0.9915444      0.9330431
      4507.0000          0.608         0.3811         0.6767         7.8462         1.0978        13.6773        -999.25         0.3587        -0.0517       148.6506        -999.25        58.0764       80.06698        -999.25       -29.0681      -3.996561        2668.66              1      0.9429063
      4507.5000         0.6202          0.389         0.7095           5.33         1.1031        13.6673        -999.25         0.3479        -0.0507       146.2537        -999.25        59.4788       80.53088        -999.25       -29.0631      -3.988055       2688.621              1      0.9430278
      4508.0000         0.6153         0.4258         0.7266         3.3717         1.0229        13.8076        -999.25         0.3491        -0.0477       144.2551        -999.25        60.7817       80.89526        -999.25       -28.9579      -3.809066       2688.621              1      0.9455848
      4508.5000         0.6079         0.4831         0.7304         1.3825         0.8474        13.8978        -999.25         0.3491        -0.0417       142.6562        -999.25        60.8817       80.05676        -999.25       -28.8527      -3.630081       2688.621              1      0.9481417
      4509.0000         0.6034          0.566         0.7316         0.9063         0.7804        13.9178        -999.25         0.3455        -0.0377       141.0588        -999.25        61.2824       79.51896        -999.25       -28.4469      -2.939657       2688.621      0.9897651      0.9580049
      4509.5000         0.5993         0.6308         0.7321         0.8135         0.7459        13.8878        -999.25         0.3383        -0.0397       139.4604        -999.25        62.0843       79.38235        -999.25       -28.2415      -2.590194        2668.66      0.9868586      0.9629972
      4510.0000         0.5815         0.6578         0.7315         0.8173         0.8148        13.8777        -999.25         0.3371        -0.0397       139.0608        -999.25        63.8871       80.24665        -999.25        -28.537      -3.092954        2668.66              1       0.955815
      4510.5000         0.5809         0.6593         0.7228         0.8232         0.8507        13.8777        -999.25         0.3371        -0.0407       138.6611        -999.25        66.1924       81.61344        -999.25       -28.6322      -3.254926       2678.641              1       0.953501
      4511.0000         0.5809         0.6568         0.7133         0.8127         0.8892        13.9679        -999.25         0.3377        -0.0387       139.0608        -999.25        68.5969       83.07944        -999.25       -28.8276      -3.587378       2678.641              1      0.9487517
      4511.5000         0.5868         0.6613         0.7126         0.7922          0.889        14.1783        -999.25         0.3389        -0.0377       140.6582        -999.25        69.6991       83.24313        -999.25       -28.8226      -3.578869       2688.621              1      0.9488733
      4512.0000         0.5927         0.6893         0.7257         0.7693         0.8647        14.8097        -999.25         0.3407        -0.0337       142.4973        -999.25        69.3987       82.00423        -999.25       -29.0984      -4.048113        2668.66              1      0.9421698
      4512.5000         0.5985         0.7029         0.7368         0.7474         0.8451        15.8917        -999.25         0.3419        -0.0317       144.8545        -999.25        68.5972       80.26422        -999.25       -29.1886      -4.201579       2688.621              1      0.9399775
      4513.0000         0.6043         0.6793         0.7337         0.7282          0.844        15.9318        -999.25         0.3437        -0.0297       146.8132        -999.25        69.4994       80.22792        -999.25       -28.7778      -3.502647       2728.543              1      0.9499622
