#------------------------------------------------------------------------------
# Created by    : vladimir.rabinovich
# Created on    : 09/19/2023 17:19:40
#------------------------------------------------------------------------------
~Version Information Section
VERS.           2.0     :   CWLS log ASCII Standard - VERSION 2.0
WRAP.           NO      :   One line per depth step
~Well Information Section
#MNEM       .UNIT                                         VALUE :DESCRIPTION
#------------------------------------------------------------------------------
STRT        .FT                                            4790 :START DEPTH
STOP        .FT                                           12963 :STOP DEPTH
STEP        .FT                                             0.5 :STEP      
NULL        .                                           -999.25 :NULL      
COMP        .                         ATLANTIC RICHFIELD CO THE :COMPANY   
WELL        .                               OCS G06150 ST00BP00 :WELL      
FLD         .                                           WILDCAT :FIELD     
LOC         .                                                   :LOCATION  
CNTY        .                           HIGH ISLAND LARGE BLOCK :LOCATION  
STAT        .                                             TEXAS :STATE     
CTRY        .                                     UNITED STATES :COUNTRY   
SRVC        .                                                   :SERVICE COMPANY
DATE        .                             9/13/2023 11:19:59 AM :LOG DATE  
API         .                                    42708402440000 :API NUMBER
UWI         .                                    42708402440000 :UNIQUE WELL ID
XCOORD      .                                  1291497.32246636 :SURFACE X 
YCOORD      .                                   10652058.279547 :SURFACE Y 
LAT         .                                         29.347015 :LATITUDE  
LON         .                                        -94.095521 :LONGITUDE 
ELEV        .FT                                             105 :ELEVATION VALUE
ELEV_TYPE   .                                                KB :ELEVATION REFERENCE TYPE
~Curve Information Section
#MNEM       .UNIT                                      API CODE :CURVE DESCRIPTION
#------------------------------------------------------------------------------
DEPT        .FT                                                 :DEPTH     
ALL         .OHMM                                               :          
CILD        .MMHO                                               :          
GR          .GAPI                                               :          
GR_NORM     .GAPI                                               :GammaRay Normalized
ILD         .OHMM                                               :          
SP          .MV                                                 :          
SP_NORM     .MV                                                 :SP Normalized
VSH_GR      .V/V                                                :Volume of Shale from GR
VSH_SP      .V/V                                                :Volume of Shale from SP
~A        DEPTH            ALL           CILD             GR        GR_NORM            ILD             SP        SP_NORM         VSH_GR         VSH_SP
# ...
      5956.0000         1.2044       2198.563        57.3043       58.10707         0.4473       -89.2797      -47.82731      0.5341929      0.2641953
      5956.5000         1.2514       2286.516        57.9528       59.00537         0.4491       -90.5291      -49.07815      0.5533057      0.2449516
      5957.0000         1.2876       2368.906        58.6014        59.9038          0.453       -91.4603      -50.01079      0.5724214      0.2306033
      5957.5000         1.3169       2446.438        59.2493       60.80127         0.4604       -92.3906      -50.94254      0.5915164      0.2162687
      5958.0000         1.3247       2523.867        59.8979       61.69971         0.4679       -92.9418      -51.49518      0.6106321      0.2077665
      5958.5000         1.2651       2601.297        60.5464       62.59801         0.4753       -91.1792      -49.73402      0.6297448      0.2348613
      5959.0000         1.1028       2682.797        61.1944       63.49562         0.4827       -88.9763      -47.53256      0.6488429      0.2687298
      5959.5000         1.0281       2767.574        61.9521       64.54517         0.4901       -80.8033        -39.361      0.6711739      0.3944462
      5960.0000          0.972       2880.242         62.785        65.6989         0.4976       -77.5962      -36.15534      0.6957213       0.443764
      5960.5000         0.9093       3075.703        63.2758       66.37875          0.505       -74.7701      -33.33069      0.7101862      0.4872202
      5961.0000         0.8638       2963.828        62.2147       64.90893         0.5124       -72.9003      -31.46233      0.6789134      0.5159642
      5961.5000         0.8356       2851.953        60.7955       62.94306         0.5199       -71.0322      -29.59567      0.6370865       0.544682
      5962.0000         0.8133       2740.074        59.3763       60.97719         0.5273       -69.2262      -27.79111      0.5952594      0.5724445
      5962.5000         0.8039        2361.66        55.9054       56.16932         0.5347       -68.7764      -27.34275      0.4929642      0.5793423
      5963.0000         0.8323       2258.023        59.9398       61.75775         0.5421       -68.3259      -26.89369       0.611867      0.5862509
      5963.5000          0.869       2177.715        63.3159        66.4343         0.5496       -67.8761      -26.44533      0.7113681      0.5931488
      5964.0000         0.9056       2125.004        65.8262       69.91157          0.557       -67.3943      -25.96498      0.7853525      0.6005388
      5964.5000         0.9423       2086.438        68.3367       73.38909         0.5644       -66.8912      -25.46331      0.8593424      0.6082567
      5965.0000         1.0172       2047.822        69.9889       75.67771         0.5718       -66.3882      -24.96176      0.9080364      0.6159729
      5965.5000          1.087       2009.629        71.6041       77.91508         0.5793        -65.885         -24.46      0.9556401      0.6236923
      5966.0000         1.1168       1986.275        70.3896       76.23277         0.5867       -65.3815      -23.95794      0.9198461      0.6314163
      5966.5000         1.0744       1962.924         69.175       74.55031         0.5941       -64.8784      -23.45629      0.8840491       0.639134
      5967.0000         1.0102        1939.57        67.9594       72.86646         0.6016       -64.3754      -22.95472      0.8482226      0.6468504
      5967.5000         0.9388       1916.217        66.7435        71.1822          0.609       -63.8719      -22.45267      0.8123872      0.6545743
      5968.0000         0.8346       1889.439        65.0889       68.89025         0.6164       -63.3318      -21.91401      0.7636223      0.6628614
      5968.5000         0.7917       1827.098        63.2024       66.27708         0.6239       -62.7797      -21.36335      0.7080229       0.671333
      5969.0000         0.8286       1764.758        61.3184       63.66738         0.6313       -62.2277      -20.81279      0.6524975      0.6798032
      5969.5000         0.8956       1703.607        60.0693       61.93713         0.6387       -61.6751      -20.26163      0.6156837      0.6882825
      5970.0000         1.0076       1647.172        59.1346        60.6424         0.6461        -61.123      -19.71098      0.5881361      0.6967542
      5970.5000         1.0834       1590.738        58.2001       59.34792         0.6536       -60.6773      -19.26672      0.5605941      0.7035889
      5971.0000          1.148       1536.662        57.3388       58.15485          0.661       -60.2325      -18.82336      0.5352097      0.7104099
      5971.5000         1.1356       1505.789        57.3169       58.12452          0.669       -59.7877         -18.38      0.5345643      0.7172307
      5972.0000         1.0901       1474.941        57.7444       58.71669         0.6772       -59.3424      -17.93614      0.5471637      0.7240593
      5972.5000         1.0425       1454.193        58.1717       59.30859         0.6854       -58.6701      -17.26529      0.5597572      0.7343802
      5973.0000         0.9948       1464.951        58.5989       59.90034         0.6936       -57.9885      -16.58512      0.5723477      0.7448443
      5973.5000         0.9713       1475.711        59.0262       60.49224         0.7006       -57.9109      -16.50897      0.5849412      0.7460158
      5974.0000         0.9512       1486.469        59.4534       61.08399         0.6967       -58.4139      -17.01341      0.5975317      0.7382553
      5974.5000          0.931       1497.227        59.9534       61.77659         0.6928       -58.9152      -17.51615      0.6122679      0.7305207
      5975.0000         0.9568       1507.984        60.8905       63.07466          0.689        -59.415       -18.0174      0.6398863      0.7228093
      5975.5000           0.99       1518.744        61.8276       64.37272         0.6851       -59.9144      -18.51823      0.6675047      0.7151041
      5976.0000         1.0232       1529.502        62.7646       65.67064         0.6812       -60.4138      -19.01908        0.69512      0.7073988
      5976.5000         1.0187        1540.26        63.7018       66.96886         0.6773       -60.9136      -19.52032      0.7227417      0.6996874
      5977.0000         0.9994       1550.596        64.6376       68.26512         0.6691        -61.413      -20.02116      0.7503217      0.6919822
      5977.5000         0.9802       1556.646        65.4698       69.41788         0.6588       -61.9123       -20.5219      0.7748486      0.6842784
      5978.0000         0.9609       1562.695        66.1863       70.41038         0.6485       -62.7104      -21.32145      0.7959655      0.6719778
      5978.5000         0.9417       1567.783        66.9026        71.4026         0.6382       -63.8256      -22.43808      0.8170765      0.6547987
      5979.0000         0.9694       1539.268        65.7017       69.73911         0.6278       -64.9399      -23.55383      0.7816831      0.6376334
      5979.5000         1.0353       1533.609        64.3627       67.88433         0.6175       -66.0543      -24.66967      0.7422198      0.6204666
      5980.0000         1.1012       1647.422        55.9942       56.29232          0.599       -67.1085      -25.72531      0.4955814      0.6042261
      5980.5000         1.2167       1762.971        58.9238        60.3504         0.5781       -68.0934      -26.71165      0.5819233      0.5890515
      5981.0000         1.4049       1876.533        62.4404       65.22157         0.5572       -69.0774      -27.69709      0.6855652      0.5738909
      5981.5000         1.4923       1989.602        69.9717       75.65389         0.5363       -70.0623      -28.68344      0.9075297      0.5587164
      5982.0000         1.4319       2092.641        71.1233       77.24907         0.5154       -71.0461      -29.66867      0.9414696      0.5435588
