#------------------------------------------------------------------------------
# Created by    : vladimir.rabinovich
# Created on    : 09/19/2023 17:22:33
#------------------------------------------------------------------------------
~Version Information Section
VERS.           2.0     :   CWLS log ASCII Standard - VERSION 2.0
WRAP.           NO      :   One line per depth step
~Well Information Section
#MNEM       .UNIT                                         VALUE :DESCRIPTION
#------------------------------------------------------------------------------
STRT        .FT                                            2877 :START DEPTH
STOP        .FT                                            8775 :STOP DEPTH
STEP        .FT                                             0.5 :STEP      
NULL        .                                           -999.25 :NULL      
COMP        .                                       APACHE CORP :COMPANY   
WELL        .                                  HIGH ISLAND 10-L :WELL      
FLD         .                                           WILDCAT :FIELD     
LOC         .                                                   :LOCATION  
CNTY        .                           HIGH ISLAND LARGE BLOCK :LOCATION  
STAT        .                                             TEXAS :STATE     
CTRY        .                                     UNITED STATES :COUNTRY   
SRVC        .                                                   :SERVICE COMPANY
DATE        .                             9/13/2023 11:19:15 AM :LOG DATE  
API         .                                    42708303590000 :API NUMBER
UWI         .                                    42708303590000 :UNIQUE WELL ID
XCOORD      .                                  1323081.96300683 :SURFACE X 
YCOORD      .                                  10736101.4448574 :SURFACE Y 
LAT         .                                        29.5789626 :LATITUDE  
LON         .                                       -93.9986282 :LONGITUDE 
ELEV        .FT                                             100 :ELEVATION VALUE
ELEV_TYPE   .                                                KB :ELEVATION REFERENCE TYPE
~Curve Information Section
#MNEM       .UNIT                                      API CODE :CURVE DESCRIPTION
#------------------------------------------------------------------------------
DEPT        .FT                                                 :DEPTH     
CNCSS       .%                                                  :          
DCAL        .IN                                                 :          
GRR         .GAPI                                               :          
ILD         .OHMM                                               :          
ILM         .OHMM                                               :          
PORZSS      .%                                                  :          
RFOC        .OHMM                                               :          
SP          .MV                                                 :          
SP_NORM     .MV                                                 :SP Normalized
TENR        .LB                                                 :          
VSH_SP      .V/V                                                :Volume of Shale from SP
ZCOR        .G/CM3                                              :          
~A        DEPTH          CNCSS           DCAL            GRR            ILD            ILM         PORZSS           RFOC             SP        SP_NORM           TENR         VSH_SP           ZCOR
# ...
      3389.5000          40.74           0.19         65.495         0.8485         0.8333          22.74         0.9465       -12.6733      -4.665754           1190      0.9444634          0.036
      3390.0000          40.98           0.16        67.5743          0.864         0.8333           23.1         0.9251       -12.2772       -4.29531           1180       0.952181          0.036
      3390.5000        40.4389         0.1503        69.5073         0.8759         0.8333        23.8183         0.9251       -11.6809      -3.724664       1189.498      0.9640695           0.04
      3391.0000        39.4774         0.1208        69.8093         0.8919         0.8409        24.2355         0.9509       -11.2804       -3.34982       1188.493      0.9718788          0.046
      3391.5000        37.3783         0.1413        68.3271            0.9         0.8409        24.3525         0.9684       -10.6813      -2.776375       1187.487      0.9838255          0.046
      3392.0000        36.0599         0.1418        66.8435            0.9         0.8409        24.2295         0.9684       -10.6766       -2.79733       1186.482       0.983389          0.046
      3392.5000        36.7184         0.1423        66.4004         0.9166         0.8409        24.2265         0.9818       -11.0689      -3.215285       1185.477      0.9746816          0.046
      3393.0000        38.9918         0.1428        67.1482         0.9041         0.8409        24.4635         0.9818       -11.8587      -4.030739       1184.472      0.9576929          0.046
      3393.5000        40.6648         0.1233        68.1947         0.8919         0.8371        25.1805         0.9818       -12.6493      -4.846994       1183.467      0.9406876          0.042
      3394.0000        40.1843         0.1138         68.795         0.8798         0.8295        25.7175         0.9818       -13.0432      -5.266549       1182.462      0.9319469           0.04
      3394.5000        40.2419         0.1043         69.396         0.8798         0.8295        25.9545         0.9684       -14.0341      -6.283104       1181.457      0.9107687          0.042
      3395.0000        41.1952         0.0648        69.8483         0.8759          0.822        26.0715         0.9684        -14.429       -6.70366       1180.452      0.9020071          0.046
      3395.5000        41.0136         0.0453        71.0475          0.868         0.8146        26.1885          0.964       -14.4262      -6.726514       1179.447      0.9015309          0.044
      3396.0000         39.639         0.0158        72.5467          0.868         0.8146        26.3055         0.9552       -13.6268      -5.952769       1178.442      0.9176506          0.042
      3396.5000        39.6372         0.0263        73.8979          0.868         0.8183        26.3625         0.9552       -12.4281      -4.779724       1177.437      0.9420891          0.042
      3397.0000        40.7081         0.0468         76.752         0.8759         0.8333        26.2995         0.9684       -10.8294      -3.206679       1176.432      0.9748608           0.04
      3397.5000        40.7653         0.0573        79.0094         0.9125         0.8601        25.9365         0.9864        -9.8275      -2.230434       1175.427      0.9951993          0.038
      3398.0000        40.7034         0.1178         78.567         0.9552         0.8919        25.2135         1.0232        -8.8247       -1.25329       1164.422              1          0.038
      3398.5000        41.7721         0.1083        75.1245         0.9954         0.9293        24.0104         1.0421        -8.2201     -0.6743445       1173.417              1          0.036
      3399.0000        43.1458         0.1188         71.985         1.0139         0.9509        23.2339         1.0614        -7.8147     -0.2945995       1172.412              1          0.038
      3399.5000        42.7837         0.1293        67.6443         1.0139         0.9509        22.8747         1.0615        -8.0084     -0.5139542       1181.407              1           0.05
      3400.0000        40.3376         0.1498        67.6481         1.0139         0.9422         23.407         1.0615        -8.2024     -0.7336092       1180.402              1          0.054
      3400.5000        38.0782           0.12        69.1515          1.014         0.9294          24.06         1.0423        -8.3979     -0.9547639        1179.75              1         0.0561
      3401.0000        37.9573           0.11        70.8032         0.9958         0.9128           24.9         1.0096        -8.5935      -1.176019        1169.25              1         0.0562
      3401.5000        39.5018            0.1        72.3034         0.9779         0.9005          25.26         0.9869         -8.789      -1.397173        1168.75              1         0.0563
      3402.0000        39.8576           0.13        73.9518         0.9604         0.8805          25.26         0.9962        -8.9842      -1.618029        1168.25              1         0.0544
      3402.5000        38.3085           0.13        74.8503         0.9432         0.8728           25.2         1.0011        -9.1793      -1.838784        1167.75              1         0.0505
      3403.0000        37.1153           0.15             75         0.9434         0.8691          25.26         1.0013        -9.1747      -1.859838        1167.25              1         0.0446
      3403.5000        37.3513            0.2        74.8505          0.935         0.8614          25.38         1.0015        -8.9708      -1.681594        1166.75              1         0.0407
      3404.0000        39.3167           0.26        74.7011         0.9267         0.8538          25.44         1.0063        -9.1656      -1.902049        1166.25              1         0.0388
      3404.5000        41.2244           0.23        73.9545         0.9142          0.854          25.44         1.0112        -9.5593      -2.321404        1165.75      0.9950553         0.0369
      3405.0000        43.0749           0.25        72.4621         0.9061         0.8427          25.26         1.0022       -10.1517      -2.939459        1165.25      0.9855468          0.035
      3405.5000        44.3874           0.25        71.1205          0.898         0.8353          24.96         0.9842       -10.7434      -3.556813        1164.75       0.976049         0.0371
      3406.0000        44.0283           0.28        69.9293         0.8942         0.8355          24.84         0.9577       -11.5335      -4.372569        1164.25       0.963499         0.0372
      3406.5000        42.5366           0.25         70.379         0.8863         0.8357          24.48         0.9449        -12.919      -5.783723        1163.75      0.9417889         0.0373
      3407.0000        40.9833           0.26        68.8914         0.8865         0.8246        23.9402          0.967       -14.3031      -7.193478        1163.25      0.9201003         0.0374
      3407.5000        37.7515           0.29        65.1716         0.8748         0.8099        23.3418         0.9942       -15.2887      -8.204734        1162.75      0.9045426         0.0375
      3408.0000        34.2271            0.3        61.4555         0.8593         0.7992        22.9823         1.0036        -15.678      -8.619689        1162.25      0.8981586         0.0436
      3408.5000        33.7489            0.3        60.1233         0.8556         0.7884        23.5807         0.9992       -15.2735      -8.240844        1161.75       0.903987         0.0497
      3409.0000        35.5908           0.29        60.7255         0.8366         0.7742          24.42         0.9858       -14.2746      -7.267599        1171.25        0.91896         0.0458
      3409.5000        38.1027            0.3        66.2315          0.807         0.7498           25.8         0.9593       -12.8805      -5.899153        1170.75      0.9400131         0.0339
