#------------------------------------------------------------------------------
# Created by    : vladimir.rabinovich
# Created on    : 09/19/2023 17:19:49
#------------------------------------------------------------------------------
~Version Information Section
VERS.           2.0     :   CWLS log ASCII Standard - VERSION 2.0
WRAP.           NO      :   One line per depth step
~Well Information Section
#MNEM       .UNIT                                         VALUE :DESCRIPTION
#------------------------------------------------------------------------------
STRT        .FT                                             790 :START DEPTH
STOP        .FT                                           12500 :STOP DEPTH
STEP        .FT                                             0.5 :STEP      
NULL        .                                           -999.25 :NULL      
COMP        .                                 CHEVRON U S A INC :COMPANY   
WELL        .                               OCS G04596 ST00BP00 :WELL      
FLD         .                                           WILDCAT :FIELD     
LOC         .                                                   :LOCATION  
CNTY        .                        MUSTANG ISLAND LARGE BLOCK :LOCATION  
STAT        .                                             TEXAS :STATE     
CTRY        .                                     UNITED STATES :COUNTRY   
SRVC        .                                                   :SERVICE COMPANY
DATE        .                             9/13/2023 11:19:13 AM :LOG DATE  
API         .                                    42702401310000 :API NUMBER
UWI         .                                    42702401310000 :UNIQUE WELL ID
XCOORD      .                                  486632.184756912 :SURFACE X 
YCOORD      .                                  10088502.2555927 :SURFACE Y 
LAT         .                                          27.75488 :LATITUDE  
LON         .                                        -96.567316 :LONGITUDE 
ELEV        .FT                                              90 :ELEVATION VALUE
ELEV_TYPE   .                                                KB :ELEVATION REFERENCE TYPE
~Curve Information Section
#MNEM       .UNIT                                      API CODE :CURVE DESCRIPTION
#------------------------------------------------------------------------------
DEPT        .FT                                                 :DEPTH     
ASFL        .OHMM                                               :          
CILD        .MMHO                                               :          
GR          .GAPI                                               :          
GR_NORM     .GAPI                                               :GammaRay Normalized
ILD         .OHMM                                               :          
SP          .MV                                                 :          
SP_NORM     .MV                                                 :SP Normalized
VSH_GR      .V/V                                                :Volume of Shale from GR
VSH_SP      .V/V                                                :Volume of Shale from SP
~A        DEPTH           ASFL           CILD             GR        GR_NORM            ILD             SP        SP_NORM         VSH_GR         VSH_SP
# ...
     12476.5000         0.6618       1892.227        50.5185       77.76485         0.5366        -40.139      -1.542511      0.9524435      0.9889283
     12477.0000         0.6565        1911.51         52.109       79.34531         0.5425       -40.1414       -1.54491      0.9860703      0.9888794
     12477.5000         0.6513       1930.695         52.718       79.94427         0.5484       -40.1443       -1.54781      0.9988143      0.9888202
     12478.0000          0.652       1949.883        53.3257       80.54195         0.5538       -40.1475       -1.55101              1      0.9887549
     12478.5000         0.6556       1968.625        52.8503       80.05652         0.5582       -40.1508       -1.55431              1      0.9886876
     12479.0000         0.6591       1981.637        52.0723       79.26849         0.5627        -40.154       -1.55751      0.9844359      0.9886222
     12479.5000         0.6675       1994.648         51.163       78.34915         0.5671       -40.1572      -1.560711      0.9648756      0.9885569
     12480.0000         0.6855       1936.205        51.2794       78.45552         0.5716       -40.1604      -1.563911      0.9671387      0.9884916
     12480.5000         0.7035       1888.045        51.9852       79.26142          0.576       -40.1636      -1.567112      0.9842855      0.9884263
     12481.0000         0.7215       1856.463        52.6923       80.25607         0.5782       -40.1668      -1.570313              1      0.9883609
     12481.5000         0.7239        1824.83        53.3981       81.24942         0.5707         -40.17      -1.573509              1      0.9882957
     12482.0000         0.7254       1793.248        53.1487       81.28757         0.5633       -40.1733      -1.576813              1      0.9882283
     12482.5000         0.7269       1768.799        52.7241       81.15051         0.5558       -40.1765      -1.580009              1      0.9881631
     12483.0000         0.7284       1749.121        52.2009       80.91486         0.5484       -40.1597       -1.56321              1      0.9885059
     12483.5000         0.7309       1729.492        51.6765       80.67801          0.541       -40.1385      -1.542011              1      0.9889386
     12484.0000         0.7365       1707.059        51.1533       80.44235         0.5475       -40.1172       -1.52071              1      0.9893733
     12484.5000         0.7421       1683.102        51.6532        81.2298         0.5562       -40.0959      -1.499413              1      0.9898079
     12485.0000         0.7478       1659.145        52.8859       82.75005         0.5649       -40.0747       -1.47821              1      0.9902406
     12485.5000         0.7534       1640.033        54.2975        84.4492         0.5735       -40.0535      -1.457012              1      0.9906732
     12486.0000         0.7616       1625.889        52.1115       82.55074         0.5822       -40.0322      -1.435711              1      0.9911079
     12486.5000         0.7493       1630.734        50.8763       81.60309         0.5908       -40.0054      -1.408913              1      0.9916549
     12487.0000         0.7358       1643.008        49.6632       80.67754         0.5991       -39.9655      -1.369011              1      0.9924692
     12487.5000         0.7225       1657.668        48.4501       79.75198          0.607       -39.9255       -1.32901      0.9947231      0.9932855
     12488.0000         0.7093       1674.395        47.6855       79.27493         0.6149       -39.8854       -1.28891      0.9845731      0.9941039
     12488.5000         0.7044       1691.121        47.1917       79.06868         0.6228       -39.8454      -1.248913      0.9801847      0.9949201
     12489.0000         0.7169       1707.846        46.6979       78.86243         0.6234       -39.8054      -1.208912      0.9757963      0.9957365
     12489.5000         0.7294       1724.572        46.6796       79.13167         0.6194       -39.7654      -1.168911      0.9815248      0.9965528
     12490.0000         0.7419       1741.299        46.6994       79.43903         0.6155       -39.7349      -1.138412      0.9880644      0.9971753
     12490.5000         0.7544       1752.072        46.7193       79.54948         0.6115       -39.7208       -1.12431      0.9904146       0.997463
     12491.0000         0.7462       1719.752        46.7392       79.56938         0.6076       -39.7068       -1.11031      0.9908379      0.9977488
     12491.5000         0.7216        1734.51        46.7591       79.58929         0.6036       -39.6927       -1.09621      0.9912614      0.9980365
     12492.0000          0.697       1769.045        46.7787       79.60889         0.5997       -39.6786      -1.082111      0.9916784      0.9983243
     12492.5000         0.6778       1806.529        46.7787       79.60889         0.5957       -39.6646      -1.068111      0.9916784        0.99861
     12493.0000         0.6592       1842.441        46.7787       79.60889         0.5914       -39.6467      -1.050213      0.9916784      0.9989753
     12493.5000         0.6424       1872.254        46.7787       79.60889         0.5867       -39.6265       -1.03001      0.9916784      0.9993876
     12494.0000         0.6469       1902.016        46.7787       79.60889          0.582       -39.6062      -1.009712      0.9916784      0.9998018
     12494.5000         0.6513       1960.016        46.7787       79.60889         0.5774        -39.586     -0.9895096      0.9916784              1
     12495.0000         0.6558       1991.352        46.7787       79.60889         0.5727       -39.5658     -0.9693108      0.9916784              1
     12495.5000         0.6602       2011.326        46.7787       79.60889         0.5671       -39.5456     -0.9491119      0.9916784              1
     12496.0000         0.6646       1989.729        46.7787       79.60889         0.5601       -39.5253     -0.9288101      0.9916784              1
     12496.5000         0.6709       1968.133        46.7787       79.60889         0.5531       -39.5051     -0.9086113      0.9916784              1
     12497.0000         0.6774       1946.488        46.7787       79.60889         0.5461       -39.5032     -0.9067116      0.9916784              1
     12497.5000         0.6838       1924.891        46.7776       79.60779         0.5391       -39.5085     -0.9120102      0.9916551              1
     12498.0000         0.6902       1903.146        46.7744       79.60458         0.5281       -39.5138     -0.9173126      0.9915869              1
     12498.5000         0.6967       1880.961        46.7712       79.60138         0.5258        -39.519     -0.9225121      0.9915187              1
     12499.0000         0.7031       1858.725        46.7679       79.59808         0.5321       -39.5244     -0.9279099      0.9914486              1
     12499.5000         0.7081       1836.539        46.7647       79.59489         0.5384       -39.5296     -0.9331093      0.9913806              1
     12500.0000         0.7086       1814.352        46.7615       79.59169         0.5446       -39.5349     -0.9384117      0.9913126              1
