#------------------------------------------------------------------------------
# Created by    : vladimir.rabinovich
# Created on    : 09/19/2023 17:19:43
#------------------------------------------------------------------------------
~Version Information Section
VERS.           2.0     :   CWLS log ASCII Standard - VERSION 2.0
WRAP.           NO      :   One line per depth step
~Well Information Section
#MNEM       .UNIT                                         VALUE :DESCRIPTION
#------------------------------------------------------------------------------
STRT        .FT                                            1054 :START DEPTH
STOP        .FT                                           13910 :STOP DEPTH
STEP        .FT                                             0.5 :STEP      
NULL        .                                           -999.25 :NULL      
COMP        .                                            MTS LP :COMPANY   
WELL        .                                ST TR 00061-L SW/4 :WELL      
FLD         .                                           WILDCAT :FIELD     
LOC         .                                                   :LOCATION  
CNTY        .                           HIGH ISLAND LARGE BLOCK :LOCATION  
STAT        .                                             TEXAS :STATE     
CTRY        .                                     UNITED STATES :COUNTRY   
SRVC        .                                                   :SERVICE COMPANY
DATE        .                             9/13/2023 11:19:15 AM :LOG DATE  
API         .                                    42708302730000 :API NUMBER
UWI         .                                    42708302730000 :UNIQUE WELL ID
XCOORD      .                                  1164861.29381137 :SURFACE X 
YCOORD      .                                   10674042.082625 :SURFACE Y 
LAT         .                                        29.4036169 :LATITUDE  
LON         .                                       -94.4939126 :LONGITUDE 
ELEV        .FT                                              78 :ELEVATION VALUE
ELEV_TYPE   .                                                KB :ELEVATION REFERENCE TYPE
~Curve Information Section
#MNEM       .UNIT                                      API CODE :CURVE DESCRIPTION
#------------------------------------------------------------------------------
DEPT        .FT                                                 :DEPTH     
ASFL        .OHMM                                               :          
CILD        .MMHO                                               :          
ILD         .OHMM                                               :          
SP          .MV                                                 :          
SP_NORM     .MV                                                 :SP Normalized
VSH_SP      .V/V                                                :Volume of Shale from SP
~A        DEPTH           ASFL           CILD            ILD             SP        SP_NORM         VSH_SP
# ...
      7894.0000         0.7715       1504.037         0.6329        -68.881       1.448517              1
      7894.5000         0.7828       1479.648         0.6411       -68.7538       1.653481              1
      7895.0000         0.7805       1464.053         0.6492       -68.6266       1.858452              1
      7895.5000         0.7739       1454.055         0.6574        -68.599       1.963821              1
      7896.0000         0.7655       1451.789         0.6656       -68.7032       1.937386              1
      7896.5000          0.757       1450.662         0.6738       -68.8074        1.91095              1
      7897.0000         0.7488       1451.838         0.6817       -69.0837       1.712418              1
      7897.5000         0.7434       1453.016         0.6893       -69.5155       1.358391              1
      7898.0000         0.7531       1452.768          0.697       -70.0267      0.9249573              1
      7898.5000         0.7628       1451.842         0.7047        -70.391      0.6384277              1
      7899.0000         0.7733       1445.131         0.7124       -70.6931       0.414093              1
      7899.5000          0.785       1428.318         0.7242       -70.9878      0.1971588              1
      7900.0000         0.7967       1382.908         0.7406       -71.4932     -0.2304688              1
      7900.5000         0.8312       1331.627         0.7569       -73.7622        -2.4217      0.9856394
      7901.0000         0.8601       1286.045         0.7741       -75.4177      -3.999435      0.9697027
      7901.5000         0.8864       1224.252         0.7972       -78.7805       -7.28447      0.9365205
      7902.0000         0.9259       1155.387         0.8126       -85.5653      -14.02686      0.8684155
      7902.5000         0.9767       1186.037         0.8229      -101.7463      -30.17698       0.705283
      7903.0000         1.0432       1267.477         0.8331      -117.9274       -46.3272      0.5421495
      7903.5000         1.1074        1677.33         0.7922      -127.5256      -55.89452      0.4455099
      7904.0000         1.0774       2056.141         0.7135      -135.7246      -64.06264      0.3630037
      7904.5000         0.9696       3422.645         0.6341      -145.8845      -74.19167      0.2606902
      7905.0000         0.9038       3501.336         0.5591      -149.6094       -77.8857      0.2233768
      7905.5000         0.7695       3570.887         0.4913      -150.6392      -78.88462      0.2132867
      7906.0000         0.6969        3632.09         0.4381      -149.0552      -77.26974      0.2295986
      7906.5000         0.6628        3678.41         0.3899      -147.5154      -75.69905      0.2454641
      7907.0000         0.6516       3627.672         0.3489      -146.4229      -74.57568      0.2568114
      7907.5000         0.7127       3529.531         0.3262      -145.3376       -73.4595      0.2680859
      7908.0000         1.0031       2963.867         0.3506      -144.7351      -72.82613      0.2744836
      7908.5000         1.3237       2287.984          0.404      -144.1335      -72.19364      0.2808723
      7909.0000         1.6459       1724.486         0.4642      -143.7195      -71.74876      0.2853661
      7909.5000         1.9883       1235.059          0.524      -143.4607      -71.45908      0.2882922
      7910.0000         2.2664       953.9971         0.5813      -143.9333      -71.90081      0.2838302
      7910.5000          2.422       921.1846         0.6386      -147.1951      -75.13173      0.2511947
      7911.0000         2.3217       974.5283         0.6905      -151.8611      -79.76685      0.2043753
      7911.5000         1.8859       1115.402         0.7362      -156.0889      -83.96377      0.1619821
      7912.0000         1.5183       1755.137          0.696      -160.5405      -88.38449      0.1173284
      7912.5000          0.949       2395.652         0.6269      -162.6001      -90.41321     0.09683628
      7913.0000         0.6629       3035.387         0.5545      -163.7949      -91.57714     0.08507939
      7913.5000         0.5931       4387.938         0.4726      -164.7559      -92.50726     0.07568421
      7914.0000         0.5493       5665.836         0.3908      -165.5959      -93.31638     0.06751136
      7914.5000          0.529       6016.352         0.3091      -166.2161      -93.90569     0.06155866
      7915.0000         0.5167       6100.547         0.2272      -166.0684      -93.72713     0.06336235
      7915.5000          0.513       6414.414         0.1942      -165.9202      -93.54804     0.06517129
      7916.0000         0.5099        6520.32          0.186      -165.7725      -93.36947     0.06697506
      7916.5000         0.5068       6545.813         0.1824      -165.5554      -93.12149      0.0694799
      7917.0000          0.506       6364.516         0.1802      -165.2639      -92.79911     0.07273626
      7917.5000         0.5063       6152.117         0.1781      -164.9722      -92.47652      0.0759947
      7918.0000         0.5066       5968.414         0.1761      -164.6746      -92.14806     0.07931256
      7918.5000         0.5045       5777.438         0.1753      -164.3748      -91.81738     0.08265278
      7919.0000            0.5       5687.055         0.1746      -164.0754      -91.48709     0.08598898
      7919.5000         0.4912       5583.711         0.1738      -163.7922      -91.17302     0.08916142
      7920.0000         0.4824       5538.813          0.173      -163.5098      -90.85973     0.09232593
      7920.5000         0.4659       5513.539         0.1723      -163.2681      -90.58716     0.09507921
      7921.0000         0.4435       5497.672          0.175      -163.0657      -90.35388     0.09743553
      7921.5000         0.4129       5481.781         0.1778       -162.863      -90.12031     0.09979487
      7922.0000         0.3973       5469.445         0.1806      -162.8381      -90.06453      0.1003583
      7922.5000         0.3899       5461.227         0.1834      -162.8433      -90.03885      0.1006177
      7923.0000         0.3825       5465.969         0.1851      -162.8489      -90.01357       0.100873
      7923.5000         0.3751       5481.492         0.1865      -162.9922      -90.12599     0.09973746
      7924.0000          0.368       5497.008         0.1879      -163.1357      -90.23861      0.0985999
      7924.5000         0.3608       5515.625         0.1893      -163.2542      -90.32623     0.09771489
      7925.0000         0.3537       5541.414         0.1907       -163.363      -90.40416     0.09692768
      7925.5000         0.3467       5499.422         0.1921      -163.0559      -90.06617      0.1003417
      7926.0000         0.3473        5413.75         0.1935      -161.7993      -88.77869      0.1133465
      7926.5000         0.3619       4582.453         0.1949      -160.8638      -87.81232      0.1231079
      7927.0000         0.3765        4483.82         0.1977      -160.3567      -87.27435       0.128542
      7927.5000         0.3911       4437.258         0.2028      -160.0422      -86.92896      0.1320307
      7928.0000         0.4263       4415.719          0.208      -159.7275      -86.58337      0.1355215
      7928.5000         0.4382       4387.992         0.2131      -159.3784      -86.20341      0.1393595
      7929.0000         0.4452       4358.422         0.2175      -159.0027      -85.79683      0.1434664
      7929.5000         0.4461       4317.898         0.2213      -158.7522      -85.51544      0.1463087
      7930.0000         0.4471       4325.461         0.2251      -158.8091      -85.54147      0.1460458
      7930.5000          0.452       4353.508         0.2289       -158.866      -85.56749      0.1457829
      7931.0000          0.457       4381.555         0.2327      -158.9231       -85.5937      0.1455181
      7931.5000          0.462       4520.469         0.2364        -158.98      -85.61973      0.1452553
