#------------------------------------------------------------------------------
# Created by    : vladimir.rabinovich
# Created on    : 09/19/2023 17:21:52
#------------------------------------------------------------------------------
~Version Information Section
VERS.           2.0     :   CWLS log ASCII Standard - VERSION 2.0
WRAP.           NO      :   One line per depth step
~Well Information Section
#MNEM       .UNIT                                         VALUE :DESCRIPTION
#------------------------------------------------------------------------------
STRT        .FT                                            2690 :START DEPTH
STOP        .FT                                            8272 :STOP DEPTH
STEP        .FT                                             0.5 :STEP      
NULL        .                                           -999.25 :NULL      
COMP        .                        PG&E RESOURCES OFFSHORE CO :COMPANY   
WELL        .                               OCS G09053 ST00BP00 :WELL      
FLD         .                              GALVESTON BLOCK 0427 :FIELD     
LOC         .                                                   :LOCATION  
CNTY        .                             GALVESTON LARGE BLOCK :LOCATION  
STAT        .                                             TEXAS :STATE     
CTRY        .                                     UNITED STATES :COUNTRY   
SRVC        .                                                   :SERVICE COMPANY
DATE        .                             9/13/2023 11:11:09 AM :LOG DATE  
API         .                                    42706402380000 :API NUMBER
UWI         .                                    42706402380000 :UNIQUE WELL ID
XCOORD      .                                  948581.259723803 :SURFACE X 
YCOORD      .                                  10360666.4777899 :SURFACE Y 
LAT         .                                         28.532718 :LATITUDE  
LON         .                                        -95.155068 :LONGITUDE 
ELEV        .FT                                             119 :ELEVATION VALUE
ELEV_TYPE   .                                                KB :ELEVATION REFERENCE TYPE
~Curve Information Section
#MNEM       .UNIT                                      API CODE :CURVE DESCRIPTION
#------------------------------------------------------------------------------
DEPT        .FT                                                 :DEPTH     
CALI        .IN                                                 :          
DRHO        .G/C3                                               :          
DT          .US/F                                               :          
GR          .GAPI                                               :          
GR_1        .GAPI                                               :          
GR_NORM     .GAPI                                               :GammaRay Normalized
ILD         .OHMM                                               :          
ILM         .OHMM                                               :          
NPHI        .%                                                  :          
RFOC        .OHMM                                               :          
RHOB        .G/C3                                               :          
SP          .MV                                                 :          
SP_NORM     .MV                                                 :SP Normalized
VSH_GR      .V/V                                                :Volume of Shale from GR
VSH_SP      .V/V                                                :Volume of Shale from SP
~A        DEPTH           CALI           DRHO             DT             GR           GR_1        GR_NORM            ILD            ILM           NPHI           RFOC           RHOB             SP        SP_NORM         VSH_GR         VSH_SP
# ...
      7875.0000        14.4751         0.0771       107.7312        88.2496        84.2468       77.01722         0.8198           0.87        36.4833         1.1456         2.4038       -43.5015      0.9429436      0.9365366              1
      7875.5000        14.4981         0.0818        107.371        87.4618        86.8698       79.99033         0.8223         0.8721        36.2563         1.1433         2.3944       -43.5917      0.8527412      0.9997943              1
      7876.0000        14.5241         0.0778       107.4955        87.7595        90.8893       84.54391         0.8236         0.8733        36.1438          1.138         2.3921        -43.379       1.065441              1              1
      7876.5000        14.5595         0.0681       108.1313        91.3422        91.6407       85.39886         0.8232         0.8753        36.2792         1.1323         2.3891       -42.9459       1.498543              1              1
      7877.0000        14.5832         0.0554        108.814         94.006        89.5428       83.02916         0.8208         0.8717        36.4792         1.1245         2.3848       -42.5637       1.880741              1              1
      7877.5000        14.5743         0.0504       109.5278        95.7544        88.2308        81.5489         0.8153         0.8672        36.3965         1.1125         2.3804        -42.642       1.802444              1              1
      7878.0000        14.5516         0.0561       110.0317        96.2623        87.8386        81.1096         0.8082         0.8631        35.8212         1.1028         2.3805       -43.2209       1.223541              1              1
      7878.5000        14.4708         0.0615       109.9915        94.8466        88.5221       81.88772         0.8055         0.8615        35.2077         1.1017         2.3856       -43.6675      0.7769432              1              1
      7879.0000        14.3592         0.0649       109.4353        93.4889        90.6836       84.33852         0.8056         0.8626        35.1263         1.1074         2.3902       -43.4011       1.043343              1              1
      7879.5000        14.2833         0.0671        108.699        92.3199        93.8977        87.9806         0.8074          0.861        35.3691         1.1232         2.3921       -43.0286       1.415844              1              1
      7880.0000        14.1887         0.0678       107.9838         91.455        94.1621        88.2844         0.8137         0.8615        35.6819          1.144         2.3916       -42.6892       1.755241              1              1
      7880.5000        14.0615         0.0669       107.5576        90.3032        90.7374       84.41312         0.8176         0.8622        35.6998         1.1523         2.3906       -42.1623       2.282143              1              1
      7881.0000        13.8801         0.0612       107.6619        88.2913         89.134       82.60307         0.8237         0.8642        35.7827         1.1284         2.3895       -41.6017       2.842743              1              1
      7881.5000        13.6965         0.0555       108.4514        87.4846        89.6261       83.16457          0.831         0.8661        35.9185          1.107         2.3894       -41.6213       2.823143              1              1
      7882.0000        13.5669         0.0603       109.4879        88.7617        90.3311       83.96701         0.8384          0.867        35.9679         1.1187          2.391       -42.3988       2.045643              1              1
      7882.5000        13.5477         0.0665       109.6432        91.3937        87.9469        81.2733         0.8452         0.8707         35.619         1.1383         2.3929       -43.5052      0.9392433              1              1
      7883.0000        13.5365         0.0706       109.4022        92.6324        84.2211       77.06125         0.8518         0.8775        35.2007         1.1287         2.3952       -44.4144     0.03004456      0.9374734              1
      7883.5000        13.5107         0.0729       108.9409        93.0438         83.931       76.73751         0.8561         0.8812        35.0366         1.1196         2.3976       -44.8481      -0.403656      0.9305853              1
      7884.0000        13.5258         0.0744       108.3463         93.165        86.2137       79.32549         0.8576         0.8831         35.053         1.1318         2.3989       -44.1485      0.2959442      0.9856486              1
      7884.5000        13.5266         0.0747       107.7812        93.1439        90.5171       84.20036         0.8578         0.8862        35.3608          1.145         2.3992       -42.9539       1.490543              1              1
      7885.0000        13.5009         0.0746       107.5057        93.5496        92.5281       86.48083         0.8569         0.8898        35.6343         1.1465         2.3986       -42.2861       2.158344              1              1
      7885.5000        13.4527          0.074       107.6521        93.7465        92.4473       86.39397         0.8559         0.8906        35.6632         1.1236          2.398       -42.1779       2.266544              1              1
      7886.0000        13.4412         0.0708       108.1163        92.9399        90.5808       84.28616          0.855         0.8891        35.5346         1.1107         2.3994       -42.8815       1.562943              1              1
      7886.5000        13.4646         0.0691       108.3613        91.3079        88.8966       82.38467         0.8554         0.8856        35.3794         1.1185         2.4065       -43.6143       0.830143              1              1
      7887.0000        13.4831         0.0682       107.4037         88.801        87.6078       80.93066         0.8549         0.8836        35.3732         1.1328          2.413       -44.3556      0.0888443              1              1
      7887.5000        13.4622         0.0681       106.3997        88.7324        86.7498        79.9642         0.8541         0.8818        35.8918         1.1474         2.4183       -44.9272     -0.4827576      0.9992382              1
      7888.0000        13.4278         0.0692       105.6526        91.0531        87.3618       80.66138         0.8524         0.8804        37.1891         1.1599         2.4228       -44.5718     -0.1273575              1              1
      7888.5000        13.4102         0.0707       105.3378         93.783        89.3348       82.89887         0.8487         0.8797         37.439         1.1698         2.4223       -43.6057      0.8387413              1              1
      7889.0000        13.4115         0.0725       105.5223        95.8831        91.4963       85.34968         0.8442         0.8802        37.4333         1.1759         2.4148       -42.5471       1.897343              1              1
      7889.5000        13.3482         0.0744       106.1021        97.8141        92.4208       86.40054         0.8368         0.8807        36.8989         1.1425         2.4041       -42.0563       2.388142              1              1
      7890.0000        12.9085         0.0758       107.4436        99.2943        90.9235       84.71056         0.8305         0.8801        36.2804         1.0858         2.4001       -43.1328       1.311642              1              1
      7890.5000        12.7675         0.0763       109.1328        98.2577        88.0436       81.45585          0.823         0.8769        35.8666         1.0549         2.4031       -45.8945      -1.450058              1      0.9884601
      7891.0000        12.9127         0.0744       109.4908        94.1873        88.2173         81.657         0.8193         0.8709        36.0859         1.0612         2.4068       -46.8036      -2.359158              1      0.9651498
      7891.5000        13.0628         0.0713       108.9496        92.6606        89.2357       82.81413         0.8179         0.8631        36.2178         1.0835         2.4094       -46.9764      -2.531956              1      0.9607191
