#------------------------------------------------------------------------------
# Created by    : vladimir.rabinovich
# Created on    : 09/19/2023 17:20:34
#------------------------------------------------------------------------------
~Version Information Section
VERS.           2.0     :   CWLS log ASCII Standard - VERSION 2.0
WRAP.           NO      :   One line per depth step
~Well Information Section
#MNEM       .UNIT                                         VALUE :DESCRIPTION
#------------------------------------------------------------------------------
STRT        .FT                                             500 :START DEPTH
STOP        .FT                                            9234 :STOP DEPTH
STEP        .FT                                             0.5 :STEP      
NULL        .                                           -999.25 :NULL      
COMP        .                                      SHELL OIL CO :COMPANY   
WELL        .                                OCS 00713 ST00BP00 :WELL      
FLD         .                                           WILDCAT :FIELD     
LOC         .                                                   :LOCATION  
CNTY        .                             GALVESTON LARGE BLOCK :LOCATION  
STAT        .                                             TEXAS :STATE     
CTRY        .                                     UNITED STATES :COUNTRY   
SRVC        .                                                   :SERVICE COMPANY
DATE        .                             9/13/2023 11:19:25 AM :LOG DATE  
API         .                                    42706000510000 :API NUMBER
UWI         .                                    42706000510000 :UNIQUE WELL ID
XCOORD      .                                  1104646.85179908 :SURFACE X 
YCOORD      .                                   10481381.387581 :SURFACE Y 
LAT         .                                         28.871549 :LATITUDE  
LON         .                                        -94.674396 :LONGITUDE 
ELEV        .FT                                              82 :ELEVATION VALUE
ELEV_TYPE   .                                                KB :ELEVATION REFERENCE TYPE
~Curve Information Section
#MNEM       .UNIT                                      API CODE :CURVE DESCRIPTION
#------------------------------------------------------------------------------
DEPT        .FT                                                 :DEPTH     
ASN         .OHMM                                               :          
ASN_1       .OHMM                                               :          
GR_NORM     .                                                   :GammaRay Normalized
ILD         .OHMM                                               :          
LAT         .OHMM                                               :          
LN          .OHMM                                               :          
SP          .MV                                                 :          
SP_1        .MV                                                 :          
SP_NORM     .MV                                                 :SP Normalized
VSH_SP      .V/V                                                :Volume of Shale from SP
~A        DEPTH            ASN          ASN_1        GR_NORM            ILD            LAT             LN             SP           SP_1        SP_NORM         VSH_SP
# ...
      1651.5000        -999.25         0.8754        -999.25        -999.25         1.0978         0.6707        -999.25       -79.6163      -3.300514      0.9499802
      1652.0000        -999.25         0.8861        -999.25        -999.25            1.1          0.667        -999.25       -78.9125       -2.59671      0.9770496
      1652.5000        -999.25           0.89        -999.25        -999.25         1.1005         0.6696        -999.25       -78.9557      -2.639915      0.9753879
      1653.0000        -999.25         0.8919        -999.25        -999.25         1.1059         0.6722        -999.25       -79.3075      -2.991714      0.9618571
      1653.5000        -999.25         0.8906        -999.25        -999.25         1.1129         0.6745        -999.25       -79.8126      -3.496811      0.9424304
      1654.0000        -999.25         0.8885        -999.25        -999.25         1.1287         0.6769        -999.25       -79.0076      -2.691811      0.9733919
      1654.5000        -999.25         0.8856        -999.25        -999.25         1.1487          0.678        -999.25       -76.9025     -0.5867081              1
      1655.0000        -999.25         0.8952        -999.25        -999.25          1.169          0.679        -999.25        -75.417      0.8987885              1
      1655.5000        -999.25         0.9073        -999.25        -999.25         1.1954         0.6844        -999.25        -74.759       1.556786              1
      1656.0000        -999.25         0.9174        -999.25        -999.25         1.2219         0.6898        -999.25       -75.3652       0.950592              1
      1656.5000        -999.25         0.9181        -999.25        -999.25          1.242         0.7007        -999.25       -76.2542     0.06158447              1
      1657.0000        -999.25         0.9148        -999.25        -999.25         1.2498         0.7137        -999.25       -76.8887     -0.5729141              1
      1657.5000        -999.25         0.9122        -999.25        -999.25         1.2565         0.7296        -999.25       -77.1226     -0.8068085              1
      1658.0000        -999.25         0.9106        -999.25        -999.25         1.2439         0.7472        -999.25       -76.9808     -0.6650085              1
      1658.5000        -999.25           0.91        -999.25        -999.25         1.2314          0.764        -999.25       -76.7301     -0.4143143              1
      1659.0000        -999.25         0.9118        -999.25        -999.25         1.2198         0.7806        -999.25       -76.2977     0.01808929              1
      1659.5000        -999.25         0.9197        -999.25        -999.25         1.2083         0.7942        -999.25       -76.0791      0.2366867              1
      1660.0000        -999.25         0.9307        -999.25        -999.25         1.1866         0.8076        -999.25       -76.0638      0.2519913              1
      1660.5000        -999.25         0.9315        -999.25        -999.25         1.1635         0.8178        -999.25       -76.2474     0.06838989              1
      1661.0000        -999.25         0.9296        -999.25        -999.25         1.1489          0.828        -999.25       -76.3766     -0.0608139              1
      1661.5000        -999.25         0.9313        -999.25        -999.25         1.1357         0.8367        -999.25       -76.3348    -0.01901245              1
      1662.0000        -999.25          0.945        -999.25        -999.25         1.1292          0.845        -999.25       -76.5677      -0.251915              1
      1662.5000        -999.25         0.9501        -999.25        -999.25          1.126         0.8564        -999.25       -76.8422      -0.526413              1
      1663.0000        -999.25         0.9469        -999.25        -999.25          1.126         0.8648        -999.25       -76.4003     -0.0845108              1
      1663.5000        -999.25         0.9452        -999.25        -999.25         1.1345         0.8687        -999.25       -75.5619       0.753891              1
      1664.0000        -999.25         0.9553        -999.25        -999.25          1.143         0.8743        -999.25       -74.8525       1.463287              1
      1664.5000        -999.25         0.9791        -999.25        -999.25          1.161          0.878        -999.25       -74.8064       1.509392              1
      1665.0000        -999.25          1.014        -999.25        -999.25         1.1813         0.8771        -999.25       -75.5438      0.7719879              1
      1665.5000        -999.25         1.0667        -999.25        -999.25         1.2193         0.8663        -999.25       -76.4987     -0.1829147              1
      1666.0000        -999.25         1.1437        -999.25        -999.25          1.274         0.8313        -999.25       -77.3273      -1.011513              1
      1666.5000        -999.25         1.2502        -999.25        -999.25          1.349         0.7779        -999.25       -78.0814       -1.76561              1
      1667.0000        -999.25         1.3579        -999.25        -999.25         1.4418         0.7221        -999.25       -78.8296      -2.513809      0.9802381
      1667.5000        -999.25         1.5017        -999.25        -999.25         1.5363         0.6807        -999.25       -79.5715      -3.255714      0.9517033
      1668.0000        -999.25         1.5918        -999.25        -999.25         1.6174         0.6558        -999.25        -80.188      -3.872215      0.9279917
      1668.5000        -999.25         1.5364        -999.25        -999.25         1.6798         0.6494        -999.25       -80.2756      -3.959808      0.9246228
      1669.0000        -999.25         1.4383        -999.25        -999.25         1.6902          0.651        -999.25       -79.4777      -3.161911      0.9553111
      1669.5000        -999.25         1.2046        -999.25        -999.25         1.6339         0.6635        -999.25       -78.2649      -1.949112              1
      1670.0000        -999.25         1.1235        -999.25        -999.25         1.5262         0.6833        -999.25       -77.2162     -0.9004135              1
      1670.5000        -999.25         1.0532        -999.25        -999.25         1.4074          0.721        -999.25       -76.8888     -0.5730133              1
      1671.0000        -999.25         1.0013        -999.25        -999.25         1.2993         0.7708        -999.25       -77.0485     -0.7327118              1
      1671.5000        -999.25         0.9532        -999.25        -999.25         1.1915         0.7994        -999.25       -77.4687      -1.152908              1
      1672.0000        -999.25         0.9272        -999.25        -999.25         1.1036         0.8067        -999.25        -77.906       -1.59021              1
      1672.5000        -999.25          0.943        -999.25        -999.25         1.0622         0.8033        -999.25       -78.8292      -2.513412      0.9802533
      1673.0000        -999.25         0.9589        -999.25        -999.25         1.0358         0.7992        -999.25       -79.9001      -3.584312      0.9390649
      1673.5000        -999.25         0.9629        -999.25        -999.25         1.0093         0.7949        -999.25       -81.1263      -4.810509      0.8919035
      1674.0000        -999.25         0.9566        -999.25        -999.25         0.9621         0.7891        -999.25       -83.0647      -6.748909      0.8173497
      1674.5000        -999.25         0.9483        -999.25        -999.25          0.914         0.7822        -999.25       -82.8427      -6.526909      0.8258881
      1675.0000        -999.25         0.9368        -999.25        -999.25         0.8675         0.7855        -999.25       -83.1986      -6.882813      0.8121995
      1675.5000        -999.25         0.9213        -999.25        -999.25         0.8228         0.7946        -999.25       -84.2461      -7.930313       0.771911
