#------------------------------------------------------------------------------
# Created by    : vladimir.rabinovich
# Created on    : 09/19/2023 17:21:32
#------------------------------------------------------------------------------
~Version Information Section
VERS.           2.0     :   CWLS log ASCII Standard - VERSION 2.0
WRAP.           NO      :   One line per depth step
~Well Information Section
#MNEM       .UNIT                                         VALUE :DESCRIPTION
#------------------------------------------------------------------------------
STRT        .FT                                            4185 :START DEPTH
STOP        .FT                                            8075 :STOP DEPTH
STEP        .FT                                             0.5 :STEP      
NULL        .                                           -999.25 :NULL      
COMP        .                                         HESS CORP :COMPANY   
WELL        .                               OCS G07236 ST00BP00 :WELL      
FLD         .                              GALVESTON BLOCK 0210 :FIELD     
LOC         .                                                   :LOCATION  
CNTY        .                             GALVESTON LARGE BLOCK :LOCATION  
STAT        .                                             TEXAS :STATE     
CTRY        .                                     UNITED STATES :COUNTRY   
SRVC        .                                                   :SERVICE COMPANY
DATE        .                             9/13/2023 11:19:34 AM :LOG DATE  
API         .                                    42706402930000 :API NUMBER
UWI         .                                    42706402930000 :UNIQUE WELL ID
XCOORD      .                                   1127714.7472722 :SURFACE X 
YCOORD      .                                  10563055.4663979 :SURFACE Y 
LAT         .                                         29.097041 :LATITUDE  
LON         .                                        -94.605794 :LONGITUDE 
ELEV        .FT                                              89 :ELEVATION VALUE
ELEV_TYPE   .                                                KB :ELEVATION REFERENCE TYPE
~Curve Information Section
#MNEM       .UNIT                                      API CODE :CURVE DESCRIPTION
#------------------------------------------------------------------------------
DEPT        .FT                                                 :DEPTH     
CALI        .IN                                                 :          
DRHO        .G/CC                                               :          
DT          .US/F                                               :          
ILD         .OHMM                                               :          
ILM         .OHMM                                               :          
NPHI        .%                                                  :          
RFOC        .OHMM                                               :          
RHOB        .G/CC                                               :          
SP          .MV                                                 :          
SP_NORM     .MV                                                 :SP Normalized
VSH_SP      .V/V                                                :Volume of Shale from SP
~A        DEPTH           CALI           DRHO             DT            ILD            ILM           NPHI           RFOC           RHOB             SP        SP_NORM         VSH_SP
# ...
      5017.5000         18.308        -0.0002       135.2478         0.5754         0.5605        38.2141         1.1301         2.1184       -87.8435      -17.43393      0.7509438
      5018.0000        18.5219        -0.0001       135.0117          0.536         0.5267        37.1151         1.2681         2.1027       -99.9276      -29.52312      0.5782411
      5018.5000        18.7084         0.0004       135.0906         0.5001          0.497        36.3383         1.2918         2.0978      -111.3451      -40.94573       0.415061
      5019.0000        19.1074         0.0007        135.439         0.4707         0.4703        35.8234         1.2907         2.0992      -120.0543      -49.66003      0.2905711
      5019.5000        19.5049         0.0011       135.6533         0.4478         0.4479        35.1793         1.2711         2.1013      -123.2626      -52.87343      0.2446653
      5020.0000        19.8141         0.0014       135.4277         0.4269         0.4337        34.4578         1.2644         2.1046      -126.2631      -55.87902      0.2017283
      5020.5000        19.8889         0.0015       134.8884         0.4077         0.4284        34.2886         1.2746         2.1056      -129.1277      -58.74872      0.1607326
      5021.0000        19.8907         0.0016       134.3372           0.39         0.4231        34.3498         1.2812         2.1056      -131.4331      -61.05922      0.1277254
      5021.5000        19.8736         0.0011       134.0811         0.3734         0.4165        34.5309         1.2768         2.1057       -134.031      -63.66222     0.09053977
      5022.0000        19.6292         0.0005       134.0051         0.3582         0.4104        34.0492         1.2593          2.107       -135.689       -65.3253      0.0667814
      5022.5000        19.4099              0       133.8552         0.3465         0.4054         33.423         1.2304         2.1109      -136.6719      -66.31331     0.05266702
      5023.0000        19.2625              0       133.6279          0.339         0.4007        32.8735         1.2079         2.1174      -137.3867       -67.0332     0.04238281
      5023.5000        19.1206         0.0005       133.2515         0.3354         0.3965        32.4224         1.1988         2.1261      -137.8948      -67.54641     0.03505129
      5024.0000        19.0548          0.001       132.7739         0.3345         0.3927        32.1121         1.1927         2.1344      -138.1299       -67.7866     0.03162003
      5024.5000        19.1506         0.0013       132.2996         0.3339         0.3896        31.9538         1.1856          2.141      -138.0637       -67.7255     0.03249283
      5025.0000        19.2752         0.0012       131.9668          0.335         0.3879        31.8934         1.1781         2.1419      -137.8494      -67.51629     0.03548159
      5025.5000        19.3178          0.001       131.6562          0.337          0.388        32.5415         1.1678         2.1406      -137.5649      -67.23689     0.03947307
      5026.0000        19.2494         0.0006       131.5081         0.3396          0.389        33.2631         1.1529         2.1371      -137.2134      -66.89048     0.04442171
      5026.5000        19.1628         0.0002       131.8521         0.3438         0.3908        33.8519         1.1417         2.1249       -136.946      -66.62818     0.04816884
      5027.0000        19.1161        -0.0002       132.1592         0.3478         0.3919        34.0554         1.1475         2.1154      -136.8972      -66.58448     0.04879314
      5027.5000         19.164        -0.0003       132.4619         0.3516         0.3922          33.86         1.1673         2.1088      -137.1167      -66.80907     0.04558465
      5028.0000        19.2457        -0.0002       132.7427         0.3528         0.3889        33.5442         1.2146         2.1082       -137.915      -67.61246     0.03410764
      5028.5000        19.0017        -0.0002       132.9714         0.3504         0.3818        33.2798         1.2705         2.1104      -138.9177      -68.62026     0.01971054
      5029.0000        17.9468        -0.0001        133.292          0.347         0.3706        33.5211         1.3054         2.1121      -140.0808      -69.78847    0.003021894
      5029.5000        17.3834              0       134.3367         0.3399         0.3578        34.1752          1.328         2.1105      -141.2566      -70.96938              0
      5030.0000        17.2322         0.0001       135.8933         0.3267         0.3467        34.8699         1.3034          2.101      -142.3569      -72.07477              0
      5030.5000        17.2166         0.0001       136.9614         0.3116         0.3365        35.4081         1.2637         2.0898      -143.2329      -72.95586              0
      5031.0000        17.3531              0       137.8618         0.2997         0.3273        35.7839         1.2317         2.0802      -143.5376      -73.26566              0
      5031.5000        17.6114              0        138.657         0.2908         0.3209        35.9344         1.2168         2.0737      -143.3274      -73.06055              0
      5032.0000        17.7993         0.0005       139.1221         0.2823         0.3139        36.1803         1.2037         2.0669      -142.3479      -72.08615              0
      5032.5000        17.8985         0.0011       138.9456         0.2757         0.3088        36.9423         1.1753         2.0604      -140.7795      -70.52284              0
      5033.0000        17.9464         0.0015       138.6936         0.2706         0.3077        37.7631         1.0998          2.056       -138.946      -68.69444     0.01865082
      5033.5000        17.9568         0.0013       138.4971         0.2735         0.3114         38.327         1.0625         2.0583      -136.9854      -66.73894     0.04658661
      5034.0000        17.9885         0.0011       138.3579         0.2798         0.3193        38.7208         1.0592         2.0645      -135.4153      -65.17393     0.06894378
      5034.5000        18.6293         0.0008         138.25         0.2862         0.3303        38.9146         1.0765         2.0692      -134.7812      -64.54494     0.07792936
      5035.0000        19.1851         0.0005       138.1531         0.2928         0.3398        38.9061         1.0957         2.0701      -134.9976      -64.76644     0.07476512
      5035.5000         19.366         0.0004        138.054         0.3006         0.3467        38.9134         1.1157         2.0698      -135.2759      -65.04983     0.07071675
      5036.0000        19.3893         0.0002       138.0005         0.3094         0.3513         39.067         1.1394          2.069      -135.6306      -65.40963     0.06557672
      5036.5000        19.3688              0       138.0034         0.3173         0.3548        39.4256          1.168         2.0677      -136.1719      -65.95603     0.05777097
      5037.0000        19.2792        -0.0001       138.0325         0.3236         0.3566        39.7389         1.1909         2.0663       -136.916      -66.70522     0.04706824
      5037.5000        18.8914        -0.0003       138.0508         0.3277         0.3577        39.9043         1.1959         2.0648      -137.4617      -67.25602     0.03919972
      5038.0000        18.3706        -0.0003       138.0867         0.3299         0.3581        39.8772         1.1867         2.0635      -137.6572      -67.45661     0.03633412
      5038.5000        18.2085        -0.0002       138.4229         0.3302         0.3573        39.7545         1.1743         2.0626      -137.5303      -67.33482     0.03807406
      5039.0000        18.1497        -0.0001       138.9788          0.329         0.3558        39.5975         1.1573         2.0639      -137.1768      -66.98641     0.04305126
      5039.5000        18.1516              0       139.4453         0.3266         0.3531        39.2936          1.142         2.0665      -137.0818      -66.89651      0.0443355
