#------------------------------------------------------------------------------
# Created by    : vladimir.rabinovich
# Created on    : 09/19/2023 17:19:47
#------------------------------------------------------------------------------
~Version Information Section
VERS.           2.0     :   CWLS log ASCII Standard - VERSION 2.0
WRAP.           NO      :   One line per depth step
~Well Information Section
#MNEM       .UNIT                                         VALUE :DESCRIPTION
#------------------------------------------------------------------------------
STRT        .FT                                             970 :START DEPTH
STOP        .FT                                            9511 :STOP DEPTH
STEP        .FT                                             0.5 :STEP      
NULL        .                                           -999.25 :NULL      
COMP        .                                SHELL OFFSHORE INC :COMPANY   
WELL        .                               OCS G06097 ST00BP00 :WELL      
FLD         .                                           WILDCAT :FIELD     
LOC         .                                                   :LOCATION  
CNTY        .                             GALVESTON LARGE BLOCK :LOCATION  
STAT        .                                             TEXAS :STATE     
CTRY        .                                     UNITED STATES :COUNTRY   
SRVC        .                                                   :SERVICE COMPANY
DATE        .                             9/13/2023 11:19:27 AM :LOG DATE  
API         .                                    42706401130000 :API NUMBER
UWI         .                                    42706401130000 :UNIQUE WELL ID
XCOORD      .                                  1026820.46089783 :SURFACE X 
YCOORD      .                                  10482391.3243497 :SURFACE Y 
LAT         .                                         28.871086 :LATITUDE  
LON         .                                        -94.917566 :LONGITUDE 
ELEV        .FT                                             107 :ELEVATION VALUE
ELEV_TYPE   .                                                KB :ELEVATION REFERENCE TYPE
~Curve Information Section
#MNEM       .UNIT                                      API CODE :CURVE DESCRIPTION
#------------------------------------------------------------------------------
DEPT        .FT                                                 :DEPTH     
ASFL        .OHMM                                               :          
CALI        .IN                                                 :          
CILD        .MMHO                                               :          
DT          .US/F                                               :          
GR          .GAPI                                               :          
GR_NORM     .GAPI                                               :GammaRay Normalized
ILD         .OHMM                                               :          
ILM         .OHMM                                               :          
RHOB        .G/C3                                               :          
SP          .MV                                                 :          
SP_NORM     .MV                                                 :SP Normalized
VSH_GR      .V/V                                                :Volume of Shale from GR
VSH_SP      .V/V                                                :Volume of Shale from SP
~A        DEPTH           ASFL           CALI           CILD             DT             GR        GR_NORM            ILD            ILM           RHOB             SP        SP_NORM         VSH_GR         VSH_SP
# ...
      7791.0000           0.93        10.9053       1304.561       106.8284        66.2053        83.6112         0.8241         0.8003         2.3745       -49.2332      -4.243828              1      0.9393739
      7791.5000         0.9294        10.9411       1302.307       109.1555        65.6576       82.73964         0.8206         0.7972         2.3719       -48.9636      -3.979408              1      0.9431513
      7792.0000           0.93        10.9345       1300.059       110.8875        65.2686       82.12045          0.817         0.7983         2.3855        -48.694      -3.714993              1      0.9469287
      7792.5000         0.9306        10.9319       1299.324        112.136        64.8795       81.50108         0.8135         0.8027         2.3989       -48.4428      -3.468971              1      0.9504433
      7793.0000         0.9312        10.9465        1300.51       111.3859        64.4899       80.88095         0.8099         0.8072         2.4037       -48.2324      -3.263756              1      0.9533749
      7793.5000         0.9294        10.9675       1301.695       110.1499        63.9966       80.09591         0.8063         0.8119         2.4043       -48.0219      -3.058437              1      0.9563081
      7794.0000         0.9272        11.0239       1306.533       108.7484        63.4911       79.29144         0.8028         0.8157         2.3974       -47.8115      -2.853222      0.9849241      0.9592397
      7794.5000         0.9251         11.193       1312.012       108.1052        63.0139         78.532         0.7992         0.8126         2.3856       -47.6056      -2.652504      0.9687659      0.9621071
      7795.0000         0.9222        11.3953         1317.1       108.7245        62.5372       77.77334         0.7957          0.807         2.3757       -47.4141      -2.466187      0.9526242      0.9647688
      7795.5000         0.9183        11.3444       1321.047       110.1876        61.9306       76.80811         0.7943         0.7996         2.3719       -47.2239       -2.28117      0.9320874      0.9674119
      7796.0000         0.9145        11.2749        1319.24       112.4707        61.2928       75.79329         0.7937         0.7929         2.3703       -47.4518      -2.514252      0.9104955      0.9640821
      7796.5000         0.9107        11.2512       1299.584        113.601         60.655       74.77843         0.7931         0.7865         2.3691       -47.6797      -2.747334      0.8889028      0.9607524
      7797.0000         0.9068        11.1643       1274.018       115.0535        59.9731       73.69347         0.7925         0.7855         2.3685       -47.9291      -3.001915      0.8658186      0.9571155
      7797.5000         0.9107        11.0496       1253.764       115.8463        59.2881       72.60358         0.7919         0.7921         2.3678       -48.2492      -3.327198      0.8426293      0.9524686
      7798.0000         0.9153        10.9905       1239.691       115.9757        58.5786       71.47472         0.7913         0.8048         2.3666       -48.5693      -3.652481       0.818611      0.9478217
      7798.5000         0.9199        10.9162       1225.594       115.2875        57.7821       70.20753         0.7907         0.8228         2.3649       -48.8895      -3.977863      0.7916495      0.9431734
      7799.0000         0.9314        10.8313       1217.998       113.1807        56.9844       68.93842         0.7901         0.8437         2.3632       -49.2485      -4.342049      0.7646471      0.9379708
      7799.5000         0.9497        10.7121       1211.445       111.1442        56.1879       67.67123         0.7931         0.8609         2.3599       -49.7019      -4.800629      0.7376857      0.9314196
      7800.0000          0.968        10.9024       1204.898       109.1455         55.373       66.37476         0.8024         0.8752         2.3654       -50.1553      -5.259212      0.7101012      0.9248684
      7800.5000          1.013        11.1038       1194.244       107.0839        54.5581       65.07829         0.8116         0.8832         2.3754       -49.9249      -5.033993      0.6825167      0.9280858
      7801.0000         1.0179        11.1602       1177.912       105.7661        54.0962       64.34317         0.8208         0.8913          2.383       -49.5861      -4.700378       0.666876      0.9328517
      7801.5000         1.0192        11.1764       1161.605       105.8026        54.9282       65.66561           0.83         0.8923         2.3891       -49.2405      -4.359959       0.695013      0.9377149
      7802.0000         1.0149         11.066       1165.131        107.016         55.759       66.98614         0.8398         0.8873         2.3927       -49.0439      -4.168541      0.7231093      0.9404494
      7802.5000         1.0106        11.0243       1168.654       108.2117        56.4152       68.02905         0.8498         0.8822         2.3947       -48.9663      -4.096123      0.7452988       0.941484
      7803.0000         1.0062        11.1091        1172.18       108.9133        56.9402       68.86329         0.8563         0.8772         2.3961       -48.8897      -4.024708      0.7630487      0.9425042
      7803.5000         0.9998        11.1036       1185.408       108.9788        57.4647       69.69675         0.8551         0.8708          2.395       -48.9559      -4.096085      0.7807819      0.9414845
      7804.0000         0.9935        11.0796        1199.73       108.2242        57.9898       70.53115         0.8539         0.8637         2.3917       -49.0425       -4.18787      0.7985351      0.9401733
      7804.5000         0.9871        11.0614       1214.051       107.3497        58.5143        71.3646         0.8527         0.8568         2.3917       -49.1885      -4.339054      0.8162681      0.9380135
      7805.0000         0.9808        11.0336       1227.156       107.6301        59.0394       72.19903         0.8516         0.8484         2.3896       -49.3279      -4.483635      0.8340219      0.9359481
      7805.5000         0.9743         11.039       1239.318       107.9989        58.9721       72.09138         0.8505         0.8391         2.3851       -49.4166      -4.577518      0.8317316      0.9346069
      7806.0000         0.9677        11.2201       1251.779       108.2041         58.879       71.94276         0.8495         0.8299         2.3821       -49.5362      -4.702301      0.8285693      0.9328243
      7806.5000         0.9612        11.4211       1265.307        108.222        58.7612       71.75481         0.8484         0.8223         2.3879       -49.7086      -4.879883      0.8245704      0.9302874
      7807.0000         0.9546        11.4396       1270.949       109.0901        58.0125       70.56364         0.8473         0.8148         2.4002       -49.8811      -5.057564      0.7992263      0.9277491
      7807.5000         0.9481        11.4357       1266.695        111.411        57.2638       69.37244         0.8463         0.8113         2.4213       -50.1274      -5.309048      0.7738816      0.9241565
      7808.0000         0.9453        11.3644       1253.752       113.1781        56.5163       68.18316         0.8452         0.8097          2.439       -50.4135       -5.60033      0.7485778      0.9199953
      7808.5000         0.9456        11.1728        1240.82       113.8148        55.7676       66.99196         0.8569         0.8092         2.4473       -50.6996      -5.891613      0.7232332      0.9158341
      7809.0000         0.9459        10.8197       1213.703       113.7987        54.8192       65.48321         0.8704         0.8315          2.444       -51.0694      -6.266598      0.6911321      0.9104772
      7809.5000         0.9662        10.5289       1178.311       113.0748        53.7825       63.83405          0.884         0.8553         2.4243       -51.5823      -6.784676      0.6560437      0.9030761
