#------------------------------------------------------------------------------
# Created by    : vladimir.rabinovich
# Created on    : 09/19/2023 17:20:36
#------------------------------------------------------------------------------
~Version Information Section
VERS.           2.0     :   CWLS log ASCII Standard - VERSION 2.0
WRAP.           NO      :   One line per depth step
~Well Information Section
#MNEM       .UNIT                                         VALUE :DESCRIPTION
#------------------------------------------------------------------------------
STRT        .FT                                             510 :START DEPTH
STOP        .FT                                            7943 :STOP DEPTH
STEP        .FT                                             0.5 :STEP      
NULL        .                                           -999.25 :NULL      
COMP        .                       BLUE DOLPHIN EXPLORATION CO :COMPANY   
WELL        .                                OCS 00709 ST00BP00 :WELL      
FLD         .                                FEDERAL BLOCK 0288 :FIELD     
LOC         .                                                   :LOCATION  
CNTY        .                             GALVESTON LARGE BLOCK :LOCATION  
STAT        .                                             TEXAS :STATE     
CTRY        .                                     UNITED STATES :COUNTRY   
SRVC        .                                                   :SERVICE COMPANY
DATE        .                             9/13/2023 11:19:25 AM :LOG DATE  
API         .                                    42706000400000 :API NUMBER
UWI         .                                    42706000400000 :UNIQUE WELL ID
XCOORD      .                                   1098851.8122004 :SURFACE X 
YCOORD      .                                  10485233.3471489 :SURFACE Y 
LAT         .                                         28.881916 :LATITUDE  
LON         .                                        -94.692672 :LONGITUDE 
ELEV        .FT                                              93 :ELEVATION VALUE
ELEV_TYPE   .                                                KB :ELEVATION REFERENCE TYPE
~Curve Information Section
#MNEM       .UNIT                                      API CODE :CURVE DESCRIPTION
#------------------------------------------------------------------------------
DEPT        .FT                                                 :DEPTH     
ASN         .OHMM                                               :          
GR          .GAPI                                               :          
ILD         .OHMM                                               :          
NEUT        .NAPI                                               :          
SP          .MV                                                 :          
SP_NORM     .MV                                                 :SP Normalized
VSH_SP      .V/V                                                :Volume of Shale from SP
~A        DEPTH            ASN             GR            ILD           NEUT             SP        SP_NORM         VSH_SP
       510.0000         0.0831        -999.25        12.3696        -999.25       -96.0959     -0.9739532              1
       510.5000         0.1812        -999.25         8.6523        -999.25       -87.3361       3.080978              1
       511.0000         0.3342        -999.25          2.248        -999.25       -82.5151     -0.4614334              1
       511.5000         0.5871        -999.25         1.5757        -999.25       -78.2247   -0.002746582              1
       512.0000         0.7885        -999.25         1.1223        -999.25       -75.7236     -0.2894516              1
       512.5000         0.9248        -999.25         0.9477        -999.25       -73.3315     -0.6851578              1
       513.0000         1.0061        -999.25         1.0572        -999.25       -71.0034     -0.5403671              1
       513.5000         1.0721        -999.25         1.2543        -999.25       -68.9874      0.6178589              1
       514.0000         1.1257        -999.25         1.5032        -999.25       -67.2767       1.470764              1
       514.5000         1.1715        -999.25         1.5363        -999.25       -66.4116       1.816406              1
       515.0000         1.2044        -999.25         1.3972        -999.25       -65.5065       2.583839              1
       515.5000         1.2177        -999.25         1.2579        -999.25       -65.5367        2.41597              1
       516.0000          1.215        -999.25         1.1325        -999.25       -66.5442       1.270805              1
       516.5000         1.2037        -999.25         1.0781        -999.25       -67.6986    -0.02127075              1
       517.0000         1.1867        -999.25         1.1231        -999.25       -68.7252      -1.185539              1
       517.5000         1.1887        -999.25         1.1823        -999.25       -69.1619      -1.759911              1
       518.0000         1.2062        -999.25         1.2045        -999.25       -68.7651      -1.500778              1
       518.5000          1.201        -999.25         1.1596        -999.25       -68.1711      -1.044449              1
       519.0000         1.1798        -999.25         1.1462        -999.25       -67.4918     -0.5028152              1
       519.5000         1.1829        -999.25         1.1877        -999.25       -66.8591   -0.007789612              1
       520.0000         1.1987        -999.25         1.2894        -999.25       -66.6365     0.07714844              1
       520.5000         1.2011        -999.25         1.4239        -999.25        -66.946     -0.3700256              1
       521.0000         1.2049        -999.25         1.5656        -999.25       -66.6205     -0.1821976              1
       521.5000         1.2114        -999.25         1.6889        -999.25       -65.9928      0.3078384              1
       522.0000         1.2207        -999.25         1.7561        -999.25       -65.8607      0.3022614              1
       522.5000         1.2094        -999.25         1.7228        -999.25       -65.9098      0.1155014              1
       523.0000         1.1825        -999.25         1.5503        -999.25       -65.6707      0.2169266              1
       523.5000         1.1657        -999.25         1.3711        -999.25       -64.9012      0.6724625              1
       524.0000         1.1671        -999.25         1.2169        -999.25       -64.0148       1.187149              1
       524.5000          1.162        -999.25         1.0896        -999.25       -63.1282       1.702045              1
       525.0000         1.1458        -999.25         1.0088        -999.25       -62.6346        1.82394              1
       525.5000         1.1303        -999.25         1.0207        -999.25        -62.867        1.21983              1
       526.0000         1.1257        -999.25         1.0529        -999.25       -63.1396      0.5755234              1
       526.5000         1.1323        -999.25         1.0609        -999.25       -63.1089        0.23452              1
       527.0000         1.1291        -999.25         1.0201        -999.25       -62.9898    -0.01808929              1
       527.5000         1.1023        -999.25         0.9428        -999.25       -62.7316     -0.1315994              1
       528.0000         1.0924        -999.25         1.0045        -999.25       -63.2913      -1.063007              1
       528.5000         1.1168        -999.25         1.1452        -999.25       -62.9825      -1.125912              1
       529.0000         1.1394        -999.25         1.2971        -999.25       -62.6466       -1.16172              1
       529.5000         1.1511        -999.25         1.3582        -999.25       -62.2632      -1.150028              1
       530.0000         1.1532        -999.25         1.2847        -999.25       -61.8089      -1.067432              1
       530.5000         1.1528        -999.25         1.1964        -999.25       -61.7424      -1.372643              1
       531.0000         1.1502        -999.25         1.1163        -999.25       -61.7341       -1.73605              1
       531.5000         1.1495        -999.25         1.1004        -999.25       -61.2105      -1.584156              1
       532.0000         1.1515        -999.25         1.0891        -999.25       -60.4165      -1.161865              1
       532.5000           1.16        -999.25         1.0816        -999.25       -60.4304      -1.547474              1
       533.0000         1.1676        -999.25         1.0774        -999.25        -60.236      -1.724781              1
       533.5000           1.17        -999.25         1.0788        -999.25       -59.9431      -1.803585              1
       534.0000         1.1642        -999.25         1.0807        -999.25       -59.8152      -2.047394       0.992101
       534.5000         1.1655        -999.25         1.0855        -999.25       -59.5536      -2.157501      0.9737498
       535.0000         1.1791        -999.25         1.0919        -999.25       -59.3796      -2.355209      0.9407985
       535.5000         1.1888        -999.25         1.1008        -999.25       -58.9075      -2.254818      0.9575303
       536.0000         1.1947        -999.25         1.1214        -999.25       -59.4847      -3.203724      0.7993793
       536.5000         1.2006        -999.25         1.1489        -999.25       -59.2275      -3.131966      0.8113391
       537.0000         1.2114        -999.25         1.1872        -999.25       -59.2194      -3.127857      0.8120238
       537.5000         1.2191        -999.25         1.2362        -999.25        -59.269      -3.181458      0.8030904
       538.0000         1.2255        -999.25         1.2679        -999.25       -58.8929      -2.809353      0.8651078
       538.5000         1.2304        -999.25          1.255        -999.25       -59.1633      -3.083752      0.8193747
       539.0000         1.2224        -999.25         1.2173        -999.25       -59.2922      -3.216644       0.797226
       539.5000         1.2074        -999.25         1.1718        -999.25        -59.204      -3.132442      0.8112596
       540.0000         1.1886        -999.25         1.1096        -999.25       -59.8162      -3.748642      0.7085597
       540.5000         1.1808        -999.25         1.0491        -999.25       -59.6541      -3.590538      0.7349103
       541.0000         1.1743        -999.25          1.005        -999.25       -60.0879      -4.028332      0.6619447
       541.5000         1.1605        -999.25         0.9676        -999.25        -60.491      -4.435432      0.5940946
       542.0000         1.1532        -999.25         0.9442        -999.25       -60.1569      -4.105328       0.649112
       542.5000         1.1517        -999.25         0.9397        -999.25       -59.3995      -3.351929      0.7746785
       543.0000         1.1446        -999.25         0.9566        -999.25       -58.8365      -2.792919      0.8678468
