#------------------------------------------------------------------------------
# Created by    : vladimir.rabinovich
# Created on    : 09/19/2023 17:20:30
#------------------------------------------------------------------------------
~Version Information Section
VERS.           2.0     :   CWLS log ASCII Standard - VERSION 2.0
WRAP.           NO      :   One line per depth step
~Well Information Section
#MNEM       .UNIT                                         VALUE :DESCRIPTION
#------------------------------------------------------------------------------
STRT        .FT                                             617 :START DEPTH
STOP        .FT                                           12396 :STOP DEPTH
STEP        .FT                                             0.5 :STEP      
NULL        .                                           -999.25 :NULL      
COMP        .                                        SUN OIL CO :COMPANY   
WELL        .                               OCS G01781 ST00BP00 :WELL      
FLD         .                                           WILDCAT :FIELD     
LOC         .                                                   :LOCATION  
CNTY        .                             GALVESTON LARGE BLOCK :LOCATION  
STAT        .                                             TEXAS :STATE     
CTRY        .                                     UNITED STATES :COUNTRY   
SRVC        .                                                   :SERVICE COMPANY
DATE        .                             9/13/2023 11:19:24 AM :LOG DATE  
API         .                                    42706001390000 :API NUMBER
UWI         .                                    42706001390000 :UNIQUE WELL ID
XCOORD      .                                  1010631.41746955 :SURFACE X 
YCOORD      .                                  10491097.5822315 :SURFACE Y 
LAT         .                                         28.894296 :LATITUDE  
LON         .                                        -94.968586 :LONGITUDE 
ELEV        .FT                                              65 :ELEVATION VALUE
ELEV_TYPE   .                                                KB :ELEVATION REFERENCE TYPE
~Curve Information Section
#MNEM       .UNIT                                      API CODE :CURVE DESCRIPTION
#------------------------------------------------------------------------------
DEPT        .FT                                                 :DEPTH     
ASN         .OHMM                                               :          
CILD        .MMHO                                               :          
DT          .US/F                                               :          
ILD         .OHMM                                               :          
SP          .MV                                                 :          
SP_NORM     .MV                                                 :SP Normalized
VSH_SP      .V/V                                                :Volume of Shale from SP
~A        DEPTH            ASN           CILD             DT            ILD             SP        SP_NORM         VSH_SP
# ...
     10801.0000         0.5155       2258.207       120.1279         0.4234       -44.9908     -0.7538261              1
     10801.5000         0.5129       2262.336       120.1592         0.4203       -45.0673     -0.8310585              1
     10802.0000         0.5119       2269.098       120.6133         0.4172       -45.1219     -0.8863869              1
     10802.5000         0.5127       2276.023       121.5143         0.4141       -45.1713     -0.9365196              1
     10803.0000         0.5135       2275.699       121.1439         0.4138       -45.2208     -0.9867477              1
     10803.5000         0.5143       2264.285       120.1521         0.4178       -45.2701      -1.036781              1
     10804.0000         0.5151       2239.313       119.1937         0.4218       -45.3195       -1.08691              1
     10804.5000         0.5159       2201.711       116.7799         0.4259       -45.3689      -1.137039              1
     10805.0000         0.5167       2168.582       115.5012         0.4299       -45.4183      -1.187172              1
     10805.5000         0.5175       2152.043        115.166         0.4339       -45.4677      -1.237301              1
     10806.0000         0.5183        2135.48       116.0868         0.4379       -45.5171      -1.287434              1
     10806.5000         0.5191       2121.488       117.6522          0.442       -45.4952      -1.266262              1
     10807.0000         0.5229       2115.684       118.5006          0.446       -45.4592      -1.230995              1
     10807.5000         0.5277       2109.887       119.1423           0.45       -45.4233      -1.195824              1
     10808.0000         0.5326       2134.855       119.5826         0.4541       -45.3874      -1.160652              1
     10808.5000         0.5375       2186.238       119.9657         0.4558       -45.3514      -1.125381              1
     10809.0000         0.5424       2256.773       120.4697          0.457       -45.3155       -1.09021              1
     10809.5000         0.5473       2289.254         120.67         0.4582       -45.2796      -1.055042              1
     10810.0000         0.5522       2320.789       120.9939         0.4594       -45.2436      -1.019772              1
     10810.5000         0.5565       2345.164       121.1846         0.4606       -45.2077     -0.9846039              1
     10811.0000         0.5511       2366.227       121.3094         0.4618       -45.1705     -0.9481354              1
     10811.5000         0.5458       2350.113       121.4232          0.463       -45.0977     -0.8760643              1
     10812.0000         0.5405        2334.02        121.417         0.4642       -45.0246     -0.8036957              1
     10812.5000         0.5351        2317.93       121.5803         0.4654       -44.9515     -0.7313232              1
     10813.0000         0.5298       2301.813       121.2855          0.465       -44.8786     -0.6591568              1
     10813.5000         0.5255       2274.531        120.501         0.4642       -44.8055     -0.5867844              1
     10814.0000         0.5215       2245.184       118.9882         0.4634       -44.7325     -0.5145149              1
     10814.5000         0.5175       2218.125       117.8326         0.4627       -44.6596     -0.4423447              1
     10815.0000         0.5135       2203.324        117.399         0.4619       -44.5865      -0.369976              1
     10815.5000         0.5095       2188.527       117.9916         0.4612       -44.5135     -0.2977066              1
     10816.0000         0.5055        2173.73       119.2511         0.4604       -44.4406     -0.2255363              1
     10816.5000         0.5015       2166.777         119.75         0.4596       -44.3675     -0.1531677              1
     10817.0000         0.5041        2159.84       119.6041         0.4589       -44.2944    -0.08079529              1
     10817.5000         0.5096       2152.887       118.5448         0.4581       -44.2216   -0.008728027              1
     10818.0000         0.5151       2145.938       118.2456         0.4574       -44.1485     0.06364441              1
     10818.5000         0.5206       2118.641       118.5084         0.4566       -44.0754      0.1360092              1
     10819.0000         0.5262       2089.145       118.6854         0.4558       -44.0025      0.2081833              1
     10819.5000         0.5317       2062.184       118.1373         0.4612       -43.9294      0.2805481              1
     10820.0000         0.5372       2035.178       116.1681         0.4671       -43.8777      0.3315201              1
     10820.5000         0.5458       2016.922       113.0133          0.473       -43.9165      0.2919922              1
     10821.0000         0.5563       1999.711       109.5515         0.4788       -43.9553      0.2524605              1
     10821.5000         0.5668       2020.244       109.9088         0.4847        -43.994      0.2130318              1
     10822.0000         0.5774       2005.695       112.1147         0.4906       -44.0329      0.1733971              1
     10822.5000         0.5879       1991.145        114.452         0.4965       -44.0717      0.1338692              1
     10823.0000         0.5985       1976.596       115.8573         0.5024       -44.1105     0.09433746              1
     10823.5000          0.609       1947.971       114.4043         0.5083       -44.1492     0.05490875              1
     10824.0000         0.6196       1917.131       113.4991         0.5141       -44.1881     0.01528168              1
     10824.5000          0.631       1886.391       112.8389           0.52       -44.2269    -0.02425003              1
     10825.0000         0.6464       1855.701       111.4073         0.5259       -44.3593     -0.1573792              1
     10825.5000         0.6618       1824.961       108.6302         0.5409       -44.5128     -0.3116112              1
     10826.0000         0.6771       1755.074       106.1925         0.5565       -44.6667     -0.4662399              1
     10826.5000         0.6924       1673.299       101.3373         0.5722       -44.8203      -0.620575              1
     10827.0000         0.7078       1625.398       101.3265         0.5878       -44.9739     -0.7749023              1
     10827.5000         0.7232       1595.754       103.7213         0.6034       -45.1275     -0.9292297              1
     10828.0000         0.7343       1582.025       109.3616          0.619       -45.2814      -1.083862              1
     10828.5000         0.7452       1568.297       112.5736         0.6346       -45.4915      -1.294693              1
     10829.0000         0.7561        1542.58       109.4475         0.6462       -45.8522      -1.656124              1
     10829.5000         0.7674       1512.934       102.6888         0.6485       -46.2128      -2.017452      0.9996707
     10830.0000         0.7944       1457.723         99.644         0.6508       -46.5734      -2.378784      0.9928531
     10830.5000         0.8215       1440.711        98.0763         0.6531       -46.9341      -2.740215      0.9860337
     10831.0000         0.8488       1424.756       100.9777         0.6554       -47.2947      -3.101547      0.9792161
     10831.5000         0.8771       1415.654        107.507         0.6577       -47.7828      -3.590374      0.9699929
     10832.0000         0.8935       1406.539       112.3824           0.66        -48.274      -4.082302      0.9607113
     10832.5000         0.8762       1397.436       113.9694          0.655       -48.7665      -4.575535       0.951405
     10833.0000          0.859       1388.719       112.6859         0.6472       -49.1352      -4.944965      0.9444346
     10833.5000         0.8417       1386.842       111.5507         0.6394       -49.1713      -4.981796      0.9437397
     10834.0000         0.8245       1417.084       110.6473         0.6316       -48.8983      -4.709526      0.9488769
