#------------------------------------------------------------------------------
# Created by    : vladimir.rabinovich
# Created on    : 09/19/2023 17:22:10
#------------------------------------------------------------------------------
~Version Information Section
VERS.           2.0     :   CWLS log ASCII Standard - VERSION 2.0
WRAP.           NO      :   One line per depth step
~Well Information Section
#MNEM       .UNIT                                         VALUE :DESCRIPTION
#------------------------------------------------------------------------------
STRT        .FT                                            1000 :START DEPTH
STOP        .FT                                            7796 :STOP DEPTH
STEP        .FT                                             0.5 :STEP      
NULL        .                                           -999.25 :NULL      
COMP        .                                SHELL OFFSHORE INC :COMPANY   
WELL        .                               OCS G06060 ST00BP00 :WELL      
FLD         .                                           WILDCAT :FIELD     
LOC         .                                                   :LOCATION  
CNTY        .                                BRAZOS LARGE BLOCK :LOCATION  
STAT        .                                             TEXAS :STATE     
CTRY        .                                     UNITED STATES :COUNTRY   
SRVC        .                                                   :SERVICE COMPANY
DATE        .                             9/13/2023 11:19:08 AM :LOG DATE  
API         .                                    42704401260000 :API NUMBER
UWI         .                                    42704401260000 :UNIQUE WELL ID
XCOORD      .                                   881020.58603234 :SURFACE X 
YCOORD      .                                   10392321.681828 :SURFACE Y 
LAT         .                                         28.616238 :LATITUDE  
LON         .                                        -95.367327 :LONGITUDE 
ELEV        .FT                                              90 :ELEVATION VALUE
ELEV_TYPE   .                                                KB :ELEVATION REFERENCE TYPE
~Curve Information Section
#MNEM       .UNIT                                      API CODE :CURVE DESCRIPTION
#------------------------------------------------------------------------------
DEPT        .FT                                                 :DEPTH     
CALI        .IN                                                 :          
CILD        .MMHO                                               :          
DPHI        .%                                                  :          
DT          .US/F                                               :          
GR          .GAPI                                               :          
GR_NORM     .GAPI                                               :GammaRay Normalized
ILD         .OHMM                                               :          
ILM         .OHMM                                               :          
SFL         .OHMM                                               :          
SP          .MV                                                 :          
SP_NORM     .MV                                                 :SP Normalized
VSH_GR      .V/V                                                :Volume of Shale from GR
VSH_SP      .V/V                                                :Volume of Shale from SP
~A        DEPTH           CALI           CILD           DPHI             DT             GR        GR_NORM            ILD            ILM            SFL             SP        SP_NORM         VSH_GR         VSH_SP
# ...
      5978.0000        12.9366       805.6318        21.1295       107.2982        52.6985        63.3832         1.2349         1.2652         1.3949        -63.432      -3.034637      0.6464511      0.9735761
      5978.5000        12.8556       794.6133        21.4966       105.1556        53.2043       64.15871         1.2469         1.2967           1.36       -63.2792      -2.891815      0.6629514       0.975431
      5979.0000        12.8912       752.5889        21.6774         104.39        54.1851       65.71346         1.2872         1.3559         1.3586       -63.3683      -2.990887      0.6960312      0.9741443
      5979.5000        13.0407       727.8086        22.5304       104.4702        55.5261       67.85912         1.3403         1.4111         1.4085       -63.3487      -2.981258      0.7416835      0.9742694
      5980.0000        13.4405       745.8438        23.4619       100.5728        56.8364        69.9544         1.3586         1.4618         1.4619       -63.2609      -2.903431      0.7862638      0.9752801
      5980.5000        13.8173       762.1748        23.8443         92.842        56.2681       68.96787         1.3168         1.4893         1.4994       -63.1542      -2.806705      0.7652739      0.9765363
      5981.0000        13.7897       772.4893        24.0246        89.3694        55.3032        67.3307         1.3003         1.4672         1.4565        -63.674      -3.336475      0.7304405      0.9696562
      5981.5000        13.0517       772.2295        24.0157        96.5814        54.4202       65.82787         1.3011         1.4196         1.3583       -64.3752      -4.047646      0.6984654      0.9604202
      5982.0000        12.4221       759.6045        23.6214       101.2545        53.7231       64.63002         1.3203         1.3801         1.2704       -65.3754      -5.057819      0.6729792       0.947301
      5982.5000        12.0296       750.6582           22.6       102.0151        53.3267       63.92546         1.3393         1.4234         1.1583       -66.9303      -6.622692      0.6579884      0.9269781
      5983.0000        11.6802       749.9453        21.9562        97.9349         52.783       62.97927         1.3389         1.5062         1.2433        -68.576      -8.278362      0.6378567      0.9054758
      5983.5000        11.2485       761.3965        22.1972        92.5358        52.3333       62.18729          1.311         1.5631         1.9724       -70.2109      -9.923241      0.6210061      0.8841137
      5984.0000         11.036       782.0137        23.9624        87.4973        52.4564       62.33497         1.2748         1.5415         2.4635       -71.6322      -11.35452      0.6241484      0.8655258
      5984.5000        11.0208       804.9404        24.8176        83.4022         53.639       64.22079         1.2457         1.4077         2.9256       -72.1387      -11.87099      0.6642722      0.8588184
      5985.0000        11.0463       818.7266        25.4529        82.8539        54.8219       66.10709         1.2341         1.3375         2.3459       -71.8765      -11.61876      0.7044061       0.862094
      5985.5000        11.0638       833.3027        26.6547        88.0851          55.41       67.01759         1.2227         1.3234         1.6622       -71.2308      -10.98303      0.7237786      0.8703503
      5986.0000         11.182       853.7344        27.6313        95.0699        55.6182        67.3049         1.1824         1.3158         1.4889       -70.0134        -9.7756      0.7298915      0.8860312
      5986.5000        11.4536       910.3613        28.1617        96.6012        55.8775       67.67602         1.0982         1.2304         1.7139       -68.5486      -8.320774      0.7377876       0.904925
      5987.0000        11.6171       980.5752        27.8027        94.9192        56.4329       68.53291          1.014         1.1272         1.6541       -66.7594       -6.54155      0.7560193      0.9280318
      5987.5000        11.6718       1037.004        27.2269        94.2957        57.2227       69.77432         0.9622         1.0249         1.2071       -65.8096      -5.601723      0.7824324      0.9402373
      5988.0000        11.5684       1069.023        27.3089       103.5663        57.8032       70.67238         0.9486           0.99         1.0159       -65.8153      -5.617393        0.80154      0.9400339
      5988.5000        11.4952       1091.357        27.8301       108.3331        58.0434       71.01218         0.9252         0.9827         0.9709       -66.6281      -6.440166      0.8087697      0.9293485
      5989.0000        11.6963       1110.578        27.9231       109.2124        57.8344       70.61505         0.8923         1.0182         1.0207       -67.2494      -7.071438      0.8003203      0.9211501
      5989.5000        11.7926       1148.379        26.7776       104.8851        57.3843        69.8224         0.8684         1.0213         1.0278       -67.6765      -7.508511      0.7834552      0.9154739
      5990.0000        11.6985       1191.516         24.959       102.7266        56.9349       69.03091         0.8594         0.9172          0.921       -68.0636      -7.905582       0.766615      0.9103171
      5990.5000        11.5337       1174.049        18.5675       104.6628        55.9424       67.34846         0.8802         0.9758         0.8236       -69.3586      -9.210556      0.7308182      0.8933694
      5991.0000        11.4966       1133.209        12.5684       113.5841        54.9333       65.63876         0.9086         1.0505          0.782       -72.9515      -12.81343      0.6944418      0.8465788
      5991.5000        11.4686       1074.557         7.3112       115.9651        52.7475       61.99869         0.9418         1.1161         0.8818       -77.1211        -16.993      0.6169934      0.7922987
      5992.0000        11.3966       1017.437         5.8052       111.3513        46.2989       51.36549         0.9763         1.1915         1.7106       -82.6244      -22.50628      0.3907552      0.7206977
      5992.5000        11.2662       962.8369         7.9347        89.5967        43.7089       47.06234         1.0167         1.2927         4.0466       -88.3994      -28.29125      0.2991986      0.6455682
      5993.0000        11.0342       934.9062        10.9291        80.3396        43.6011       46.83123         1.0548         1.3549         6.0089       -94.5934      -34.49522      0.2942815      0.5649971
      5993.5000        10.9018       918.4033        16.1681        72.4064        45.0743       49.19376         1.0818          1.381         6.3089       -98.7227      -38.63449      0.3445482      0.5112403
      5994.0000        10.7856       903.4307        17.1133         69.687        46.8597       52.06847         1.1047         1.3945           4.89      -101.4044      -41.32617       0.405712      0.4762835
      5994.5000        10.7541       883.9014        17.5346        73.6116        47.2136       52.59478         1.1228         1.3938         3.4633      -103.4507      -43.38244      0.4169103      0.4495787
      5995.0000        10.7625       867.3311        16.8575        79.8752        46.1519       50.79881         1.1335         1.3918         2.8895      -105.1719      -45.11361       0.378698       0.427096
      5995.5000        10.7896       868.8691         16.602        83.7455        45.2549       49.27302         1.1415         1.4092         2.6202      -106.4622      -46.41388      0.3462345      0.4102093
      5996.0000        10.8609       866.5205        16.6717        85.0521        44.6139       48.16719         1.1485         1.4352         2.5996      -106.6844      -46.64606      0.3227062       0.407194
      5996.5000        10.9452       862.5361        16.3402         84.844        44.5015       47.92856         1.1572         1.5097         2.7853       -106.251      -46.22263      0.3176289      0.4126931
