#------------------------------------------------------------------------------
# Created by    : vladimir.rabinovich
# Created on    : 09/19/2023 17:22:46
#------------------------------------------------------------------------------
~Version Information Section
VERS.           2.0     :   CWLS log ASCII Standard - VERSION 2.0
WRAP.           NO      :   One line per depth step
~Well Information Section
#MNEM       .UNIT                                         VALUE :DESCRIPTION
#------------------------------------------------------------------------------
STRT        .FT                                             862 :START DEPTH
STOP        .FT                                           11792 :STOP DEPTH
STEP        .FT                                             0.5 :STEP      
NULL        .                                           -999.25 :NULL      
COMP        .                     FREEPORT-MCMORAN OIL & GAS CO :COMPANY   
WELL        .                               OCS G08155 ST00BP00 :WELL      
FLD         .                            HIGH ISLAND BLOCK 0262 :FIELD     
LOC         .                                                   :LOCATION  
CNTY        .                           HIGH ISLAND LARGE BLOCK :LOCATION  
STAT        .                                             TEXAS :STATE     
CTRY        .                                     UNITED STATES :COUNTRY   
SRVC        .                                                   :SERVICE COMPANY
DATE        .                             9/13/2023 11:19:59 AM :LOG DATE  
API         .                                    42708403380000 :API NUMBER
UWI         .                                    42708403380000 :UNIQUE WELL ID
XCOORD      .                                  1194111.75057656 :SURFACE X 
YCOORD      .                                  10524686.1808471 :SURFACE Y 
LAT         .                                         28.993839 :LATITUDE  
LON         .                                         -94.39647 :LONGITUDE 
ELEV        .FT                                              98 :ELEVATION VALUE
ELEV_TYPE   .                                                KB :ELEVATION REFERENCE TYPE
~Curve Information Section
#MNEM       .UNIT                                      API CODE :CURVE DESCRIPTION
#------------------------------------------------------------------------------
DEPT        .FT                                                 :DEPTH     
DT          .US/F                                               :          
GR          .GAPI                                               :          
GR_NORM     .GAPI                                               :GammaRay Normalized
ILD         .OHMM                                               :          
ILM         .OHMM                                               :          
SFL         .OHMM                                               :          
SP          .MV                                                 :          
SP_NORM     .MV                                                 :SP Normalized
VSH_GR      .V/V                                                :Volume of Shale from GR
VSH_SP      .V/V                                                :Volume of Shale from SP
~A        DEPTH             DT             GR        GR_NORM            ILD            ILM            SFL             SP        SP_NORM         VSH_GR         VSH_SP
# ...
      5982.5000       118.5016         94.798        84.5807         0.8701         0.7956         0.7309       -56.5044       1.818199              1              1
      5983.0000       119.0288        97.5204       87.93881         0.8639         0.7915         0.7199       -56.4113       1.908806              1              1
      5983.5000       119.3278        99.9513       90.93702         0.8587         0.7875         0.7127       -56.6368        1.68082              1              1
      5984.0000       119.5742        97.8414       88.32932         0.8537         0.7821         0.7079       -56.8577       1.457428              1              1
      5984.5000       119.7363        93.7821       83.31494         0.8487         0.7749         0.7112       -57.0646       1.248035              1              1
      5985.0000       119.8514        87.4486        75.4929         0.8445         0.7682         0.7199       -57.1573       1.152847      0.9041044              1
      5985.5000       119.9912        83.2758       70.33841         0.8406         0.7617         0.7324       -57.2051       1.102558      0.7944342              1
      5986.0000       120.1411          84.27       71.56291         0.8367         0.7552         0.7455       -57.1735       1.131668      0.8204875              1
      5986.5000       120.2578        86.6442       74.49113         0.8315         0.7488         0.7462       -57.1047       1.197979      0.8827901              1
      5987.0000       120.1652        88.8088       77.16058         0.8262         0.7424         0.7397       -57.0236       1.276588      0.9395869              1
      5987.5000        120.292        88.2373       76.45213         0.8208          0.736         0.7326       -56.9081       1.389599      0.9245135              1
      5988.0000       123.4878        86.9543       74.86528         0.8133         0.7279         0.7195       -56.8665       1.428707      0.8907506              1
      5988.5000       124.8523        86.3679       74.13844         0.8049         0.7197         0.7081       -57.0546       1.238117      0.8752859              1
      5989.0000       124.4358        86.5277       74.33283         0.7966         0.7133         0.6982       -57.5775      0.7127304      0.8794219              1
      5989.5000       123.5651        87.3096       75.29526         0.7884         0.7073         0.7045       -57.8224      0.4653397      0.8998991              1
      5990.0000       122.4072        89.9381       78.53742         0.7821         0.7072         0.7198       -58.0458      0.2394485      0.9688813              1
      5990.5000       121.4121        94.7686       84.49811          0.776         0.7102         0.7222       -57.9725      0.3102608              1              1
      5991.0000       121.5212        96.4318       86.54855           0.77          0.711         0.7115       -57.8991      0.3811684              1              1
      5991.5000       122.5055        96.9127       87.13934         0.7641         0.7018         0.6868       -57.6962      0.5815773              1              1
      5992.0000        123.573        98.4423       89.02484         0.7627         0.6926         0.6631       -57.4196      0.8556862              1              1
      5992.5000       124.6771       101.5405       92.84689         0.7651         0.6862         0.6453       -57.1432       1.129601              1              1
      5993.0000       125.5232       104.0928       95.99497         0.7675         0.6828         0.6364       -56.9515        1.31881              1              1
      5993.5000       125.9911       105.4874       97.71382         0.7714         0.6845         0.6325       -56.7719       1.495918              1              1
      5994.0000       125.8395       104.5018       96.49414         0.7809         0.6896         0.6447       -56.7232        1.54213              1              1
      5994.5000       125.1499        97.7983       88.21532         0.7882         0.6972         0.6685       -56.8127       1.450142              1              1
      5995.0000       122.8578        91.1282       79.97772         0.7949         0.7208          0.704       -56.9001       1.360249       0.999526              1
      5995.5000       121.1918        85.6891        73.2599          0.804         0.7465         0.7427       -56.9823       1.275558      0.8565937              1
      5996.0000       120.3608        84.9683       72.36712         0.8172         0.7719         0.7648       -57.0137       1.241673      0.8375983              1
      5996.5000       119.9767        85.0745       72.49534         0.8288         0.7721         0.7652       -56.9467       1.306179      0.8403264              1
      5997.0000       120.0688        83.2426       70.23084         0.8397         0.7707          0.746       -56.9056       1.344788      0.7921456              1
      5997.5000       120.2521        81.1737       67.67374         0.8442         0.7677         0.7402       -56.9169       1.331001      0.7377393              1
      5998.0000       120.7275        82.9156       69.82135         0.8487          0.762         0.7481       -56.9282       1.317211       0.783433              1
      5998.5000       121.2906        85.1646       72.59499         0.8417         0.7565          0.771       -57.0302       1.212719      0.8424467              1
      5999.0000       122.0458        86.7499       74.54926          0.832         0.7516         0.7673       -57.1728       1.067631      0.8840267              1
      5999.5000       122.7688        88.0299       76.12662         0.8239         0.7466          0.749       -57.3082      0.9297409      0.9175876              1
      6000.0000       123.4708        89.2169       77.58916         0.8184         0.7359          0.714       -57.3997      0.8357506      0.9487056              1
      6000.5000       124.0641        89.8922       78.41995          0.813         0.7235         0.6831       -57.4913      0.7416611       0.966382              1
      6001.0000       124.6034        90.3423       78.97275         0.8089          0.716         0.6757       -57.4692      0.7612724      0.9781436              1
      6001.5000       124.9967        89.7502       78.23886          0.806         0.7093         0.6842       -57.3558      0.8721809      0.9625289              1
      6002.0000       125.0782        87.6541       75.64819         0.8031         0.7072         0.6929       -57.2422      0.9832916      0.9074084              1
      6002.5000       124.8005        86.2419       73.90183         0.8002          0.711         0.7017       -57.1058       1.117199      0.8702518              1
      6003.0000       124.3654        85.8774       73.44895         0.7973         0.7148         0.7106        -56.965       1.255512       0.860616              1
      6003.5000       124.3254        89.5546       77.98582         0.7944         0.7183         0.7196       -56.8242       1.393822       0.957145              1
      6004.0000        125.066        92.9562       82.18241         0.7935         0.7213         0.7175       -56.7868        1.42873              1              1
      6004.5000       125.3143        95.2187       84.97273         0.7937         0.7242         0.7147       -56.7814       1.431644              1              1
      6005.0000       124.7865        97.8375       88.20293         0.7939         0.7244         0.7121       -56.7774       1.433151              1              1
      6005.5000       124.1466        101.521       92.74756         0.7941         0.7186         0.7105       -56.8683        1.33976              1              1
      6006.0000       124.4825       103.2653       94.89812         0.7944         0.7129         0.7021       -56.9592       1.246368              1              1
      6006.5000       125.3687       101.3997       92.59201          0.795         0.7078         0.6904       -57.0501       1.152985              1              1
