#------------------------------------------------------------------------------
# Created by    : vladimir.rabinovich
# Created on    : 09/19/2023 17:22:29
#------------------------------------------------------------------------------
~Version Information Section
VERS.           2.0     :   CWLS log ASCII Standard - VERSION 2.0
WRAP.           NO      :   One line per depth step
~Well Information Section
#MNEM       .UNIT                                         VALUE :DESCRIPTION
#------------------------------------------------------------------------------
STRT        .FT                                             272 :START DEPTH
STOP        .FT                                            9222 :STOP DEPTH
STEP        .FT                                             0.5 :STEP      
NULL        .                                           -999.25 :NULL      
COMP        .                   MCMORAN OFFSHORE EXPLORATION CO :COMPANY   
WELL        .                               OCS G03108 ST00BP00 :WELL      
FLD         .                       MATAGORDA ISLAND BLOCK 0700 :FIELD     
LOC         .                                                   :LOCATION  
CNTY        .                      MATAGORDA ISLAND LARGE BLOCK :LOCATION  
STAT        .                                             TEXAS :STATE     
CTRY        .                                     UNITED STATES :COUNTRY   
SRVC        .                                                   :SERVICE COMPANY
DATE        .                             9/13/2023 11:12:09 AM :LOG DATE  
API         .                                    42703400850000 :API NUMBER
UWI         .                                    42703400850000 :UNIQUE WELL ID
XCOORD      .                                  483045.974763742 :SURFACE X 
YCOORD      .                                  10146137.6323278 :SURFACE Y 
LAT         .                                         27.912878 :LATITUDE  
LON         .                                       -96.5835889 :LONGITUDE 
ELEV        .FT                                              85 :ELEVATION VALUE
ELEV_TYPE   .                                                KB :ELEVATION REFERENCE TYPE
~Curve Information Section
#MNEM       .UNIT                                      API CODE :CURVE DESCRIPTION
#------------------------------------------------------------------------------
DEPT        .FT                                                 :DEPTH     
CILD        .MMHO                                               :          
DT          .US/F                                               :          
GR          .GAPI                                               :          
GR_NORM     .GAPI                                               :GammaRay Normalized
ILD         .OHMM                                               :          
ILM         .OHMM                                               :          
SFL         .OHMM                                               :          
SP          .MV                                                 :          
SP_NORM     .MV                                                 :SP Normalized
VSH_GR      .V/V                                                :Volume of Shale from GR
VSH_SP      .V/V                                                :Volume of Shale from SP
~A        DEPTH           CILD             DT             GR        GR_NORM            ILD            ILM            SFL             SP        SP_NORM         VSH_GR         VSH_SP
# ...
       294.5000       1739.064       197.6785        58.0366        80.7378         0.5797         0.6127         0.6065        -999.25        -999.25              1        -999.25
       295.0000       1744.609       197.7283        56.3368       78.38633         0.5778         0.6134         0.5959        -999.25        -999.25      0.9656666        -999.25
       295.5000       1746.313       197.7844        56.0602       78.01614         0.5762         0.6129          0.578        -999.25        -999.25      0.9577903        -999.25
       296.0000       1752.457       197.9014        56.9843       79.31754         0.5746         0.6108         0.5646        -999.25        -999.25      0.9854797        -999.25
       296.5000       1766.938       198.0732        57.1539       79.56852          0.571         0.6074         0.5555        -999.25        -999.25      0.9908196        -999.25
       297.0000       1781.811       198.2815        56.7419       79.00986         0.5667         0.6063         0.5512        -999.25        -999.25      0.9789332        -999.25
       297.5000       1793.041       198.4595        56.4899       78.67381         0.5628         0.6062         0.5474        -999.25        -999.25      0.9717833        -999.25
       298.0000       1805.508        198.908        56.6569       78.92133         0.5592         0.6028          0.545        -999.25        -999.25      0.9770495        -999.25
       298.5000       1813.785       199.2849        57.3828       79.94679         0.5562            0.6         0.5431        -999.25        -999.25      0.9988679        -999.25
       299.0000       1816.057       199.5713        56.5515       78.80424          0.554         0.5978         0.5432        -999.25        -999.25      0.9745582        -999.25
       299.5000       1818.953       199.6899        54.5717       76.06312         0.5523         0.5972         0.5435        -999.25        -999.25      0.9162366        -999.25
       300.0000       1822.078       199.6033         53.441       74.50391         0.5528         0.5979         0.5446        -999.25        -999.25      0.8830618        -999.25
       300.5000       1825.943       199.5276        56.0355       78.13072         0.5534         0.5974         0.5456        -999.25        -999.25      0.9602281        -999.25
       301.0000       1832.393       199.4954        58.6791       81.82578         0.5512         0.5962         0.5466        -999.25        -999.25              1        -999.25
       301.5000       1840.736        199.469        59.6542       83.19814          0.549         0.5948         0.5476        -999.25        -999.25              1        -999.25
       302.0000           1851       199.3928        58.3399       81.38334         0.5464         0.5932         0.5467        -999.25        -999.25              1        -999.25
       302.5000       1865.203       199.2617         55.534         77.492         0.5437         0.5912         0.5458        -999.25        -999.25      0.9466384        -999.25
       303.0000       1875.633       199.1672        56.1595       78.37769          0.542         0.5899         0.5448        -999.25        -999.25      0.9654827        -999.25
       303.5000         1883.9        199.144        59.2834       82.74152         0.5406         0.5887         0.5437        -999.25        -999.25              1        -999.25
       304.0000       1883.807       199.1697        60.5154       84.47155         0.5388         0.5875          0.542        -999.25        -999.25              1        -999.25
       304.5000        1881.24       199.1958        58.9859       82.35714         0.5367         0.5856         0.5397        -999.25        -999.25              1        -999.25
       305.0000       1872.992       199.1646        56.1884       78.47751         0.5359         0.5847         0.5365        -999.25        -999.25      0.9676065        -999.25
       305.5000       1877.973       199.1023        54.2476       75.79053         0.5373         0.5864         0.5324        -999.25        -999.25      0.9104367        -999.25
       306.0000        1866.17       198.9714        52.6786       73.62116         0.5422         0.5847          0.526        -999.25        -999.25        0.86428        -999.25
       306.5000       1837.313       198.4961        50.7473       70.94739         0.5535         0.5971         0.5243        -999.25        -999.25      0.8073912        -999.25
       307.0000       1763.678       197.5188        50.3698       70.43677         0.5744          0.624         0.5288        -999.25        -999.25       0.796527        -999.25
       307.5000       1667.375       196.2173        52.2396       73.05469         0.6023         0.6587          0.538        -999.25        -999.25      0.8522274        -999.25
       308.0000       1569.188        194.677        56.5941       79.13168         0.6435         0.6958         0.5518        -999.25        -999.25       0.981525        -999.25
       308.5000       1464.094       193.1638        58.9184       82.38235         0.6912          0.732         0.5874        -999.25        -999.25              1        -999.25
       309.0000       1364.988       191.6099        57.0491        79.7949          0.735         0.7739         0.6698        -999.25        -999.25      0.9956362        -999.25
       309.5000       1294.617       190.0017        54.0758       75.67053         0.7705         0.8129         0.7454        -999.25        -999.25      0.9078836        -999.25
       310.0000       1241.551       188.1907        51.3823       71.93568         0.8009         0.8466         0.8009        -999.25        -999.25      0.8284188        -999.25
       310.5000       1186.486       186.6292        50.1217       70.19563          0.832         0.8765         0.8321        -999.25        -999.25      0.7913964        -999.25
       311.0000       1144.314        185.824        49.6015       69.48634         0.8599          0.904         0.8318        -999.25        -999.25       0.776305        -999.25
       311.5000       1119.975       185.3835        49.8744       69.88115         0.8926         0.9295         0.8162        -999.25        -999.25      0.7847053        -999.25
       312.0000       1106.217       184.5068        50.8567       71.26354         0.9219         0.9443         0.8021        -999.25        -999.25      0.8141179        -999.25
       312.5000       1097.152       183.0071        52.1807       73.12164         0.9371         0.9578         0.7951        -999.25        -999.25      0.8536518        -999.25
       313.0000       1090.738       181.1597        52.7107       73.87437         0.9516         0.9709         0.7921        -999.25        -999.25      0.8696675        -999.25
       313.5000        1084.67         180.04        52.7024       73.87772         0.9637          0.985          0.794        -999.25        -999.25      0.8697386        -999.25
       314.0000       1076.449       179.1689        52.5941       73.74185         0.9752         1.0003         0.7977        -999.25        -999.25      0.8668479        -999.25
       314.5000       1059.582       177.6934        50.4724       70.80302         0.9844         1.0223         0.8046        -999.25        -999.25      0.8043197        -999.25
       315.0000       1041.031       176.0642        46.2971       65.00529          0.994         1.0462         0.8358        -999.25        -999.25      0.6809636        -999.25
       315.5000       1022.062       174.3064        41.2105        57.9389          1.007         1.0659         0.8873        -999.25        -999.25      0.5306148        -999.25
       316.0000        1001.56       172.5095        35.8792       50.53183         1.0235         1.0844         0.9371        -999.25        -999.25      0.3730177        -999.25
       316.5000       982.3174       170.8389        32.9932         46.529          1.043         1.1011         0.9585        -999.25        -999.25       0.287851        -999.25
