#------------------------------------------------------------------------------
# Created by    : vladimir.rabinovich
# Created on    : 09/19/2023 17:20:01
#------------------------------------------------------------------------------
~Version Information Section
VERS.           2.0     :   CWLS log ASCII Standard - VERSION 2.0
WRAP.           NO      :   One line per depth step
~Well Information Section
#MNEM       .UNIT                                         VALUE :DESCRIPTION
#------------------------------------------------------------------------------
STRT        .FT                                            3530 :START DEPTH
STOP        .FT                                           11780 :STOP DEPTH
STEP        .FT                                             0.5 :STEP      
NULL        .                                           -999.25 :NULL      
COMP        .                                        TEXACO INC :COMPANY   
WELL        .                                     ST TR 00820-L :WELL      
FLD         .                                           WILDCAT :FIELD     
LOC         .                                                   :LOCATION  
CNTY        .                        MUSTANG ISLAND LARGE BLOCK :LOCATION  
STAT        .                                             TEXAS :STATE     
CTRY        .                                     UNITED STATES :COUNTRY   
SRVC        .                                                   :SERVICE COMPANY
DATE        .                             9/13/2023 11:18:55 AM :LOG DATE  
API         .                                    42702302010000 :API NUMBER
UWI         .                                    42702302010000 :UNIQUE WELL ID
XCOORD      .                                  295719.314319733 :SURFACE X 
YCOORD      .                                  9994218.17259751 :SURFACE Y 
LAT         .                                        27.4796405 :LATITUDE  
LON         .                                       -97.1466422 :LONGITUDE 
ELEV        .FT                                              78 :ELEVATION VALUE
ELEV_TYPE   .                                                KB :ELEVATION REFERENCE TYPE
~Curve Information Section
#MNEM       .UNIT                                      API CODE :CURVE DESCRIPTION
#------------------------------------------------------------------------------
DEPT        .FT                                                 :DEPTH     
ASFL        .OHMM                                               :          
CILD        .MMHO                                               :          
GR          .GAPI                                               :          
GR_NORM     .GAPI                                               :GammaRay Normalized
ILD         .OHMM                                               :          
SP          .MV                                                 :          
SP_NORM     .MV                                                 :SP Normalized
VSH_GR      .V/V                                                :Volume of Shale from GR
VSH_SP      .V/V                                                :Volume of Shale from SP
~A        DEPTH           ASFL           CILD             GR        GR_NORM            ILD             SP        SP_NORM         VSH_GR         VSH_SP
# ...
      6259.5000         0.9727       2535.305        49.1901       48.27669         0.5656       -94.3805      -51.25217      0.3250359      0.4017598
      6260.0000         0.9666       2165.457        49.9904       49.50943         0.6554       -84.7083      -41.57668      0.3512645      0.5169443
      6260.5000         0.9797       1041.607        50.7913       50.74311         0.7635       -74.5056      -31.37069       0.377513      0.6384442
      6261.0000         1.0382       870.3066        51.5739       51.94857         0.8716       -64.0968       -20.9586       0.403161      0.7623976
      6261.5000         1.1497       692.4873        51.4039       51.68504         1.0017        -53.688       -10.5465      0.3975541      0.8863512
      6262.0000          1.278        633.541        50.9164        50.9319          1.198       -49.5975      -6.452709      0.3815298      0.9350868
      6262.5000         1.3368       573.3701        50.2395       49.88669         1.3797       -49.0164      -5.868317      0.3592913      0.9420438
      6263.0000         1.4286       560.7031         49.562       48.84056         1.5113       -48.4345      -5.283123      0.3370332      0.9490104
      6263.5000         1.4596       629.0332         48.885        47.7952         1.6431       -47.8533      -4.698627      0.3147915      0.9559687
      6264.0000         1.4353       695.7705        49.4147       45.17463         1.7654       -47.2721      -4.114136      0.2590346       0.962927
      6264.5000         1.3843       761.7725         54.187       51.17402         1.7539       -46.9548      -3.793545      0.3866813      0.9667435
      6265.0000         1.2839       826.9424        58.6108       56.73523         1.6309       -46.6602      -3.495651      0.5050049      0.9702899
      6265.5000         1.2338       892.1113        66.5609        66.7303         1.5079        -46.366      -3.198162       0.717666      0.9738314
      6266.0000         1.1573       970.2656        67.6792       68.13528         1.3849       -46.0714      -2.900269      0.7475592      0.9773778
      6266.5000         1.0503       1051.996        69.9205       70.95229         1.2624       -45.7768      -2.602371      0.8074954      0.9809241
      6267.0000         0.9433        1184.49        72.1619       73.76943          1.147       -45.4822      -2.304482      0.8674347      0.9844705
      6267.5000         0.8364       1297.482        74.4056       76.58945         1.0315       -45.1879      -2.006889      0.9274352      0.9880132
      6268.0000         0.7413       1361.084        75.7766       78.31219          0.916       -44.9194      -1.735096      0.9640893      0.9912488
      6268.5000         0.6698       1415.621        76.4751       79.18932         0.8071       -44.6678      -1.480206      0.9827514      0.9942833
      6269.0000         0.6556       1455.457        76.0289       78.62716         0.7034       -44.4158      -1.224911      0.9707906      0.9973225
      6269.5000         0.6413       1495.244        75.5828       78.06515         0.6095       -44.1639     -0.9697151      0.9588329              1
      6270.0000         0.6335       1572.469        75.2592       77.65714         0.6152       -43.9123     -0.7148247      0.9501518              1
      6270.5000         0.6266       1646.213        75.1863       77.56435          0.621       -43.6603     -0.4595337      0.9481778              1
      6271.0000         0.6254        1647.34        75.1786       77.55354         0.6267       -43.4176     -0.2135391      0.9479477              1
      6271.5000         0.6307       1621.369        75.5588       78.03047         0.6325        -43.268    -0.06064987      0.9580951              1
      6272.0000         0.6365         1595.4        75.9387       78.50703         0.6394       -43.1186     0.09204483      0.9682348              1
      6272.5000         0.6454        1569.43        76.3188       78.98383         0.6487       -42.9691      0.2448387      0.9783794              1
      6273.0000         0.6543       1543.461        76.6987       79.46037         0.6579       -42.8197      0.3975334      0.9885184              1
      6273.5000         0.6633        1517.49         77.079       79.93743         0.6671       -42.6701      0.5504227      0.9986687              1
      6274.0000         0.6722       1491.521        77.4589       80.41397         0.6763       -42.5627      0.6611176              1              1
      6274.5000         0.6795       1465.527        77.9259       81.00006         0.6855       -42.5354      0.6917076              1              1
      6275.0000         0.6849        1437.23        77.9769       81.06306         0.6947       -42.5081      0.7223015              1              1
      6275.5000         0.6902       1402.244        77.1815       80.06181         0.7039       -42.7385      0.4951973              1              1
      6276.0000         0.6956       1367.258        76.3855       79.05984         0.7132       -43.1663     0.07068634      0.9799966              1
      6276.5000         0.7019       1332.322        75.5895       78.05787         0.7224       -43.5947     -0.3544197      0.9586781              1
      6277.0000         0.7083       1297.336        74.7941       77.05663         0.7316       -44.0231     -0.7795296       0.937375              1
      6277.5000         0.7147       1254.951         73.998       76.05452         0.7408       -44.4514      -1.204536      0.9160536       0.997236
      6278.0000         0.7211        1207.52         73.202       75.05252           0.75       -44.8464      -1.596245      0.8947345      0.9919426
      6278.5000         0.7275       1160.088        72.4067       74.05143         0.7592       -45.2407      -1.987247      0.8734347      0.9866588
      6279.0000         0.7455       1122.311        71.6107       73.04946         0.7744        -45.635      -2.378254      0.8521162      0.9813749
      6279.5000         0.7701       1118.732        71.2839       72.63744         0.8008       -46.0293      -2.769264      0.8433497       0.976091
      6280.0000         0.7948       1160.285         71.261       72.60752         0.8272       -46.4233      -3.159973      0.8427132      0.9708112
      6280.5000         0.8089       1204.287        71.6917       73.14795         0.8537       -46.8176       -3.55098      0.8542117      0.9655273
      6281.0000         0.7848       1248.287        72.2225       73.81422         0.8784       -47.3783      -4.108387      0.8683878      0.9579948
      6281.5000         0.7607       1292.289        72.7534       74.48064         0.8516       -47.9865      -4.713291      0.8825669      0.9498204
      6282.0000         0.7366       1340.652        73.2849        75.1478         0.8248       -48.5953      -5.319691      0.8967617      0.9416258
      6282.5000         0.7032       1394.404        73.9183       75.94311          0.798       -49.2035       -5.92638      0.9136831      0.9334273
      6283.0000          0.669       1448.107        75.5299       77.96835         0.7712       -49.7436       -6.46497      0.9567735      0.9261491
      6283.5000         0.6579       1500.342        77.1404       79.99222         0.7444       -50.2634      -6.983261      0.9998344      0.9191451
      6284.0000         0.6468       1551.643         78.752       82.01746         0.7177       -50.7827      -7.501049              1       0.912148
      6284.5000         0.6357        1596.43        80.1022       83.71405         0.6909       -51.0303      -7.747139              1      0.9088224
      6285.0000         0.6245       1619.973        81.2855       85.20074         0.6641       -51.2678      -7.983128              1      0.9056334
      6285.5000         0.6226       1643.541        82.4688       86.68745         0.6381       -50.9051      -7.618919              1      0.9105551
