#------------------------------------------------------------------------------
# Created by    : vladimir.rabinovich
# Created on    : 09/19/2023 17:20:36
#------------------------------------------------------------------------------
~Version Information Section
VERS.           2.0     :   CWLS log ASCII Standard - VERSION 2.0
WRAP.           NO      :   One line per depth step
~Well Information Section
#MNEM       .UNIT                                         VALUE :DESCRIPTION
#------------------------------------------------------------------------------
STRT        .FT                                             498 :START DEPTH
STOP        .FT                                            9565 :STOP DEPTH
STEP        .FT                                             0.5 :STEP      
NULL        .                                           -999.25 :NULL      
COMP        .                       BLUE DOLPHIN EXPLORATION CO :COMPANY   
WELL        .                                OCS 00714 ST00BP00 :WELL      
FLD         .                              GALVESTON BLOCK 0288 :FIELD     
LOC         .                                                   :LOCATION  
CNTY        .                             GALVESTON LARGE BLOCK :LOCATION  
STAT        .                                             TEXAS :STATE     
CTRY        .                                     UNITED STATES :COUNTRY   
SRVC        .                                                   :SERVICE COMPANY
DATE        .                             9/13/2023 11:19:25 AM :LOG DATE  
API         .                                    42706000390000 :API NUMBER
UWI         .                                    42706000390000 :UNIQUE WELL ID
XCOORD      .                                  1097340.72850425 :SURFACE X 
YCOORD      .                                  10481267.2561277 :SURFACE Y 
LAT         .                                        28.8709496 :LATITUDE  
LON         .                                       -94.6972159 :LONGITUDE 
ELEV        .FT                                              85 :ELEVATION VALUE
ELEV_TYPE   .                                                KB :ELEVATION REFERENCE TYPE
~Curve Information Section
#MNEM       .UNIT                                      API CODE :CURVE DESCRIPTION
#------------------------------------------------------------------------------
DEPT        .FT                                                 :DEPTH     
ASN         .OHMM                                               :          
CALI        .IN                                                 :          
DT          .US/F                                               :          
ILD         .OHMM                                               :          
SP          .MV                                                 :          
SP_1        .MV                                                 :          
SP_NORM     .MV                                                 :SP Normalized
VSH_SP      .V/V                                                :Volume of Shale from SP
~A        DEPTH            ASN           CALI             DT            ILD             SP           SP_1        SP_NORM         VSH_SP
# ...
      8935.0000         1.4673        10.0896        95.9794         1.1772       -60.3291        -999.25      -10.29125      0.8103827
      8935.5000          1.511        10.1026        94.6332         1.1861       -58.9262        -999.25      -8.894588       0.838886
      8936.0000         1.5372        10.1998        94.5254          1.168       -61.0233        -999.25      -10.99793      0.7959605
      8936.5000          1.476        10.4034        93.2319         1.1169       -64.6759        -999.25      -14.65678      0.7212902
      8937.0000         1.4148        10.6145        96.7125         1.0658       -67.2908        -999.25      -17.27792      0.6677976
      8937.5000         1.3535         10.577        94.8846         1.0333       -69.3193        -999.25      -19.31266      0.6262723
      8938.0000         1.2935        10.5054        89.6434         1.0052       -67.2368        -999.25      -17.23641      0.6686447
      8938.5000         1.2544        10.4049        92.5133         0.9772        -68.095        -999.25      -18.10085       0.651003
      8939.0000         1.2468        10.3169        92.8221         0.9492       -75.6788        -999.25       -25.6909      0.4961042
      8939.5000         1.2393        10.2688        94.6803         0.9211       -83.8649        -999.25      -33.88324      0.3289135
      8940.0000         1.2333        10.3316        95.0757         0.9052       -88.9036        -999.25      -38.92818      0.2259554
      8940.5000         1.2342        10.3318        95.8413         0.8935       -88.4924        -999.25      -38.52323      0.2342198
      8941.0000         1.2523        10.3081        96.9821         0.8819       -82.8046        -999.25      -32.84167        0.35017
      8941.5000         1.2693        10.2955        93.4026         0.8867       -78.6711        -999.25      -28.71441      0.4343998
      8942.0000         1.2863        10.3251        93.2678         0.8985       -76.9082        -999.25      -26.95776      0.4702498
      8942.5000         1.3004        10.2538         96.708         0.9035       -76.4921        -999.25       -26.5479      0.4786142
      8943.0000         1.2573        10.1597        90.4294         0.8911       -87.6478        -999.25      -37.70984      0.2508196
      8943.5000         1.2104        10.0958        77.3512         0.8785       -90.5255        -999.25      -40.59378      0.1919636
      8944.0000         1.1744        10.1598        78.7435         0.8695        -85.635        -999.25      -35.70953      0.2916422
      8944.5000         1.1507        10.2964        96.0837         0.8647       -78.1948        -999.25      -28.27558      0.4433556
      8945.0000         1.1872        10.4343        96.4453         0.8598       -72.7227        -999.25      -22.80972      0.5549037
      8945.5000         1.2236         10.486        94.6196          0.855       -70.2448        -999.25      -20.33806      0.6053457
      8946.0000         1.2283        10.4128        100.923         0.8713       -75.8406        -999.25      -25.94011      0.4910183
      8946.5000         1.1226         10.291        99.6116         0.8925       -87.0009        -999.25      -37.10665      0.2631296
      8947.0000         1.0931        10.2944       102.6274           0.92       -96.0944        -999.25      -46.20639     0.07742061
      8947.5000         1.0893        10.3804       103.1079         0.9492       -97.7982        -999.25      -47.91644     0.04252165
      8948.0000           1.13        10.3757        87.0162         0.9783       -95.8068        -999.25      -45.93128     0.08303506
      8948.5000         1.1629        10.3867        78.5729         0.9943       -92.1542        -999.25      -42.28492      0.1574505
      8949.0000         1.1857        10.3472        89.5312         0.9871       -88.4116        -999.25      -38.54856      0.2337028
      8949.5000         1.2772        10.1774        98.6302         0.9405       -84.8802        -999.25      -35.02341      0.3056446
      8950.0000         1.3832        10.0828        93.6541         0.9041       -84.4866        -999.25      -34.63606      0.3135498
      8950.5000         1.4891        10.0516        92.0508         0.8765       -87.1626        -999.25       -37.3183      0.2588103
      8951.0000          1.393        10.0647        98.1049          0.849       -95.7349        -999.25      -45.89684      0.0837379
      8951.5000         1.2594         10.127       102.9418         0.8215       -97.5377        -999.25      -47.70588     0.04681871
      8952.0000         1.1722        10.2093        99.9148         0.7981       -95.5193        -999.25      -45.69373       0.087883
      8952.5000         1.1602        10.2531        91.3726         0.7853       -88.5464        -999.25      -38.72708      0.2300596
      8953.0000         1.1637         10.251        89.8322         0.7747       -79.1653        -999.25      -29.35221      0.4213834
      8953.5000         1.1688        10.1831        92.4841          0.806       -71.6892        -999.25      -21.88236      0.5738294
      8954.0000         1.1563        10.1463        94.1796         0.8373       -64.0334        -999.25      -14.23281      0.7299427
      8954.5000         1.0957         10.164        97.7354         0.8687       -65.7632        -999.25      -15.96885      0.6945133
      8955.0000         1.0795        10.1943        97.7074         0.8926       -66.2439        -999.25      -16.45579      0.6845757
      8955.5000         1.0761        10.1872        95.1777         0.9121       -61.7421        -999.25      -11.96024      0.7763217
      8956.0000         1.0998        10.2061        94.2559         0.9316       -58.3344        -999.25      -8.558781      0.8457392
      8956.5000         1.1182        10.2946        87.2228         0.9511       -57.1672        -999.25      -7.397823      0.8694322
      8957.0000         1.1301        10.4184         80.897         0.9706       -57.8647        -999.25      -8.101566      0.8550701
      8957.5000         1.1321        10.4539        81.8536         0.9901       -62.3801        -999.25      -12.62321      0.7627916
      8958.0000         1.1187         10.304        73.7313         0.9966       -72.6238        -999.25      -22.87316       0.553609
      8958.5000         1.1053         10.304        77.2883         0.9937       -81.6813        -999.25       -31.9369      0.3686348
      8959.0000         1.1064        10.3885        86.4054         0.9863       -87.7646        -999.25      -38.02644      0.2443583
      8959.5000         1.1302        10.4464        91.5522         0.9548       -84.5208        -999.25      -34.78888      0.3104309
      8960.0000         1.1618         10.502        95.4102         0.9233       -78.4779        -999.25      -28.75223       0.433628
      8960.5000         1.1862        10.4081        96.7092         0.8964       -77.5614        -999.25      -27.84198      0.4522046
      8961.0000         1.1979        10.3101        96.1736         0.9059       -79.9515        -999.25      -30.23832      0.4032997
      8961.5000         1.2092        10.3138        96.9192         0.9154       -84.1704        -999.25      -34.46346      0.3170722
      8962.0000         1.2235        10.3165        98.9301         0.9241       -88.1106        -999.25      -38.40991      0.2365325
      8962.5000         1.2496        10.3188        101.069         0.9241       -92.7517        -999.25      -43.05725      0.1416888
      8963.0000         1.2706         10.321       104.9852         0.9242        -96.921        -999.25      -47.23279     0.05647371
      8963.5000         1.2882        10.3232       104.9044         0.9076       -99.5404        -999.25      -49.85843    0.002889127
      8964.0000         1.2906        10.3217       100.2291         0.8714       -99.9637        -999.25      -50.28798              0
