#------------------------------------------------------------------------------
# Created by    : vladimir.rabinovich
# Created on    : 09/19/2023 17:22:40
#------------------------------------------------------------------------------
~Version Information Section
VERS.           2.0     :   CWLS log ASCII Standard - VERSION 2.0
WRAP.           NO      :   One line per depth step
~Well Information Section
#MNEM       .UNIT                                         VALUE :DESCRIPTION
#------------------------------------------------------------------------------
STRT        .FT                                            3744 :START DEPTH
STOP        .FT                                            9989 :STOP DEPTH
STEP        .FT                                             0.5 :STEP      
NULL        .                                           -999.25 :NULL      
COMP        .                          SEAGULL ENERGY E & P INC :COMPANY   
WELL        .                               OCS G07243 ST00BP00 :WELL      
FLD         .                                           WILDCAT :FIELD     
LOC         .                                                   :LOCATION  
CNTY        .                             GALVESTON LARGE BLOCK :LOCATION  
STAT        .                                             TEXAS :STATE     
CTRY        .                                     UNITED STATES :COUNTRY   
SRVC        .                                                   :SERVICE COMPANY
DATE        .                             9/13/2023 11:19:34 AM :LOG DATE  
API         .                                    42706403030000 :API NUMBER
UWI         .                                    42706403030000 :UNIQUE WELL ID
XCOORD      .                                   1005609.3052046 :SURFACE X 
YCOORD      .                                  10500547.7567395 :SURFACE Y 
LAT         .                                          28.92005 :LATITUDE  
LON         .                                        -94.984771 :LONGITUDE 
ELEV        .FT                                              96 :ELEVATION VALUE
ELEV_TYPE   .                                                KB :ELEVATION REFERENCE TYPE
~Curve Information Section
#MNEM       .UNIT                                      API CODE :CURVE DESCRIPTION
#------------------------------------------------------------------------------
DEPT        .FT                                                 :DEPTH     
DCAL        .IN                                                 :          
DPHI        .%                                                  :          
GR          .GAPI                                               :          
GR_NORM     .GAPI                                               :GammaRay Normalized
ILD         .OHMM                                               :          
ILM         .OHMM                                               :          
NPHI        .%                                                  :          
SFL         .OHMM                                               :          
SP          .MV                                                 :          
SP_NORM     .MV                                                 :SP Normalized
VSH_GR      .V/V                                                :Volume of Shale from GR
VSH_SP      .V/V                                                :Volume of Shale from SP
~A        DEPTH           DCAL           DPHI             GR        GR_NORM            ILD            ILM           NPHI            SFL             SP        SP_NORM         VSH_GR         VSH_SP
# ...
      6286.0000         0.5225        29.4478        59.1766       73.88953          0.722          0.777        42.9365         0.7287       -46.7941      -11.44096      0.8699899      0.8372249
      6286.5000         0.5702        31.3006        59.6188       74.46843         0.7368         0.8064        42.1752          0.781       -45.5549      -9.868331       0.882307      0.8643391
      6287.0000         0.5796        29.8858        59.3823       74.15591         0.7548         0.8073        41.0881         0.8083        -44.564      -8.611723      0.8756577      0.8860048
      6287.5000         0.5702         27.472        60.8613       76.09651         0.7704         0.8042        40.1733         0.8069       -44.0023      -7.901373      0.9169471      0.8982522
      6288.0000         0.5653        26.0477        63.5053       79.56717         0.7919         0.8066        40.3815          0.794        -43.449      -7.201714      0.9907908      0.9103153
      6288.5000         0.5623        25.5804        65.8563       82.65302         0.8202         0.8352        40.6432         0.7955       -42.9385      -6.556523              1      0.9214392
      6289.0000         0.5479        24.6123         65.261       81.86928         0.8487         0.8783        39.6647         0.8281       -42.4884      -5.988208              1      0.9312378
      6289.5000          0.528        24.4616        63.1111       79.04378         0.8692         0.9132        37.9142         0.9013       -42.1208      -5.524894      0.9796548       0.939226
      6290.0000         0.5291        24.4191        61.3173       76.68595         0.8848         0.9301        36.1146         0.9974       -42.1047       -5.50894      0.9294883       0.939501
      6290.5000         0.5382        23.5792        60.1083       75.09621         0.8942         0.9388        33.9643         1.0979       -42.4266       -5.92317      0.8956642      0.9323592
      6291.0000           0.55        22.5874        58.9315       73.54875         0.8919         0.9372        31.6061         1.1773       -42.9983      -6.655324      0.8627394      0.9197358
      6291.5000         0.5633        21.6233        58.4948       72.97331         0.8664         0.9113        31.3648         1.1854       -43.6731      -7.518701       0.850496        0.90485
      6292.0000         0.5673         24.433        60.6064       75.74474         0.8379         0.8701        35.7004         0.9823       -44.0502      -8.003188      0.9094625      0.8964968
      6292.5000         0.5576        29.2891        63.6157       79.69517         0.8045         0.8108        38.2396         0.8215       -44.0381      -7.992328      0.9935142       0.896684
      6293.0000         0.5347        32.8502        64.7037       81.12224         0.7773         0.7637        40.5533         0.7297       -43.8556      -7.764591              1      0.9006105
      6293.5000         0.5014        32.4059        64.7264       81.15016         0.7607         0.7475        41.7793         0.6893       -43.6997      -7.570714              1      0.9039532
      6294.0000         0.4628         30.438        64.5057       80.85841          0.746         0.7347        42.7433         0.6958       -43.5106      -7.334582              1      0.9080244
      6294.5000         0.4209        30.1953        65.4187       82.05563         0.7334         0.7165         43.348         0.7018       -43.3666      -7.155848              1      0.9111061
      6295.0000         0.4141        31.0006        67.3899       84.64265         0.7232         0.6888        43.6868         0.6914       -43.2391      -6.998116              1      0.9138256
      6295.5000         0.4663        30.3651         68.796        86.4875         0.7146         0.6797        44.1677         0.6826       -43.1176      -6.848017              1      0.9164135
      6296.0000         0.5845        30.0255        70.0365       88.11484         0.7097         0.6748        44.7651         0.6804       -43.0052      -6.709502              1      0.9188017
      6296.5000         0.7062        31.6458        68.1232       85.60008         0.7109         0.6761        44.6858          0.687       -42.9079      -6.590208              1      0.9208585
      6297.0000         0.8153        32.2737        65.2295       81.79771         0.7156         0.6787        43.5828         0.6951       -42.7892      -6.443672              1       0.923385
      6297.5000         0.8941        31.5799        63.9876       80.16474         0.7168         0.6827        42.7529         0.6958       -42.6589      -6.282377              1      0.9261659
      6298.0000         0.9365        30.5293        63.1163        79.0185         0.7192         0.6881        42.4664         0.6946       -42.5763       -6.18179       0.979117      0.9279002
      6298.5000         0.9406        29.5708        62.4389       78.12695         0.7202         0.6877        41.9777         0.6946       -42.5061      -6.096982      0.9601479      0.9293624
      6299.0000         0.9261        29.8652        62.0157       77.56924         0.7217         0.6916        41.1413         0.6985       -42.4276      -6.001613      0.9482818      0.9310067
      6299.5000         0.8946        31.0482        62.7142       78.48473         0.7226         0.6994        42.2863         0.7035       -42.3228      -5.872769      0.9677601      0.9332281
      6300.0000         0.8739        31.6561        64.0493       80.23634         0.7226         0.7018         43.659         0.7086       -42.2122      -5.736546              1      0.9355768
      6300.5000          0.868        32.2551         65.261       81.82586          0.725         0.7021        43.6701         0.7123       -42.1078      -5.608212              1      0.9377894
      6301.0000         0.8692        33.0042        66.4214         83.348         0.7289         0.7002        44.8651         0.7141       -42.0475      -5.536007              1      0.9390343
      6301.5000          0.886        33.8088        67.5199       84.78885          0.731         0.6994          47.19         0.7177       -42.0494      -5.542964              1      0.9389144
      6302.0000         0.9118        33.0859        68.2283       85.71735         0.7304         0.6977        46.7695         0.7186       -41.9926      -5.475212              1      0.9400826
      6302.5000         0.9765        32.4337        66.9785       84.07401           0.73         0.6966         44.462         0.7151       -41.9454      -5.419675              1      0.9410401
      6303.0000          1.072        31.6759        65.7472       82.45497           0.73         0.6967         43.813         0.7154       -41.8727      -5.331686              1      0.9425572
      6303.5000         1.1567        30.0604        64.7261         81.112         0.7301         0.6984        43.4444         0.7189       -41.7863      -5.226264              1      0.9443747
      6304.0000         1.0855        29.7509        64.3062       80.55863         0.7302         0.7002        43.0001         0.7254       -41.7216      -5.148456              1      0.9457163
      6304.5000         1.0239        32.6407        64.1531       80.35566         0.7328         0.7022         42.522         0.7317       -41.6514      -5.063653              1      0.9471784
      6305.0000         0.9903        34.6832        64.1351       80.33014         0.7369         0.7048        43.0655         0.7388       -41.6447      -5.059662              1      0.9472472
      6305.5000         0.9664        34.0912        64.2971       80.54102         0.7404         0.7078        43.8979         0.7469       -41.6715      -5.098313              1      0.9465808
      6306.0000          0.961        30.4888        65.0848       81.57367         0.7433         0.7118        43.7463         0.7537        -41.721      -5.165852              1      0.9454163
