#------------------------------------------------------------------------------
# Created by    : vladimir.rabinovich
# Created on    : 09/19/2023 17:20:02
#------------------------------------------------------------------------------
~Version Information Section
VERS.           2.0     :   CWLS log ASCII Standard - VERSION 2.0
WRAP.           NO      :   One line per depth step
~Well Information Section
#MNEM       .UNIT                                         VALUE :DESCRIPTION
#------------------------------------------------------------------------------
STRT        .FT                                             994 :START DEPTH
STOP        .FT                                           14137 :STOP DEPTH
STEP        .FT                                             0.5 :STEP      
NULL        .                                           -999.25 :NULL      
COMP        .                                   MARATHON OIL CO :COMPANY   
WELL        .                                     ST TR 00841-L :WELL      
FLD         .                                           WILDCAT :FIELD     
LOC         .                                                   :LOCATION  
CNTY        .                        MUSTANG ISLAND LARGE BLOCK :LOCATION  
STAT        .                                             TEXAS :STATE     
CTRY        .                                     UNITED STATES :COUNTRY   
SRVC        .                                                   :SERVICE COMPANY
DATE        .                             9/13/2023 11:18:55 AM :LOG DATE  
API         .                                    42702301400000 :API NUMBER
UWI         .                                    42702301400000 :UNIQUE WELL ID
XCOORD      .                                  272565.632686387 :SURFACE X 
YCOORD      .                                  9953986.84876921 :SURFACE Y 
LAT         .                                         27.367086 :LATITUDE  
LON         .                                       -97.2136853 :LONGITUDE 
ELEV        .FT                                              88 :ELEVATION VALUE
ELEV_TYPE   .                                                KB :ELEVATION REFERENCE TYPE
~Curve Information Section
#MNEM       .UNIT                                      API CODE :CURVE DESCRIPTION
#------------------------------------------------------------------------------
DEPT        .FT                                                 :DEPTH     
ASFL        .OHMM                                               :          
CILD        .MMHO                                               :          
GR          .GAPI                                               :          
GR_NORM     .GAPI                                               :GammaRay Normalized
ILD         .OHMM                                               :          
SP          .MV                                                 :          
SP_NORM     .MV                                                 :SP Normalized
VSH_GR      .V/V                                                :Volume of Shale from GR
VSH_SP      .V/V                                                :Volume of Shale from SP
~A        DEPTH           ASFL           CILD             GR        GR_NORM            ILD             SP        SP_NORM         VSH_GR         VSH_SP
# ...
      5366.5000         0.9368        1042.52        65.8889       86.46605         1.0536       -41.3289     -0.5261383              1              1
      5367.0000         0.9645       1018.077        66.8488       88.24741         1.1051       -41.7567     -0.9526405              1              1
      5367.5000         0.9864       991.2324        64.4913       83.86962         1.1544       -42.1844      -1.379044              1      0.9945066
      5368.0000         0.9952       963.0469        63.1287       81.33901         1.1691       -42.6121       -1.80545              1      0.9883268
      5368.5000         0.9803       945.7939        61.7659       78.80801         1.1838       -43.0398      -2.231853      0.9746384       0.982147
      5369.0000         0.9654       956.0439        58.9559       73.59012          1.181       -44.6298      -3.820557      0.8636196      0.9591224
      5369.5000         0.9505       974.2764        57.9749       71.76797          1.155       -44.3165      -3.505962      0.8248505      0.9636817
      5370.0000         0.9244       992.5078        56.8297       69.64097         1.1289       -43.7775      -2.965668      0.7795951      0.9715121
      5370.5000         0.9223       1010.739         55.559       67.28097         1.1045       -43.6189      -2.805771      0.7293823      0.9738294
      5371.0000         0.9379        1035.33        54.8154       65.89958         1.0836        -45.009      -4.194572      0.6999911      0.9537019
      5371.5000         0.9559       1038.145        54.4521       65.22425         1.0628       -46.3705      -5.554779      0.6856223      0.9339887
      5372.0000         0.9738       1038.289        54.6454       65.58234         1.0596       -47.7121      -6.895084      0.6932414       0.914564
      5372.5000         0.9939       1062.178        54.8389        65.9408          1.061       -48.9716      -8.153286      0.7008682      0.8963292
      5373.0000          1.017       1094.377        55.0323        66.2991         1.0575       -50.0024      -9.182789      0.7084914      0.8814089
      5373.5000         1.0182       1129.135        55.2382       66.68055         1.0507       -49.0525      -8.231598      0.7166075      0.8951942
      5374.0000         1.0029        1103.08        55.6926       67.52338          1.044       -48.1274      -7.305199      0.7345399      0.9086203
      5374.5000         0.9854       1079.443        56.1468       68.36585         1.0372       -47.2029      -6.379402       0.752465      0.9220377
      5375.0000         0.9678       1061.396        56.6619       69.32139         0.9976       -46.3046      -5.479809      0.7727955      0.9350752
      5375.5000         0.9632       1043.352        57.2873        70.4817         0.9973       -45.4255      -4.599411      0.7974829      0.9478346
      5376.0000         0.9812       1025.316         57.912        71.6407         1.0044       -45.1812      -4.353813      0.8221426       0.951394
      5376.5000         1.0023       1091.529        58.5375       72.80121         0.9985       -45.6885      -4.859818      0.8468342      0.9440606
      5377.0000         1.0234        1138.18         59.488       74.56513         0.9967       -45.0842      -4.254227      0.8843645      0.9528373
      5377.5000         1.0423       1108.607        60.7003       76.81509         1.0042       -44.4799      -3.648628      0.9322359      0.9616141
      5378.0000         1.0569        1079.01        62.2185         79.633         1.0117       -44.1685       -3.33593      0.9921916      0.9661459
      5378.5000         1.0184       1118.004        61.2263       77.79006          1.003       -45.5076      -4.673737        0.95298      0.9467574
      5379.0000         0.9054       1159.203        59.8325        75.2015         0.9546       -46.8716      -6.036442      0.8979043      0.9270081
      5379.5000         0.8736       1190.859        58.4399       72.61517         0.8907       -48.3015      -7.465042      0.8428758      0.9063038
      5380.0000         0.8459       1210.355        57.5683       70.99615         0.8792       -49.7947      -8.956947      0.8084288      0.8846819
      5380.5000         0.8217       1228.959        58.5866       72.88594         0.8952       -51.3403      -10.50126       0.848637      0.8623006
      5381.0000          0.811        1226.42        59.6049       74.77573         0.9055       -50.5899      -9.749557      0.8888453      0.8731948
      5381.5000         0.8027       1211.137        60.5804       76.58603         0.8968       -49.9396      -9.097961      0.9273623      0.8826382
      5382.0000         0.7966       1222.168        61.4482        78.1964          0.888       -49.2899      -8.446968      0.9616256      0.8920729
      5382.5000         0.7905       1241.256        62.3161       79.80696         0.8793       -48.6396      -7.795368      0.9958928      0.9015164
      5383.0000         0.7845       1264.285         63.184       81.41749         0.8501       -48.0068      -7.161274              1      0.9107062
      5383.5000         0.7786       1289.494        64.0786       83.07761         0.8179       -47.4268      -6.579975              1      0.9191308
      5384.0000         0.7577       1323.256        65.0957       84.96516         0.7918       -46.8474      -5.999283              1      0.9275466
      5384.5000         0.7382       1357.021        66.1128       86.85273         0.7761       -47.2993      -6.449886              1      0.9210162
      5385.0000         0.7241       1394.799        67.2517       88.96642         0.7605       -48.6434      -7.792686              1      0.9015552
      5385.5000         0.7099       1437.338        65.6266       85.94843         0.7449        -49.985      -9.132992              1      0.8821306
      5386.0000         0.6967       1452.148        64.7587       84.33625         0.7445       -48.9977      -8.144398              1       0.896458
      5386.5000         0.6846       1437.957        64.0115       82.94817          0.763        -47.847      -6.992401              1      0.9131536
      5387.0000         0.6744       1420.668        63.2648       81.56106         0.7814       -47.1339      -6.278004              1      0.9235072
      5387.5000          0.668       1385.775        62.5182       80.17412         0.7998       -46.4208       -5.56361              1      0.9338607
      5388.0000         0.6787       1339.768         61.779       78.80089         0.8183       -45.2602      -4.401714       0.974487      0.9506998
      5388.5000         0.6894       1298.643         61.217       77.75666         0.8367       -44.0802      -3.220417      0.9522694        0.96782
      5389.0000         0.7002        1265.67         60.655       76.71245         0.8659        -43.147      -2.285919      0.9300521      0.9813635
      5389.5000         0.7092       1232.676        60.4787       76.38433         0.8956       -42.6068      -1.744427      0.9230708      0.9892112
      5390.0000         0.7173       1210.404        60.9658        77.2879         0.9252       -42.7141       -1.85043      0.9422958       0.987675
      5390.5000         0.7255       1200.725        61.6241       78.50926         0.9441       -43.1893      -2.324333      0.9682822      0.9808068
      5391.0000         0.7336        1210.49        62.2825       79.73087         0.9315       -43.9223      -3.056038      0.9942737      0.9702023
      5391.5000          0.742        1220.26        62.9403       80.95135         0.9151       -43.9512      -3.083641              1      0.9698023
      5392.0000         0.7451       1230.014        63.5986       82.17274          0.889        -43.494      -2.625145              1      0.9764472
      5392.5000         0.7292       1239.781        64.2775       83.43238         0.8629       -42.9189      -2.048748              1      0.9848008
