#------------------------------------------------------------------------------
# Created by    : vladimir.rabinovich
# Created on    : 09/19/2023 17:20:04
#------------------------------------------------------------------------------
~Version Information Section
VERS.           2.0     :   CWLS log ASCII Standard - VERSION 2.0
WRAP.           NO      :   One line per depth step
~Well Information Section
#MNEM       .UNIT                                         VALUE :DESCRIPTION
#------------------------------------------------------------------------------
STRT        .FT                                             723 :START DEPTH
STOP        .FT                                            8219 :STOP DEPTH
STEP        .FT                                             0.5 :STEP      
NULL        .                                           -999.25 :NULL      
COMP        .                                    MOBIL OIL CORP :COMPANY   
WELL        .                               OCS G02338 ST00BP00 :WELL      
FLD         .                                           WILDCAT :FIELD     
LOC         .                                                   :LOCATION  
CNTY        .                             GALVESTON LARGE BLOCK :LOCATION  
STAT        .                                             TEXAS :STATE     
CTRY        .                                     UNITED STATES :COUNTRY   
SRVC        .                                                   :SERVICE COMPANY
DATE        .                             9/13/2023 11:18:53 AM :LOG DATE  
API         .                                    42706400200000 :API NUMBER
UWI         .                                    42706400200000 :UNIQUE WELL ID
XCOORD      .                                  941616.333010477 :SURFACE X 
YCOORD      .                                  10405518.1254327 :SURFACE Y 
LAT         .                                         28.655687 :LATITUDE  
LON         .                                        -95.179294 :LONGITUDE 
ELEV        .FT                                              84 :ELEVATION VALUE
ELEV_TYPE   .                                                KB :ELEVATION REFERENCE TYPE
~Curve Information Section
#MNEM       .UNIT                                      API CODE :CURVE DESCRIPTION
#------------------------------------------------------------------------------
DEPT        .FT                                                 :DEPTH     
ASFL        .OHMM                                               :          
CALI        .IN                                                 :          
CILD        .MMHO                                               :          
DPHI        .%                                                  :          
DT          .US/F                                               :          
GR          .GAPI                                               :          
GR_1        .GAPI                                               :          
GR_NORM     .GAPI                                               :GammaRay Normalized
ILD         .OHMM                                               :          
NPHI        .DEC                                                :          
SP          .MV                                                 :          
SP_NORM     .MV                                                 :SP Normalized
VSH_GR      .V/V                                                :Volume of Shale from GR
VSH_SP      .V/V                                                :Volume of Shale from SP
~A        DEPTH           ASFL           CALI           CILD           DPHI             DT             GR           GR_1        GR_NORM            ILD           NPHI             SP        SP_NORM         VSH_GR         VSH_SP
# ...
      5205.0000         0.8373        11.1776        692.916        24.5138       112.6195        -999.25         84.068       72.00965         0.7359         0.2451        68.3031      -7.168602      0.8299926      0.8857666
      5205.5000         0.8379        11.1008       694.2432        23.9142        113.923        -999.25        80.8844       67.94548         0.7319         0.2391        70.7303      -4.741402      0.7435209      0.9307148
      5206.0000         0.8385        11.0165       695.5693         23.587        113.402        -999.25        79.5696       66.26702         0.7278         0.2359        73.4585      -2.013199       0.707809      0.9812371
      5206.5000         0.8392        10.9285       695.7676        24.1673       111.5513        -999.25        81.8763       69.21174         0.7155         0.2417        76.1719      0.7001953      0.7704625              1
      5207.0000         0.8404        10.9302       695.3369        24.7954       110.1287        -999.25        83.8579       71.74145         0.7032          0.248        75.4852      0.0134964      0.8242861              1
      5207.5000         0.8415        10.8963       694.1689        24.2499       111.4626        -999.25        85.8531       74.28851          0.691         0.2425        73.9584      -1.513306       0.878479      0.9904943
      5208.0000         0.8426        10.8053       692.8408        23.6504        112.597        -999.25        87.3756       76.23212         0.6787         0.2365        73.4845      -1.987206      0.9198324      0.9817184
      5208.5000         0.8438        10.7333       690.8779        23.6633       113.7314        -999.25        86.8501       75.56126         0.6665         0.2366        73.4897      -1.982002      0.9055588      0.9818148
      5209.0000         0.8449        10.6746        688.918        23.4446       114.5701        -999.25        85.9545       74.41795         0.6537         0.2344        73.3785      -2.093201       0.881233      0.9797555
      5209.5000          0.846        10.6654        686.168        23.0459       113.8562        -999.25        85.8175       74.24306         0.6408         0.2305        72.4786      -2.993103      0.8775119      0.9630907
      5210.0000         0.8472        10.7511         682.96        23.2602       112.7318        -999.25        86.3004       74.85953         0.6279         0.2326        71.4154      -4.056305      0.8906282      0.9434018
      5210.5000         0.8494        10.8421       680.7363        23.7479       111.7197        -999.25         86.311       74.87305          0.615         0.2375        70.2279      -5.243805       0.890916       0.921411
      5211.0000          0.852        10.8435       679.8682        24.3655       111.1594        -999.25        83.6877       71.52416         0.6046         0.2437        69.1185      -6.353203       0.819663      0.9008666
      5211.5000         0.8546        10.7694       679.8125         24.822       110.5997        -999.25        80.8682       67.92481         0.6019         0.2482        68.8799      -6.591805      0.7430811      0.8964481
      5212.0000         0.8572         10.832       680.2598        24.0336       110.2797        -999.25          79.59       66.29305         0.5992         0.2403        68.2621      -7.209602      0.7083628      0.8850074
      5212.5000         0.8598        10.8872        682.666        23.9082       109.9795        -999.25        79.1349       65.71208         0.5965         0.2391        66.4155      -9.056206      0.6960018       0.850811
      5213.0000         0.8624        10.9424       688.1367         24.813       109.1178        -999.25        78.2823       64.62366         0.6053         0.2481        64.2719      -11.19981      0.6728439      0.8111147
      5213.5000         0.8655         10.971       701.7187         25.871       108.2555        -999.25        75.8893       61.56876         0.6204         0.2587        62.9139       -12.5578       0.607846      0.7859666
      5214.0000         0.8698         10.995       725.6738        26.5907       107.4543        -999.25        74.3181       59.56297         0.6356         0.2659        62.2391       -13.2326      0.5651696      0.7734703
      5214.5000         0.8741        11.0194        746.667        26.3836       106.6925        -999.25        74.3976       59.66446         0.6507         0.2638        63.5084       -11.9633       0.567329      0.7969759
      5215.0000         0.8784        11.0524       753.3994        26.0497        105.955        -999.25        74.8964       60.30123         0.6634         0.2605        65.3064      -10.16531      0.5808772      0.8302721
      5215.5000         0.8826        11.0853       751.2432        25.2771       105.7615        -999.25        74.7501       60.11446         0.6728         0.2528        67.3805      -8.091202      0.5769035      0.8686814
      5216.0000         0.8869        11.1071       743.8291         24.587       106.8291        -999.25        74.4238       59.69791         0.6823         0.2459        69.0635      -6.408203      0.5680407      0.8998481
      5216.5000         0.8935        11.0989       731.4375        23.6537       108.0383        -999.25        73.8778       59.00089         0.6917         0.2365        69.2552      -6.216499      0.5532105      0.9033982
      5217.0000         0.9004        11.0818       712.7891        22.6333       108.9449        -999.25        74.1001       59.28468         0.7012         0.2263        68.4287      -7.042999      0.5592484      0.8880926
      5217.5000         0.9073        11.0445       701.1631        22.0371       108.7434        -999.25        73.9871       59.14042         0.7106         0.2204        67.3717      -8.100006      0.5561791      0.8685184
      5218.0000         0.9141        11.0073       690.0557        22.7489       107.4806        -999.25        73.1748       58.10344         0.7082         0.2275        66.3136      -9.158104      0.5341157       0.848924
      5218.5000          0.921        10.9879       678.0723        23.5568       106.0117        -999.25        73.6619       58.72528         0.6984         0.2356         62.332       -13.1397      0.5473464      0.7751907
      5219.0000         0.9289         10.979       669.4082        24.3512       105.2393        -999.25        73.1147       58.02672         0.6886         0.2435        56.0004       -19.4713      0.5324833      0.6579388
      5219.5000         0.9401        10.9892        712.666        24.7719        108.394        -999.25        72.1008       56.73238         0.6788         0.2477        50.8674       -24.6043      0.5049443      0.5628833
      5220.0000         0.9513        11.0554       748.7041        25.1513       112.0405        -999.25        71.2295       55.62008          0.669         0.2515        43.9438       -31.5279      0.4812784      0.4346685
      5220.5000         0.9626        11.1877       786.6172        25.7929       113.7489        -999.25        70.3783       54.53345         0.6431         0.2579        40.3104       -35.1613      0.4581585      0.3673832
      5221.0000         0.9738        11.1968       844.2783        26.5768       114.2762        -999.25        69.6089       53.55124         0.6138         0.2658        41.3226       -34.1491      0.4372603      0.3861277
      5221.5000         0.9855          11.03        910.874        27.5724       111.2443        -999.25         69.076       52.87093         0.5846         0.2757        47.0774       -28.3943      0.4227857      0.4926981
      5222.0000         0.9998        10.7599       941.4375        28.5433        104.765        -999.25        69.6545       53.60944         0.5553         0.2854         52.837       -22.6347      0.4384988      0.5993574
      5222.5000          1.014        10.5534       1054.926        29.3567       100.1128        -999.25        70.3563       54.50536         0.5235         0.2936        55.4277        -20.044      0.4575608      0.6473333
