#------------------------------------------------------------------------------
# Created by    : vladimir.rabinovich
# Created on    : 09/19/2023 17:22:42
#------------------------------------------------------------------------------
~Version Information Section
VERS.           2.0     :   CWLS log ASCII Standard - VERSION 2.0
WRAP.           NO      :   One line per depth step
~Well Information Section
#MNEM       .UNIT                                         VALUE :DESCRIPTION
#------------------------------------------------------------------------------
STRT        .FT                                              96 :START DEPTH
STOP        .FT                                            7107 :STOP DEPTH
STEP        .FT                                             0.5 :STEP      
NULL        .                                           -999.25 :NULL      
COMP        .                                  XTO OFFSHORE INC :COMPANY   
WELL        .                               OCS G23162 ST00BP00 :WELL      
FLD         .                                 BRAZOS BLOCK 0398 :FIELD     
LOC         .                                                   :LOCATION  
CNTY        .                                BRAZOS LARGE BLOCK :LOCATION  
STAT        .                                             TEXAS :STATE     
CTRY        .                                     UNITED STATES :COUNTRY   
SRVC        .                                                   :SERVICE COMPANY
DATE        .                             9/13/2023 11:18:28 AM :LOG DATE  
API         .                                    42704403370000 :API NUMBER
UWI         .                                    42704403370000 :UNIQUE WELL ID
XCOORD      .                                  864551.184430364 :SURFACE X 
YCOORD      .                                  10381025.1526549 :SURFACE Y 
LAT         .                                        28.5842785 :LATITUDE  
LON         .                                       -95.4179199 :LONGITUDE 
ELEV        .FT                                             100 :ELEVATION VALUE
ELEV_TYPE   .                                                KB :ELEVATION REFERENCE TYPE
~Curve Information Section
#MNEM       .UNIT                                      API CODE :CURVE DESCRIPTION
#------------------------------------------------------------------------------
DEPT        .FT                                                 :DEPTH     
DCAL        .IN                                                 :          
DPHI        .FRAC                                               :          
DT          .US/F                                               :          
GR          .GAPI                                               :          
GR_NORM     .GAPI                                               :GammaRay Normalized
HT01        .OHMM                                               :          
HT02        .OHMM                                               :          
HT03        .OHMM                                               :          
HT06        .OHMM                                               :          
HT09        .OHMM                                               :          
HT12        .OHMM                                               :          
NPHI        .FRAC                                               :          
RWA         .OHMM                                               :          
SP          .MV                                                 :          
TENS        .LB                                                 :          
VSH_GR      .V/V                                                :Volume of Shale from GR
~A        DEPTH           DCAL           DPHI             DT             GR        GR_NORM           HT01           HT02           HT03           HT06           HT09           HT12           NPHI            RWA             SP           TENS         VSH_GR
# ...
      3360.0000         2.3066        -999.25       142.7719        56.1368       53.34306         0.5647         0.5903         0.6305         0.6029         0.6005         0.6026        -999.25        -999.25        -999.25       2232.122      0.4328311
      3360.5000         2.6267        -999.25       152.5781        66.3347       64.67267         0.5737         0.6108          0.663         0.6356         0.6349         0.6374        -999.25        -999.25        -999.25       2221.304      0.6738865
      3361.0000         2.4934        -999.25          154.5         69.245       67.90493         0.5633         0.6092         0.6713         0.6466          0.648         0.6509        -999.25        -999.25        -999.25       2217.168      0.7426581
      3361.5000         2.4195        -999.25       147.0969        68.4753        67.0483         0.5544         0.6082          0.679         0.6585         0.6624         0.6649        -999.25        -999.25        -999.25       2220.668      0.7244319
      3362.0000         2.4627        -999.25       141.1625        71.3375       70.22712         0.5577         0.6208         0.7006         0.6852         0.6918         0.6932        -999.25        -999.25        -999.25       2226.077      0.7920664
      3362.5000         2.4792        -999.25       140.4719        70.9526       69.79804          0.569         0.6427         0.7317         0.7227         0.7312         0.7322        -999.25        -999.25        -999.25        2225.44       0.782937
      3363.0000          2.411        -999.25       140.1531        73.7667       72.92342           0.58         0.6637         0.7611         0.7588         0.7704         0.7707        -999.25        -999.25        -999.25       2219.077      0.8494346
      3363.5000         2.3647        -999.25       138.5984        78.8176       78.53413          0.587         0.6783         0.7824         0.7874         0.8021         0.8015        -999.25        -999.25        -999.25       2215.896      0.9688112
      3364.0000         2.3399        -999.25       137.5828        78.9859       78.71972           0.59         0.6862         0.7947         0.8073         0.8246         0.8229        -999.25        -999.25        -999.25       2213.987        0.97276
      3364.5000         2.3788        -999.25       137.1328        80.5974       80.50887         0.5898         0.6878         0.7981         0.8179         0.8374         0.8341        -999.25        -999.25        -999.25       2208.896              1
      3365.0000         2.4108        -999.25       137.2687        80.0442        79.8928         0.5886         0.6862          0.796         0.8224         0.8431          0.838        -999.25        -999.25        -999.25        2199.67      0.9977191
      3365.5000         2.4423        -999.25       137.4625        77.4225       76.97841         0.5883         0.6838         0.7914         0.8233         0.8445         0.8373        -999.25        -999.25        -999.25       2189.807      0.9357108
      3366.0000         2.4557        -999.25       137.6062        73.9591       73.12878         0.5898         0.6823         0.7863         0.8227         0.8433         0.8339        -999.25        -999.25        -999.25       2181.535      0.8538038
      3366.5000         2.4593        -999.25       138.0047        67.9462       66.44637         0.5965         0.6858         0.7857         0.8254         0.8446         0.8326        -999.25        -999.25        -999.25       2178.354      0.7116248
      3367.0000         2.3379        -999.25       135.8312        67.8259        66.3113         0.6117         0.6985         0.7941         0.8362          0.853         0.8382        -999.25        -999.25        -999.25       2179.626      0.7087511
      3367.5000          2.067        -999.25         132.45        74.5604       73.79268         0.6374         0.7222         0.8131         0.8564         0.8701         0.8523        -999.25        -999.25        -999.25       2184.399      0.8679293
      3368.0000         1.9636        -999.25       130.3844        75.1376        74.4326         0.6724         0.7543         0.8388          0.882         0.8916         0.8707        -999.25        -999.25        -999.25       2190.444      0.8815447
      3368.5000         1.8449        -999.25       130.1297        71.2172        70.0752         0.7109         0.7867         0.8611         0.9021         0.9069         0.8833        -999.25        -999.25        -999.25       2189.807      0.7888339
      3369.0000         1.7329        -999.25       130.3219        70.4957       69.27212         0.7455           0.81         0.8698         0.9065         0.9059         0.8803        -999.25        -999.25        -999.25       2183.444      0.7717472
      3369.5000         1.6576        -999.25       129.3391        73.0692       72.13017          0.769         0.8166         0.8578         0.8884         0.8826         0.8561        -999.25        -999.25        -999.25       2176.127      0.8325567
      3370.0000          1.633        -999.25       129.1437        71.8907       70.81932         0.7798         0.8068          0.828         0.8514         0.8413         0.8148        -999.25        -999.25        -999.25       2176.445      0.8046664
      3370.5000         1.5738        -999.25        127.975        66.5031       64.83169         0.7793         0.7843         0.7865         0.8026         0.7893         0.7638        -999.25        -999.25        -999.25       2182.808      0.6772699
      3371.0000         1.4784        -999.25       123.6906        67.8981       66.38029         0.7646         0.7485         0.7347         0.7441         0.7288         0.7052        -999.25        -999.25        -999.25       2190.762       0.710219
      3371.5000         1.3376        -999.25       115.0359        69.6779       68.35644          0.741         0.7068         0.6808         0.6844         0.6683         0.6471        -999.25        -999.25        -999.25        2196.17      0.7522646
      3372.0000         1.1981        -999.25       103.3422         66.455       64.77404         0.7182         0.6693         0.6342         0.6331         0.6171         0.5981        -999.25        -999.25        -999.25       2198.079      0.6760434
      3372.5000         1.0825        -999.25       100.9953        59.3356       56.86219         0.7035          0.642         0.6002         0.5954         0.5797         0.5628        -999.25        -999.25        -999.25        2199.67      0.5077062
      3373.0000         1.1106        -999.25       109.0156        53.6835       50.58067         0.6986         0.6252          0.578         0.5706         0.5557         0.5405        -999.25        -999.25        -999.25       2198.397      0.3740568
      3373.5000         1.1426        -999.25         117.45        53.3949       50.25861         0.6964         0.6121          0.561         0.5518         0.5376         0.5241        -999.25        -999.25        -999.25       2198.716      0.3672044
      3374.0000         1.1642        -999.25       121.4734        49.8593       46.32875         0.6774         0.5876         0.5361         0.5252          0.512         0.5003        -999.25        -999.25        -999.25       2199.988      0.2835905
      3374.5000         1.0331        -999.25       123.9953        47.1174       43.28079         0.6182         0.5352         0.4886         0.4764         0.4649         0.4556        -999.25        -999.25        -999.25       2204.442      0.2187403
      3375.0000         0.7092        -999.25       125.5813        47.6225       43.84062         0.5241         0.4584          0.421         0.4084         0.3992         0.3931        -999.25        -999.25        -999.25       2208.896      0.2306515
      3375.5000          0.601        -999.25       123.1891        43.5016       39.26043         0.4295         0.3813         0.3533         0.3414         0.3346         0.3312        -999.25        -999.25        -999.25       2207.306      0.1332005
