#------------------------------------------------------------------------------
# Created by    : vladimir.rabinovich
# Created on    : 09/19/2023 17:20:03
#------------------------------------------------------------------------------
~Version Information Section
VERS.           2.0     :   CWLS log ASCII Standard - VERSION 2.0
WRAP.           NO      :   One line per depth step
~Well Information Section
#MNEM       .UNIT                                         VALUE :DESCRIPTION
#------------------------------------------------------------------------------
STRT        .FT                                             945 :START DEPTH
STOP        .FT                                           12004 :STOP DEPTH
STEP        .FT                                             0.5 :STEP      
NULL        .                                           -999.25 :NULL      
COMP        .                                    EXXON CO U S A :COMPANY   
WELL        .                                     ST TR 00819-L :WELL      
FLD         .                                           WILDCAT :FIELD     
LOC         .                                                   :LOCATION  
CNTY        .                        MUSTANG ISLAND LARGE BLOCK :LOCATION  
STAT        .                                             TEXAS :STATE     
CTRY        .                                     UNITED STATES :COUNTRY   
SRVC        .                                                   :SERVICE COMPANY
DATE        .                             9/13/2023 11:18:55 AM :LOG DATE  
API         .                                    42702301310000 :API NUMBER
UWI         .                                    42702301310000 :UNIQUE WELL ID
XCOORD      .                                  274042.524369281 :SURFACE X 
YCOORD      .                                  9990401.22532542 :SURFACE Y 
LAT         .                                        27.4671591 :LATITUDE  
LON         .                                       -97.2129423 :LONGITUDE 
ELEV        .FT                                              93 :ELEVATION VALUE
ELEV_TYPE   .                                                KB :ELEVATION REFERENCE TYPE
~Curve Information Section
#MNEM       .UNIT                                      API CODE :CURVE DESCRIPTION
#------------------------------------------------------------------------------
DEPT        .FT                                                 :DEPTH     
ASFL        .OHMM                                               :          
CILD        .MMHO                                               :          
GR          .GAPI                                               :          
GR_NORM     .GAPI                                               :GammaRay Normalized
ILD         .OHMM                                               :          
SP          .MV                                                 :          
SP_NORM     .MV                                                 :SP Normalized
VSH_GR      .V/V                                                :Volume of Shale from GR
VSH_SP      .V/V                                                :Volume of Shale from SP
~A        DEPTH           ASFL           CILD             GR        GR_NORM            ILD             SP        SP_NORM         VSH_GR         VSH_SP
# ...
      6086.0000         1.5575       891.0156        -999.25        -999.25         0.9952       -52.1704      -23.51611        -999.25      0.6535984
      6086.5000         1.5532        874.958        -999.25        -999.25          0.981       -53.8296      -25.17453        -999.25      0.6280841
      6087.0000         1.5428       858.8877        -999.25        -999.25         0.9646       -55.5432      -26.88735        -999.25       0.601733
      6087.5000         1.5324       847.6826        -999.25        -999.25         0.9483        -58.759      -30.10237        -999.25      0.5522712
      6088.0000         1.5241       866.2295        -999.25        -999.25         0.9389       -60.1476      -31.49019        -999.25      0.5309201
      6088.5000         1.5227       884.7754        -999.25        -999.25         0.9307       -62.4097      -33.75151        -999.25      0.4961306
      6089.0000         1.5339       903.3467        -999.25        -999.25         0.9225       -65.1152      -36.45623        -999.25      0.4545195
      6089.5000         1.5537       921.8936        -999.25        -999.25         0.9143       -66.7485      -38.08876        -999.25      0.4294038
      6090.0000         1.5741       942.8418        -999.25        -999.25         0.9084       -67.5748      -38.91428        -999.25      0.4167034
      6090.5000         1.5951       967.8506        -999.25        -999.25          0.904       -67.6595       -38.9982        -999.25      0.4154122
      6091.0000         1.5996       992.8604        -999.25        -999.25         0.8996        -67.583      -38.92093        -999.25      0.4166012
      6091.5000         1.5967       1017.894        -999.25        -999.25          0.896       -67.4036      -38.74075        -999.25      0.4193731
      6092.0000         1.5938       1035.871        -999.25        -999.25         0.8962       -67.1464      -38.48277        -999.25       0.423342
      6092.5000         1.5871        1053.08        -999.25        -999.25         0.8964        -66.889      -38.22459        -999.25       0.427314
      6093.0000         1.5803       1068.754        -999.25        -999.25         0.8969        -66.381      -37.71581        -999.25      0.4351414
      6093.5000         1.5723       1057.092        -999.25        -999.25         0.8982       -65.7169      -37.05093        -999.25      0.4453703
      6094.0000         1.5619       1045.416        -999.25        -999.25         0.8994        -64.799      -36.13226        -999.25      0.4595038
      6094.5000         1.5515       1034.398        -999.25        -999.25         0.9006       -64.2761      -35.60857        -999.25      0.4675604
      6095.0000          1.541       1023.466        -999.25        -999.25         0.8975       -64.0204       -35.3521        -999.25      0.4715062
      6095.5000         1.5388       1012.521        -999.25        -999.25         0.8903       -63.8784      -35.20932        -999.25      0.4737028
      6096.0000         1.5384       1001.589        -999.25        -999.25         0.8831       -63.8139      -35.14404        -999.25       0.474707
      6096.5000         1.5379       992.6562        -999.25        -999.25         0.8758       -63.7495      -35.07887        -999.25      0.4757098
      6097.0000         1.5329       985.8594        -999.25        -999.25         0.8682       -63.6761      -35.00468        -999.25       0.476851
      6097.5000         1.5248       979.0615        -999.25        -999.25         0.8623       -63.5963       -34.9241        -999.25      0.4780907
      6098.0000         1.5123       975.2236        -999.25        -999.25         0.8612       -63.5164      -34.84343        -999.25      0.4793319
      6098.5000         1.4916       975.3389        -999.25        -999.25         0.8601       -63.4229      -34.74915        -999.25      0.4807823
      6099.0000         1.4712       979.1953        -999.25        -999.25         0.8588       -63.2535      -34.57897        -999.25      0.4834004
      6099.5000         1.4575        998.209        -999.25        -999.25         0.8569       -63.0842      -34.40889        -999.25       0.486017
      6100.0000         1.4448       1019.281        -999.25        -999.25          0.855       -62.9149      -34.23882        -999.25      0.4886336
      6100.5000         1.4326       1040.354        -999.25        -999.25          0.853       -62.7219      -34.04504        -999.25      0.4916148
      6101.0000         1.4203       1061.426        -999.25        -999.25         0.8474       -62.4233      -33.74566        -999.25      0.4962206
      6101.5000         1.4067        1078.82        -999.25        -999.25         0.8355       -62.1249      -33.44648        -999.25      0.5008234
      6102.0000         1.3928       1095.447        -999.25        -999.25         0.8237       -61.6672        -32.988        -999.25      0.5078769
      6102.5000         1.3759       1112.088        -999.25        -999.25         0.8118       -61.1675      -32.48752        -999.25      0.5155766
      6103.0000         1.3558       1128.715        -999.25        -999.25         0.7999       -60.5108      -31.83004        -999.25      0.5256916
      6103.5000         1.3314        1135.24        -999.25        -999.25         0.7881       -59.6299      -30.94837        -999.25      0.5392559
      6104.0000         1.3047       1133.801        -999.25        -999.25         0.7762       -58.4884      -29.80609        -999.25      0.5568295
      6104.5000         1.2791       1132.361        -999.25        -999.25         0.7644       -56.2523      -27.56921        -999.25       0.591243
      6105.0000         1.2792       1130.672        -999.25        -999.25         0.7525       -52.9512      -24.26733        -999.25      0.6420411
      6105.5000         1.2837       1127.467        -999.25        -999.25          0.749       -49.6526      -20.96795        -999.25      0.6928008
      6106.0000         1.2285       1124.262        -999.25        -999.25          0.749       -47.7525      -19.06707        -999.25      0.7220451
      6106.5000         1.1722       1121.057        -999.25        -999.25         0.7491       -46.4998       -17.8136        -999.25      0.7413293
      6107.0000         1.1173       1120.209        -999.25        -999.25         0.7491       -45.2792      -16.59222        -999.25      0.7601197
      6107.5000         1.0749       1135.734        -999.25        -999.25          0.749       -44.4459      -15.75814        -999.25      0.7729517
      6108.0000         1.0152       1195.684        -999.25        -999.25         0.7472       -43.7015      -15.01296        -999.25       0.784416
      6108.5000         0.8989       1379.711        -999.25        -999.25         0.7454       -46.2873      -17.59798        -999.25      0.7446464
      6109.0000         0.8499       1467.021        -999.25        -999.25         0.7311       -58.0881        -29.398        -999.25      0.5631077
      6109.5000         0.8665       1524.221        -999.25        -999.25         0.6876       -61.7253      -33.03442        -999.25      0.5071627
      6110.0000         0.8846       1597.021        -999.25        -999.25         0.6172       -65.5452      -36.85354        -999.25      0.4484071
      6110.5000         0.9047       1664.373        -999.25        -999.25         0.5384       -71.7223      -43.02987        -999.25      0.3533867
      6111.0000         0.9224       1777.484        -999.25        -999.25         0.4587       -75.3743      -46.68109        -999.25       0.297214
      6111.5000         0.9204       2147.125        -999.25        -999.25         0.4071       -86.2386      -57.54461        -999.25      0.1300829
      6112.0000         0.9105       2394.051        -999.25        -999.25         0.3564       -89.2655      -60.57074        -999.25     0.08352714
