#------------------------------------------------------------------------------
# Created by    : vladimir.rabinovich
# Created on    : 09/19/2023 17:21:25
#------------------------------------------------------------------------------
~Version Information Section
VERS.           2.0     :   CWLS log ASCII Standard - VERSION 2.0
WRAP.           NO      :   One line per depth step
~Well Information Section
#MNEM       .UNIT                                         VALUE :DESCRIPTION
#------------------------------------------------------------------------------
STRT        .FT                                            2957 :START DEPTH
STOP        .FT                                            7390 :STOP DEPTH
STEP        .FT                                             0.5 :STEP      
NULL        .                                           -999.25 :NULL      
COMP        .                              DEVON LOUISIANA CORP :COMPANY   
WELL        .                               OCS G09039 ST00BP00 :WELL      
FLD         .                              GALVESTON BLOCK 0273 :FIELD     
LOC         .                                                   :LOCATION  
CNTY        .                             GALVESTON LARGE BLOCK :LOCATION  
STAT        .                                             TEXAS :STATE     
CTRY        .                                     UNITED STATES :COUNTRY   
SRVC        .                                                   :SERVICE COMPANY
DATE        .                             9/13/2023 11:19:54 AM :LOG DATE  
API         .                                    42706403330000 :API NUMBER
UWI         .                                    42706403330000 :UNIQUE WELL ID
XCOORD      .                                  1020560.14583294 :SURFACE X 
YCOORD      .                                  10500181.0477632 :SURFACE Y 
LAT         .                                        28.9197225 :LATITUDE  
LON         .                                       -94.9380297 :LONGITUDE 
ELEV        .FT                                              98 :ELEVATION VALUE
ELEV_TYPE   .                                                KB :ELEVATION REFERENCE TYPE
~Curve Information Section
#MNEM       .UNIT                                      API CODE :CURVE DESCRIPTION
#------------------------------------------------------------------------------
DEPT        .FT                                                 :DEPTH     
CALI        .IN                                                 :          
DCAL        .IN                                                 :          
DPHI        .%                                                  :          
DRHO        .G/C3                                               :          
GR          .GAPI                                               :          
GR_NORM     .GAPI                                               :GammaRay Normalized
ILD         .OHMM                                               :          
ILM         .OHMM                                               :          
LL3         .OHMM                                               :          
NPHI        .%                                                  :          
SP          .MV                                                 :          
SP_NORM     .MV                                                 :SP Normalized
VSH_GR      .V/V                                                :Volume of Shale from GR
VSH_SP      .V/V                                                :Volume of Shale from SP
~A        DEPTH           CALI           DCAL           DPHI           DRHO             GR        GR_NORM            ILD            ILM            LL3           NPHI             SP        SP_NORM         VSH_GR         VSH_SP
# ...
      7079.0000         10.425         0.4732        19.3528         0.0576        92.7827       86.90064         0.8875         0.9357         1.0683        41.5115       -18.3873      -2.472139              1      0.9646837
      7079.5000        10.4113         0.4651        19.4687         0.0543        91.6816       85.63805         0.8843         0.9403         0.9922        41.0659       -18.5311      -2.618342              1      0.9625951
      7080.0000        10.4089          0.453        19.5451          0.055        89.2261        82.8224         0.8858           0.95         1.0155        40.6345       -18.8259      -2.915546              1      0.9583493
      7080.5000        10.4044         0.4365        19.5711         0.0616        84.9301       77.89632         0.8905         0.9604         1.0491        40.1954       -19.0868      -3.178852       0.955241      0.9545878
      7081.0000        10.3938         0.4289         19.495         0.0692        83.8053       76.60655         0.8977         0.9681         1.0845        39.4366       -19.0935      -3.187957       0.927799      0.9544578
      7081.5000         10.376         0.4023        19.3118         0.0718        83.8566       76.66537         0.9103         0.9751         1.0548        38.3789       -18.7829      -2.879761      0.9290505      0.9588606
      7082.0000        10.3559         0.3762        19.0966         0.0713        84.3032       77.17747         0.9264         0.9879         1.0935        37.1835       -18.4787      -2.577966      0.9399463      0.9631719
      7082.5000        10.3361         0.3557        18.8721          0.069        84.0518       76.88921         0.9415         1.0038         1.0601        36.1724       -18.2666       -2.36827       0.933813      0.9661676
      7083.0000          10.32         0.3508         18.856         0.0646        83.3551       76.09032         0.9507         1.0181         1.0821        35.6786       -18.2682      -2.372274      0.9168154      0.9661103
      7083.5000        10.3113         0.3541        18.8417         0.0642        82.8474       75.50816         0.9525         1.0263         1.1845        35.7653       -18.5232      -2.629678      0.9044288      0.9624332
      7084.0000        10.3176         0.3737         18.716         0.0714        82.2866        74.8651         0.9494         1.0265         1.1536         36.303       -18.7509      -2.859783      0.8907469       0.959146
      7084.5000        10.3304         0.3934        18.5246         0.0795        82.6102       75.23618         0.9441         1.0174         1.1973         37.168       -18.7976      -2.908887       0.898642      0.9584445
      7085.0000        10.3474         0.4146        18.3004         0.0855        83.7158       76.50392         0.9346         1.0004         1.0828        38.0509       -18.7925      -2.906192      0.9256154       0.958483
      7085.5000        10.3631         0.4264         18.049         0.0845        84.6014       77.51942         0.9235         0.9807         1.0143        38.7267       -18.8161      -2.932196      0.9472216      0.9581115
      7086.0000        10.3738         0.4448        17.9174         0.0775        85.7316       78.81538         0.9136         0.9643         1.0137        39.1266       -18.9546        -3.0731      0.9747952      0.9560986
      7086.5000        10.3794         0.4449        18.1724         0.0692        86.6543        79.8734          0.907         0.9555         1.0226        39.3714       -19.2368      -3.357704      0.9973063      0.9520328
      7087.0000        10.3843         0.4498        18.4825         0.0636         86.973       80.23885         0.9045         0.9543         1.0345        39.5245       -19.4432      -3.566509              1      0.9490499
      7087.5000        10.3934         0.4761        18.7444         0.0634        86.6296       79.84509         0.9042         0.9574         1.0328        39.4708       -19.4978      -3.623515      0.9967039      0.9482355
      7088.0000        10.4093         0.4968        18.7386          0.066        85.7217       78.80403         0.9049         0.9611         1.0333        38.9998       -19.4343      -3.562418      0.9745539      0.9491083
      7088.5000        10.4249         0.4819        18.6003         0.0664        84.8361       77.78854         0.9068         0.9646         1.1589        38.0762       -19.2895      -3.420022      0.9529476      0.9511425
      7089.0000        10.4256         0.4795        18.4355         0.0653        84.1779        77.0338         0.9095         0.9665         1.1221        36.9137       -19.1612      -3.294127      0.9368894      0.9529411
      7089.5000        10.4247         0.4835        18.3443         0.0602        84.7159        77.6507         0.9137         0.9666           1.14        36.1088       -19.0894      -3.224731      0.9500148      0.9539324
      7090.0000        10.4187         0.4884        18.4868         0.0534        84.8074       77.75563         0.9212         0.9667         1.1222        36.0892       -19.0336      -3.171336      0.9522474      0.9546952
      7090.5000        10.4096         0.4761        18.7731         0.0512        84.3489       77.22988         0.9324         0.9728         1.1034        36.7625       -18.9258      -3.065941      0.9410613      0.9562008
      7091.0000        10.3973         0.4732        19.0436         0.0573        83.8578       76.66676         0.9472         0.9935         1.0473        37.5168        -18.771      -2.913546      0.9290799      0.9583779
      7091.5000        10.3844         0.4711        19.0249         0.0671        83.5712       76.33812         0.9626         1.0228         1.2342        37.7308       -18.5593      -2.704249      0.9220877      0.9613678
      7092.0000        10.3734         0.4243        18.6018         0.0795        83.7223       76.51138         0.9743         1.0526          1.265         37.176       -18.2771      -2.424454      0.9257739      0.9653649
      7092.5000        10.3604         0.3702        18.2243         0.0854        84.2506       77.11717          0.981         1.0724         1.2971        36.1486       -17.9908      -2.140559      0.9386632      0.9694206
      7093.0000        10.3422         0.3408        17.8941         0.0844        85.0598       78.04505         0.9851         1.0767         1.2805        35.2343       -17.8138      -1.965964      0.9584054      0.9719148
      7093.5000        10.3229         0.3377        17.6986         0.0783          85.27       78.28606         0.9886         1.0682         1.2218        34.8481       -17.8163      -1.970867      0.9635333      0.9718447
      7094.0000        10.3187         0.3452        17.8568          0.074        84.8441       77.79771         0.9915         1.0581         1.1928         34.916       -17.8899      -2.046872      0.9531427       0.970759
      7094.5000        10.3241         0.3867        18.0682         0.0709        84.6747       77.60345         0.9894         1.0444         1.1343        35.2128        -17.946      -2.105375      0.9490097      0.9699232
      7095.0000        10.3332         0.4129        18.1781         0.0713        85.0022       77.97899         0.9768         1.0274         1.1083        35.6334       -18.0111      -2.172882      0.9569998      0.9689589
      7095.5000        10.3584         0.4356        18.2161         0.0731        86.6494       79.86779         0.9547         1.0081          1.112        36.2393       -18.1215      -2.285686       0.997187      0.9673473
      7096.0000        10.3832         0.4483        18.1789         0.0785        88.4133       81.89039          0.931          0.988         1.0926        37.0323       -18.3327       -2.49929              1      0.9642959
      7096.5000        10.4068         0.4543        18.0894         0.0832        89.6522         83.311         0.9132         0.9703         1.0522        37.8204       -18.6673      -2.836293              1      0.9594815
