#------------------------------------------------------------------------------
# Created by    : vladimir.rabinovich
# Created on    : 09/19/2023 17:20:30
#------------------------------------------------------------------------------
~Version Information Section
VERS.           2.0     :   CWLS log ASCII Standard - VERSION 2.0
WRAP.           NO      :   One line per depth step
~Well Information Section
#MNEM       .UNIT                                         VALUE :DESCRIPTION
#------------------------------------------------------------------------------
STRT        .FT                                             617 :START DEPTH
STOP        .FT                                           12396 :STOP DEPTH
STEP        .FT                                             0.5 :STEP      
NULL        .                                           -999.25 :NULL      
COMP        .                                        SUN OIL CO :COMPANY   
WELL        .                               OCS G01781 ST00BP00 :WELL      
FLD         .                                           WILDCAT :FIELD     
LOC         .                                                   :LOCATION  
CNTY        .                             GALVESTON LARGE BLOCK :LOCATION  
STAT        .                                             TEXAS :STATE     
CTRY        .                                     UNITED STATES :COUNTRY   
SRVC        .                                                   :SERVICE COMPANY
DATE        .                             9/13/2023 11:19:24 AM :LOG DATE  
API         .                                    42706001390000 :API NUMBER
UWI         .                                    42706001390000 :UNIQUE WELL ID
XCOORD      .                                  1010631.41746955 :SURFACE X 
YCOORD      .                                  10491097.5822315 :SURFACE Y 
LAT         .                                         28.894296 :LATITUDE  
LON         .                                        -94.968586 :LONGITUDE 
ELEV        .FT                                              65 :ELEVATION VALUE
ELEV_TYPE   .                                                KB :ELEVATION REFERENCE TYPE
~Curve Information Section
#MNEM       .UNIT                                      API CODE :CURVE DESCRIPTION
#------------------------------------------------------------------------------
DEPT        .FT                                                 :DEPTH     
ASN         .OHMM                                               :          
CILD        .MMHO                                               :          
DT          .US/F                                               :          
ILD         .OHMM                                               :          
SP          .MV                                                 :          
SP_NORM     .MV                                                 :SP Normalized
VSH_SP      .V/V                                                :Volume of Shale from SP
~A        DEPTH            ASN           CILD             DT            ILD             SP        SP_NORM         VSH_SP
# ...
      6111.0000         0.8561       2076.641        105.458         0.5598      -100.1254      -29.42551      0.5646745
      6111.5000         0.8738        2009.09       107.0431          0.575       -96.5863      -25.89004       0.620793
      6112.0000         0.8915       1867.193       108.3802         0.6064       -93.6847      -22.99207      0.6667926
      6112.5000         0.9093       1688.539        109.332         0.6411       -90.4183      -19.72929      0.7185827
      6113.0000         0.9311       1508.105       110.3398         0.6758       -86.9661      -16.28072       0.773322
      6113.5000         0.9548       1383.797       111.4563         0.7106       -83.8611      -13.17934      0.8225501
      6114.0000         0.9786       1324.805       112.9258         0.7287       -81.1329      -10.45477      0.8657974
      6114.5000         1.0023       1287.652       113.6714         0.7288       -79.3746      -8.700096      0.8936493
      6115.0000         1.0199       1268.086       112.0801          0.729       -77.8481      -7.177223      0.9178218
      6115.5000         1.0373       1268.148        108.552         0.7291       -76.8734      -6.206146      0.9332358
      6116.0000         1.0547       1273.867       106.8833         0.7292       -76.8102      -6.146576      0.9341813
      6116.5000         1.0713        1279.58        106.584         0.7294       -77.7823      -7.122307      0.9186935
      6117.0000         1.0759       1285.293       108.0343         0.7295       -78.7546      -8.098228      0.9032027
      6117.5000         1.0805       1291.006       110.3196         0.7312       -79.7268      -9.074051      0.8877135
      6118.0000         1.0813       1296.717       113.4995         0.7336        -80.699      -10.04988      0.8722241
      6118.5000         1.0723       1305.686       115.4175          0.736       -81.7281      -11.08261      0.8558316
      6119.0000         1.0634       1314.838       115.8958         0.7383       -82.8157      -12.17383      0.8385107
      6119.5000         1.0544        1323.99       115.3636         0.7407       -83.9032      -13.26496      0.8211911
      6120.0000         1.0454       1333.143       115.6226          0.743       -78.8612      -8.226585      0.9011653
      6120.5000         1.0365       1342.295       116.0812         0.7454       -76.3613      -5.730309      0.9407887
      6121.0000         1.0275       1344.049       116.1987         0.7477       -74.5934      -3.966042       0.968793
      6121.5000         1.0243       1331.982       115.6136         0.7501        -74.172      -3.548264      0.9754244
      6122.0000         1.0238       1319.914       115.3645         0.7544       -73.7507      -3.130592      0.9820541
      6122.5000         1.0233       1307.846       114.9059         0.7592       -73.3295       -2.71302      0.9886822
      6123.0000         1.0309       1295.779       114.8177         0.7641        -73.071      -2.458145      0.9927279
      6123.5000         1.0421       1283.711       114.9062          0.769       -72.8723      -2.263069      0.9958243
      6124.0000         1.0533       1268.283       115.0459         0.7738       -72.6735      -2.067902      0.9989222
      6124.5000         1.0646       1250.918       115.8439         0.7787       -72.9506      -2.348625      0.9944662
      6125.0000         1.0758       1233.576       116.0311         0.7835       -73.6357      -3.037346      0.9835342
      6125.5000          1.087       1216.234       114.6255         0.7844       -74.3214      -3.726685      0.9725923
      6126.0000         1.0974       1204.809       112.0253          0.772       -74.8634      -4.272308      0.9639316
      6126.5000         1.1039       1223.793       109.8353         0.7595       -75.3953      -4.807831      0.9554313
      6127.0000         1.1103       1245.162       108.5872          0.747       -75.9266      -5.342758      0.9469404
      6127.5000         1.1168       1270.854       109.3105         0.7345        -76.458      -5.877785      0.9384478
      6128.0000         1.1086       1298.396        112.011         0.7221       -76.6324      -6.055809      0.9356221
      6128.5000         1.0918       1325.918        114.332         0.7096       -76.4885      -5.915543      0.9378485
      6129.0000          1.075       1353.115         116.12         0.6971       -76.3446      -5.775261      0.9400752
      6129.5000         1.0525       1379.844       117.1495         0.6851       -76.2007      -5.634987      0.9423018
      6130.0000         1.0286       1406.549       116.0103         0.6796       -76.0569       -5.49482      0.9445267
      6130.5000         1.0046       1420.828       114.8198         0.6741       -75.9128      -5.354347      0.9467564
      6131.0000         0.9908        1425.98       113.7356         0.6686       -75.5571      -5.002266       0.952345
      6131.5000         0.9846       1422.344        113.051         0.6632       -75.1262      -4.574997       0.959127
      6132.0000          0.986       1418.703       112.9985         0.6577       -74.9691      -4.421524      0.9615631
      6132.5000         0.9897       1415.066       114.5205         0.6522       -75.3326      -4.788651      0.9557357
      6133.0000         0.9934       1413.898        115.662         0.6467        -75.696      -5.155678      0.9499099
      6133.5000          0.997       1419.346       116.6113         0.6412       -76.0597      -5.523003      0.9440793
      6134.0000         0.9986       1424.793        117.364         0.6357       -75.8787      -5.345627      0.9468948
      6134.5000          0.992        1430.24       117.6138         0.6335       -75.2229      -4.693459      0.9572467
      6135.0000         0.9854       1436.107       117.3267         0.6315        -74.025      -3.499184      0.9762034
      6135.5000         0.9789       1446.506       117.1362         0.6296       -72.8271      -2.304909      0.9951602
      6136.0000         0.9723       1456.906       117.4622         0.6277       -72.1616      -1.643036              1
      6136.5000         0.9657       1467.307       117.0217         0.6257       -71.9083      -1.393364              1
      6137.0000         0.9626       1477.695       116.1477         0.6238         -71.83      -1.318687              1
      6137.5000         0.9603       1488.096        116.017         0.6219       -72.0509      -1.543221              1
      6138.0000          0.958       1498.494       115.9397         0.6199       -72.2723      -1.768242              1
      6138.5000         0.9556       1508.895        116.826          0.618       -72.4937      -1.993263              1
      6139.0000         0.9533       1519.752       117.8506         0.6161        -72.715      -2.218193      0.9965366
      6139.5000          0.951       1530.672       118.5299         0.6142       -72.9977      -2.504524      0.9919917
      6140.0000         0.9488        1541.59        118.984         0.6122       -73.5842      -3.094643      0.9826247
      6140.5000         0.9473       1552.521       118.5925         0.6103       -74.1714      -3.685478      0.9732464
      6141.0000         0.9458       1553.424       117.2615         0.6084       -74.7585      -4.276199      0.9638699
      6141.5000         0.9444       1543.369        116.645         0.6064       -75.3457      -4.867027      0.9544916
      6142.0000         0.9429       1533.326       116.5673         0.6065       -75.9329      -5.457855      0.9451134
      6142.5000         0.9415       1523.273       116.9083         0.6078        -76.546      -6.074577      0.9353242
      6143.0000           0.94       1512.402       117.9771         0.6092       -77.1674        -6.6996      0.9254032
      6143.5000         0.9386       1501.473       118.4165         0.6106       -77.7886      -7.324432      0.9154852
      6144.0000         0.9371       1490.541       118.3431         0.6119       -78.4105      -7.949959      0.9055562
