#------------------------------------------------------------------------------
# Created by    : vladimir.rabinovich
# Created on    : 09/19/2023 17:19:47
#------------------------------------------------------------------------------
~Version Information Section
VERS.           2.0     :   CWLS log ASCII Standard - VERSION 2.0
WRAP.           NO      :   One line per depth step
~Well Information Section
#MNEM       .UNIT                                         VALUE :DESCRIPTION
#------------------------------------------------------------------------------
STRT        .FT                                             970 :START DEPTH
STOP        .FT                                            9511 :STOP DEPTH
STEP        .FT                                             0.5 :STEP      
NULL        .                                           -999.25 :NULL      
COMP        .                                SHELL OFFSHORE INC :COMPANY   
WELL        .                               OCS G06097 ST00BP00 :WELL      
FLD         .                                           WILDCAT :FIELD     
LOC         .                                                   :LOCATION  
CNTY        .                             GALVESTON LARGE BLOCK :LOCATION  
STAT        .                                             TEXAS :STATE     
CTRY        .                                     UNITED STATES :COUNTRY   
SRVC        .                                                   :SERVICE COMPANY
DATE        .                             9/13/2023 11:19:27 AM :LOG DATE  
API         .                                    42706401130000 :API NUMBER
UWI         .                                    42706401130000 :UNIQUE WELL ID
XCOORD      .                                  1026820.46089783 :SURFACE X 
YCOORD      .                                  10482391.3243497 :SURFACE Y 
LAT         .                                         28.871086 :LATITUDE  
LON         .                                        -94.917566 :LONGITUDE 
ELEV        .FT                                             107 :ELEVATION VALUE
ELEV_TYPE   .                                                KB :ELEVATION REFERENCE TYPE
~Curve Information Section
#MNEM       .UNIT                                      API CODE :CURVE DESCRIPTION
#------------------------------------------------------------------------------
DEPT        .FT                                                 :DEPTH     
ASFL        .OHMM                                               :          
CALI        .IN                                                 :          
CILD        .MMHO                                               :          
DT          .US/F                                               :          
GR          .GAPI                                               :          
GR_NORM     .GAPI                                               :GammaRay Normalized
ILD         .OHMM                                               :          
ILM         .OHMM                                               :          
RHOB        .G/C3                                               :          
SP          .MV                                                 :          
SP_NORM     .MV                                                 :SP Normalized
VSH_GR      .V/V                                                :Volume of Shale from GR
VSH_SP      .V/V                                                :Volume of Shale from SP
~A        DEPTH           ASFL           CALI           CILD             DT             GR        GR_NORM            ILD            ILM           RHOB             SP        SP_NORM         VSH_GR         VSH_SP
# ...
      1559.0000         1.1084        17.0662        649.543        138.094        47.9828       59.75945         1.4744         1.3691          2.051       -78.9526      -1.847961      0.5693499              1
      1559.5000         1.1459        17.0618       640.1572       136.3716        48.5742       60.64346         1.5336         1.3683         2.0703       -79.1603      -2.060852      0.5881588              1
      1560.0000         1.1793        17.0917       677.5684       135.5688        49.1655       61.52733         1.5694         1.3625          2.083       -79.4072      -2.312935      0.6069645              1
      1560.5000         1.1961        17.1614       809.2461       136.4453         49.757        62.4115         1.5117         1.2975         2.0748       -79.9232      -2.834114      0.6257766              1
      1561.0000         1.1859         17.288       900.1719       139.9888        50.2592       63.16219         1.4473           1.21         2.0502       -80.4517       -3.36779      0.6417488              1
      1561.5000         1.1502        17.4543       977.3379       145.4507        50.1245       62.96084         1.3661         1.1226         2.0062       -80.9802      -3.901482      0.6374647              1
      1562.0000         1.0971        17.7573       1010.913       151.9626        48.1573       60.02028         1.2849          1.044         1.9475       -81.5154      -4.441864      0.5748996      0.9723835
      1562.5000         0.9917        18.2563       1042.564        157.679        46.1903       57.08003         1.2036         0.9852          1.825       -82.0919      -5.023544      0.5123411      0.9360285
      1563.0000         0.9503        18.8033       1074.217       159.8188         44.605       54.71034         1.1313         0.9447         1.7794       -82.6683      -5.605125      0.4619221      0.8996797
      1563.5000         0.8761        19.0316       1106.135       160.1577        43.5681       53.16039         1.0637         0.9436         1.7667       -83.1917      -6.133713      0.4289444       0.866643
      1564.0000         0.8343        18.3913        1138.26       159.8237        42.5313       51.61059          0.996         0.9249         1.7674       -83.6604       -6.60759        0.39597      0.8370256
      1564.5000         0.8123        18.1266       1170.393        159.032        41.4943       50.06049         0.9386         0.8852          1.773       -84.1293      -7.081673      0.3629892      0.8073955
      1565.0000         0.7984        18.4265        1197.93       157.6248        40.2767       48.24043         0.8946         0.8577         1.8002       -84.4686      -7.426155      0.3242645      0.7858653
      1565.5000         0.7845        18.5244       1221.545       154.2341        38.9434       46.24743         0.8507         0.8332         1.8534       -84.2114      -7.174141      0.2818601      0.8016162
      1566.0000         0.7707        17.7067       1245.164       150.1113          37.03       43.38729         0.8067         0.8128         1.8929       -83.9543      -6.922218      0.2210061      0.8173614
      1566.5000         0.7601        17.0757       1268.783       149.6355        36.7598        42.9834         0.7807         0.7886          1.909       -83.8545      -6.827599      0.2124127      0.8232751
      1567.0000         0.7499        16.8739       1289.777       152.4912        38.3153       45.30855         0.7685         0.7625         1.8996       -83.8348      -6.813087       0.261884       0.824182
      1567.5000         0.7396        17.1708       1310.561       157.5027        39.6913       47.36538         0.7563         0.7304         1.8863       -84.0011      -6.984566      0.3056464      0.8134646
      1568.0000         0.7294        18.1515       1331.346        162.302        39.8027        47.5319         0.7441         0.7044         1.8774       -84.1672      -7.155846      0.3091893      0.8027596
      1568.5000         0.7191        19.1969       1352.131       162.4731        39.4314       46.97688         0.7319         0.6998         1.8644       -84.3334      -7.327232      0.2973805       0.792048
      1569.0000         0.7088        19.3843       1372.916       161.0283        38.8499       46.10766         0.7216         0.6977         1.8411       -84.5778      -7.576813      0.2788864      0.7764492
      1569.5000         0.6985         18.959       1390.326       159.8787        38.2684       45.23844         0.7182         0.6962         1.8171       -84.8246      -7.828796      0.2603924      0.7607002
      1570.0000         0.6882        18.8039        1404.43       159.0256        37.6869       44.36922         0.7148         0.6955         1.8116       -85.0681      -8.077477      0.2418983      0.7451577
      1570.5000         0.6802        19.0539       1418.533       158.1777        37.1054           43.5         0.7114          0.688         1.8285       -85.1862      -8.200768      0.2234043       0.737452
      1571.0000         0.6735         19.326       1432.637       156.8528        36.5237       42.63048          0.708         0.6781         1.8479       -85.3043      -8.324043      0.2049039      0.7297473
      1571.5000         0.6668        19.4814       1442.609        155.791        35.9423       41.76141         0.7045          0.669         1.8338       -85.4225      -8.447426      0.1864129      0.7220359
      1572.0000         0.6609        19.4359       1442.248       154.9668        35.4911       41.08696         0.7011         0.6602         1.7757       -85.5353      -8.565414      0.1720629      0.7146616
      1572.5000         0.6593        19.0868       1441.889       154.1152         35.171       40.60847         0.6977         0.6536         1.7468        -85.632      -8.667297      0.1618824      0.7082939
      1573.0000         0.6576        18.6337       1441.527       153.9021        35.4729       41.05975         0.7036         0.6492         1.7235       -85.7286      -8.769073      0.1714839      0.7019329
      1573.5000          0.656        18.3251       1441.166       156.0459        36.8881       43.17518         0.7112         0.6556         1.7508       -85.8253      -8.870956      0.2164932      0.6955652
      1574.0000         0.6551        18.4316       1437.934       157.9482        38.3034       45.29076         0.7189         0.6664          1.779       -85.7793      -8.830139      0.2615055      0.6981163
      1574.5000         0.6579        18.6054       1426.297       159.0088        39.7189       47.40664         0.7265         0.6788         1.8016       -85.5673      -8.623322      0.3065242      0.7110424
      1575.0000         0.6606        18.5943       1414.662       157.8621        40.6852       48.85105         0.7342         0.6923         1.7928       -85.3551      -8.416306      0.3372564      0.7239809
      1575.5000         0.6634        18.5135       1403.025       156.7581        41.5289       50.11221         0.7418         0.7052         1.7684       -85.1429      -8.209282      0.3640895      0.7369199
      1576.0000         0.6662        18.4332       1391.391       156.8538        42.1177       50.99234         0.7495         0.7102         1.7148       -84.9014      -7.972969      0.3828157      0.7516894
      1576.5000          0.669        18.3401       1379.754       159.0037        40.9133       49.19201         0.7639         0.7173         1.6867       -84.4657       -7.54245      0.3445109      0.7785969
      1577.0000         0.6764        18.4323       1360.031       162.3242        39.7092       47.39214         0.7829         0.7299          1.653         -84.03      -7.111931      0.3062156      0.8055043
      1577.5000         0.6858        18.9835       1328.826       165.5872        38.8849       46.15998         0.8019         0.7573         1.6648       -83.5944      -6.681519      0.2799996      0.8324051
