#------------------------------------------------------------------------------
# Created by    : vladimir.rabinovich
# Created on    : 09/19/2023 17:22:30
#------------------------------------------------------------------------------
~Version Information Section
VERS.           2.0     :   CWLS log ASCII Standard - VERSION 2.0
WRAP.           NO      :   One line per depth step
~Well Information Section
#MNEM       .UNIT                                         VALUE :DESCRIPTION
#------------------------------------------------------------------------------
STRT        .FT                                             456 :START DEPTH
STOP        .FT                                           11667 :STOP DEPTH
STEP        .FT                                             0.5 :STEP      
NULL        .                                           -999.25 :NULL      
COMP        .                              PATRICK PETROLEUM CO :COMPANY   
WELL        .                                     ST TR 00693-L :WELL      
FLD         .                                           WILDCAT :FIELD     
LOC         .                                                   :LOCATION  
CNTY        .                      MATAGORDA ISLAND LARGE BLOCK :LOCATION  
STAT        .                                             TEXAS :STATE     
CTRY        .                                     UNITED STATES :COUNTRY   
SRVC        .                                                   :SERVICE COMPANY
DATE        .                             9/13/2023 11:12:01 AM :LOG DATE  
API         .                                    42703302660000 :API NUMBER
UWI         .                                    42703302660000 :UNIQUE WELL ID
XCOORD      .                                  384413.417453263 :SURFACE X 
YCOORD      .                                  10143960.4717662 :SURFACE Y 
LAT         .                                        27.8986234 :LATITUDE  
LON         .                                       -96.8882217 :LONGITUDE 
ELEV        .FT                                              92 :ELEVATION VALUE
ELEV_TYPE   .                                                KB :ELEVATION REFERENCE TYPE
~Curve Information Section
#MNEM       .UNIT                                      API CODE :CURVE DESCRIPTION
#------------------------------------------------------------------------------
DEPT        .FT                                                 :DEPTH     
CILD        .MMHO                                               :          
DPHI        .%                                                  :          
DT          .US/F                                               :          
GR          .GAPI                                               :          
GR_NORM     .GAPI                                               :GammaRay Normalized
ILD         .OHMM                                               :          
SN          .OHMM                                               :          
SP          .MV                                                 :          
SP_NORM     .MV                                                 :SP Normalized
VSH_GR      .V/V                                                :Volume of Shale from GR
VSH_SP      .V/V                                                :Volume of Shale from SP
~A        DEPTH           CILD           DPHI             DT             GR        GR_NORM            ILD             SN             SP        SP_NORM         VSH_GR         VSH_SP
# ...
      6418.5000       1085.704         26.028        -999.25        67.2387       82.03604         0.9058         1.0233       -38.8438       -4.17968              1      0.9510819
      6419.0000       1100.521         26.244        -999.25        67.8392       82.68326         0.8975         1.0046       -38.7189      -4.053383              1      0.9530249
      6419.5000       1120.825         26.544        -999.25        67.8498       82.70292         0.8777         1.0093       -37.1243      -2.457386              1      0.9775787
      6420.0000       1147.174         26.736        -999.25        67.2498       82.07301         0.8496         0.9945       -35.0829     -0.4145927              1              1
      6420.5000       1171.813         26.856        -999.25        66.9697       81.78342         0.8371         0.9765         -33.67      0.9997063              1              1
      6421.0000       1184.085         26.916        -999.25        67.3131       82.15712         0.8371         0.9765          -33.2         1.4711              1              1
      6421.5000       1178.851         26.556        -999.25        68.0303       82.92847         0.8394          0.995         -33.51       1.162498              1              1
      6422.0000       1158.812         25.668        -999.25        69.1717       84.15113         0.8524         1.0144       -34.4909      0.1829948              1              1
      6422.5000         1134.4         25.176        -999.25        70.2088       85.26281         0.8719         1.0338         -35.77      -1.094711              1      0.9985429
      6423.0000         1106.4          25.38        -999.25          71.19       86.31503         0.8919         1.0536          -37.2      -2.523315              1      0.9765644
      6423.5000         1078.8         25.728        -999.25          72.38       87.58937         0.9116         1.0743         -36.65      -1.971924              1      0.9850473
      6424.0000       1055.273         26.028        -999.25          73.58       88.87436         0.9395         1.0867         -35.33      -0.650528              1              1
      6424.5000           1040         26.256        -999.25           74.2       89.54231         0.9596         1.0807          -34.1      0.5808716              1              1
      6425.0000         1075.6          25.98        -999.25          73.41       88.71028         0.9315         1.0624         -36.06      -1.377735              1      0.9941887
      6425.5000         1127.6         25.692        -999.25           71.9       87.11228         0.8863         1.0444          -37.4      -2.716339              1      0.9735948
      6426.0000       1172.727         25.656        -999.25         69.897       84.98982         0.8482         1.0248         -37.01       -2.32494              1      0.9796163
      6426.5000       1195.556         26.004        -999.25        67.8788       82.85119         0.8228          1.014          -36.7      -2.013546              1       0.984407
      6427.0000         1211.6         26.316        -999.25         66.101       80.96829         0.8143         1.0215         -37.41      -2.722149              1      0.9735054
      6427.5000         1235.6          26.58        -999.25        65.5556       80.39647         0.8073         1.0596         -38.84      -4.150753              1      0.9515269
      6428.0000       1243.867         26.724        -999.25        66.6952       81.61719         0.8073         1.1124          -39.7      -5.009357              1      0.9383176
      6428.5000       1237.776         26.376        -999.25        67.2788       82.24644         0.8076         1.1686         -40.18      -5.487965              1      0.9309544
      6429.0000         1214.4         26.364        -999.25        64.9355       79.76195         0.8168          1.194         -40.45      -5.756569       0.994935       0.926822
      6429.5000       1186.337         26.376        -999.25        62.7328       77.42702          0.839         1.2022         -41.77      -7.075172      0.9452559      0.9065358
      6430.0000       1149.699         26.316        -999.25        60.5472       75.11032         0.8795         1.2124          -43.9      -9.203777      0.8959643      0.8737881
      6430.5000       1116.221         26.232        -999.25         58.328       72.75785         0.9035         1.1352         -46.33      -11.63238      0.8459117      0.8364249
      6431.0000       1104.422         26.232        -999.25        56.8848       71.23092         0.8993         1.0903         -48.47      -13.77098      0.8134238      0.8035233
      6431.5000       1128.591         26.508        -999.25         57.363       71.74803         0.8731         1.0356         -49.55      -14.84959      0.8244262      0.7869294
      6432.0000       1163.652          26.82        -999.25        59.2995       73.81652         0.8454         1.0109          -50.3      -15.59819      0.8684366      0.7754124
      6432.5000           1194         26.964        -999.25          61.46       76.12331         0.8184         0.9919          -48.6      -13.89679      0.9175171      0.8015878
      6433.0000           1224         26.784        -999.25          63.25       78.03596         0.7927          0.967       -46.2818       -11.5772      0.9582118      0.8372738
      6433.5000         1263.6         26.232        -999.25        64.0636       78.90987         0.7761         0.9496         -43.42      -8.714005      0.9768058       0.881323
      6434.0000           1288          25.62        -999.25         64.203       79.06656         0.7666         0.9352       -40.0064      -5.299011      0.9801396      0.9338614
      6434.5000       1305.818          25.02        -999.25        64.3331       79.21334         0.7567         0.9597       -37.1028      -2.394012      0.9832626      0.9785537
      6435.0000         1310.4         24.444        -999.25        64.2138       79.09482         0.7535         0.9801       -35.3011     -0.5909195      0.9807408              1
      6435.5000         1291.6         23.832        -999.25        64.0722       78.95257          0.763         0.9857       -33.6429        1.06868      0.9777142              1
      6436.0000       1249.091         23.316        -999.25        64.2672        79.1684         0.7861         0.9909       -32.3276       2.385376      0.9823063              1
      6436.5000           1202          23.52        -999.25          64.74       79.67977         0.8259         1.0125       -31.0171       3.697271      0.9931867              1
      6437.0000         1149.6         23.796        -999.25        65.0727       80.03689         0.8673         1.0374       -29.7797       4.936068              1              1
      6437.5000         1090.4         23.748        -999.25          65.39       80.36044         0.9114         1.0669         -28.96       5.757164              1              1
      6438.0000           1040         23.328        -999.25           65.6       80.56982         0.9496         1.1118       -28.2518       6.466755              1              1
      6438.5000            996         22.884        -999.25        64.6752       79.57199         0.9877         1.1615       -27.7398       6.980152      0.9908934              1
      6439.0000            958         22.632        -999.25        63.6082       78.42287         1.0257         1.1912       -27.5118       7.209547      0.9664441              1
      6439.5000            932         23.004        -999.25        62.3271         77.046         1.0631         1.2045       -27.3146       7.408144      0.9371489              1
      6440.0000          899.6         23.208        -999.25        60.8076        75.4155         1.1002         1.1977       -27.2288        7.49534      0.9024574              1
      6440.5000          875.2          23.34        -999.25         59.298       73.79553         1.1184         1.1875       -27.2232       7.502337      0.8679901              1
