#------------------------------------------------------------------------------
# Created by    : vladimir.rabinovich
# Created on    : 09/19/2023 17:21:25
#------------------------------------------------------------------------------
~Version Information Section
VERS.           2.0     :   CWLS log ASCII Standard - VERSION 2.0
WRAP.           NO      :   One line per depth step
~Well Information Section
#MNEM       .UNIT                                         VALUE :DESCRIPTION
#------------------------------------------------------------------------------
STRT        .FT                                            3400 :START DEPTH
STOP        .FT                                            8653 :STOP DEPTH
STEP        .FT                                             0.5 :STEP      
NULL        .                                           -999.25 :NULL      
COMP        .                          KING RANCH OIL & GAS INC :COMPANY   
WELL        .                               OCS G13784 ST00BP00 :WELL      
FLD         .                                           WILDCAT :FIELD     
LOC         .                                                   :LOCATION  
CNTY        .                             GALVESTON LARGE BLOCK :LOCATION  
STAT        .                                             TEXAS :STATE     
CTRY        .                                     UNITED STATES :COUNTRY   
SRVC        .                                                   :SERVICE COMPANY
DATE        .                             9/13/2023 11:19:54 AM :LOG DATE  
API         .                                    42706403430000 :API NUMBER
UWI         .                                    42706403430000 :UNIQUE WELL ID
XCOORD      .                                   967589.17441186 :SURFACE X 
YCOORD      .                                  10424680.8833423 :SURFACE Y 
LAT         .                                         28.709654 :LATITUDE  
LON         .                                        -95.099391 :LONGITUDE 
ELEV        .FT                                             106 :ELEVATION VALUE
ELEV_TYPE   .                                                KB :ELEVATION REFERENCE TYPE
~Curve Information Section
#MNEM       .UNIT                                      API CODE :CURVE DESCRIPTION
#------------------------------------------------------------------------------
DEPT        .FT                                                 :DEPTH     
CALI        .IN                                                 :          
DPHI        .%                                                  :          
DRHO        .G/C3                                               :          
DTLN        .US/F                                               :          
GR          .GAPI                                               :          
GR_1        .GAPI                                               :          
GR_NORM     .GAPI                                               :GammaRay Normalized
ILD         .OHMM                                               :          
ILM         .OHMM                                               :          
NPHI        .%                                                  :          
SFL         .OHMM                                               :          
SP          .MV                                                 :          
SP_NORM     .MV                                                 :SP Normalized
VSH_GR      .V/V                                                :Volume of Shale from GR
VSH_SP      .V/V                                                :Volume of Shale from SP
~A        DEPTH           CALI           DPHI           DRHO           DTLN             GR           GR_1        GR_NORM            ILD            ILM           NPHI            SFL             SP        SP_NORM         VSH_GR         VSH_SP
# ...
      8279.0000          8.968        24.6296        -0.0014       135.3418        75.2354        72.2705       86.63443         0.3977         0.4084        45.7616         0.4369        -47.208      -4.585049              1      0.9166355
      8279.5000         8.9675        24.3198        -0.0001       134.8567        73.6487        73.3357       87.99152         0.3978         0.4083        45.1918         0.4484       -47.0452      -4.422249              1      0.9195955
      8280.0000         8.9448        23.9236         0.0002        134.311        71.4055        73.7883       88.56816         0.3977         0.4086        46.0865         0.4648       -46.6787      -4.055748              1      0.9262591
      8280.5000         8.9202        23.7445        -0.0008       133.7937        69.8386        70.9957       85.01028         0.3976         0.4096         47.521         0.4817       -46.5864      -3.963448              1      0.9279373
      8281.0000         8.8928        24.2636        -0.0024       133.2761        68.9613        67.6921       80.80138         0.3974           0.41        48.1162         0.4804       -46.5923      -3.969349              1        0.92783
      8281.5000          8.873        24.9424        -0.0045       133.0083        69.1847        64.9666       77.32898         0.3976         0.4097        46.6046         0.4713       -46.6565       -4.03355      0.9431698      0.9266627
      8282.0000         8.8601        25.5574        -0.0073       133.4514        70.0681        63.6187       75.61169         0.3998         0.4092        45.5931         0.4609       -46.7612      -4.138248      0.9066318      0.9247591
      8282.5000         8.8483        25.8091        -0.0091       133.9175        71.2144        64.2002       76.35255         0.3994         0.4088         46.523         0.4545       -46.8472      -4.224247      0.9223948      0.9231955
      8283.0000         8.8405        25.5169        -0.0072       134.2551        72.6122        65.4774       77.97976         0.3973         0.4086        46.6832         0.4551       -46.9363      -4.313347      0.9570162      0.9215755
      8283.5000         8.8382         25.172         -0.005       134.1221        73.7621        66.8043       79.67027         0.3958         0.4084        45.9929         0.4552       -47.0767      -4.453747      0.9929845      0.9190228
      8284.0000         8.8459        24.9152        -0.0031       133.8132        74.0804        69.2794       82.82365         0.3945         0.4083        45.9866         0.4581        -47.168      -4.545048              1      0.9173627
      8284.5000         8.8647        24.7311        -0.0014       133.5505        74.0581        72.9401       87.48753         0.3936         0.4079        47.6737         0.4619       -47.0571      -4.434147              1      0.9193792
      8285.0000         8.8917        24.6241        -0.0006       133.6421        73.9233        75.1882       90.35168         0.3947         0.4066         49.797          0.466       -47.1806      -4.557648              1      0.9171337
      8285.5000         8.9223        24.6399        -0.0002       134.1272         73.498        75.5001       90.74905         0.3959         0.4055        50.8668         0.4591       -47.4147      -4.791748              1      0.9128773
      8286.0000         8.9551        24.8322        -0.0001        134.572        72.3643        74.7629       89.80984         0.3958         0.4049        50.4618         0.4499       -47.5695      -4.946548              1      0.9100627
      8286.5000         8.9853        25.2555        -0.0006       135.0051        70.9984        72.8011       87.31042         0.3956         0.4044         48.659         0.4438       -47.6681      -5.045147              1      0.9082701
      8287.0000         9.0081        25.6881        -0.0016       135.3435        69.4808        70.0731       83.83485         0.3944         0.4039        48.5347         0.4419       -47.7234      -5.100449              1      0.9072646
      8287.5000          9.011        25.7825        -0.0029       135.6531        67.9805        67.2954       80.29596         0.3924         0.4033        50.0875         0.4436       -47.7033      -5.080349              1        0.90763
      8288.0000         8.9777        25.8932        -0.0039       135.8396        66.7306        64.9418       77.29738         0.3904         0.4027        51.1057         0.4455       -47.5143       -4.89135      0.9424974      0.9110664
      8288.5000          8.918         25.983        -0.0042       135.5537         66.176        63.7643        75.7972         0.3886          0.402         50.357         0.4408       -47.1186      -4.495647      0.9105786      0.9182609
      8289.0000         8.8482        26.0136        -0.0032       135.0212        66.4265        64.2697        76.4411         0.3868          0.401        48.4014         0.4387       -46.7133      -4.090347      0.9242787        0.92563
      8289.5000         8.7939        25.9714        -0.0013         134.46        67.6744        66.4868       79.26577         0.3864         0.4003        46.8839         0.4413       -46.3934      -3.770447      0.9843781      0.9314464
      8290.0000         8.7729        25.7522         0.0015        134.083        69.4635        68.6868       82.06865         0.3867         0.3998        46.5125         0.4465       -46.1608      -3.537849              1      0.9356754
      8290.5000         8.7919        25.4031         0.0042       134.0657        71.5684         68.146       81.37966         0.3871          0.399         46.358         0.4503       -46.0692      -3.446247              1       0.937341
      8291.0000         8.8301        25.1431         0.0063       134.1279        72.9564        65.9127       78.53433          0.387         0.3976        46.3437         0.4499       -46.0909      -3.467949      0.9688156      0.9369464
      8291.5000         8.8801        25.1643         0.0055       134.2766        73.2794        65.2335       77.66901         0.3869         0.3962         46.976         0.4406       -46.2241      -3.601147      0.9504045      0.9345246
      8292.0000         8.8885         25.384         0.0028       134.6033        72.6948        65.3785       77.85376         0.3867         0.3946        49.4106         0.4298       -46.3959      -3.772949      0.9543353      0.9314009
      8292.5000         8.8545        25.6907              0       135.1177        71.1514        65.6307       78.17506         0.3854          0.393        50.3094         0.4245       -46.2568       -3.63385      0.9611716        0.93393
      8293.0000         8.8036         26.141        -0.0011       135.7258        69.1946        65.4148           77.9         0.3838         0.3913        50.0938         0.4268       -45.8514      -3.228447      0.9553192       0.941301
      8293.5000         8.7545        26.4867        -0.0014            136        68.1705         65.236        77.6722         0.3824         0.3899        49.9329         0.4303       -45.4671      -2.844147      0.9504722      0.9482883
      8294.0000         8.7002        26.5116        -0.0011       135.7522         69.698        65.1715       77.59003         0.3815         0.3886        50.9784         0.4322       -45.3438      -2.720848       0.948724      0.9505301
      8294.5000         8.6829        26.3698         0.0001       135.5657        72.0077        65.3724       77.84598         0.3806         0.3872        50.9335         0.4307       -45.3879       -2.76495      0.9541698      0.9497282
      8295.0000          8.751        26.2931         0.0021       135.5269        72.9626         65.767       78.34871         0.3808         0.3857         49.502         0.4278       -45.2395      -2.616547      0.9648662      0.9524264
      8295.5000         8.8057        26.3715         0.0037        135.811        73.5092         66.441       79.20742         0.3817         0.3846        47.9193          0.423       -45.0898       -2.46685      0.9831366      0.9551482
