#------------------------------------------------------------------------------
# Created by    : vladimir.rabinovich
# Created on    : 09/19/2023 17:20:38
#------------------------------------------------------------------------------
~Version Information Section
VERS.           2.0     :   CWLS log ASCII Standard - VERSION 2.0
WRAP.           NO      :   One line per depth step
~Well Information Section
#MNEM       .UNIT                                         VALUE :DESCRIPTION
#------------------------------------------------------------------------------
STRT        .FT                                             495 :START DEPTH
STOP        .FT                                            8683 :STOP DEPTH
STEP        .FT                                             0.5 :STEP      
NULL        .                                           -999.25 :NULL      
COMP        .                                      SHELL OIL CO :COMPANY   
WELL        .                                OCS 00706 ST00BP00 :WELL      
FLD         .                                           WILDCAT :FIELD     
LOC         .                                                   :LOCATION  
CNTY        .                             GALVESTON LARGE BLOCK :LOCATION  
STAT        .                                             TEXAS :STATE     
CTRY        .                                     UNITED STATES :COUNTRY   
SRVC        .                                                   :SERVICE COMPANY
DATE        .                             9/13/2023 11:19:25 AM :LOG DATE  
API         .                                    42706000290000 :API NUMBER
UWI         .                                    42706000290000 :UNIQUE WELL ID
XCOORD      .                                  1097630.70361638 :SURFACE X 
YCOORD      .                                  10500448.3193905 :SURFACE Y 
LAT         .                                          28.92371 :LATITUDE  
LON         .                                        -94.697168 :LONGITUDE 
ELEV        .FT                                              92 :ELEVATION VALUE
ELEV_TYPE   .                                                KB :ELEVATION REFERENCE TYPE
~Curve Information Section
#MNEM       .UNIT                                      API CODE :CURVE DESCRIPTION
#------------------------------------------------------------------------------
DEPT        .FT                                                 :DEPTH     
ASN         .OHMM                                               :          
CILD        .MMHO                                               :          
ILD         .OHMM                                               :          
SP          .MV                                                 :          
SP_NORM     .MV                                                 :SP Normalized
VSH_SP      .V/V                                                :Volume of Shale from SP
~A        DEPTH            ASN           CILD            ILD             SP        SP_NORM         VSH_SP
# ...
      7525.0000         1.1427       1058.295         1.0094       -52.0549     -0.8353882              1
      7525.5000         1.1469        1042.23           1.02       -52.2014     -0.9818878              1
      7526.0000          1.153       1025.574         1.0307       -52.4682      -1.248688      0.9957849
      7526.5000         1.1596        1008.94         1.0413       -52.7353      -1.515785      0.9912579
      7527.0000         1.1661       985.2178         1.0519       -53.0468      -1.827286      0.9859782
      7527.5000         1.1756       958.0498         1.0625       -53.4001      -2.180588      0.9799901
      7528.0000         1.1969       931.4521         1.0731       -53.7579      -2.538387      0.9739257
      7528.5000         1.3413       905.1182         1.0837       -54.3173      -3.097786      0.9644443
      7529.0000         1.3809       881.5498         1.0921       -54.8766      -3.657085      0.9549646
      7529.5000         1.3823       858.5068         1.0981       -55.4365      -4.216988      0.9454748
      7530.0000          1.375       840.7314          1.104       -56.0753      -4.855785      0.9346477
      7530.5000         1.3664       824.9199           1.11       -56.1014      -4.881886      0.9342054
      7531.0000         1.3574       833.7197         1.1159        -55.889      -4.669487      0.9378053
      7531.5000         1.3484       842.5205         1.1219        -55.683      -4.463486      0.9412969
      7532.0000         1.3394       851.2871         1.1278       -55.4771      -4.257587      0.9447867
      7532.5000         1.3341       859.6152         1.1338       -55.2711      -4.051586      0.9482782
      7533.0000         1.3326       852.3955         1.1398       -55.0651      -3.845589      0.9517697
      7533.5000         1.3316        843.376         1.1457       -54.8591      -3.639587      0.9552612
      7534.0000         1.3351       834.3564         1.1486       -54.6531      -3.433586      0.9587528
      7534.5000         1.3386       826.9717         1.1486        -54.524      -3.304485      0.9609409
      7535.0000         1.3555       820.2461         1.1485       -54.4404      -3.220886      0.9623579
      7535.5000         1.3738        819.165         1.1485       -54.3567      -3.137188      0.9637765
      7536.0000         1.3901       823.3242         1.1484        -54.273      -3.053486      0.9651952
      7536.5000         1.4032       829.5176         1.1484       -54.1895      -2.969986      0.9666104
      7537.0000         1.3985       847.6445         1.1483       -54.1058      -2.886288       0.968029
      7537.5000         1.3859       865.7705         1.1483       -54.0221      -2.802586      0.9694477
      7538.0000         1.3732       883.8975         1.1406       -53.9537      -2.734188       0.970607
      7538.5000         1.3606       900.9932         1.1307       -53.9298      -2.710285      0.9710121
      7539.0000         1.3405       917.8467         1.1209       -53.9059      -2.686386      0.9714172
      7539.5000         1.3196       934.7002          1.111       -53.8821      -2.662586      0.9718206
      7540.0000         1.2987       950.2373         1.1011       -53.8582      -2.638687      0.9722257
      7540.5000         1.2778       964.3262         1.0912       -53.8344      -2.614887       0.972629
      7541.0000         1.2593       978.3926         1.0813       -53.8105      -2.590988      0.9730341
      7541.5000         1.2533        992.043         1.0714       -53.7866      -2.567085      0.9734392
      7542.0000         1.2456       1004.815         1.0651       -53.7628      -2.543285      0.9738426
      7542.5000         1.2351       1017.565         1.0593       -53.7389      -2.519386      0.9742477
      7543.0000         1.2246       1029.744         1.0534       -53.7596      -2.540089      0.9738968
      7543.5000         1.2098       1040.639         1.0476       -53.7963      -2.576786      0.9732748
      7544.0000         1.1931       1048.166         1.0417       -53.8329      -2.613388      0.9726545
      7544.5000         1.1886       1049.109         1.0359       -53.8696      -2.650085      0.9720324
      7545.0000         1.1919       1041.066           1.03       -53.9061      -2.686588      0.9714137
      7545.5000         1.1952       1033.014         1.0242       -53.9428      -2.723286      0.9707918
      7546.0000         1.1985       1026.594         1.0263       -53.9794      -2.759888      0.9701714
      7546.5000         1.2013       1021.093         1.0285       -54.0161      -2.796589      0.9695494
      7547.0000         1.2041        1015.59         1.0308       -54.0766      -2.857086       0.968524
      7547.5000         1.2069       1011.952          1.033         -54.15      -2.930489      0.9672799
      7548.0000         1.2097       1010.581         1.0352       -54.2232      -3.003689      0.9660392
      7548.5000         1.2125       1009.209         1.0375       -54.2965      -3.076988      0.9647968
      7549.0000         1.2153       1007.839         1.0434       -54.3698      -3.150288      0.9635544
      7549.5000         1.2181       1006.468         1.0501       -54.4431      -3.223587      0.9623121
      7550.0000          1.226       995.9053         1.0567       -54.4781      -3.258587      0.9617189
      7550.5000          1.234       984.1973         1.0634        -54.501      -3.281487      0.9613307
      7551.0000          1.242       968.2764         1.0737       -54.5238      -3.304287      0.9609443
      7551.5000           1.25       948.0645         1.0859       -54.5466      -3.327087      0.9605578
      7552.0000          1.258       929.6963         1.0982       -54.5695      -3.349987      0.9601697
      7552.5000         1.3075       912.1846         1.1105       -54.5923      -3.372787      0.9597833
      7553.0000          1.334       894.6729         1.1303       -54.6262      -3.406689      0.9592087
      7553.5000         1.3538       872.9033         1.1546       -54.9001      -3.680588      0.9545663
      7554.0000         1.3793       851.6602         1.1788       -55.1744      -3.954887      0.9499171
      7554.5000         1.4042       833.0947          1.203        -55.516      -4.296486      0.9441274
      7555.0000         1.4257       821.0029         1.2272       -55.8842      -4.664688      0.9378867
      7555.5000         1.4445        794.998         1.2486       -56.2518      -5.032288      0.9316561
      7556.0000         1.4561       763.4854         1.2699       -56.4016      -5.182087      0.9291171
      7556.5000         1.4678       738.5557         1.2912       -56.5124      -5.292889      0.9272392
      7557.0000         1.4986       723.4023          1.306       -56.6234      -5.403889      0.9253578
      7557.5000         1.5323       713.5049         1.3092       -56.7341      -5.514587      0.9234816
      7558.0000         1.5615       703.6191         1.3125       -57.0264      -5.806889      0.9185273
      7558.5000         1.5742       700.4043         1.3125       -57.6718      -6.452286      0.9075884
      7559.0000         1.5869         705.04         1.2976       -58.3292      -7.109688       0.896446
      7559.5000         1.5955       725.3887         1.2827       -59.0436      -7.824085      0.8843375
      7560.0000         1.5941       758.4814         1.2678       -59.6408      -8.421288      0.8742155
      7560.5000          1.556       789.9072         1.2528       -59.0239      -7.804386      0.8846714
      7561.0000         1.4441       805.7734          1.238       -58.4081      -7.188587      0.8951087
      7561.5000         1.4291       816.8115         1.2259       -57.7912      -6.571686      0.9055647
      7562.0000         1.4202       821.2734         1.2169        -57.457      -6.237488       0.911229
      7562.5000         1.4148       821.2881         1.2079       -57.2149      -5.995388      0.9153324
