#------------------------------------------------------------------------------
# Created by    : vladimir.rabinovich
# Created on    : 09/19/2023 17:19:47
#------------------------------------------------------------------------------
~Version Information Section
VERS.           2.0     :   CWLS log ASCII Standard - VERSION 2.0
WRAP.           NO      :   One line per depth step
~Well Information Section
#MNEM       .UNIT                                         VALUE :DESCRIPTION
#------------------------------------------------------------------------------
STRT        .FT                                             380 :START DEPTH
STOP        .FT                                            8002 :STOP DEPTH
STEP        .FT                                             0.5 :STEP      
NULL        .                                           -999.25 :NULL      
COMP        .                               AMOCO PRODUCTION CO :COMPANY   
WELL        .                               OCS G07253 ST00BP00 :WELL      
FLD         .                                           WILDCAT :FIELD     
LOC         .                                                   :LOCATION  
CNTY        .                             GALVESTON LARGE BLOCK :LOCATION  
STAT        .                                             TEXAS :STATE     
CTRY        .                                     UNITED STATES :COUNTRY   
SRVC        .                                                   :SERVICE COMPANY
DATE        .                             9/13/2023 11:19:27 AM :LOG DATE  
API         .                                    42706401230000 :API NUMBER
UWI         .                                    42706401230000 :UNIQUE WELL ID
XCOORD      .                                  925879.569593371 :SURFACE X 
YCOORD      .                                  10358786.1357032 :SURFACE Y 
LAT         .                                         28.526408 :LATITUDE  
LON         .                                        -95.225632 :LONGITUDE 
ELEV        .FT                                             100 :ELEVATION VALUE
ELEV_TYPE   .                                                KB :ELEVATION REFERENCE TYPE
~Curve Information Section
#MNEM       .UNIT                                      API CODE :CURVE DESCRIPTION
#------------------------------------------------------------------------------
DEPT        .FT                                                 :DEPTH     
ASFL        .OHMM                                               :          
CILD        .MMHO                                               :          
GR          .GAPI                                               :          
GR_NORM     .GAPI                                               :GammaRay Normalized
ILD         .OHMM                                               :          
SP          .MV                                                 :          
SP_NORM     .MV                                                 :SP Normalized
VSH_GR      .V/V                                                :Volume of Shale from GR
VSH_SP      .V/V                                                :Volume of Shale from SP
~A        DEPTH           ASFL           CILD             GR        GR_NORM            ILD             SP        SP_NORM         VSH_GR         VSH_SP
# ...
      6475.0000         0.7217       2198.262        49.3697       46.14433         0.4326       -75.1991       -34.7229      0.2796666      0.2018804
      6475.5000         0.7072       2258.309         49.041       45.46132         0.4243       -74.9326      -34.45641      0.2651344      0.2083803
      6476.0000         0.6973       2328.211        48.2169       43.73739         0.4159       -74.6587      -34.18251      0.2284551      0.2150608
      6476.5000         0.6998        2399.91         47.618       42.48665         0.4076       -74.3154      -33.83921      0.2018437       0.223434
      6477.0000         0.7152       2162.609        53.9724       55.84614         0.4271       -70.0518      -29.57561       0.486088      0.3274241
      6477.5000         0.7369       1887.414        58.3671       65.08789         0.4539       -59.4595      -18.98331      0.6827211       0.585773
      6478.0000         0.7587       1755.115        59.7639       68.03048         0.4806       -53.9966      -13.52041      0.7453293      0.7190144
      6478.5000         0.7873       1653.416        60.7581       70.12714         0.5745       -51.5988      -11.12261      0.7899392      0.7774974
      6479.0000         0.8166       1492.916        61.3239       71.32368         0.6707       -49.3678      -8.891609      0.8153974       0.831912
      6479.5000         0.8418       1328.418        61.5056       71.71312         0.7633       -47.7755      -7.299309      0.8236834      0.8707486
      6480.0000         0.8664       1176.619        60.3976       69.39263         0.8056       -46.3351      -5.858906      0.7743113      0.9058803
      6480.5000         0.8898       1108.219        59.2883       67.06945         0.8479       -45.4107      -4.934509      0.7248819      0.9284266
      6481.0000         0.9063        1063.42        58.1804       64.74921         0.8902       -44.7178      -4.241608      0.6755151      0.9453266
      6481.5000         0.9189       1031.445        57.1445       62.58026         0.9274        -44.106      -3.629807      0.6293672      0.9602486
      6482.0000         0.9316       1008.096        58.3845        65.1934         0.9448       -43.7816      -3.305408      0.6849659      0.9681607
      6482.5000         0.9437       982.9463        59.9246       68.43707         0.9621       -44.1355      -3.659309      0.7539803       0.959529
      6483.0000         0.9551       999.4463        61.2405       71.20972         0.9795       -44.4894      -4.013206      0.8129727      0.9508974
      6483.5000         0.9649       1020.996        62.5103       73.88548         0.9692       -44.8433      -4.367107      0.8699037      0.9422657
      6484.0000         0.9635       1045.045        64.5172          78.11         0.9514       -44.6453      -4.169109      0.9597872      0.9470949
      6484.5000         0.9321       1069.096        67.1392       83.62699         0.9336       -44.2118      -3.735607              1      0.9576681
      6485.0000         0.9145        1093.17        69.9178       89.47301         0.9157       -43.6982      -3.222008              1      0.9701949
      6485.5000          0.897       1116.869        71.5613       92.93396         0.8979        -43.184      -2.707806              1      0.9827365
      6486.0000         0.8818       1138.369        71.8003       93.44384         0.8801       -42.6705      -2.194309              1      0.9952608
      6486.5000         0.8674       1159.869        69.0663       87.70683         0.8632       -42.1569      -1.680706              1              1
      6487.0000         0.8597       1181.369        67.1267         83.639         0.8492       -41.6434      -1.167206              1              1
      6487.5000         0.8665       1197.832         66.615       82.57149         0.8353       -41.1298     -0.6536064              1              1
      6488.0000         0.8823       1193.818        66.9259       83.23243         0.8232       -40.6636     -0.1874084              1              1
      6488.5000         0.8968       1169.318        65.8145       80.90482         0.8429       -40.2036      0.2725906              1              1
      6489.0000         0.9112       1155.531         62.839       74.66041         0.8626       -39.7766      0.6995926      0.8863916              1
      6489.5000         0.9256       1143.881        60.1573       69.03327         0.8824       -40.2683      0.2078934      0.7666653              1
      6490.0000          0.938       1132.232        59.1912       67.01098         0.9001       -40.7595     -0.2833061      0.7236378              1
      6490.5000         0.9472       1121.369        60.4499       69.66341         0.9168       -41.1616     -0.6854057      0.7800725              1
      6491.0000         0.9562       1111.607        61.7397       72.38117         0.9334        -41.522      -1.045807      0.8378973              1
      6491.5000         0.9634       1101.844        62.7151       74.43832         0.9501       -41.8828      -1.406609      0.8816665              1
      6492.0000         0.9362       1091.432        62.6498       74.30876         0.9668       -42.2435      -1.767307      0.8789098              1
      6492.5000         0.9096       1118.594        63.9184       76.98198         0.9675       -42.5837      -2.107506      0.9357868      0.9973779
      6493.0000         0.8846       1149.318        65.1882       79.65778         0.9451       -42.8102      -2.334007      0.9927186      0.9918535
      6493.5000         0.8756       1179.244        66.4644       82.34697         0.9227       -42.8376      -2.361408              1      0.9911852
      6494.0000         0.8665        1195.77        67.9309       85.43602         0.9002       -42.7133      -2.237106              1      0.9942169
      6494.5000         0.8594       1168.395        69.3975       88.52531         0.8922       -42.5889      -2.112709              1       0.997251
      6495.0000         0.8559       1154.904        70.7782       91.43406          0.892       -42.4646      -1.988407              1              1
      6495.5000         0.8916       1155.455        71.3297       92.60053         0.8919       -42.3403      -1.864109              1              1
      6496.0000         0.9188       1156.006        69.7274       89.24146         0.8917       -42.2159      -1.739708              1              1
      6496.5000          0.933        1141.42        68.1251       85.88236         0.9016       -42.0914      -1.615208              1              1
      6497.0000         0.9472        1095.92         67.052       83.63523         0.9168       -41.9805      -1.504307              1              1
      6497.5000         0.9577       1075.945        66.1307       81.70705          0.932       -41.8815      -1.405308              1              1
      6498.0000         0.9682       1055.971        65.2107       79.78165         0.9473       -41.7825      -1.306309      0.9953542              1
      6498.5000         0.9788       1040.395        64.2894       77.85347         0.9625        -41.644      -1.167809      0.9543291              1
      6499.0000         0.9897       1030.684        63.3918       75.97509         0.9778       -41.4202     -0.9440079      0.9143636              1
      6499.5000         1.0006       1020.971        62.4966       74.10178          0.993       -41.1965     -0.7203064      0.8745061              1
      6500.0000         1.0105       1011.246        58.8526        66.4527         1.0083       -40.9727     -0.4965057      0.7117595              1
      6500.5000         1.0199       998.7461        57.1893       62.96544         1.0241       -40.7346     -0.2584076      0.6375626              1
      6501.0000         1.0294       980.4961        58.9721       66.71909         1.0404       -40.4445      0.0316925      0.7174274              1
