#------------------------------------------------------------------------------
# Created by    : vladimir.rabinovich
# Created on    : 09/19/2023 17:21:39
#------------------------------------------------------------------------------
~Version Information Section
VERS.           2.0     :   CWLS log ASCII Standard - VERSION 2.0
WRAP.           NO      :   One line per depth step
~Well Information Section
#MNEM       .UNIT                                         VALUE :DESCRIPTION
#------------------------------------------------------------------------------
STRT        .FT                                             930 :START DEPTH
STOP        .FT                                           10010 :STOP DEPTH
STEP        .FT                                             0.5 :STEP      
NULL        .                                           -999.25 :NULL      
COMP        .                 FAIRWAYS SPEC SALES & SERVICE INC :COMPANY   
WELL        .                               OCS G02357 ST00BP00 :WELL      
FLD         .                            HIGH ISLAND BLOCK 0154 :FIELD     
LOC         .                                                   :LOCATION  
CNTY        .                           HIGH ISLAND LARGE BLOCK :LOCATION  
STAT        .                                             TEXAS :STATE     
CTRY        .                                     UNITED STATES :COUNTRY   
SRVC        .                                                   :SERVICE COMPANY
DATE        .                             9/13/2023 11:20:04 AM :LOG DATE  
API         .                                    42708400540000 :API NUMBER
UWI         .                                    42708400540000 :UNIQUE WELL ID
XCOORD      .                                  1183911.52517142 :SURFACE X 
YCOORD      .                                  10615048.6542629 :SURFACE Y 
LAT         .                                         29.242029 :LATITUDE  
LON         .                                        -94.431816 :LONGITUDE 
ELEV        .FT                                              73 :ELEVATION VALUE
ELEV_TYPE   .                                                KB :ELEVATION REFERENCE TYPE
~Curve Information Section
#MNEM       .UNIT                                      API CODE :CURVE DESCRIPTION
#------------------------------------------------------------------------------
DEPT        .FT                                                 :DEPTH     
CALI        .IN                                                 :          
DRHO        .G/C3                                               :          
DT          .US/F                                               :          
GR          .GAPI                                               :          
GR_1        .GAPI                                               :          
GR_NORM     .GAPI                                               :GammaRay Normalized
ILD         .OHMM                                               :          
NPHI        .%                                                  :          
RHOB        .G/C3                                               :          
SFL         .OHMM                                               :          
SP          .MV                                                 :          
SP_NORM     .MV                                                 :SP Normalized
VSH_GR      .V/V                                                :Volume of Shale from GR
VSH_SP      .V/V                                                :Volume of Shale from SP
~A        DEPTH           CALI           DRHO             DT             GR           GR_1        GR_NORM            ILD           NPHI           RHOB            SFL             SP        SP_NORM         VSH_GR         VSH_SP
# ...
      7734.0000         9.8977         0.0967          110.6        99.7114        -999.25       79.27621         0.7331        -999.25         2.3146          0.732        72.9204     -0.2971191      0.9846003      0.9960384
      7734.5000         9.9787         0.0945       109.8716        99.6688        -999.25       79.23892         0.7442        -999.25         2.3156         0.7604        72.1145      -1.105461      0.9838068      0.9852605
      7735.0000         9.9984         0.0945       109.8661        99.6421        -999.25       79.22128         0.7606        -999.25         2.3193         0.8021        71.5958      -1.626602      0.9834314       0.978312
      7735.5000        10.0047         0.0988       110.4169        99.6366        -999.25        79.2298         0.7815        -999.25         2.3057         0.8967        71.1466      -2.078247      0.9836127        0.97229
      7736.0000        10.0161         0.1069       111.1296        99.6312        -999.25       79.23844         0.8056        -999.25         2.3327         0.8584         70.772      -2.455284      0.9837967      0.9672629
      7736.5000        10.0305         0.1113       112.1062        99.6252        -999.25       79.24635         0.8329        -999.25          2.352         0.7717        70.8367      -2.393028       0.983965       0.968093
      7737.0000        10.0468         0.1081       113.9329        99.6094        -999.25       79.24216         0.8719        -999.25         2.3589         0.7333        71.2471      -1.985062      0.9838757      0.9735325
      7737.5000        10.0622         0.0988       115.2288        99.5934        -999.25       79.23772         0.8996        -999.25         2.3653         0.7352        72.1343      -1.100304      0.9837812      0.9853293
      7738.0000        10.0598         0.1075       113.2274        99.5775        -999.25        79.2334         0.9065        -999.25         2.3703         0.8658         73.051     -0.1860428      0.9836893      0.9975194
      7738.5000         10.058          0.123       106.6235        99.5741        -999.25       79.24451         0.8935        -999.25         2.3396         1.0454        73.0021     -0.2373886      0.9839257      0.9968348
      7739.0000        10.0574         0.1119       101.4897        99.5988        -999.25       79.29031         0.8712        -999.25         2.3177         1.1855        72.8778     -0.3641281      0.9849003       0.995145
      7739.5000        10.0569         0.0871         98.517        99.6235        -999.25       79.33612         0.8445        -999.25         2.3169         1.1489        72.9592     -0.2851715      0.9858749      0.9961977
      7740.0000        10.0533         0.0859        97.0417        99.6483        -999.25       79.38204         0.8171        -999.25         2.3153         0.9238        73.3425     0.09568787      0.9868519              1
      7740.5000        10.0462         0.1053       102.6829        99.6708        -999.25       79.42514         0.7945        -999.25         2.3258         0.8004        73.0969     -0.1523438      0.9877689      0.9979687
      7741.0000        10.0434          0.118       107.7423        99.6896        -999.25       79.46366         0.7592        -999.25         2.3324         0.6864        73.3555      0.1038132      0.9885885              1
      7741.5000        -999.25        -999.25       110.8661        -999.25        -999.25        -999.25         0.7089        -999.25        -999.25         0.6713        74.0387      0.7845688        -999.25              1
      7742.0000        -999.25        -999.25       112.7633        -999.25        -999.25        -999.25         0.6714        -999.25        -999.25         0.7008        73.8347      0.5781326        -999.25              1
      7742.5000        -999.25        -999.25       111.9861        -999.25        -999.25        -999.25          0.652        -999.25        -999.25         0.7249        73.3751      0.1160889        -999.25              1
      7743.0000        -999.25        -999.25       111.6024        -999.25        -999.25        -999.25         0.6409        -999.25        -999.25         0.7038        72.8015     -0.4599533        -999.25      0.9938673
      7743.5000        -999.25        -999.25       113.1012        -999.25        -999.25        -999.25         0.6362        -999.25        -999.25         0.6947         72.239      -1.024887        -999.25      0.9863349
      7744.0000        -999.25        -999.25       112.7633        -999.25        -999.25        -999.25          0.636        -999.25        -999.25         0.6951        71.8583      -1.408028        -999.25      0.9812263
      7744.5000        -999.25        -999.25       111.4354        -999.25        -999.25        -999.25         0.6399        -999.25        -999.25         0.7137        71.8373      -1.431465        -999.25      0.9809138
      7745.0000        -999.25        -999.25       110.0901        -999.25        -999.25        -999.25          0.651        -999.25        -999.25         0.7264        72.1318      -1.139412        -999.25      0.9848078
      7745.5000        -999.25        -999.25       108.7076        -999.25        -999.25        -999.25         0.6721        -999.25        -999.25         0.6747        72.8046     -0.4690475        -999.25       0.993746
      7746.0000        -999.25        -999.25       108.7336        -999.25        -999.25        -999.25         0.7032        -999.25        -999.25         0.6243         72.812     -0.4640961        -999.25       0.993812
      7746.5000        -999.25        -999.25        109.975        -999.25        -999.25        -999.25         0.7334        -999.25        -999.25         0.6348        71.1632      -2.115326        -999.25      0.9717957
      7747.0000        -999.25        -999.25       111.5162        -999.25        -999.25        -999.25         0.7727        -999.25        -999.25         0.7043        68.7086      -4.572365        -999.25      0.9390351
      7747.5000        -999.25        -999.25       110.0864        -999.25        -999.25        -999.25         0.7953        -999.25        -999.25         0.8666        65.4801      -7.803307        -999.25      0.8959559
      7748.0000        -999.25        -999.25       107.9873        -999.25        -999.25        -999.25         0.8004        -999.25        -999.25         1.0504        58.9148      -14.37105        -999.25       0.808386
      7748.5000        -999.25        -999.25       105.7274        -999.25        -999.25        -999.25         0.7985        -999.25        -999.25         1.0883        53.2021      -20.08619        -999.25      0.7321841
      7749.0000        -999.25        -999.25       103.5393        -999.25        -999.25        -999.25         0.7605        -999.25        -999.25         1.0284         45.577      -27.71373        -999.25      0.6304836
      7749.5000        -999.25        -999.25       101.5294        -999.25        -999.25        -999.25         0.6997        -999.25        -999.25         1.0754        28.6115      -44.68167        -999.25      0.4042444
      7750.0000        -999.25        -999.25         99.876        -999.25        -999.25        -999.25          0.624        -999.25        -999.25         1.2132          21.78      -51.51561        -999.25      0.3131252
      7750.5000        -999.25        -999.25        99.9105        -999.25        -999.25        -999.25         0.5566        -999.25        -999.25         1.0745        23.3671      -49.93095        -999.25       0.334254
      7751.0000        -999.25        -999.25       103.4106        -999.25        -999.25        -999.25         0.4915        -999.25        -999.25         0.8485         33.777      -39.52349        -999.25      0.4730201
      7751.5000        -999.25        -999.25       107.0542        -999.25        -999.25        -999.25          0.434        -999.25        -999.25         0.6801        35.3149      -37.98803        -999.25      0.4934929
