#------------------------------------------------------------------------------
# Created by    : vladimir.rabinovich
# Created on    : 09/19/2023 17:20:40
#------------------------------------------------------------------------------
~Version Information Section
VERS.           2.0     :   CWLS log ASCII Standard - VERSION 2.0
WRAP.           NO      :   One line per depth step
~Well Information Section
#MNEM       .UNIT                                         VALUE :DESCRIPTION
#------------------------------------------------------------------------------
STRT        .FT                                             400 :START DEPTH
STOP        .FT                                           11002 :STOP DEPTH
STEP        .FT                                             0.5 :STEP      
NULL        .                                           -999.25 :NULL      
COMP        .                            STANOLIND OIL & GAS CO :COMPANY   
WELL        .                                     ST TR 00245-L :WELL      
FLD         .                              GALVESTON BLOCK 0245 :FIELD     
LOC         .                                                   :LOCATION  
CNTY        .                             GALVESTON LARGE BLOCK :LOCATION  
STAT        .                                             TEXAS :STATE     
CTRY        .                                     UNITED STATES :COUNTRY   
SRVC        .                                                   :SERVICE COMPANY
DATE        .                             9/13/2023 11:19:42 AM :LOG DATE  
API         .                                    42706000160000 :API NUMBER
UWI         .                                    42706000160000 :UNIQUE WELL ID
XCOORD      .                                  1024804.26554262 :SURFACE X 
YCOORD      .                                  10549089.4715911 :SURFACE Y 
LAT         .                                        29.0543948 :LATITUDE  
LON         .                                       -94.9272588 :LONGITUDE 
ELEV        .FT                                              11 :ELEVATION VALUE
ELEV_TYPE   .                                                KB :ELEVATION REFERENCE TYPE
~Curve Information Section
#MNEM       .UNIT                                      API CODE :CURVE DESCRIPTION
#------------------------------------------------------------------------------
DEPT        .FT                                                 :DEPTH     
ASN         .OHMM                                               :          
LAT         .OHMM                                               :          
LN          .OHMM                                               :          
SP          .MV                                                 :          
SP_NORM     .MV                                                 :SP Normalized
VSH_SP      .V/V                                                :Volume of Shale from SP
~A        DEPTH            ASN            LAT             LN             SP        SP_NORM         VSH_SP
# ...
      1122.0000         2.8199         2.4713         2.2582       -87.0461      -9.332954      0.6274733
      1122.5000         2.8053         2.5149         2.2439       -87.7102      -9.974533      0.5897334
      1123.0000         2.7733         2.5388         2.2295       -87.7031      -9.944916      0.5914755
      1123.5000         2.7413         2.5628         2.2152        -87.696      -9.915291      0.5932182
      1124.0000         2.7093         2.5868          2.215        -87.689      -9.885773      0.5949546
      1124.5000         2.6774         2.6107         2.2274       -87.6819       -9.85614      0.5966976
      1125.0000         2.6454         2.6347         2.2398       -87.7495      -9.901215      0.5940462
      1125.5000         2.6169         2.6587         2.2523       -87.8301      -9.959297      0.5906296
      1126.0000         2.6242         2.6826         2.2647       -87.9105      -10.01717      0.5872251
      1126.5000         2.6315         2.7066         2.2771       -87.9911      -10.07525      0.5838089
      1127.0000           2.64         2.7182         2.2896       -88.0717      -10.13333      0.5803923
      1127.5000         2.6633         2.7218         2.3024       -88.1522      -10.19131       0.576982
      1128.0000         2.6867         2.7253         2.3152       -88.3246      -10.34118       0.568166
      1128.5000           2.71         2.7288         2.3281       -88.6366      -10.63065       0.551138
      1129.0000         2.7345         2.7324         2.3409       -88.9486      -10.92014      0.5341097
      1129.5000         2.7765         2.7359         2.3538       -89.2606      -11.20961      0.5170817
      1130.0000         2.8186         2.7415         2.3666       -89.5726      -11.49909      0.5000534
      1130.5000         2.8606         2.7504         2.3794       -89.7922      -11.69617      0.4884608
      1131.0000         2.9027         2.7594         2.3923       -90.0085      -11.88994      0.4770625
      1131.5000         2.9447         2.7684         2.4046       -90.2247      -12.08362      0.4656695
      1132.0000         3.0045         2.7773         2.4111       -90.4409       -12.2773      0.4542766
      1132.5000         3.0872         2.7863         2.4175       -90.6227      -12.43658      0.4449072
      1133.0000           3.17         2.7953          2.424        -90.774      -12.56535      0.4373322
      1133.5000         3.2295          2.796         2.4305       -90.9253      -12.69413      0.4297571
      1134.0000          3.255         2.7961         2.4369       -91.0767        -12.823      0.4221766
      1134.5000         3.2806         2.7962         2.4434       -91.2279      -12.95168      0.4146073
      1135.0000         3.2628         2.7963         2.4492       -91.3793      -13.08056       0.407026
      1135.5000         3.2158         2.7964         2.4531       -91.5538      -13.23254      0.3980861
      1136.0000         3.1688         2.7965          2.457       -91.7888      -13.44501      0.3855874
      1136.5000         3.1217         2.7966          2.461       -92.0237      -13.65739      0.3730949
      1137.0000         3.0747         2.7967         2.4649       -92.2585      -13.86967      0.3606078
      1137.5000         3.0986         2.7962         2.4688       -92.4934      -14.08204      0.3481154
      1138.0000         3.1687         2.7894         2.4728       -92.7284      -14.29452      0.3356166
      1138.5000         3.2388         2.7826         2.4767       -93.0508      -14.59439       0.317977
      1139.0000         3.3089         2.7758         2.4834       -93.4874      -15.00847      0.2936195
      1139.5000          3.379         2.7689         2.4916       -93.9242      -15.42275      0.2692499
      1140.0000         3.4491         2.7621         2.4998        -94.361      -15.83703      0.2448807
      1140.5000         3.5192         2.7553         2.5081        -94.765       -16.2185      0.2224413
      1141.0000          3.586         2.7485         2.5163       -95.1481      -16.57908      0.2012307
      1141.5000         3.6341         2.7417         2.5245       -95.5312      -16.93965      0.1800205
      1142.0000         3.6822         2.7465         2.5331       -95.9144      -17.30033      0.1588041
      1142.5000         3.7304         2.7534         2.5422       -95.9408      -17.30421      0.1585756
      1143.0000         3.7632         2.7602         2.5513       -95.9617      -17.30259      0.1586712
      1143.5000         3.6895         2.7671         2.5603       -95.9827      -17.30106      0.1587614
      1144.0000         3.6157         2.7729         2.5694       -96.0037      -17.29954      0.1588507
      1144.5000         3.5419         2.7781         2.5785       -96.0247      -17.29801      0.1589405
      1145.0000         3.4901         2.7832         2.5875       -95.5742        -16.825      0.1867649
      1145.5000         3.4398         2.7939         2.5877       -95.0939      -16.32217      0.2163427
      1146.0000         3.3894         2.8058         2.5878       -94.6134      -15.81915      0.2459322
      1146.5000         3.3819         2.8177         2.5814       -94.1331      -15.31633        0.27551
      1147.0000         3.4101         2.8226         2.5654       -93.6526       -14.8133      0.3050999
      1147.5000         3.4384         2.8257         2.5493       -93.1721      -14.31027      0.3346899
      1148.0000         3.4666         2.8287         2.5333       -92.9845      -14.10015        0.34705
      1148.5000         3.4166         2.8318         2.5173       -92.9441      -14.03723      0.3507511
      1149.0000         3.3374         2.8349         2.5097       -92.9037      -13.97431      0.3544523
      1149.5000         3.2581         2.8324         2.5021       -92.8633      -13.91138      0.3581538
      1150.0000         3.1923         2.8298         2.4946       -92.8467      -13.87226      0.3604552
      1150.5000         3.1273         2.8272          2.487       -92.8622      -13.86523      0.3608686
      1151.0000          3.201         2.8246         2.4867       -92.8777      -13.85822      0.3612815
      1151.5000         3.3215         2.8219         2.4976       -92.8933       -13.8513      0.3616885
      1152.0000          3.442         2.8193         2.5084       -92.9088      -13.84427      0.3621018
      1152.5000         3.5625         2.8167         2.5193       -92.9243      -13.83725      0.3625147
      1153.0000         3.6713          2.815         2.5366       -92.9309      -13.82132      0.3634518
      1153.5000         3.7523         2.8199          2.564       -92.8933       -13.7612      0.3669882
      1154.0000         3.8332         2.8247         2.5914       -92.8558      -13.70117      0.3705193
      1154.5000         3.9142         2.8296         2.6189       -92.8182      -13.64105      0.3740557
      1155.0000         3.9952         2.8344         2.6463       -92.7808      -13.58113      0.3775805
      1155.5000         4.0761         2.8392         2.6738       -92.8003      -13.57811      0.3777583
      1156.0000         4.1571         2.8441         2.6987       -92.8711      -13.62639      0.3749183
      1156.5000         4.2088         2.8489         2.7192       -92.9419      -13.67466      0.3720788
      1157.0000         4.2549         2.8537         2.7397       -93.0128      -13.72304      0.3692331
      1157.5000          4.301         2.8586         2.7603       -93.1185      -13.80621      0.3643404
      1158.0000         4.3017         2.8638         2.7808       -93.2283      -13.89349      0.3592063
      1158.5000         4.2398         2.8689         2.8013       -93.3381      -13.98077      0.3540726
      1159.0000         4.1779         2.8741         2.8081       -93.4479      -14.06805      0.3489384
      1159.5000         4.1095         2.8793           2.81       -93.5577      -14.15532      0.3438047
