#------------------------------------------------------------------------------
# Created by    : vladimir.rabinovich
# Created on    : 09/19/2023 17:19:49
#------------------------------------------------------------------------------
~Version Information Section
VERS.           2.0     :   CWLS log ASCII Standard - VERSION 2.0
WRAP.           NO      :   One line per depth step
~Well Information Section
#MNEM       .UNIT                                         VALUE :DESCRIPTION
#------------------------------------------------------------------------------
STRT        .FT                                             790 :START DEPTH
STOP        .FT                                           12500 :STOP DEPTH
STEP        .FT                                             0.5 :STEP      
NULL        .                                           -999.25 :NULL      
COMP        .                                 CHEVRON U S A INC :COMPANY   
WELL        .                               OCS G04596 ST00BP00 :WELL      
FLD         .                                           WILDCAT :FIELD     
LOC         .                                                   :LOCATION  
CNTY        .                        MUSTANG ISLAND LARGE BLOCK :LOCATION  
STAT        .                                             TEXAS :STATE     
CTRY        .                                     UNITED STATES :COUNTRY   
SRVC        .                                                   :SERVICE COMPANY
DATE        .                             9/13/2023 11:19:13 AM :LOG DATE  
API         .                                    42702401310000 :API NUMBER
UWI         .                                    42702401310000 :UNIQUE WELL ID
XCOORD      .                                  486632.184756912 :SURFACE X 
YCOORD      .                                  10088502.2555927 :SURFACE Y 
LAT         .                                          27.75488 :LATITUDE  
LON         .                                        -96.567316 :LONGITUDE 
ELEV        .FT                                              90 :ELEVATION VALUE
ELEV_TYPE   .                                                KB :ELEVATION REFERENCE TYPE
~Curve Information Section
#MNEM       .UNIT                                      API CODE :CURVE DESCRIPTION
#------------------------------------------------------------------------------
DEPT        .FT                                                 :DEPTH     
ASFL        .OHMM                                               :          
CILD        .MMHO                                               :          
GR          .GAPI                                               :          
GR_NORM     .GAPI                                               :GammaRay Normalized
ILD         .OHMM                                               :          
SP          .MV                                                 :          
SP_NORM     .MV                                                 :SP Normalized
VSH_GR      .V/V                                                :Volume of Shale from GR
VSH_SP      .V/V                                                :Volume of Shale from SP
~A        DEPTH           ASFL           CILD             GR        GR_NORM            ILD             SP        SP_NORM         VSH_GR         VSH_SP
# ...
      9429.0000         0.9789        1237.92         79.569       85.02646         0.7796       -38.5927       1.176003              1              1
      9429.5000         0.9687       1223.727        79.0714       84.34734         0.7753       -38.6246       1.142258              1              1
      9430.0000         0.9584       1223.924         78.574       83.66847         0.7709       -38.6565       1.108505              1              1
      9430.5000         0.9482           1265        78.0226       82.91605         0.7666       -38.6885       1.074657              1              1
      9431.0000         0.9379       1305.832         77.231       81.83634         0.7934       -38.7204       1.040909              1              1
      9431.5000         0.9299       1254.277        75.9285       80.06047         0.8245       -38.7523        1.00716              1              1
      9432.0000         0.9275       1189.439         74.235       77.75185         0.8558       -38.7842      0.9734116      0.9521671              1
      9432.5000         0.9599        1131.98        72.5563       75.46339         0.8858       -38.8046      0.9511642      0.9034763              1
      9433.0000         0.9968       1086.918        71.1532       73.55045         0.9157       -38.8062      0.9477158      0.8627756              1
      9433.5000         1.0821        1047.07        70.0725       72.07681         0.9457       -38.8079      0.9441643      0.8314214              1
      9434.0000         1.1491       1013.373        68.6254       70.10392         0.9754       -38.8094      0.9408188      0.7894451              1
      9434.5000         1.2188       987.5459        67.5238       68.60181          1.003        -38.811      0.9373665      0.7574853              1
      9435.0000            1.2       991.4326        68.5396        69.9848         1.0306       -38.8127      0.9338226      0.7869107              1
      9435.5000         1.0893       1038.904        69.6375       71.47968         0.9991       -38.8143      0.9303703      0.8187165              1
      9436.0000         1.0476       1089.377        70.9094       73.21163         0.9575       -38.8159      0.9269218      0.8555666              1
      9436.5000         0.9979       1143.787        72.2377       75.02044         0.9139       -38.8175      0.9234734      0.8940519              1
      9437.0000         0.9552       1261.262        73.7301       77.05284         0.8656       -38.8192      0.9199257      0.9372945              1
      9437.5000         0.9151       1333.873         75.301       79.19222         0.8115       -38.8207      0.9165726      0.9828132              1
      9438.0000         0.8977       1386.805        76.6514       81.03113         0.7599       -38.8224      0.9130287              1              1
      9438.5000         0.8923       1402.229         77.579       82.29396         0.7273        -38.824      0.9095764              1              1
      9439.0000         0.8999       1392.414        78.4086       83.42324         0.7312       -38.8256      0.9061317              1              1
      9439.5000         0.9081       1366.586        76.6636       81.04444         0.7351       -38.8272      0.9026794              1              1
      9440.0000         0.9162        1340.76        74.3354       77.87099         0.7389       -38.8232      0.9048309       0.954702              1
      9440.5000         0.9244       1314.934        72.3455       75.15849         0.7428       -38.8184      0.9077835      0.8969892              1
      9441.0000         0.9317       1291.861        70.5981       72.77644         0.7467       -38.8137      0.9106331      0.8463072              1
      9441.5000          0.933       1270.658        70.8212       73.07932         0.7505       -38.8088      0.9136848      0.8527516              1
      9442.0000         0.9343        1249.48        72.5612        75.4491         0.7578        -38.804      0.9166374      0.9031723              1
      9442.5000         0.9386       1229.162        74.1737       77.64514         0.7683       -38.7992        0.91959      0.9498966              1
      9443.0000         0.9432       1212.658        74.5193       78.11495         0.7789       -38.7944      0.9225426      0.9598926              1
      9443.5000         0.9479       1196.154        73.2866        76.4342         0.7895       -38.7896      0.9254913      0.9241318              1
      9444.0000         0.9525       1179.648        72.0784       74.78683            0.8       -38.7848      0.9284401      0.8890816              1
      9444.5000         0.9621       1165.395        70.4364       72.54838         0.8106         -38.78      0.9313965      0.8414549              1
      9445.0000          0.973       1154.633         69.205       70.86939         0.8212       -38.7751      0.9344444      0.8057318              1
      9445.5000          0.984       1143.859        69.7281       71.58106         0.8309       -38.7703      0.9373932      0.8208737              1
      9446.0000         0.9871       1134.176        71.5367       74.04431         0.8402       -38.7656      0.9402504      0.8732832              1
      9446.5000         0.9847       1128.984        73.3453       76.50755         0.8494        -38.786      0.9179993      0.9256924              1
      9447.0000         0.9823       1123.789         74.828       78.52676         0.8586       -38.8077      0.8944511      0.9686544              1
      9447.5000         0.9799       1118.594        76.2593       80.47591         0.8679       -38.8294       0.870903              1              1
      9448.0000         0.9787       1113.447        77.6121       82.31808         0.8771       -38.8511      0.8473511              1              1
      9448.5000         0.9777       1113.293        78.8129       83.95316         0.8863       -38.8729      0.8237076              1              1
      9449.0000         0.9768       1113.137        78.0997       82.98028         0.8956       -38.8946      0.8001556              1              1
      9449.5000         0.9759       1112.982         76.698       81.06924         0.9048       -38.9163      0.7766037              1              1
      9450.0000          0.975       1112.826        75.2961       79.15795          0.914        -38.938      0.7530594      0.9820841              1
      9450.5000         0.9777       1112.672        74.0708       77.48728         0.9169       -38.9597      0.7295074      0.9465379              1
      9451.0000         0.9805       1112.516        72.9569       75.96841         0.9166       -38.9335      0.7538643      0.9142214              1
      9451.5000         0.9832       1112.316        72.6482       75.54667         0.9164       -38.9026      0.7829132      0.9052483              1
      9452.0000          0.986       1111.152        73.4189        76.5957         0.9161       -38.8716      0.8120613       0.927568              1
      9452.5000         0.9888       1109.986        74.4825       78.04383         0.9158       -38.8407      0.8411179      0.9583794              1
      9453.0000         0.9915       1108.822        75.5474       79.49375         0.9156       -38.8098      0.8701668      0.9892288              1
      9453.5000         0.9931       1107.658        76.7739       81.16384         0.9153       -38.7788      0.8993149              1              1
      9454.0000         0.9932       1106.494        78.1732       83.06938         0.9151       -38.7321      0.9441681              1              1
      9454.5000         0.9933       1105.328        80.8984       86.78156          0.914       -38.6295       1.044918              1              1
      9455.0000         0.9934       1105.277        83.5206       90.35342         0.9116       -38.5268       1.145775              1              1
