#------------------------------------------------------------------------------
# Created by    : vladimir.rabinovich
# Created on    : 09/19/2023 17:22:51
#------------------------------------------------------------------------------
~Version Information Section
VERS.           2.0     :   CWLS log ASCII Standard - VERSION 2.0
WRAP.           NO      :   One line per depth step
~Well Information Section
#MNEM       .UNIT                                         VALUE :DESCRIPTION
#------------------------------------------------------------------------------
STRT        .FT                                            3080 :START DEPTH
STOP        .FT                                           13004 :STOP DEPTH
STEP        .FT                                             0.5 :STEP      
NULL        .                                           -999.25 :NULL      
COMP        .                                     INEXCO OIL CO :COMPANY   
WELL        .                                     ST TR 00006-L :WELL      
FLD         .                                           WILDCAT :FIELD     
LOC         .                                                   :LOCATION  
CNTY        .                           HIGH ISLAND LARGE BLOCK :LOCATION  
STAT        .                                             TEXAS :STATE     
CTRY        .                                     UNITED STATES :COUNTRY   
SRVC        .                                                   :SERVICE COMPANY
DATE        .                             9/13/2023 11:19:15 AM :LOG DATE  
API         .                                    42708302350000 :API NUMBER
UWI         .                                    42708302350000 :UNIQUE WELL ID
XCOORD      .                                  1306008.37969423 :SURFACE X 
YCOORD      .                                  10751503.0860356 :SURFACE Y 
LAT         .                                          29.62091 :LATITUDE  
LON         .                                         -94.05279 :LONGITUDE 
ELEV        .FT                                              84 :ELEVATION VALUE
ELEV_TYPE   .                                                KB :ELEVATION REFERENCE TYPE
~Curve Information Section
#MNEM       .UNIT                                      API CODE :CURVE DESCRIPTION
#------------------------------------------------------------------------------
DEPT        .FT                                                 :DEPTH     
DT          .US/F                                               :          
GR          .GAPI                                               :          
GR_NORM     .GAPI                                               :GammaRay Normalized
ILD         .OHMM                                               :          
SFL         .OHMM                                               :          
SP          .MV                                                 :          
SP_NORM     .MV                                                 :SP Normalized
VSH_GR      .V/V                                                :Volume of Shale from GR
VSH_SP      .V/V                                                :Volume of Shale from SP
~A        DEPTH             DT             GR        GR_NORM            ILD            SFL             SP        SP_NORM         VSH_GR         VSH_SP
# ...
      8353.5000        78.4037        52.6446       75.83891         0.6711         0.7595       -40.5859     -0.2001724      0.9114662              1
      8354.0000        78.0836         51.824       74.07137         0.6777         0.7591       -40.2423      0.1299706      0.8738588              1
      8354.5000        78.3651        51.3301       72.98689         0.6853         0.7614       -39.9271      0.4317055      0.8507848              1
      8355.0000         78.639        52.0229       74.38346          0.694         0.7691       -39.2257       1.119648      0.8804992              1
      8355.5000         78.897        52.7465       75.84444         0.7042          0.781       -38.4348       1.897091      0.9115838              1
      8356.0000        79.1549        53.0558       76.43924         0.7123         0.7924       -37.8373       2.481129      0.9242392              1
      8356.5000         79.079        52.8604       75.97885         0.7159         0.8051       -38.0289        2.27607      0.9144437              1
      8357.0000        78.8427        52.4256       75.01788         0.7186          0.821       -38.5792       1.712307      0.8939975              1
      8357.5000        78.5098        52.0563       74.19391         0.7191         0.8304       -38.9794       1.298649      0.8764662              1
      8358.0000        78.1445        53.4236        77.0007         0.7155         0.8352       -39.2434       1.021191      0.9361851              1
      8358.5000        77.7234        55.1572       80.57336          0.708         0.8214       -39.4438      0.8073273              1              1
      8359.0000         77.281        55.4998       81.23777         0.6953         0.8048       -39.8369      0.4007721              1              1
      8359.5000        76.7997        55.5905       81.37551          0.682         0.7892         -40.23    -0.00579071              1              1
      8360.0000        76.2493        55.5112       81.15784         0.6652         0.7718       -40.5538     -0.3430481              1              1
      8360.5000        75.8683        55.0679       80.17913         0.6492         0.7559       -40.7007     -0.5034103              1              1
      8361.0000        76.2161        54.8552       79.68256         0.6364         0.7322       -40.7891     -0.6052704      0.9932459              1
      8361.5000        78.1953        55.0873       80.11594         0.6283         0.7115       -40.9526     -0.7822266              1              1
      8362.0000        80.8612        55.1553       80.20625         0.6227         0.7025       -41.0406     -0.8836899              1              1
      8362.5000        82.5482        55.9834        81.8857         0.6281         0.7189       -40.8232     -0.6797485              1              1
      8363.0000        83.4569        57.4836       84.97038         0.6458         0.7569       -40.2546     -0.1246109              1              1
      8363.5000        83.5043         59.141       88.38371         0.6725         0.8078       -39.7708      0.3457298              1              1
      8364.0000        82.6084        59.9266       89.97433         0.7021         0.8585       -39.4343      0.6687737              1              1
      8364.5000        80.6931        59.5676       89.17185         0.7345         0.8938       -39.1337      0.9559097              1              1
      8365.0000        78.6924        58.8377       87.59395         0.7625         0.9098       -38.9454       1.130753              1              1
      8365.5000         76.939        57.3426        84.4162          0.777         0.9188        -39.079      0.9836922              1              1
      8366.0000        76.0139         55.407       80.31745          0.781         0.9016       -39.4834       0.565834              1              1
      8366.5000        75.3286        55.1276       79.68142         0.7725         0.8699       -39.9233      0.1124687      0.9932217              1
      8367.0000        75.0023        55.3155        80.0224         0.7532         0.8306        -40.196      -0.173687              1              1
      8367.5000        75.1165        55.5516       80.46414         0.7243         0.7921       -40.4209     -0.4120445              1              1
      8368.0000        76.0817        55.6248       80.56532         0.6825         0.7723       -40.5788     -0.5788002              1              1
      8368.5000        77.0105        55.4332       80.11283         0.6551         0.7545       -40.8322     -0.8321991              1              1
      8369.0000        77.8652        55.2895       79.76054         0.6342         0.7415       -41.0899      -1.089901      0.9949051      0.9987851
      8369.5000          78.72        55.4487       80.04148          0.619         0.7284       -41.3405        -1.3405              1      0.9953986
      8370.0000         79.448        56.2817       81.73121         0.6072         0.7106       -41.4562        -1.4562              1      0.9938352
      8370.5000        80.0981        57.3275       83.86583         0.5974         0.6889       -41.4462      -1.446201              1      0.9939703
      8371.0000        80.7471        57.9435       85.10187         0.5907         0.6773       -41.2579        -1.2579              1      0.9965149
      8371.5000        81.3489        57.5251       84.20631         0.5884         0.6796       -40.6453     -0.6453018              1              1
      8372.0000        81.8534        56.5397       82.18359         0.5901          0.687       -40.0082   -0.008201599              1              1
      8372.5000        82.3574        55.4133       79.86612         0.5954          0.704       -39.4221      0.5778999      0.9971515              1
      8373.0000        82.7834        54.4531       77.89609         0.6075         0.7157       -38.9677       1.032299      0.9552359              1
      8373.5000        83.1902        53.9374       76.85542           0.62         0.7203       -38.8595       1.140499      0.9330941              1
      8374.0000        83.5093         53.676       76.34639         0.6328         0.7168       -38.5677       1.432301      0.9222636              1
      8374.5000          83.78        53.0334       75.04044         0.6436         0.7135       -37.8665       2.133499      0.8944775              1
      8375.0000        83.8505        51.5132       71.89963         0.6541         0.7165       -37.7934         2.2066      0.8276517              1
      8375.5000        83.5874        50.5743       69.97412         0.6605         0.7264       -38.1256       1.874401      0.7866834              1
      8376.0000        82.8695        52.4244       73.87975         0.6668         0.7337       -38.5159         1.4841       0.869782              1
      8376.5000        82.1265        53.7798        76.7511         0.6713         0.7406       -38.9714       1.028599      0.9308745              1
      8377.0000        81.3846        54.6746       78.65941         0.6756         0.7456       -39.3586      0.6413994      0.9714768              1
      8377.5000        80.6749        55.5769       80.58343         0.6791         0.7494        -39.491      0.5089989              1              1
      8378.0000        80.3197        55.9416       81.38346         0.6823         0.7468       -39.6236         0.3764              1              1
      8378.5000         80.106        56.1634       81.88472         0.6847         0.7405       -39.8392      0.1608009              1              1
      8379.0000        80.3667        56.2814       82.16895         0.6865         0.7316       -40.0639    -0.06389999              1              1
      8379.5000        80.6372        56.8861       83.47077         0.6871         0.7304       -40.3773     -0.3773003              1              1
