#------------------------------------------------------------------------------
# Created by    : vladimir.rabinovich
# Created on    : 09/19/2023 17:22:25
#------------------------------------------------------------------------------
~Version Information Section
VERS.           2.0     :   CWLS log ASCII Standard - VERSION 2.0
WRAP.           NO      :   One line per depth step
~Well Information Section
#MNEM       .UNIT                                         VALUE :DESCRIPTION
#------------------------------------------------------------------------------
STRT        .FT                                            3984 :START DEPTH
STOP        .FT                                           14348 :STOP DEPTH
STEP        .FT                                             0.5 :STEP      
NULL        .                                           -999.25 :NULL      
COMP        .                                  CNG PRODUCING CO :COMPANY   
WELL        .                               OCS G07292 ST00BP00 :WELL      
FLD         .                                           WILDCAT :FIELD     
LOC         .                                                   :LOCATION  
CNTY        .                           HIGH ISLAND LARGE BLOCK :LOCATION  
STAT        .                                             TEXAS :STATE     
CTRY        .                                     UNITED STATES :COUNTRY   
SRVC        .                                                   :SERVICE COMPANY
DATE        .                             9/13/2023 11:19:59 AM :LOG DATE  
API         .                                    42708402890000 :API NUMBER
UWI         .                                    42708402890000 :UNIQUE WELL ID
XCOORD      .                                  1158246.84135722 :SURFACE X 
YCOORD      .                                  10525039.0147689 :SURFACE Y 
LAT         .                                         28.993597 :LATITUDE  
LON         .                                        -94.508673 :LONGITUDE 
ELEV        .FT                                             101 :ELEVATION VALUE
ELEV_TYPE   .                                                KB :ELEVATION REFERENCE TYPE
~Curve Information Section
#MNEM       .UNIT                                      API CODE :CURVE DESCRIPTION
#------------------------------------------------------------------------------
DEPT        .FT                                                 :DEPTH     
CALX        .IN                                                 :          
DTL         .US/F                                               :          
GR          .GAPI                                               :          
GR_NORM     .GAPI                                               :GammaRay Normalized
ILD         .OHMM                                               :          
ILM         .OHMM                                               :          
LL3         .OHMM                                               :          
SP          .MV                                                 :          
SP_NORM     .MV                                                 :SP Normalized
VSH_GR      .V/V                                                :Volume of Shale from GR
VSH_SP      .V/V                                                :Volume of Shale from SP
~A        DEPTH           CALX            DTL             GR        GR_NORM            ILD            ILM            LL3             SP        SP_NORM         VSH_GR         VSH_SP
# ...
     12961.5000         9.0073       138.6572        52.9479       84.17271         0.2999         0.3221         0.4475       -43.1932      -1.434959              1      0.9795006
     12962.0000         9.0561       138.6396        53.1569       84.57081         0.2966         0.3201         0.4522       -43.4631      -1.704861              1      0.9756448
     12962.5000         9.0308       138.6008        53.1329       84.52509         0.2967         0.3186         0.4578       -43.1149      -1.356659              1      0.9806191
     12963.0000         9.0088       138.6624        53.6626       85.53406         0.2979          0.318         0.4463       -42.8548      -1.096561              1      0.9843348
     12963.5000         9.1043       139.8391        54.1121       86.39024         0.2996         0.3195         0.4405       -42.7349     -0.9766617              1      0.9860477
     12964.0000         9.1957       139.9614        51.9795       82.32814         0.3017         0.3226         0.4431       -42.7544     -0.9961586              1      0.9857692
     12964.5000         9.2584       139.6069        49.7094       78.00415         0.3047         0.3256         0.4464       -43.1029      -1.344662      0.9575351      0.9807906
     12965.0000         9.2947       138.1667        48.5376       75.77216         0.3072         0.3286         0.4529       -43.3688      -1.610561      0.9100459       0.976992
     12965.5000         9.3029       135.6748        48.1702       75.07235         0.3085         0.3302          0.489       -43.2885      -1.530262      0.8951564      0.9781391
     12966.0000          9.278       132.3708        48.5464       75.78889         0.3098         0.3309         0.4707       -42.9621      -1.203861       0.910402       0.982802
     12966.5000         9.2367       132.3884        49.0086       76.66928         0.3099         0.3314         0.4595       -43.0284      -1.270161      0.9291337      0.9818549
     12967.0000         9.2356         133.99        49.2368       77.10395         0.3083         0.3316          0.459       -43.1288       -1.37056      0.9383819      0.9804206
     12967.5000         9.2154       135.8364        49.3665       77.35101         0.3074         0.3311         0.4666       -42.8567      -1.098461      0.9436384      0.9843077
     12968.0000         9.1295       137.8691        49.9985        78.5548         0.3059         0.3299         0.4632        -42.683     -0.9247589      0.9692511      0.9867892
     12968.5000         9.0929       139.7759        51.4442       81.30853         0.3055         0.3294         0.4582       -42.9949       -1.23666              1      0.9823334
     12969.0000         9.0797       140.8303         52.881        84.0453          0.306         0.3293         0.4514       -43.0265      -1.268261              1       0.981882
     12969.5000         9.0691       141.5781        53.2598       84.76682         0.3069         0.3292         0.4374       -42.9816      -1.223362              1      0.9825234
     12970.0000         9.0556       142.4822        52.0553       82.47253         0.3083         0.3291         0.4411       -42.9631      -1.204861              1      0.9827877
     12970.5000         9.0168       143.8367        50.5906       79.68262         0.3096         0.3304         0.4505       -42.5827     -0.8244591      0.9932472       0.988222
     12971.0000         8.9856       144.9036        50.1714       78.88412         0.3121         0.3323         0.4581       -42.5745     -0.8162613       0.976258      0.9883391
     12971.5000         8.9774       144.8608        52.2674       82.87653         0.3149         0.3344         0.4614       -42.8285      -1.070259              1      0.9847106
     12972.0000         8.9713        141.259        53.6462       85.50282         0.3192         0.3368         0.4584       -42.7797      -1.021461              1      0.9854077
     12972.5000         8.9643       135.0947        52.8658       84.01633         0.3237         0.3384         0.4604       -42.7834      -1.025162              1      0.9853548
     12973.0000         8.9661       133.7732        52.1537       82.65996         0.3241         0.3385         0.4622        -42.988      -1.229759              1       0.982432
     12973.5000         8.9772       132.7593        51.6222       81.64758         0.3222         0.3362         0.4673       -42.4375     -0.6792603              1      0.9902963
     12974.0000         8.9926       131.2888        50.5729        79.6489         0.3195         0.3329         0.4806       -42.5019       -0.74366      0.9925297      0.9893763
     12974.5000         9.0095       130.8271        48.8962       76.45518         0.3168         0.3297         0.4656       -42.7322     -0.9739609      0.9245784      0.9860862
     12975.0000         9.0225       132.9307        48.4246        75.5569         0.3122         0.3255         0.4504       -42.7284     -0.9701614       0.905466      0.9861405
     12975.5000         9.0258       135.3218        48.3337       75.38377          0.309         0.3213         0.4543       -42.7441     -0.9858589      0.9017823      0.9859163
     12976.0000         9.0415       137.9045        47.6285       74.04053         0.3062         0.3175         0.4467       -42.7266     -0.9683609      0.8732027      0.9861663
     12976.5000         9.0595       140.0583        46.9802       72.80568         0.3039         0.3164         0.4359       -43.6041       -1.84586      0.8469294      0.9736306
     12977.0000         9.0888       141.9426        47.1677       73.16281         0.3016         0.3152         0.4462        -44.186      -2.427761      0.8545279      0.9653177
     12977.5000         9.1033       142.8303        50.6714       79.83652         0.2996         0.3135          0.453       -43.7051      -1.946861      0.9965217      0.9721877
     12978.0000         9.1052       139.4734        53.1007       84.46376         0.2981         0.3129         0.4432       -43.0739      -1.315659              1      0.9812049
     12978.5000         9.0987       138.0256        53.5427       85.30567         0.2971          0.312         0.4445       -43.4855      -1.727261              1      0.9753249
     12979.0000         9.0876       137.8833        52.2623        82.8668         0.2968         0.3109         0.4506       -43.3112      -1.552959              1      0.9778149
     12979.5000         9.0755       138.8376        50.4644       79.44225         0.2945         0.3094         0.4544       -43.2544      -1.496159      0.9881329      0.9786263
     12980.0000         9.0782       141.3247        49.2548       77.13824         0.2913         0.3067         0.4525        -43.137      -1.378761      0.9391114      0.9803034
     12980.5000         9.1198       144.1748        49.0954       76.83463          0.289         0.3046         0.4531       -42.5978     -0.8395615      0.9326516      0.9880063
     12981.0000         9.1343       144.8657        49.3419       77.30414         0.2874         0.3034         0.4298       -42.4189     -0.6606598      0.9426413       0.990562
     12981.5000         9.1251       143.0295        49.7813       78.14111         0.2867         0.3024         0.4252       -42.5025     -0.7442589       0.960449      0.9893677
     12982.0000         9.1199       143.2314        50.3141       79.15594         0.2862         0.3017         0.4243       -42.7369     -0.9786606      0.9820414      0.9860191
     12982.5000         9.1194       145.6199        50.9972       80.45709          0.286         0.3012         0.4241       -42.7949      -1.036659              1      0.9851906
     12983.0000         9.1189       145.5469        51.8861       82.15025         0.2855         0.3008         0.4292        -42.493     -0.7347603              1      0.9895034
     12983.5000         9.1463        142.863        52.5136       83.34548         0.2852         0.2999         0.4376       -42.3523      -0.594059              1      0.9915134
