#------------------------------------------------------------------------------
# Created by    : vladimir.rabinovich
# Created on    : 09/19/2023 17:22:53
#------------------------------------------------------------------------------
~Version Information Section
VERS.           2.0     :   CWLS log ASCII Standard - VERSION 2.0
WRAP.           NO      :   One line per depth step
~Well Information Section
#MNEM       .UNIT                                         VALUE :DESCRIPTION
#------------------------------------------------------------------------------
STRT        .FT                                             394 :START DEPTH
STOP        .FT                                            7700 :STOP DEPTH
STEP        .FT                                             0.5 :STEP      
NULL        .                                           -999.25 :NULL      
COMP        .                                   MARATHON OIL CO :COMPANY   
WELL        .                                     ST TR 00248-L :WELL      
FLD         .                                           WILDCAT :FIELD     
LOC         .                                                   :LOCATION  
CNTY        .                             GALVESTON LARGE BLOCK :LOCATION  
STAT        .                                             TEXAS :STATE     
CTRY        .                                     UNITED STATES :COUNTRY   
SRVC        .                                                   :SERVICE COMPANY
DATE        .                             9/13/2023 11:19:42 AM :LOG DATE  
API         .                                    42706000210000 :API NUMBER
UWI         .                                    42706000210000 :UNIQUE WELL ID
XCOORD      .                                  969160.596945075 :SURFACE X 
YCOORD      .                                  10521676.5956168 :SURFACE Y 
LAT         .                                        28.9764138 :LATITUDE  
LON         .                                       -95.0998408 :LONGITUDE 
ELEV        .FT                                              10 :ELEVATION VALUE
ELEV_TYPE   .                                                KB :ELEVATION REFERENCE TYPE
~Curve Information Section
#MNEM       .UNIT                                      API CODE :CURVE DESCRIPTION
#------------------------------------------------------------------------------
DEPT        .FT                                                 :DEPTH     
LAT         .OHMM                                               :          
LN          .OHMM                                               :          
SN          .OHMM                                               :          
SP          .MV                                                 :          
SP_NORM     .MV                                                 :SP Normalized
VSH_SP      .V/V                                                :Volume of Shale from SP
~A        DEPTH            LAT             LN             SN             SP        SP_NORM         VSH_SP
# ...
      1838.0000         0.7195         0.4372         0.9668        -99.152      -10.39546      0.7815009
      1838.5000         0.7322         0.4409         0.9723       -99.1111      -10.34368      0.7827051
      1839.0000         0.7448         0.4446         0.9814       -98.5641      -9.785805       0.795679
      1839.5000         0.7575         0.4483         0.9905       -97.4146       -8.62542      0.8226647
      1840.0000         0.7591          0.452         0.9995       -96.2654      -7.465347      0.8496431
      1840.5000         0.7435         0.4557         1.0086       -95.1158      -6.304863      0.8766311
      1841.0000          0.728         0.4594         1.0176       -93.9663      -5.144485      0.9036166
      1841.5000         0.7124         0.4631         1.0267        -92.817      -3.984306      0.9305975
      1842.0000         0.6968         0.4668         1.0357       -91.6675      -2.823929      0.9575831
      1842.5000         0.6813         0.4705         1.0448       -90.5143      -1.659843      0.9846548
      1843.0000         0.6657         0.4742         1.0539       -89.3341     -0.4687653              1
      1843.5000           0.65         0.4779         1.0629       -90.1547      -1.278488      0.9935235
      1844.0000         0.6338         0.4801          1.072       -92.2126      -3.325508      0.9459184
      1844.5000         0.6177         0.4796         1.0776       -94.2712       -5.37323       0.898297
      1845.0000         0.6015         0.4791         1.0824       -96.3292      -7.420349      0.8506895
      1845.5000         0.5853         0.4787         1.0872       -98.0848       -9.16507      0.8101147
      1846.0000         0.5691         0.4782         1.0921       -99.7924      -10.86179      0.7706562
      1846.5000          0.553         0.4777         1.0969         -101.5      -12.55851      0.7311974
      1847.0000         0.5457         0.4772         1.1017      -103.2075      -14.25513      0.6917412
      1847.5000         0.5385         0.4767         1.1065       -104.915      -15.95176      0.6522847
      1848.0000         0.5313         0.4763         1.1113      -106.6227      -17.64858      0.6128237
      1848.5000         0.5241         0.4758         1.1162       -107.605         -18.62      0.5902325
      1849.0000         0.5169         0.4753          1.121      -107.3812      -18.38532      0.5956902
      1849.5000         0.5097         0.4748         1.1258      -107.1575      -18.15074      0.6011456
      1850.0000         0.5025         0.4743         1.1306      -106.9337      -17.91606      0.6066032
      1850.5000         0.4953         0.4739         1.1354      -105.9888      -16.96028      0.6288307
      1851.0000         0.4881         0.4734         1.1366      -104.9995       -15.9601      0.6520907
      1851.5000         0.4794         0.4729         1.1369        -104.01      -14.95972      0.6753553
      1852.0000         0.4689         0.4724         1.1373      -103.0209      -13.95974      0.6986107
      1852.5000         0.4585         0.4719         1.1377      -102.0314      -12.95937      0.7218752
      1853.0000          0.448         0.4715          1.138      -103.0764      -13.99348       0.697826
      1853.5000         0.4376          0.471         1.1384      -104.4771       -15.3833      0.6655046
      1854.0000         0.4271         0.4705         1.1388      -105.8782      -16.77352      0.6331739
      1854.5000         0.4167         0.4701         1.1391      -106.7482      -17.63264      0.6131943
      1855.0000         0.4062         0.4696         1.1395       -107.141      -18.01456      0.6043125
      1855.5000         0.4025         0.4691         1.1398      -107.5338      -18.39648      0.5954306
      1856.0000         0.4079         0.4686         1.1402       -107.701       -18.5528      0.5917953
      1856.5000         0.4133         0.4682         1.1406      -107.2025      -18.04343      0.6036413
      1857.0000         0.4187         0.4677         1.1409      -106.7041      -17.53415      0.6154849
      1857.5000         0.4242         0.4672         1.1413      -106.2054      -17.02457      0.6273357
      1858.0000         0.4296         0.4668         1.1371       -105.707      -16.51529      0.6391793
      1858.5000         0.4363         0.4663         1.1307      -105.2085      -16.00591      0.6510253
      1859.0000         0.4435         0.4658         1.1244        -104.71      -15.49653      0.6628714
      1859.5000         0.4508         0.4653         1.1181      -104.2114      -14.98705      0.6747197
      1860.0000          0.458         0.4649         1.1118      -103.7129      -14.47767      0.6865658
      1860.5000         0.4653         0.4644         1.1055      -103.2144      -13.96829      0.6984118
      1861.0000         0.4725         0.4639         1.0991      -103.0564      -13.79941      0.7023394
      1861.5000         0.4798         0.4641         1.0928      -102.9182      -13.65034      0.7058061
      1862.0000          0.487         0.4645         1.0865        -102.78      -13.50126       0.709273
      1862.5000         0.4943         0.4648         1.0802      -102.6418      -13.35218        0.71274
      1863.0000         0.5015         0.4652         1.0739      -102.5037       -13.2032      0.7162046
      1863.5000         0.5074         0.4656         1.0675      -102.3655      -13.05412      0.7196715
      1864.0000         0.5078         0.4659         1.0612      -102.2499      -12.92764       0.722613
      1864.5000         0.5081         0.4663         1.0559      -102.4413      -13.10816      0.7184148
      1865.0000         0.5085         0.4666          1.051      -102.6328      -13.28878      0.7142144
      1865.5000         0.5089          0.467         1.0461      -102.8243      -13.46941      0.7100138
      1866.0000         0.5092         0.4674         1.0412      -103.0157      -13.64993      0.7058157
      1866.5000         0.5096         0.4677         1.0363      -103.2073      -13.83064      0.7016129
      1867.0000           0.51         0.4681         1.0314      -103.3987      -14.01116      0.6974148
      1867.5000         0.5103         0.4685         1.0265      -103.5902      -14.19179      0.6932142
      1868.0000         0.5107         0.4688         1.0216      -103.7816      -14.37231      0.6890161
      1868.5000          0.511         0.4692         1.0167      -103.9731      -14.55293      0.6848157
      1869.0000         0.5114         0.4695         1.0118      -104.1646      -14.73354      0.6806152
      1869.5000         0.5118         0.4699         1.0069      -104.3356      -14.89367      0.6768914
      1870.0000         0.5121         0.4703          1.002      -104.5042      -15.05139      0.6732234
      1870.5000         0.5061         0.4704         0.9971      -104.6726      -15.20891      0.6695603
      1871.0000         0.4988         0.4701         0.9922      -104.8412      -15.36663      0.6658923
      1871.5000         0.4914         0.4697         0.9881      -105.0098      -15.52435      0.6622244
      1872.0000         0.4841         0.4693          0.984      -105.1783      -15.68197      0.6585588
      1872.5000         0.4767         0.4689         0.9799      -105.3468      -15.83959      0.6548932
      1873.0000         0.4693         0.4685         0.9758      -105.5154      -15.99731      0.6512253
      1873.5000          0.462         0.4681         0.9717       -105.684      -16.15503      0.6475574
      1874.0000         0.4546         0.4677         0.9676      -106.0488      -16.50895      0.6393268
      1874.5000         0.4472         0.4673         0.9635      -106.4415      -16.89077      0.6304472
      1875.0000         0.4376         0.4669         0.9594      -106.8342      -17.27259      0.6215677
      1875.5000         0.4254         0.4666         0.9553      -107.1071      -17.53462      0.6154739
