#------------------------------------------------------------------------------
# Created by    : vladimir.rabinovich
# Created on    : 09/19/2023 17:20:32
#------------------------------------------------------------------------------
~Version Information Section
VERS.           2.0     :   CWLS log ASCII Standard - VERSION 2.0
WRAP.           NO      :   One line per depth step
~Well Information Section
#MNEM       .UNIT                                         VALUE :DESCRIPTION
#------------------------------------------------------------------------------
STRT        .FT                                             642 :START DEPTH
STOP        .FT                                           11989 :STOP DEPTH
STEP        .FT                                             0.5 :STEP      
NULL        .                                           -999.25 :NULL      
COMP        .                       CORPUS CHRISTI OIL & GAS CO :COMPANY   
WELL        .                               OCS G05177 ST00BP00 :WELL      
FLD         .                              GALVESTON BLOCK 0151 :FIELD     
LOC         .                                                   :LOCATION  
CNTY        .                             GALVESTON LARGE BLOCK :LOCATION  
STAT        .                                             TEXAS :STATE     
CTRY        .                                     UNITED STATES :COUNTRY   
SRVC        .                                                   :SERVICE COMPANY
DATE        .                             9/13/2023 11:19:27 AM :LOG DATE  
API         .                                    42706401010000 :API NUMBER
UWI         .                                    42706401010000 :UNIQUE WELL ID
XCOORD      .                                   1130272.6689428 :SURFACE X 
YCOORD      .                                  10609756.0111422 :SURFACE Y 
LAT         .                                         29.225567 :LATITUDE  
LON         .                                        -94.599775 :LONGITUDE 
ELEV        .FT                                              83 :ELEVATION VALUE
ELEV_TYPE   .                                                KB :ELEVATION REFERENCE TYPE
~Curve Information Section
#MNEM       .UNIT                                      API CODE :CURVE DESCRIPTION
#------------------------------------------------------------------------------
DEPT        .FT                                                 :DEPTH     
ASN         .OHMM                                               :          
CILD        .MMHO                                               :          
DT          .US/F                                               :          
ILD         .OHMM                                               :          
RHOB        .G/CC                                               :          
SP          .MV                                                 :          
SP_NORM     .MV                                                 :SP Normalized
VSH_SP      .V/V                                                :Volume of Shale from SP
~A        DEPTH            ASN           CILD             DT            ILD           RHOB             SP        SP_NORM         VSH_SP
# ...
      8194.0000         0.6737       2634.043         86.207         0.3694        -999.25      -119.0845      -69.65227    0.004967608
      8194.5000         0.6774       2563.453        87.3027         0.3734        -999.25      -118.4465      -69.02174     0.01397509
      8195.0000         0.6736       2502.094        89.0171         0.3773        -999.25      -117.8077      -68.39043     0.02299391
      8195.5000         0.6698       2440.043        89.9581         0.3813        -999.25      -117.1689      -67.75909     0.03201294
      8196.0000          0.666       2377.691         90.145         0.3852        -999.25      -116.3491      -66.94677     0.04361758
      8196.5000         0.6662       2238.496        88.5919         0.3892        -999.25      -115.3767      -65.98185     0.05740215
      8197.0000         0.6674       2138.219        88.1409         0.3864        -999.25      -114.4043      -65.01692     0.07118683
      8197.5000         0.6686       2516.391        88.6607         0.3813        -999.25       -112.952      -63.57211     0.09182706
      8198.0000         0.6698       2603.961        90.7996         0.3763        -999.25       -111.066      -61.69358      0.1186631
      8198.5000         0.6706       2668.895         92.514         0.3713        -999.25      -109.1801      -59.81516      0.1454978
      8199.0000         0.6702       2719.082        95.6205         0.3662        -999.25      -107.1506      -57.79313      0.1743839
      8199.5000         0.6698       2744.301         98.263         0.3608        -999.25      -105.0476      -55.69761      0.2043199
      8200.0000         0.6695       2757.406       101.2149          0.352        -999.25       -102.941      -53.59849      0.2343073
      8200.5000         0.6691       2743.207       100.4544         0.3431        -999.25      -100.8381      -51.50306       0.264242
      8201.0000          0.663       2710.988        99.5393         0.3457        -999.25       -96.4263      -47.09874      0.3271609
      8201.5000         0.6563        2678.77         99.707         0.3682        -999.25       -73.5734      -24.25332       0.653524
      8202.0000         0.6496       2567.324       101.4214         0.3907        -999.25       -68.1028      -18.79019      0.7315687
      8202.5000         0.6461       2429.715       106.2706         0.4132        -999.25       -65.4409      -16.13577       0.769489
      8203.0000         0.6465       2327.949       110.4365         0.4507        -999.25       -63.7498      -14.45215      0.7935407
      8203.5000         0.6592       2242.566       111.0536         0.4954        -999.25        -62.316      -13.02583      0.8139168
      8204.0000         0.6767        2157.18        108.901         0.5402        -999.25       -60.8785       -11.5958      0.8343457
      8204.5000         0.7139       2071.797       106.5938          0.585        -999.25       -58.8932      -9.617977      0.8626003
      8205.0000         0.7713       1986.412       107.9531         0.6297        -999.25       -56.7976      -7.529854      0.8924307
      8205.5000         0.8469        1862.01       103.9394         0.6529        -999.25       -53.1873      -3.927032      0.9438995
      8206.0000          0.909       1762.129       101.3161         0.6756        -999.25       -50.8417      -1.588909      0.9773013
      8206.5000         0.9732       1575.475        98.8103         0.6984        -999.25       -50.4463      -1.200981      0.9828431
      8207.0000         0.9907       1482.941        96.3435         0.7031        -999.25       -50.7829      -1.545059      0.9779277
      8207.5000         1.0047         1419.4        92.8293         0.6994        -999.25       -51.5274      -2.297035      0.9671852
      8208.0000         1.0166       1364.941        91.4436         0.6957        -999.25       -52.2719      -3.049011      0.9564427
      8208.5000         1.0284       1332.576        91.6046          0.692        -999.25       -53.0164      -3.800987      0.9457002
      8209.0000         1.0332       1324.584         93.467         0.6871        -999.25       -53.7609      -4.552963      0.9349577
      8209.5000         1.0074       1351.291        94.7108         0.6785        -999.25       -54.8436      -5.643143      0.9193837
      8210.0000         0.9553       1378.047        95.9545           0.67        -999.25       -56.2811       -7.08812      0.8987411
      8210.5000         0.9061       1404.756       100.2919         0.6614        -999.25       -57.7186      -8.533096      0.8780986
      8211.0000         0.8607       1431.512       101.3809         0.6529        -999.25       -60.7314      -11.55337      0.8349518
      8211.5000         0.8522       1458.717       101.6966         0.6459        -999.25       -64.0439      -14.87335      0.7875236
      8212.0000         0.8445       1487.758       101.6884         0.6345        -999.25         -66.48      -17.31693      0.7526153
      8212.5000         0.8393       1516.797       101.0921         0.6116        -999.25       -66.9487       -17.7931      0.7458128
      8213.0000         0.8342       1554.328       100.6344         0.5887        -999.25       -67.4171      -18.26898      0.7390146
      8213.5000          0.829       1637.727       100.4845         0.5658        -999.25       -69.3564      -20.21576      0.7112035
      8214.0000         0.8239       1747.236       100.4924         0.5434        -999.25       -72.5697      -23.43653      0.6651924
      8214.5000         0.8201       1845.131       100.6534         0.5216        -999.25        -75.191      -26.06531      0.6276384
      8215.0000         0.8162        1934.09        100.969         0.4998        -999.25       -77.1359      -28.01769      0.5997473
      8215.5000         0.8144       2012.127       102.2128          0.478        -999.25       -78.9465      -29.83577      0.5737748
      8216.0000         0.8229       2028.088       103.1472         0.4628        -999.25       -79.9648      -30.86154      0.5591209
      8216.5000         0.8314       2044.072       103.9269         0.4572        -999.25       -80.0935      -30.99771      0.5571755
      8217.0000         0.8399       2007.709       103.9345         0.4515        -999.25       -79.1763      -30.08799      0.5701716
      8217.5000         0.8496       1959.656       103.7691         0.4584        -999.25        -78.259      -29.17817       0.583169
      8218.0000         0.8771       1911.652       103.0194         0.4771        -999.25       -77.1414      -28.06805      0.5990279
      8218.5000         0.9045       1809.785       100.8602         0.4982        -999.25       -75.6046      -26.53872      0.6208754
      8219.0000          0.932       1700.275        96.0714         0.5304        -999.25       -75.5862      -26.52779      0.6210315
      8219.5000         0.9694       1697.793        91.5921         0.5626        -999.25       -79.7866      -30.73567       0.560919
      8220.0000         1.0083       1746.045        85.8753         0.5255        -999.25       -84.7645      -35.72105      0.4896992
      8220.5000          1.032       1794.348        84.9519         0.4761        -999.25        -95.816      -46.78003      0.3317139
      8221.0000         0.9995       1902.121        88.0534         0.4164        -999.25      -108.5881       -59.5596      0.1491486
      8221.5000         0.8256       2022.652        90.6893         0.3581        -999.25      -120.5587      -71.53768              0
      8222.0000         0.6184       2258.949        95.0266         0.3057        -999.25      -123.1947      -74.18116              0
      8222.5000         0.5905       3922.555        98.1413         0.2566        -999.25      -127.3528      -78.34673              0
      8223.0000         0.5671       3995.625        99.5424         0.2101        -999.25      -128.2737      -79.27511              0
