#------------------------------------------------------------------------------
# Created by    : vladimir.rabinovich
# Created on    : 09/19/2023 17:21:03
#------------------------------------------------------------------------------
~Version Information Section
VERS.           2.0     :   CWLS log ASCII Standard - VERSION 2.0
WRAP.           NO      :   One line per depth step
~Well Information Section
#MNEM       .UNIT                                         VALUE :DESCRIPTION
#------------------------------------------------------------------------------
STRT        .FT                                          2542.5 :START DEPTH
STOP        .FT                                            8214 :STOP DEPTH
STEP        .FT                                             0.5 :STEP      
NULL        .                                           -999.25 :NULL      
COMP        .                          SEAGULL ENERGY E & P INC :COMPANY   
WELL        .                               OCS G12505 ST00BP00 :WELL      
FLD         .                              GALVESTON BLOCK 0357 :FIELD     
LOC         .                                                   :LOCATION  
CNTY        .                             GALVESTON LARGE BLOCK :LOCATION  
STAT        .                                             TEXAS :STATE     
CTRY        .                                     UNITED STATES :COUNTRY   
SRVC        .                                                   :SERVICE COMPANY
DATE        .                             9/13/2023 11:19:54 AM :LOG DATE  
API         .                                    42706403610000 :API NUMBER
UWI         .                                    42706403610000 :UNIQUE WELL ID
XCOORD      .                                  1003713.76055251 :SURFACE X 
YCOORD      .                                  10412171.7759297 :SURFACE Y 
LAT         .                                          28.67696 :LATITUDE  
LON         .                                        -94.986081 :LONGITUDE 
ELEV        .FT                                              96 :ELEVATION VALUE
ELEV_TYPE   .                                                KB :ELEVATION REFERENCE TYPE
~Curve Information Section
#MNEM       .UNIT                                      API CODE :CURVE DESCRIPTION
#------------------------------------------------------------------------------
DEPT        .FT                                                 :DEPTH     
AT10        .OHMM                                               :          
AT20        .OHMM                                               :          
AT30        .OHMM                                               :          
AT60        .OHMM                                               :          
AT90        .OHMM                                               :          
DCAL        .IN                                                 :          
DPSS        .V/V                                                :          
DTLF        .US/FT                                              :          
DTLN        .US/FT                                              :          
GR          .GAPI                                               :          
GR_NORM     .GAPI                                               :GammaRay Normalized
NPSS        .V/V                                                :Neutron Porosity Sandstone
SP          .MV                                                 :          
SP_NORM     .MV                                                 :SP Normalized
TENS        .LB                                                 :          
VSH_GR      .V/V                                                :Volume of Shale from GR
VSH_SP      .V/V                                                :Volume of Shale from SP
~A        DEPTH           AT10           AT20           AT30           AT60           AT90           DCAL           DPSS           DTLF           DTLN             GR        GR_NORM           NPSS             SP        SP_NORM           TENS         VSH_GR         VSH_SP
# ...
      5647.5000         0.8496         0.7402         0.7017         0.6426         0.6301           1.04         0.1852            110       110.6122        75.5465       55.39072         0.3732       -19.6603      -22.28361           3000      0.4763982      0.6816627
      5648.0000         0.8332         0.7203         0.6681            0.6         0.5897           0.88         0.2059       110.4082       111.0204        73.3564       52.76297         0.3768       -24.4436         -27.07           3000      0.4204887      0.6132857
      5648.5000          0.817         0.6944         0.6299         0.5695         0.5597           0.76         0.2412       110.8163       111.4286        72.7663       52.05523         0.3756       -27.8337       -30.4632           3000      0.4054304      0.5648115
      5649.0000         0.7937         0.6873            0.6         0.5597         0.5501           0.64         0.2628       110.8163       111.4286        73.9762       53.50749         0.3708       -26.2238      -28.85639           3000      0.4363295      0.5877658
      5649.5000         0.7864         0.6674            0.6         0.5646         0.5549           0.56         0.2724       110.8163       111.4286        76.1861       56.15975         0.3708       -23.6139      -26.24958           3000      0.4927606       0.625006
      5650.0000          0.793         0.6672         0.6176            0.6         0.5897           0.56           0.27       110.8163       111.4286         76.796       56.89202         0.3708        -22.804      -25.44278           3000      0.5083408      0.6365317
      5650.5000         0.8159         0.7063         0.6481         0.6117            0.6           0.64         0.2628        110.204       110.8158        76.7941       56.89011         0.3684       -23.2059      -25.84777       2996.289      0.5083003      0.6307461
      5651.0000         0.8485         0.7584         0.6866         0.6419         0.6296           0.68         0.2496       109.1837       109.7959        75.7842       55.67862         0.3647       -19.8192      -22.46417       2990.115      0.4825238      0.6790833
      5651.5000         0.8739         0.7859         0.7189         0.6801         0.6671           0.84         0.2302       108.1633       108.7755        75.7743       55.66711         0.3622       -15.8972      -18.54526       2983.954       0.482279      0.7350677
      5652.0000            0.9         0.8159         0.7517         0.7254         0.7126              1         0.2082       107.1429       107.7551        75.9644       55.89562         0.3574       -11.7709      -14.42205       2977.805      0.4871409      0.7939707
      5652.5000            0.9         0.8239         0.7789         0.7652         0.7517            1.2         0.1837       106.7347       107.3469        74.3545       53.96412          0.355           -8.6      -11.25425       2971.669       0.446045      0.8392251
      5653.0000         0.8739         0.8159            0.8         0.7929         0.7789           1.36         0.1587       106.3265       106.9388        72.5446       51.79262         0.3693             -6      -8.657341       2965.545       0.399843      0.8763237
      5653.5000         0.8739          0.832         0.8159         0.8079         0.7929           1.48         0.1445       106.3265       107.1429        74.9347       54.66113         0.3908           -4.8      -7.460434       2959.435       0.460875      0.8934224
      5654.0000         0.8653         0.8485         0.8402          0.832         0.8159            1.6         0.1373       106.5306       107.7551        79.3248       59.92962         0.4027           -4.2      -6.863527       2953.336      0.5729706      0.9019496
      5654.5000         0.8653         0.8402         0.8402          0.832         0.8159           1.76         0.1444       106.7347       108.1633        83.8704       65.38473         0.4027           -3.6      -6.266621        2947.25      0.6890367      0.9104769
      5655.0000         0.8569         0.8402         0.8159         0.8079         0.7929           1.92         0.1646       107.3469       108.7755        84.2602       65.85286         0.4026             -3      -5.669715       2941.177       0.698997      0.9190041
      5655.5000         0.8239         0.8402            0.8         0.7929         0.7789           1.88         0.1849       108.5714       109.7959        81.8756       62.99173         0.3954           -2.4      -5.072809       2933.905      0.6381219      0.9275313
      5656.0000         0.8079         0.8239         0.7789          0.772         0.7584           1.76         0.2057       110.4034       111.0085        81.0742       62.03043         0.3833             -2      -4.675902       2927.858      0.6176686      0.9332014
      5656.5000         0.7859            0.8          0.772         0.7652         0.7517           1.68         0.2278       111.8134       112.4179        80.8669       61.78204         0.3868           -1.2      -3.878996       2921.824      0.6123838      0.9445858
      5657.0000          0.772          0.772         0.7517          0.745         0.7319           1.64         0.2376       113.6232       114.2271        82.6466       63.91807         0.4024           -0.6       -3.28209       2915.802      0.6578313       0.953113
      5657.5000         0.7517         0.7517         0.7319         0.7254         0.7126            1.6         0.2351       115.4293       116.0326        85.8223       67.72929         0.4095            0.2      -2.485183       2909.793       0.738921      0.9644974
      5658.0000         0.7384         0.7384         0.7126         0.7063         0.6933           1.68         0.2167       117.0309       117.6336        89.0043       71.54807         0.4155            1.4      -1.288277       2903.795      0.8201718      0.9815961
      5658.5000         0.7126         0.7126         0.6933         0.6866         0.6801           1.72         0.1959       118.6293       119.2314             95       78.74328         0.4226            2.4     -0.2913704        2897.81      0.9732612      0.9958376
      5659.0000         0.6933         0.6933         0.6801         0.6735         0.6607            1.8         0.1824       120.2196       120.8078           96.2       80.18366         0.4385              3       0.305536       2891.837              1              1
      5659.5000         0.6735         0.6735         0.6607         0.6543         0.6419           1.76         0.1861       121.3863       121.9745           94.2       77.78404         0.4543              3      0.3024423       2885.876       0.952852              1
      5660.0000         0.6735         0.6735         0.6607         0.6543         0.6419           1.68         0.1984       122.1608        122.749           92.4       75.62443         0.4567              3      0.2993488       2879.927      0.9069027              1
      5660.5000         0.6735         0.6735         0.6543         0.6481         0.6357           1.68         0.2118       122.7451       123.3333           90.4       73.22482         0.4506            2.8     0.09625506       2877.551      0.8558471              1
      5661.0000         0.6735         0.6735         0.6543         0.6481         0.6357            1.8         0.2155        122.549       123.1373           92.2       75.38519         0.4433            2.6     -0.1068387       2877.551      0.9018124      0.9984737
      5661.5000         0.6735         0.6735         0.6543         0.6481         0.6357           1.92          0.218       122.7451       123.3333           98.2       82.58556          0.442            2.4      -0.309932       2877.551              1      0.9955724
      5662.0000         0.6671         0.6671         0.6543         0.6481         0.6357           1.96         0.2229       123.1373       123.7255          104.2       89.78595         0.4469              2     -0.7130258       2877.551              1      0.9898139
