#------------------------------------------------------------------------------
# Created by    : vladimir.rabinovich
# Created on    : 09/19/2023 17:20:40
#------------------------------------------------------------------------------
~Version Information Section
VERS.           2.0     :   CWLS log ASCII Standard - VERSION 2.0
WRAP.           NO      :   One line per depth step
~Well Information Section
#MNEM       .UNIT                                         VALUE :DESCRIPTION
#------------------------------------------------------------------------------
STRT        .FT                                             546 :START DEPTH
STOP        .FT                                            8737 :STOP DEPTH
STEP        .FT                                             0.5 :STEP      
NULL        .                                           -999.25 :NULL      
COMP        .                                      SHELL OIL CO :COMPANY   
WELL        .                                OCS 00702 ST00BP00 :WELL      
FLD         .                                           WILDCAT :FIELD     
LOC         .                                                   :LOCATION  
CNTY        .                             GALVESTON LARGE BLOCK :LOCATION  
STAT        .                                             TEXAS :STATE     
CTRY        .                                     UNITED STATES :COUNTRY   
SRVC        .                                                   :SERVICE COMPANY
DATE        .                             9/13/2023 11:19:42 AM :LOG DATE  
API         .                                    42706000140000 :API NUMBER
UWI         .                                    42706000140000 :UNIQUE WELL ID
XCOORD      .                                  1138683.88536091 :SURFACE X 
YCOORD      .                                  10533063.1188688 :SURFACE Y 
LAT         .                                         29.014964 :LATITUDE  
LON         .                                        -94.570199 :LONGITUDE 
ELEV        .FT                                              72 :ELEVATION VALUE
ELEV_TYPE   .                                                KB :ELEVATION REFERENCE TYPE
~Curve Information Section
#MNEM       .UNIT                                      API CODE :CURVE DESCRIPTION
#------------------------------------------------------------------------------
DEPT        .FT                                                 :DEPTH     
ASN         .OHMM                                               :          
CILD        .MMHO                                               :          
ILD         .OHMM                                               :          
SP          .MV                                                 :          
SP_NORM     .MV                                                 :SP Normalized
VSH_SP      .V/V                                                :Volume of Shale from SP
~A        DEPTH            ASN           CILD            ILD             SP        SP_NORM         VSH_SP
# ...
      1648.0000         0.9725        -999.25         1.0471       -63.7468      -10.15506       0.830103
      1648.5000         1.0348        -999.25         1.0513        -59.641      -6.054642      0.9155283
      1649.0000         1.0859        -999.25         1.0434       -57.5008       -3.91983      0.9600036
      1649.5000         1.1154        -999.25          1.027       -55.0881       -1.51252              1
      1650.0000         1.1372        -999.25         1.0073       -52.0999       1.470295              1
      1650.5000         1.1498        -999.25         0.9877       -49.7089       3.855907              1
      1651.0000         1.1605        -999.25         0.9635       -48.2916       5.267822              1
      1651.5000         1.1453        -999.25         0.9295       -48.3796       5.174435              1
      1652.0000           1.13        -999.25         0.8955       -49.0756       4.473045              1
      1652.5000         1.1038        -999.25         0.8615       -49.7715       3.771759              1
      1653.0000         1.0707        -999.25         0.8362       -50.3649       3.172974              1
      1653.5000         1.0386        -999.25          0.812       -50.9189       2.613586              1
      1654.0000         1.0095        -999.25         0.7879       -51.4728       2.054298              1
      1654.5000          0.989        -999.25          0.781       -51.8491       1.672611              1
      1655.0000          0.983        -999.25         0.7828       -51.6959       1.820423              1
      1655.5000         0.9771        -999.25         0.7925       -51.4047       2.106236              1
      1656.0000         0.9713        -999.25         0.8061       -51.1135       2.392052              1
      1656.5000          0.966        -999.25         0.8197       -50.8223       2.677864              1
      1657.0000         0.9633        -999.25         0.8333       -50.5311       2.963676              1
      1657.5000         0.9602        -999.25         0.8511       -50.2399       3.249489              1
      1658.0000         0.9567        -999.25         0.8731       -49.9487       3.535301              1
      1658.5000         0.9391        -999.25         0.8952       -49.6729       3.805714              1
      1659.0000         0.9102        -999.25         0.9172       -49.4592       4.014027              1
      1659.5000         0.8967        -999.25         0.9393       -49.2454       4.222443              1
      1660.0000         0.9271        -999.25         0.9614       -49.0316       4.430851              1
      1660.5000         0.9574        -999.25         0.9834       -49.0453       4.411766              1
      1661.0000         0.9686        -999.25         0.9923       -49.4449       4.006779              1
      1661.5000         0.9794        -999.25          0.997       -49.8852       3.561092              1
      1662.0000           0.99        -999.25         1.0016       -50.3278       3.113106              1
      1662.5000         0.9943        -999.25         1.0063       -50.7703       2.665218              1
      1663.0000         0.9981        -999.25          1.002       -51.7001        1.73003              1
      1663.5000         0.9936        -999.25         0.9974       -52.6896      0.7351418              1
      1664.0000         0.9827        -999.25         0.9929       -53.6769     -0.2575417              1
      1664.5000         0.9684        -999.25         0.9883       -54.5018       -1.08783              1
      1665.0000         0.9541        -999.25         0.9837       -55.3264      -1.917816              1
      1665.5000         0.9397        -999.25         0.9689       -55.7793      -2.376106      0.9921644
      1666.0000         0.9293        -999.25         0.9466       -55.9329      -2.535091      0.9888523
      1666.5000         0.9401        -999.25         0.9243       -56.2811       -2.88868      0.9814858
      1667.0000         0.9509        -999.25          0.902       -56.6434      -3.256363      0.9738258
      1667.5000         0.9617        -999.25         0.8797       -57.0587      -3.677052      0.9650614
      1668.0000         0.9726        -999.25         0.8585       -58.0482       -4.67194      0.9443346
      1668.5000         0.9821        -999.25         0.8395       -59.0377      -5.666828      0.9236078
      1669.0000         0.9681        -999.25         0.8204       -59.7824      -6.416912       0.907981
      1669.5000         0.9504        -999.25         0.8293       -59.5898      -6.229702      0.9118812
      1670.0000         0.9338        -999.25           0.84       -59.3972      -6.042488      0.9157815
      1670.5000         0.9173        -999.25         0.8617       -59.4387      -6.089375      0.9148047
      1671.0000         0.9008        -999.25          0.884       -59.4827      -6.138763      0.9137757
      1671.5000         0.8878        -999.25         0.9064       -59.5267      -6.188148      0.9127469
      1672.0000         0.8823        -999.25         0.9287        -59.608      -6.274837      0.9109409
      1672.5000          0.883        -999.25          0.951       -59.7017       -6.37392      0.9088767
      1673.0000         0.8899        -999.25         0.9733       -59.7954      -6.473007      0.9068124
      1673.5000         0.8968        -999.25         0.9904       -58.3771      -5.060101      0.9362479
      1674.0000         0.9313        -999.25          1.004       -56.4042      -3.092587      0.9772378
      1674.5000         0.9701        -999.25         1.0176       -54.6538      -1.347572              1
      1675.0000         1.0183        -999.25         1.0275       -53.5248     -0.2239571              1
      1675.5000         1.0602        -999.25         1.0248       -52.4904      0.8050575              1
      1676.0000         1.0734        -999.25         1.0221       -51.8889       1.401165              1
      1676.5000         1.0749        -999.25         1.0119       -51.2875       1.997181              1
      1677.0000         1.0752        -999.25         0.9973       -50.9358       2.343494              1
      1677.5000         1.0755        -999.25         0.9827       -50.7682       2.505707              1
      1678.0000         1.0757        -999.25         0.9681       -50.6005       2.668022              1
      1678.5000          1.076        -999.25         0.9536       -50.4329       2.830235              1
      1679.0000         1.0768        -999.25          0.939       -50.2297       3.028046              1
      1679.5000         1.0792        -999.25         0.9234       -49.9965       3.255859              1
      1680.0000         1.0768        -999.25         0.9075       -49.7634        3.48357              1
      1680.5000         1.0688        -999.25         0.8917       -49.5302       3.711384              1
      1681.0000         1.0607        -999.25         0.8758       -49.2971       3.939098              1
      1681.5000         1.0527        -999.25         0.8656        -48.998       4.232807              1
      1682.0000         1.0457        -999.25         0.8568       -48.6346        4.59082              1
      1682.5000         1.0403        -999.25         0.8339       -48.2714       4.948635              1
      1683.0000         1.0349        -999.25         0.8076        -47.908       5.306648              1
      1683.5000         1.0427        -999.25         0.7813       -47.6324       5.576862              1
      1684.0000         1.0539        -999.25          0.755       -47.9229       5.280975              1
      1684.5000         1.0685        -999.25         0.7341       -50.4557       2.742786              1
      1685.0000          1.081        -999.25         0.7223       -52.5515      0.6416016              1
      1685.5000         1.0601        -999.25         0.7106       -58.1897      -5.001987      0.9374586
