#------------------------------------------------------------------------------
# Created by    : vladimir.rabinovich
# Created on    : 09/19/2023 17:21:35
#------------------------------------------------------------------------------
~Version Information Section
VERS.           2.0     :   CWLS log ASCII Standard - VERSION 2.0
WRAP.           NO      :   One line per depth step
~Well Information Section
#MNEM       .UNIT                                         VALUE :DESCRIPTION
#------------------------------------------------------------------------------
STRT        .FT                                            3376 :START DEPTH
STOP        .FT                                            7813 :STOP DEPTH
STEP        .FT                                             0.5 :STEP      
NULL        .                                           -999.25 :NULL      
COMP        .                                MARINER ENERGY INC :COMPANY   
WELL        .                               OCS G27491 ST00BP00 :WELL      
FLD         .                                           WILDCAT :FIELD     
LOC         .                                                   :LOCATION  
CNTY        .                             GALVESTON LARGE BLOCK :LOCATION  
STAT        .                                             TEXAS :STATE     
CTRY        .                                     UNITED STATES :COUNTRY   
SRVC        .                                                   :SERVICE COMPANY
DATE        .                             9/13/2023 11:19:33 AM :LOG DATE  
API         .                                    42706404580000 :API NUMBER
UWI         .                                    42706404580000 :UNIQUE WELL ID
XCOORD      .                                  1038987.60828679 :SURFACE X 
YCOORD      .                                  10490484.8642062 :SURFACE Y 
LAT         .                                         28.893877 :LATITUDE  
LON         .                                         -94.87996 :LONGITUDE 
ELEV        .FT                                             110 :ELEVATION VALUE
ELEV_TYPE   .                                                KB :ELEVATION REFERENCE TYPE
~Curve Information Section
#MNEM       .UNIT                                      API CODE :CURVE DESCRIPTION
#------------------------------------------------------------------------------
DEPT        .FT                                                 :DEPTH     
CALI        .IN                                                 :          
DPSS        .%                                                  :          
DRHO        .G/CM3                                              :          
GR          .GAPI                                               :          
GR_NORM     .GAPI                                               :GammaRay Normalized
M2R1        .OHMM                                               :          
M2R2        .OHMM                                               :          
M2R3        .OHMM                                               :          
M2R6        .OHMM                                               :          
M2R9        .OHMM                                               :          
M2RX        .OHMM                                               :          
NPSS        .%                                                  :Neutron Porosity Sandstone
SP          .MV                                                 :          
SP_NORM     .MV                                                 :SP Normalized
TENS        .LB                                                 :          
VSH_GR      .V/V                                                :Volume of Shale from GR
VSH_SP      .V/V                                                :Volume of Shale from SP
~A        DEPTH           CALI           DPSS           DRHO             GR        GR_NORM           M2R1           M2R2           M2R3           M2R6           M2R9           M2RX           NPSS             SP        SP_NORM           TENS         VSH_GR         VSH_SP
# ...
      7216.0000         10.435          30.72          0.012           45.2       33.92577         0.4349         0.3239         0.2973         0.2868         0.2842         0.2817          30.84         -106.8      -62.48862             40     0.01969731              0
      7216.5000         10.435           30.6          0.016           45.4       34.18382          0.439         0.3208         0.2894         0.2791         0.2791         0.2742           31.2         -106.8      -62.48862             40     0.02518772              0
      7217.0000         10.435           30.6           0.02           47.4       36.76429         0.4431         0.3178         0.2868         0.2791         0.2791         0.2742          31.68         -106.8      -62.48862             40     0.08009128              0
      7217.5000         10.435          30.36          0.024           48.8       38.57061         0.4514         0.3208         0.2842         0.2791         0.2791         0.2742          31.44         -106.8      -62.48862             40      0.1185236              0
      7218.0000         10.395        29.7551          0.024           47.6       37.02232         0.4599          0.327         0.2868         0.2791         0.2791         0.2742          30.12         -106.8      -62.48862             40     0.08558135              0
      7218.5000         10.395        29.2653          0.024             46       34.95796         0.4685          0.327         0.2894         0.2791         0.2791         0.2742        29.6327         -106.8      -62.48862             40     0.04165868              0
      7219.0000         10.395        29.2653          0.024           46.2       35.21601         0.4773         0.3302         0.2946         0.2791         0.2791         0.2742        29.0204         -106.8      -62.48862             40     0.04714909              0
      7219.5000         10.395        29.6327          0.016           48.8       38.57061         0.4908         0.3431            0.3         0.2842         0.2817         0.2766         28.898         -106.8      -62.48862             40      0.1185236              0
      7220.0000         10.435        29.8776          0.008           49.6       39.60279         0.5046         0.3497         0.3058          0.292         0.2842         0.2791        28.7755         -106.4      -62.08862             40      0.1404849              0
      7220.5000         10.435          30.24          0.004           48.8       38.57061         0.5046         0.3497         0.3088          0.292         0.2791         0.2742        28.7755           -106      -61.68862             40      0.1185236              0
      7221.0000         10.435          30.48          0.012             48       37.53842            0.5         0.3497         0.3058         0.2894         0.2766         0.2717             30           -106      -61.68862             40     0.09656216              0
      7221.5000         10.435          30.24           0.02             48       37.53842            0.5         0.3464         0.3058         0.2868         0.2766         0.2717          31.08           -106      -61.68862             60     0.09656216              0
      7222.0000         10.435          30.12           0.02             48       37.53842         0.4817         0.3431            0.3         0.2842         0.2766         0.2717           31.2         -105.6      -61.28862             40     0.09656216              0
      7222.5000         10.435        29.8776          0.016           47.6       37.02232         0.4472         0.3366          0.292         0.2791         0.2717         0.2644           30.6         -105.6      -61.28862             40     0.08558135              0
      7223.0000         10.435        29.8776          0.016             47       36.24819          0.419         0.3208         0.2842         0.2717         0.2644         0.2551             30         -105.6      -61.28862             40     0.06911039              0
      7223.5000         10.435        29.8776          0.016           46.6        35.7321         0.3962         0.3058         0.2817         0.2644         0.2574         0.2528        29.6327         -105.6      -61.28862             40     0.05812974              0
      7224.0000         10.435        29.7551           0.02           47.4       36.76429         0.3813         0.3058         0.2817         0.2644         0.2574         0.2528        29.7551         -105.6      -61.28862             40     0.08009128              0
      7224.5000         10.435        29.6327           0.02           49.2        39.0867         0.3705         0.3058         0.2842         0.2668         0.2597         0.2551          30.24         -105.6      -61.28862             40      0.1295043              0
      7225.0000         10.435             30          0.024           50.6       40.89302         0.3565         0.2973         0.2791         0.2644         0.2597         0.2551          30.36         -105.6      -61.28862             40      0.1679367              0
      7225.5000         10.435          30.36          0.024             52       42.69935         0.3334          0.292         0.2693         0.2574         0.2528         0.2483          31.32         -105.6      -61.28862             40      0.2063691              0
      7226.0000         10.435          30.24          0.024           52.6       43.47349         0.3178         0.2791         0.2621         0.2505         0.2483         0.2417          32.52         -104.8      -60.48862             40      0.2228402              0
      7226.5000         10.435        29.7551          0.024           51.6       42.18325         0.3088         0.2766         0.2621         0.2505         0.2483         0.2395          33.36         -104.4      -60.08862             40      0.1953883              0
      7227.0000         10.435        29.1429          0.024             51       41.40911         0.3117         0.2791         0.2621         0.2528         0.2483         0.2417          32.88           -104      -59.68862             40      0.1789173     0.00546278
      7227.5000         10.435        29.0204           0.02             53       43.98958         0.3334         0.2868         0.2717         0.2597         0.2597         0.2483          32.16         -102.8      -58.48862             40      0.2338209     0.02651536
      7228.0000         10.435        29.3878          0.012           55.6       47.34418         0.3634            0.3         0.2842         0.2742         0.2693         0.2621          32.16           -102      -57.68862             40      0.3051953      0.0405505
      7228.5000         10.435             30          0.004           57.6       49.92464            0.4         0.3178            0.3         0.2868         0.2791         0.2742          31.92           -102      -57.68862             80      0.3600988      0.0405505
      7229.0000         10.435          30.24         -0.004             58       50.44073         0.4349         0.3334         0.3029         0.2973          0.292         0.2842          31.32         -102.8      -58.48862            100      0.3710795     0.02651536
      7229.5000         10.435          30.24              0             57       49.15051         0.4472         0.3398         0.3117            0.3          0.292         0.2868          30.72         -103.6      -59.28862             60      0.3436278     0.01248035
      7230.0000         10.435          30.24          0.004           56.6       48.63441         0.4431         0.3366            0.3         0.2946         0.2868         0.2817          30.72         -103.6      -59.28862             40       0.332647     0.01248035
      7230.5000         10.435          30.24          0.008           56.8       48.89246         0.4349          0.327          0.292         0.2894         0.2817         0.2766          31.92         -103.6      -59.28862             40      0.3381374     0.01248035
