#------------------------------------------------------------------------------
# Created by    : vladimir.rabinovich
# Created on    : 09/19/2023 17:22:34
#------------------------------------------------------------------------------
~Version Information Section
VERS.           2.0     :   CWLS log ASCII Standard - VERSION 2.0
WRAP.           NO      :   One line per depth step
~Well Information Section
#MNEM       .UNIT                                         VALUE :DESCRIPTION
#------------------------------------------------------------------------------
STRT        .FT                                            2432 :START DEPTH
STOP        .FT                                            8088 :STOP DEPTH
STEP        .FT                                             0.5 :STEP      
NULL        .                                           -999.25 :NULL      
COMP        .                                  XTO OFFSHORE INC :COMPANY   
WELL        .                               OCS G23162 ST00BP00 :WELL      
FLD         .                                 BRAZOS BLOCK 0398 :FIELD     
LOC         .                                                   :LOCATION  
CNTY        .                                BRAZOS LARGE BLOCK :LOCATION  
STAT        .                                             TEXAS :STATE     
CTRY        .                                     UNITED STATES :COUNTRY   
SRVC        .                                                   :SERVICE COMPANY
DATE        .                             9/13/2023 11:09:58 AM :LOG DATE  
API         .                                    42704403400000 :API NUMBER
UWI         .                                    42704403400000 :UNIQUE WELL ID
XCOORD      .                                  869002.191083907 :SURFACE X 
YCOORD      .                                  10369331.9113669 :SURFACE Y 
LAT         .                                        28.5523806 :LATITUDE  
LON         .                                       -95.4033279 :LONGITUDE 
ELEV        .FT                                             100 :ELEVATION VALUE
ELEV_TYPE   .                                                KB :ELEVATION REFERENCE TYPE
~Curve Information Section
#MNEM       .UNIT                                      API CODE :CURVE DESCRIPTION
#------------------------------------------------------------------------------
DEPT        .FT                                                 :DEPTH     
CO12        .MMHO                                               :          
DCAL        .IN                                                 :          
DPHI        .FRAC                                               :          
DRHO        .G/CC                                               :          
GR          .GAPI                                               :          
GR_NORM     .GAPI                                               :GammaRay Normalized
HO01        .OHMM                                               :          
HO02        .OHMM                                               :          
HO03        .OHMM                                               :          
HO06        .OHMM                                               :          
HO09        .OHMM                                               :          
HO12        .OHMM                                               :          
NPHI        .FRAC                                               :          
RWA         .OHMM                                               :          
SP          .MV                                                 :          
SP_NORM     .MV                                                 :SP Normalized
TENS        .LB/F                                               :          
VSH_GR      .V/V                                                :Volume of Shale from GR
VSH_SP      .V/V                                                :Volume of Shale from SP
~A        DEPTH           CO12           DCAL           DPHI           DRHO             GR        GR_NORM           HO01           HO02           HO03           HO06           HO09           HO12           NPHI            RWA             SP        SP_NORM           TENS         VSH_GR         VSH_SP
# ...
      6212.0000       1906.569         0.6982         0.2626        -0.0016        76.3681       64.42236         0.7235         0.5699         0.5159         0.5165         0.5496         0.5371         0.3737          0.048        59.0747      -12.04884       5014.871      0.6685607      0.6859736
      6212.5000       1904.784         0.8288         0.2703        -0.0043        78.0564       66.45311         0.7576         0.5559         0.5029         0.4897         0.5257         0.5165         0.3638         0.0538        60.2266      -10.89947       4820.699      0.7117683      0.7218916
      6213.0000           1885         0.8673           0.28        -0.0071        83.1367       72.56773         0.7385         0.5414         0.4911         0.5001         0.5273         0.5217         0.3453         0.0573        60.9138      -10.21479       4658.172      0.8418667      0.7432877
      6213.5000        1973.31         0.8673         0.2822        -0.0081        87.5195       77.84258         0.8496         0.4951         0.4503         0.5051         0.5564         0.5548         0.3408         0.0573        60.6217      -10.50942       4557.356      0.9540975      0.7340807
      6214.0000       2011.153         0.9518          0.277        -0.0061        88.8606       79.45534          0.832         0.4547         0.4543         0.5203         0.4527         0.4544         0.3569         0.0523        60.0507      -11.08295       4531.813      0.9884114      0.7161578
      6214.5000       2015.687         0.7136         0.2682        -0.0019        85.9785       75.98345         0.8192         0.5108         0.5004         0.5335         0.4886         0.4926         0.3627         0.0498        59.6092      -11.52698       4564.589      0.9145415       0.702282
      6215.0000       1797.554         0.8058         0.2561         0.0043        82.9822       72.37408         1.1679         0.6088          0.523         0.5318         0.5453         0.5507         0.3563         0.0481        59.8349       -11.3038       4604.147      0.8377463      0.7092562
      6215.5000       1679.922         0.9518         0.2494         0.0097        83.2006        72.6351         0.9959         0.6561         0.5712         0.5247         0.6424         0.6466         0.3704         0.0446        60.5486      -10.59263       4623.135         0.8433      0.7314804
      6216.0000       1541.185          0.875         0.2487         0.0141        87.2616       77.52251          0.687         0.6823         0.6309         0.5322         0.5985         0.5962         0.3768          0.053         60.147      -10.99675       4615.675      0.9472876      0.7188514
      6216.5000       1528.732         1.0364         0.2509         0.0221        88.9474       79.55027         0.6756         0.6536         0.6268         0.5425         0.7306         0.7144         0.3759         0.0604        60.4524      -10.69388       4575.891      0.9904312      0.7283163
      6217.0000       1457.511         0.9749         0.2483         0.0297        85.7415       75.68855         0.7477         0.6402         0.6345         0.6211         0.6896         0.6626         0.3449          0.058        61.7039      -9.444904       4524.353      0.9082669      0.7673467
      6217.5000       1479.703         1.2285         0.2344         0.0393        80.7884       69.72324         0.9447         0.6622         0.6435         0.7389         0.7253         0.6832         0.3163         0.0517        62.8857      -8.265629       4495.872      0.7813454      0.8041991
      6218.0000        1456.42         1.3746         0.2231         0.0408        79.2981       67.92705         1.0841         0.7471         0.7346         0.7293         0.7336          0.682         0.3296         0.0412        63.2176      -7.936253       4516.215      0.7431287      0.8144921
      6218.5000       1416.382         1.6205         0.2198         0.0349        82.1876         71.404          0.946         0.8198         0.7748         0.7372          0.752         0.6948         0.3525         0.0459        63.9978      -7.158581       4602.339      0.8171064      0.8387944
      6219.0000       1331.003         1.7358         0.2181         0.0258        84.8913       74.65727         1.1279          0.703         0.7148         0.7299         0.8055         0.7443         0.3655         0.0517        65.8468      -5.312103       4715.361      0.8863249      0.8964968
      6219.5000       1228.457         1.6897         0.2093         0.0188         85.235       75.06917         1.7166         0.7655         0.6866         0.7166         0.8853         0.8263         0.3757         0.0459        68.1672      -2.994232       4781.366      0.8950887      0.9689302
      6220.0000       1149.685         1.6205         0.1941         0.0163        84.0153       73.59877          1.821         0.7386         0.6781         0.7323         0.9219         0.8836         0.3648          0.038        69.1731      -1.990852       4761.701      0.8638036              1
      6220.5000         1149.2         1.0748         0.1853         0.0159        86.3012       76.34903         1.1366         0.7751         0.8394         0.8153         0.9077         0.9032         0.3634         0.0349        68.6619      -2.504578       4648.452      0.9223198      0.9842319
      6221.0000        1189.88         1.0364         0.1922         0.0135        90.1097       80.93243         0.9206         0.8201         0.9175         0.9706          0.803         0.8273         0.3608         0.0389        68.0411      -3.127907       4484.569              1      0.9647529
      6221.5000       1223.908         1.0594         0.2042         0.0139        94.3788        86.0704         0.8069          0.875         0.9331         0.8723          0.755         0.7976         0.3723         0.0498        68.1008      -3.070732       4352.558              1      0.9665396
      6222.0000       1213.566         1.1055         0.2153         0.0157        95.8838       87.88047          0.691         0.9308         1.0109          0.695         0.7699         0.8269         0.3919         0.0516        68.1407      -3.033356       4322.721              1      0.9677076
      6222.5000       1204.428         1.1363         0.2205         0.0185        96.9027       89.10529         0.4877         1.2192         1.1653         0.6329         0.7898         0.8491         0.4011         0.0528        67.9515       -3.22509       4429.866              1      0.9617159
      6223.0000       1226.308         1.1901         0.2206          0.021        93.8365       85.41176         0.5314         1.0125         0.9273         0.6448         0.7731         0.8155         0.3984          0.053        67.6162      -3.562912       4638.506              1       0.951159
      6223.5000       1275.051         1.0517         0.2189         0.0218        88.3645       78.82169          1.021         0.8721         0.7379         0.6745         0.7657         0.7844         0.3809         0.0486        66.5008       -4.68084       4847.372      0.9749296      0.9162238
      6224.0000       1315.833         0.7136         0.2193          0.021        80.9251       69.86296         1.3722         0.7389         0.6478          0.704         0.7615         0.7553         0.3753         0.0456        62.9189      -8.265266       4953.613      0.7843183      0.8042104
      6224.5000       1341.683         0.1448         0.2256         0.0195        76.2298       64.20804         1.2725         0.6571         0.6224          0.732         0.7673         0.7415         0.3521         0.0492        57.7601      -13.42659       4924.905      0.6640008      0.6429191
      6225.0000       1384.227         0.0987         0.2385         0.0173        74.9324       62.64409         1.2222         0.6662         0.5872         0.7019         0.7742         0.7394         0.3232         0.0573         56.346      -14.84322       4786.565      0.6307254      0.5986495
