#------------------------------------------------------------------------------
# Created by    : vladimir.rabinovich
# Created on    : 09/19/2023 17:22:29
#------------------------------------------------------------------------------
~Version Information Section
VERS.           2.0     :   CWLS log ASCII Standard - VERSION 2.0
WRAP.           NO      :   One line per depth step
~Well Information Section
#MNEM       .UNIT                                         VALUE :DESCRIPTION
#------------------------------------------------------------------------------
STRT        .FT                                            1202 :START DEPTH
STOP        .FT                                           11047 :STOP DEPTH
STEP        .FT                                             0.5 :STEP      
NULL        .                                           -999.25 :NULL      
COMP        .                                 MESA PETROLEUM CO :COMPANY   
WELL        .                               OCS G03305 ST00BP00 :WELL      
FLD         .                                           WILDCAT :FIELD     
LOC         .                                                   :LOCATION  
CNTY        .                      MATAGORDA ISLAND LARGE BLOCK :LOCATION  
STAT        .                                             TEXAS :STATE     
CTRY        .                                     UNITED STATES :COUNTRY   
SRVC        .                                                   :SERVICE COMPANY
DATE        .                             9/13/2023 11:12:09 AM :LOG DATE  
API         .                                    42703400870000 :API NUMBER
UWI         .                                    42703400870000 :UNIQUE WELL ID
XCOORD      .                                  540264.325087739 :SURFACE X 
YCOORD      .                                   10226560.637492 :SURFACE Y 
LAT         .                                         28.138272 :LATITUDE  
LON         .                                        -96.413655 :LONGITUDE 
ELEV        .FT                                              80 :ELEVATION VALUE
ELEV_TYPE   .                                                KB :ELEVATION REFERENCE TYPE
~Curve Information Section
#MNEM       .UNIT                                      API CODE :CURVE DESCRIPTION
#------------------------------------------------------------------------------
DEPT        .FT                                                 :DEPTH     
CILD        .MMHO                                               :          
DPHI        .%                                                  :          
GR          .GAPI                                               :          
GR_NORM     .GAPI                                               :GammaRay Normalized
ILD         .OHMM                                               :          
ILM         .OHMM                                               :          
SFL         .OHMM                                               :          
SP          .MV                                                 :          
SP_NORM     .MV                                                 :SP Normalized
VSH_GR      .V/V                                                :Volume of Shale from GR
VSH_SP      .V/V                                                :Volume of Shale from SP
~A        DEPTH           CILD           DPHI             GR        GR_NORM            ILD            ILM            SFL             SP        SP_NORM         VSH_GR         VSH_SP
# ...
      7749.5000       1144.176        -999.25        70.0519       96.90208         0.8773         0.9231         0.9407       -57.8934      -1.384502              1      0.9928796
      7750.0000       1117.158        -999.25        69.7433       96.26556         0.8992         0.9359          0.968       -57.5559      -1.056236              1      0.9989586
      7750.5000       1093.631        -999.25        68.0332       92.73809         0.9193         0.9548         0.9943        -57.322     -0.8315697              1              1
      7751.0000       1081.451        -999.25        65.5156       87.54498         0.9139         0.9729         1.0102       -57.0134     -0.5322037              1              1
      7751.5000       1076.828        -999.25        63.8361       84.08069         0.9085         0.9867         1.0151       -56.7579     -0.2859383              1              1
      7752.0000       1075.684        -999.25        63.0236       82.40474         0.9037         0.9966          1.015       -56.5538    -0.09106827              1              1
      7752.5000       1076.039        -999.25         62.957       82.26736         0.8993         0.9859         1.0013       -56.5085    -0.05500412              1              1
      7753.0000       1087.361        -999.25        63.6812       83.76117         0.8949         0.9678          0.981       -56.5863     -0.1420364              1              1
      7753.5000       1098.672        -999.25        64.9766        86.4332         0.8882         0.9415         0.9582       -56.7374      -0.302372              1              1
      7754.0000       1111.174        -999.25        66.4353       89.44211         0.8813         0.9254         0.9375       -56.9255     -0.4997025              1              1
      7754.5000       1124.148        -999.25        67.1343       90.88391          0.873         0.9161         0.9348       -57.3721     -0.9555397              1              1
      7755.0000       1137.111        -999.25        67.2211       91.06296         0.8634         0.9169         0.9341       -57.8185      -1.411171              1      0.9923857
      7755.5000       1132.914        -999.25         67.197       91.01321         0.8606         0.9251          0.945       -58.3278      -1.929707              1      0.9827832
      7756.0000       1128.672        -999.25        66.6427        89.8699         0.8713         0.9334         0.9536       -58.6644      -2.275536              1       0.976379
      7756.5000       1120.943        -999.25          65.64        87.8016          0.889         0.9484         0.9604       -58.7437      -2.364071              1      0.9747394
      7757.0000       1108.701        -999.25        63.8593       84.12852         0.9081         0.9642         0.9705       -58.9995      -2.629105              1      0.9698314
      7757.5000       1096.463        -999.25        62.2089       80.72424         0.9147         0.9789         0.9869       -59.3615       -3.00034              1      0.9629567
      7758.0000       1085.846        -999.25        61.9491       80.18834         0.9141         0.9879         1.0037       -59.5994      -3.247471              1      0.9583802
      7758.5000       1075.254        -999.25        62.5773       81.48414         0.9135          0.997         1.0218       -59.4724      -3.129707              1       0.960561
      7759.0000       1067.484        -999.25        63.3067       82.98869         0.9099         0.9813         1.0323       -60.0884       -3.75494              1      0.9489826
      7759.5000       1063.027        -999.25         63.944       84.30326         0.9018         0.9659          1.036       -60.9288      -4.604572              1      0.9332486
      7760.0000       1058.576        -999.25        64.2887       85.01427         0.8937         0.9534         1.0344       -56.4282      -0.113205              1              1
      7760.5000       1058.895        -999.25        63.7482       83.89936         0.8859          0.941         1.0286       -56.3578     -0.0520401              1              1
      7761.0000       1061.629        -999.25        62.9676       82.28921         0.8784         0.9298         1.0179       -56.4584     -0.1618729              1              1
      7761.5000       1069.035        -999.25        63.0085        82.3736         0.8702         0.9209         1.0037       -56.6217      -0.334465              1              1
      7762.0000       1089.969        -999.25        63.7263        83.8542         0.8553         0.9141         0.9922       -57.3926      -1.118591              1      0.9978039
      7762.5000       1110.826        -999.25        64.5204        85.4922         0.8407          0.914         0.9811       -58.2098      -1.949017              1      0.9824256
      7763.0000       1130.367        -999.25        64.6449       85.74902         0.8322         0.9134         0.9693       -59.1002      -2.852642              1      0.9656918
      7763.5000       1149.887        -999.25        64.8691       86.21145          0.824         0.9126         0.9574       -59.8625      -3.628166              1      0.9513302
      7764.0000       1158.621        -999.25         65.321        87.1436         0.8172         0.9101         0.9455       -60.4669      -4.245792              1      0.9398927
      7764.5000       1163.828        -999.25        65.9219       88.38308         0.8171         0.9052         0.9341       -60.9105      -4.702618              1       0.931433
      7765.0000       1166.434        -999.25        66.4686       89.51073          0.817         0.9003         0.9244        -60.879      -4.684345              1      0.9317714
      7765.5000       1167.158        -999.25        66.7931       90.18008          0.819         0.8983         0.9193       -60.8474       -4.66597              1      0.9321117
      7766.0000        1168.17        -999.25        66.8125       90.22016         0.8234         0.8952         0.9311       -60.7679      -4.599693              1       0.933339
      7766.5000        1173.93        -999.25        66.6107       89.80389         0.8279         0.8863         0.9674       -60.6825      -4.527519              1      0.9346756
      7767.0000       1179.691        -999.25        66.1475       88.84842         0.8305         0.8795         0.9812       -60.1163      -3.974545              1      0.9449158
      7767.5000       1183.178        -999.25        65.7576       88.04417          0.831         0.8795         0.9804       -59.2869      -3.158371              1      0.9600301
      7768.0000        1184.66        -999.25        65.8502       88.23518         0.8314          0.866         0.9423       -58.1525      -2.037197              1      0.9807926
      7768.5000       1182.986        -999.25         64.774       86.01528          0.833         0.8597         0.9131       -57.0461     -0.9440231              1              1
      7769.0000       1171.525        -999.25         62.903       82.15597          0.835         0.8614         0.9021       -56.5295     -0.4406471              1              1
      7769.5000       1162.297        -999.25        61.2099       78.66359         0.8428         0.8738          0.912       -56.7241     -0.6484718      0.9715657              1
      7770.0000       1155.697        -999.25        60.1567       76.49112         0.8549         0.8845         0.9285       -56.8896     -0.8272018       0.925343              1
      7770.5000       1150.328        -999.25        59.7551       75.66273         0.8653         0.8937         0.9492       -56.9119     -0.8627281      0.9077176              1
      7771.0000         1147.6        -999.25        59.5736       75.28838         0.8652         0.9049          0.977       -57.0339     -0.9979553      0.8997529              1
      7771.5000       1145.703        -999.25        59.0308       74.16874         0.8651         0.9165         1.0021        -57.205      -1.182281      0.8759306      0.9966244
