#------------------------------------------------------------------------------
# Created by    : vladimir.rabinovich
# Created on    : 09/19/2023 17:20:57
#------------------------------------------------------------------------------
~Version Information Section
VERS.           2.0     :   CWLS log ASCII Standard - VERSION 2.0
WRAP.           NO      :   One line per depth step
~Well Information Section
#MNEM       .UNIT                                         VALUE :DESCRIPTION
#------------------------------------------------------------------------------
STRT        .FT                                             727 :START DEPTH
STOP        .FT                                            8206 :STOP DEPTH
STEP        .FT                                             0.5 :STEP      
NULL        .                                           -999.25 :NULL      
COMP        .                              PHOENIX RESOURCES CO :COMPANY   
WELL        .                                          BLK 335L :WELL      
FLD         .                                 BRAZOS BLOCK 0309 :FIELD     
LOC         .                                                   :LOCATION  
CNTY        .                                BRAZOS LARGE BLOCK :LOCATION  
STAT        .                                             TEXAS :STATE     
CTRY        .                                     UNITED STATES :COUNTRY   
SRVC        .                                                   :SERVICE COMPANY
DATE        .                             9/13/2023 11:18:52 AM :LOG DATE  
API         .                                    42704300210000 :API NUMBER
UWI         .                                    42704300210000 :UNIQUE WELL ID
XCOORD      .                                  898426.347293712 :SURFACE X 
YCOORD      .                                  10460523.5569112 :SURFACE Y 
LAT         .                                        28.8046676 :LATITUDE  
LON         .                                       -95.3172337 :LONGITUDE 
ELEV        .FT                                              70 :ELEVATION VALUE
ELEV_TYPE   .                                                DF :ELEVATION REFERENCE TYPE
~Curve Information Section
#MNEM       .UNIT                                      API CODE :CURVE DESCRIPTION
#------------------------------------------------------------------------------
DEPT        .FT                                                 :DEPTH     
ASN         .OHMM                                               :          
CALI        .IN                                                 :          
DT          .US/F                                               :          
ILD         .OHMM                                               :          
SP          .MV                                                 :          
SP_NORM     .MV                                                 :SP Normalized
VSH_SP      .V/V                                                :Volume of Shale from SP
~A        DEPTH            ASN           CALI             DT            ILD             SP        SP_NORM         VSH_SP
# ...
      7159.0000         0.9279        11.9483       108.9281         0.8957       -38.8383       2.711658              1
      7159.5000         0.9184        11.7622       107.7374         0.8884       -39.7438       1.809685              1
      7160.0000         0.9088        11.6942       106.7747          0.881        -40.412       1.145012              1
      7160.5000         0.8992        11.7478        107.269         0.8736       -40.7818      0.7787399              1
      7161.0000         0.8897        11.7097       106.3922         0.8677       -40.8688      0.6952667              1
      7161.5000          0.881        11.4094       104.7041         0.8622       -40.5731      0.9944954              1
      7162.0000         0.8727        11.2751       103.4924         0.8567        -39.719       1.852123              1
      7162.5000         0.8644        11.3697       103.4225         0.8512        -38.411       3.163651              1
      7163.0000         0.8556        11.0433       101.9751         0.8467       -37.6604       3.917778              1
      7163.5000         0.8471        10.7786       103.6187          0.844       -37.6285       3.953205              1
      7164.0000         0.8504        11.3188       105.9182         0.8413       -37.1302       4.455036              1
      7164.5000         0.8537        10.9368       100.3265         0.8386        -36.592       4.996765              1
      7165.0000         0.8571        10.2634       100.1063         0.8359        -37.207       4.385288              1
      7165.5000         0.8604        10.2778       101.6285         0.8305       -39.0576       2.538219              1
      7166.0000         0.8636        10.9749       103.5791          0.824       -40.7273      0.8720474              1
      7166.5000         0.8664         11.183        106.006         0.8176       -40.4987       1.104176              1
      7167.0000         0.8693        11.1019       106.5679         0.8112       -39.9673       1.639103              1
      7167.5000         0.8722        10.7024       106.7474         0.8047       -39.7644       1.845528              1
      7168.0000         0.8706        10.4086        99.5098         0.7955       -39.9246       1.688858              1
      7168.5000         0.8565        10.3293         98.584         0.7851       -40.7433      0.8736839              1
      7169.0000         0.8302        10.5183         99.282         0.7746       -41.7029    -0.08238602              1
      7169.5000         0.8197        10.4631        96.2437         0.7642       -41.9012     -0.2771568              1
      7170.0000         0.8099         10.254        97.1904         0.7491       -42.3685     -0.7409325              1
      7170.5000         0.8019        10.2243       101.9207         0.7292        -43.596      -1.964905      0.9860159
      7171.0000         0.7913        10.1501       102.5543         0.7092       -44.9833      -3.348675      0.9659612
      7171.5000         0.7773        10.0814       100.5618         0.6893       -46.9849      -5.346748      0.9370037
      7172.0000         0.7708        10.1429       100.7535         0.6622       -50.2401      -8.598419       0.889878
      7172.5000         0.7615        10.1059       100.2239          0.628       -54.6844      -13.03919       0.825519
      7173.0000         0.7511        10.0563       102.4874         0.5937       -59.7183      -18.06956       0.752615
      7173.5000         0.7195        10.0111       102.9355         0.5605       -66.1294      -24.47714      0.6597516
      7174.0000         0.7025          9.998       103.9473         0.5334       -72.6893      -31.03351      0.5647318
      7174.5000          0.678         9.9865       103.9664         0.5062       -78.4169      -36.75758      0.4817742
      7175.0000         0.6555         9.9834       103.4714         0.4768       -79.5985      -37.93566      0.4647006
      7175.5000         0.6291         9.9804       104.0636         0.4434       -76.4871      -34.82072      0.5098446
      7176.0000         0.6144         9.9904       104.6112         0.4045       -83.4904       -41.8205      0.4083986
      7176.5000          0.605         10.001       104.8016         0.3619       -88.7174      -47.04397      0.3326961
      7177.0000         0.6181        10.0125       103.3439         0.3285       -90.2187      -48.54174      0.3109893
      7177.5000         0.6363         10.025       102.4009         0.2985       -89.5696      -47.88912      0.3204476
      7178.0000         0.6545        10.0375       101.5618         0.2999       -84.5803      -42.89629      0.3928075
      7178.5000         0.6657          10.05       100.3309         0.3371        -78.506      -36.81845       0.480892
      7179.0000          0.677        10.0626       100.6743         0.3714       -72.2632      -30.57213      0.5714184
      7179.5000         0.6924        10.0758       102.8364         0.4058       -65.9015       -24.2069      0.6636682
      7180.0000         0.7014         10.089       103.4801         0.4401       -62.7108      -21.01268      0.7099612
      7180.5000         0.6099        10.1134       103.2252         0.4744       -66.5872      -24.88554      0.6538327
      7181.0000         0.6068        10.1671       102.6335         0.5038       -61.6406      -19.93542      0.7255737
      7181.5000         0.6176        10.2359       102.3798         0.5323       -52.4053      -10.69659      0.8594697
      7182.0000         0.6332        10.2084       103.1932         0.5609       -45.1517      -3.439461      0.9646455
      7182.5000         0.6488        10.1366        101.589         0.5894       -43.9366      -2.220837      0.9823067
      7183.0000         0.6632        10.0565       100.3934          0.611       -45.2112      -3.491909      0.9638854
      7183.5000         0.6765        10.0679       100.1588         0.6301       -49.9924      -8.269581      0.8946438
      7184.0000         0.6897         10.119       101.5939         0.6492       -50.9099      -9.183552      0.8813978
      7184.5000         0.7029        10.1254       102.9624         0.6632       -48.6323      -6.902424      0.9144576
      7185.0000         0.7159        10.1004       102.9677         0.6711       -46.3458      -4.612396      0.9476464
      7185.5000         0.7278        10.0164       100.0741         0.6791       -46.5539      -4.816971      0.9446816
      7186.0000         0.7383        10.0038        98.4175          0.687       -52.4102      -10.66974      0.8598589
      7186.5000         0.7476         10.117       100.8217         0.6949       -54.7647      -13.02071      0.8257868
      7187.0000         0.7545        10.4091       104.8612         0.7011       -53.5572      -11.80968      0.8433379
      7187.5000         0.7612        10.7448        109.584         0.7059       -50.1707      -8.419659      0.8924687
      7188.0000         0.7647        10.9754       110.9355         0.7108       -46.6232      -4.868629      0.9439329
      7188.5000         0.7682        10.9966       113.9999         0.7157       -42.6794     -0.9213028              1
      7189.0000         0.7683         11.018       114.0791         0.7206       -41.1695      0.5921288              1
      7189.5000         0.7675        10.5959       111.2029         0.7252        -40.761       1.004154              1
      7190.0000         0.7634         10.337       106.5295         0.7271       -40.5157       1.252979              1
      7190.5000          0.757        10.3647         100.99          0.729        -39.859       1.913208              1
      7191.0000         0.7479         10.399        99.8278          0.731       -39.2366       2.539139              1
      7191.5000         0.7371        10.2555       100.3015         0.7329       -39.4676       2.311665              1
      7192.0000         0.7229        10.1266        99.6582         0.7348       -42.5605     -0.7777061              1
