#------------------------------------------------------------------------------
# Created by    : vladimir.rabinovich
# Created on    : 09/19/2023 17:21:23
#------------------------------------------------------------------------------
~Version Information Section
VERS.           2.0     :   CWLS log ASCII Standard - VERSION 2.0
WRAP.           NO      :   One line per depth step
~Well Information Section
#MNEM       .UNIT                                         VALUE :DESCRIPTION
#------------------------------------------------------------------------------
STRT        .FT                                            1005 :START DEPTH
STOP        .FT                                            8973 :STOP DEPTH
STEP        .FT                                             0.5 :STEP      
NULL        .                                           -999.25 :NULL      
COMP        .                            MARITECH RESOURCES INC :COMPANY   
WELL        .                               OCS G06113 ST00BP00 :WELL      
FLD         .                              GALVESTON BLOCK 0343 :FIELD     
LOC         .                                                   :LOCATION  
CNTY        .                             GALVESTON LARGE BLOCK :LOCATION  
STAT        .                                             TEXAS :STATE     
CTRY        .                                     UNITED STATES :COUNTRY   
SRVC        .                                                   :SERVICE COMPANY
DATE        .                             9/13/2023 11:19:36 AM :LOG DATE  
API         .                                    42706402140000 :API NUMBER
UWI         .                                    42706402140000 :UNIQUE WELL ID
XCOORD      .                                  914498.553138379 :SURFACE X 
YCOORD      .                                  10427492.1426863 :SURFACE Y 
LAT         .                                         28.714711 :LATITUDE  
LON         .                                        -95.265111 :LONGITUDE 
ELEV        .FT                                              84 :ELEVATION VALUE
ELEV_TYPE   .                                                KB :ELEVATION REFERENCE TYPE
~Curve Information Section
#MNEM       .UNIT                                      API CODE :CURVE DESCRIPTION
#------------------------------------------------------------------------------
DEPT        .FT                                                 :DEPTH     
CALI        .IN                                                 :          
DPHI        .%                                                  :          
DRHO        .G/C3                                               :          
DT          .US/F                                               :          
GR          .GAPI                                               :          
ILD         .OHMM                                               :          
ILM         .OHMM                                               :          
NPHI        .%                                                  :          
SGRD        .OHMM                                               :          
SP          .MV                                                 :          
SP_NORM     .MV                                                 :SP Normalized
VSH_SP      .V/V                                                :Volume of Shale from SP
~A        DEPTH           CALI           DPHI           DRHO             DT             GR            ILD            ILM           NPHI           SGRD             SP        SP_NORM         VSH_SP
# ...
      4203.0000        -999.25        -999.25        -999.25        -999.25        -999.25         0.5493         0.5508        -999.25         0.4947      -107.6989      -10.15859      0.5777314
      4203.5000        -999.25        -999.25        -999.25        -999.25        -999.25         0.5338         0.5384        -999.25         0.4994      -108.3129      -10.76897      0.5403525
      4204.0000        -999.25        -999.25        -999.25        -999.25        -999.25         0.5232          0.524        -999.25         0.5003       -108.252      -10.70447      0.5152355
      4204.5000        -999.25        -999.25        -999.25        -999.25        -999.25         0.5043         0.5069        -999.25         0.4867      -109.6992      -12.14806      0.4713565
      4205.0000        -999.25        -999.25        -999.25        -999.25        -999.25         0.4713         0.4864        -999.25         0.4665      -111.2639      -13.70914      0.3975534
      4205.5000        -999.25        -999.25        -999.25        -999.25        -999.25         0.4414         0.4628        -999.25         0.4502      -111.6716      -14.11323      0.3338196
      4206.0000        -999.25        -999.25        -999.25        -999.25        -999.25         0.4063          0.438        -999.25         0.4503      -111.3226      -13.76061      0.2628832
      4206.5000        -999.25        -999.25        -999.25        -999.25        -999.25         0.3698         0.4143        -999.25         0.4657      -111.4604       -13.8948      0.1936642
      4207.0000        -999.25        -999.25        -999.25        -999.25        -999.25         0.3404         0.3912        -999.25          0.457      -112.9431      -15.37389      0.1413633
      4207.5000        -999.25        -999.25        -999.25        -999.25        -999.25         0.3111         0.3647        -999.25         0.4294      -114.5034      -16.93057      0.0923831
      4208.0000        -999.25        -999.25        -999.25        -999.25        -999.25         0.2878         0.3367        -999.25         0.4096      -115.3832      -17.80676     0.05572547
      4208.5000        -999.25        -999.25        -999.25        -999.25        -999.25          0.274         0.3149        -999.25         0.3947      -115.2195      -17.63944     0.03499146
      4209.0000        -999.25        -999.25        -999.25        -999.25        -999.25         0.2645         0.2957        -999.25         0.3838      -115.1981      -17.61443     0.02114714
      4209.5000        -999.25        -999.25        -999.25        -999.25        -999.25         0.2621         0.2913        -999.25         0.3768      -116.0079      -18.42061     0.01770549
      4210.0000        -999.25        -999.25        -999.25        -999.25        -999.25         0.2693         0.2977        -999.25          0.366      -116.1907       -18.5998     0.02809818
      4210.5000        -999.25        -999.25        -999.25        -999.25        -999.25         0.2951          0.311        -999.25         0.3579      -114.2926      -16.69809     0.06698899
      4211.0000        -999.25        -999.25        -999.25        -999.25        -999.25         0.3199         0.3336        -999.25         0.4035      -112.2739      -14.67577      0.1067596
      4211.5000        -999.25        -999.25        -999.25        -999.25        -999.25         0.3382         0.3582        -999.25         0.4729      -110.5736      -12.97186      0.1375757
      4212.0000        -999.25        -999.25        -999.25        -999.25        -999.25         0.3576          0.386        -999.25         0.5395      -109.7192      -12.11385      0.1715824
      4212.5000        -999.25        -999.25        -999.25        -999.25        -999.25         0.3753         0.4064        -999.25         0.5578      -110.5381      -12.92913      0.2037932
      4213.0000        -999.25        -999.25        -999.25        -999.25        -999.25         0.3901         0.4153        -999.25         0.5258      -111.2876      -13.67502      0.2315823
      4213.5000        -999.25        -999.25        -999.25        -999.25        -999.25         0.4009         0.4167        -999.25          0.455      -111.6803       -14.0641      0.2523476
      4214.0000        -999.25        -999.25        -999.25        -999.25        -999.25         0.4046         0.4143        -999.25         0.4153      -111.3049      -13.68509      0.2595554
      4214.5000        -999.25        -999.25        -999.25        -999.25        -999.25         0.4042         0.4133        -999.25         0.4111      -110.0723      -12.44888      0.2587739
      4215.0000        -999.25        -999.25        -999.25        -999.25        -999.25         0.4077         0.4176        -999.25         0.4229      -108.0237      -10.39666      0.2656311
      4215.5000        -999.25        -999.25        -999.25        -999.25        -999.25         0.4254         0.4338        -999.25         0.4454      -106.2114       -8.58075      0.3009589
      4216.0000        -999.25        -999.25        -999.25        -999.25        -999.25          0.463         0.4596        -999.25         0.4691      -104.3457      -6.711441      0.3795601
      4216.5000        -999.25        -999.25        -999.25        -999.25        -999.25          0.508         0.4933        -999.25          0.491      -103.2607      -5.622818      0.4798549
      4217.0000        -999.25        -999.25        -999.25        -999.25        -999.25         0.5495         0.5198        -999.25          0.508      -102.9923      -5.350807      0.5782187
      4217.5000        -999.25        -999.25        -999.25        -999.25        -999.25         0.5825         0.5469        -999.25         0.5147      -103.4104      -5.765297      0.6603715
      4218.0000        -999.25        -999.25        -999.25        -999.25        -999.25         0.5861         0.5546        -999.25         0.5137      -105.2363      -7.587578      0.6695418
      4218.5000        -999.25        -999.25        -999.25        -999.25        -999.25         0.5538         0.5435        -999.25         0.5129      -107.4963      -9.843964      0.5887275
      4219.0000        -999.25        -999.25        -999.25        -999.25        -999.25         0.5099         0.5253        -999.25         0.4955      -109.6506      -11.99465      0.4842362
      4219.5000        -999.25        -999.25        -999.25        -999.25        -999.25         0.4687         0.4932        -999.25         0.4678      -111.0444      -13.38484      0.3918922
      4220.0000        -999.25        -999.25        -999.25        -999.25        -999.25         0.4344         0.4646        -999.25         0.4352      -111.9122      -14.24902      0.3193355
      4220.5000        -999.25        -999.25        -999.25        -999.25        -999.25         0.4053         0.4536        -999.25         0.4144      -112.4138      -14.74702      0.2609244
      4221.0000        -999.25        -999.25        -999.25        -999.25        -999.25          0.385         0.4646        -999.25         0.4153      -112.8047       -15.1343      0.2219189
      4221.5000        -999.25        -999.25        -999.25        -999.25        -999.25         0.3711          0.466        -999.25         0.4273      -113.4288      -15.75478      0.1960486
      4222.0000        -999.25        -999.25        -999.25        -999.25        -999.25         0.3643         0.4532        -999.25         0.4384      -113.9475      -16.26987      0.1836433
      4222.5000        -999.25        -999.25        -999.25        -999.25        -999.25         0.3645         0.4317        -999.25          0.429      -114.2146      -16.53336      0.1840057
      4223.0000        -999.25        -999.25        -999.25        -999.25        -999.25           0.38          0.407        -999.25          0.412      -113.7603      -16.07544      0.2125341
