#------------------------------------------------------------------------------
# Created by    : vladimir.rabinovich
# Created on    : 09/19/2023 17:20:32
#------------------------------------------------------------------------------
~Version Information Section
VERS.           2.0     :   CWLS log ASCII Standard - VERSION 2.0
WRAP.           NO      :   One line per depth step
~Well Information Section
#MNEM       .UNIT                                         VALUE :DESCRIPTION
#------------------------------------------------------------------------------
STRT        .FT                                             530 :START DEPTH
STOP        .FT                                           15895 :STOP DEPTH
STEP        .FT                                             0.5 :STEP      
NULL        .                                           -999.25 :NULL      
COMP        .                                      SHELL OIL CO :COMPANY   
WELL        .                                OCS 00708 ST00BP00 :WELL      
FLD         .                                FEDERAL BLOCK 0288 :FIELD     
LOC         .                                                   :LOCATION  
CNTY        .                             GALVESTON LARGE BLOCK :LOCATION  
STAT        .                                             TEXAS :STATE     
CTRY        .                                     UNITED STATES :COUNTRY   
SRVC        .                                                   :SERVICE COMPANY
DATE        .                             9/13/2023 11:19:24 AM :LOG DATE  
API         .                                    42706000930000 :API NUMBER
UWI         .                                    42706000930000 :UNIQUE WELL ID
XCOORD      .                                  1077631.85251343 :SURFACE X 
YCOORD      .                                  10490946.9562601 :SURFACE Y 
LAT         .                                         28.896779 :LATITUDE  
LON         .                                        -94.759235 :LONGITUDE 
ELEV        .FT                                              76 :ELEVATION VALUE
ELEV_TYPE   .                                                KB :ELEVATION REFERENCE TYPE
~Curve Information Section
#MNEM       .UNIT                                      API CODE :CURVE DESCRIPTION
#------------------------------------------------------------------------------
DEPT        .FT                                                 :DEPTH     
ASN         .OHMM                                               :          
CILD        .MMHO                                               :          
SP          .MV                                                 :          
SP_NORM     .MV                                                 :SP Normalized
VSH_SP      .V/V                                                :Volume of Shale from SP
~A        DEPTH            ASN           CILD             SP        SP_NORM         VSH_SP
# ...
     10738.0000         0.7432         1990.5       -54.6328       -14.6328       0.650441
     10738.5000         0.6838           2248       -53.6367       -13.6367      0.6759821
     10739.0000         0.6425       2746.938       -52.6602       -12.6602      0.7010205
     10739.5000         0.5996       2783.125       -51.1367       -11.1367      0.7400846
     10740.0000         0.5151       2827.875       -48.6875        -8.6875      0.8028846
     10740.5000         0.5015       2848.344       -46.6445      -6.644501      0.8552692
     10741.0000         0.4988       2842.875       -45.6406      -5.640598      0.8810103
     10741.5000          0.498       2834.188       -45.3772      -5.377201      0.8877641
     10742.0000         0.4957       2825.094       -45.5505      -5.550499      0.8833205
     10742.5000         0.4916       2816.016       -45.7046      -5.704601      0.8793692
     10743.0000         0.4851       2806.328       -45.4653      -5.465302      0.8855051
     10743.5000         0.4781        2809.25       -45.2261      -5.226101      0.8916385
     10744.0000         0.4702       2835.563       -44.9868      -4.986801      0.8977743
     10744.5000         0.4622       2877.313       -44.6904      -4.690399      0.9053744
     10745.0000         0.4556           2977       -44.3535        -4.3535      0.9140128
     10745.5000         0.4546         3027.5       -44.0161      -4.016102       0.922664
     10746.0000         0.4536       2990.219       -43.6792      -3.679199      0.9313026
     10746.5000         0.4538       2956.375       -43.4933      -3.493301      0.9360692
     10747.0000         0.4548       2916.813       -43.4767        -3.4767      0.9364949
     10747.5000         0.4557       2887.125       -43.4601      -3.460098      0.9369206
     10748.0000         0.4562       2857.438       -43.4436        -3.4436      0.9373436
     10748.5000         0.4563       2842.875        -43.449      -3.449001      0.9372051
     10749.0000         0.4564       2848.859       -43.5155      -3.515499         0.9355
     10749.5000         0.4565       2856.906        -43.582      -3.582001      0.9337949
     10750.0000         0.4566       2869.656       -43.6486      -3.648602      0.9320871
     10750.5000         0.4565       2882.406       -43.7151      -3.715099      0.9303821
     10751.0000         0.4564        2899.75       -43.7603        -3.7603      0.9292231
     10751.5000         0.4553       2930.313       -43.7531      -3.753101      0.9294077
     10752.0000         0.4535       2952.938        -43.746      -3.745998      0.9295898
     10752.5000         0.4516       2981.375        -43.739      -3.738998      0.9297693
     10753.0000         0.4498        3008.75       -43.7262        -3.7262      0.9300975
     10753.5000          0.448         3035.5       -43.6531      -3.653099      0.9319718
     10754.0000         0.4458       3056.281         -43.58      -3.580002      0.9338461
     10754.5000         0.4433       3076.531       -43.5068      -3.506802       0.935723
     10755.0000         0.4409       3095.188       -43.4337      -3.433701      0.9375974
     10755.5000         0.4388       3114.063       -43.3885        -3.3885      0.9387564
     10756.0000         0.4376         3096.5        -43.348         -3.348      0.9397949
     10756.5000         0.4368       3077.625       -43.3074        -3.3074      0.9408359
     10757.0000         0.4398       3048.625       -43.2668        -3.2668      0.9418769
     10757.5000         0.4429       3008.125       -43.2263      -3.226299      0.9429154
     10758.0000         0.4459       2949.188       -43.1857      -3.185699      0.9439564
     10758.5000          0.449         2906.5       -43.1451        -3.1451      0.9449974
     10759.0000          0.452        2865.25       -43.1576        -3.1576      0.9446769
     10759.5000         0.4546       2836.875       -43.2377      -3.237701       0.942623
     10760.0000         0.4557       2804.375       -43.3176        -3.3176      0.9405743
     10760.5000         0.4568       2788.938       -43.3977      -3.397701      0.9385205
     10761.0000         0.4579       2808.188       -43.4778      -3.477798      0.9364667
     10761.5000          0.456        2830.75       -43.5579      -3.557899      0.9344128
     10762.0000         0.4533         2868.5       -43.6124        -3.6124      0.9330154
     10762.5000         0.4518       2907.813       -43.6009      -3.600899      0.9333103
     10763.0000         0.4509       2951.438       -43.5894      -3.589401      0.9336051
     10763.5000         0.4501       2989.063       -43.5779        -3.5779         0.9339
     10764.0000         0.4492       3007.281       -43.5663      -3.566299      0.9341974
     10764.5000         0.4483       3018.906       -43.5549      -3.554901      0.9344897
     10765.0000         0.4475       3025.109       -43.5433      -3.543301      0.9347872
     10765.5000         0.4477       3027.988       -43.5319      -3.531898      0.9350795
     10766.0000         0.4485       3030.637       -43.5203      -3.520302      0.9353769
     10766.5000         0.4494       3028.082       -43.4586      -3.458599       0.936959
     10767.0000         0.4502       2959.375       -43.3723      -3.372299      0.9391718
     10767.5000         0.4511        2867.25       -43.2859        -3.2859      0.9413872
     10768.0000         0.4544       2794.375       -43.1996        -3.1996         0.9436
     10768.5000         0.4609        2704.25       -43.1133        -3.1133      0.9458128
     10769.0000         0.4673        2647.75       -43.0269      -3.026901      0.9480281
     10769.5000         0.4737        2568.25       -43.1147        -3.1147      0.9457769
     10770.0000         0.4802           2495        -43.238      -3.237999      0.9426154
     10770.5000         0.4866        2445.25       -43.4561        -3.4561       0.937023
     10771.0000          0.493       2398.781       -43.6904      -3.690399      0.9310154
     10771.5000         0.4988       2383.219       -43.9248      -3.924801      0.9250051
     10772.0000         0.5037       2367.625       -44.1597      -4.159698      0.9189821
     10772.5000         0.4996        2380.75        -44.394      -4.394001      0.9129744
     10773.0000         0.4955       2440.125       -44.6362        -4.6362      0.9067641
     10773.5000         0.4914        2526.75       -44.8931      -4.893101      0.9001769
     10774.0000         0.4859         2665.5       -45.1484      -5.148399      0.8936308
     10774.5000           0.48       2747.875       -44.9463      -4.946301      0.8988128
     10775.0000         0.4745        2807.75       -44.7441      -4.744099      0.9039975
     10775.5000         0.4695       3005.875        -44.542         -4.542      0.9091795
     10776.0000         0.4644       3040.875       -44.3394      -4.339401      0.9143744
     10776.5000         0.4593           3061       -44.1565      -4.156502       0.919064
     10777.0000         0.4542       3077.781       -44.0127      -4.012699      0.9227513
     10777.5000         0.4492       3094.563       -43.8689        -3.8689      0.9264385
     10778.0000         0.4441       3112.281       -43.7249      -3.724899      0.9301308
     10778.5000          0.439       3132.594       -43.5811        -3.5811      0.9338179
     10779.0000         0.4348       3146.906       -43.4373      -3.437302      0.9375051
     10779.5000         0.4323           3164       -43.2957        -3.2957      0.9411359
     10780.0000         0.4297       3181.406       -43.1992        -3.1992      0.9436103
     10780.5000         0.4268       3198.406        -43.129      -3.129002      0.9454102
     10781.0000         0.4242       3213.938       -43.0916      -3.091599      0.9463693
     10781.5000          0.422       3181.125       -43.0543      -3.054298      0.9473257
