#------------------------------------------------------------------------------
# Created by    : vladimir.rabinovich
# Created on    : 09/19/2023 17:22:28
#------------------------------------------------------------------------------
~Version Information Section
VERS.           2.0     :   CWLS log ASCII Standard - VERSION 2.0
WRAP.           NO      :   One line per depth step
~Well Information Section
#MNEM       .UNIT                                         VALUE :DESCRIPTION
#------------------------------------------------------------------------------
STRT        .FT                                            2981 :START DEPTH
STOP        .FT                                           10477 :STOP DEPTH
STEP        .FT                                             0.5 :STEP      
NULL        .                                           -999.25 :NULL      
COMP        .                          SEAGULL ENERGY E & P INC :COMPANY   
WELL        .                               OCS G13783 ST00BP00 :WELL      
FLD         .                                           WILDCAT :FIELD     
LOC         .                                                   :LOCATION  
CNTY        .                             GALVESTON LARGE BLOCK :LOCATION  
STAT        .                                             TEXAS :STATE     
CTRY        .                                     UNITED STATES :COUNTRY   
SRVC        .                                                   :SERVICE COMPANY
DATE        .                             9/13/2023 11:19:39 AM :LOG DATE  
API         .                                    42706403890000 :API NUMBER
UWI         .                                    42706403890000 :UNIQUE WELL ID
XCOORD      .                                  1047250.65699841 :SURFACE X 
YCOORD      .                                  10470150.2239286 :SURFACE Y 
LAT         .                                         28.838318 :LATITUDE  
LON         .                                         -94.85315 :LONGITUDE 
ELEV        .FT                                              94 :ELEVATION VALUE
ELEV_TYPE   .                                                KB :ELEVATION REFERENCE TYPE
~Curve Information Section
#MNEM       .UNIT                                      API CODE :CURVE DESCRIPTION
#------------------------------------------------------------------------------
DEPT        .FT                                                 :DEPTH     
CILD        .MMHO                                               :          
CNC         .%                                                  :          
DT24        .US/F                                               :          
GR          .GAPI                                               :          
GR_NORM     .GAPI                                               :GammaRay Normalized
PORZ        .%                                                  :          
RFOC        .OHMM                                               :          
RILD        .OHMM                                               :          
RILM        .OHMM                                               :          
RWAZ        .OHMM                                               :          
SP          .MV                                                 :          
SP_NORM     .MV                                                 :SP Normalized
TEN         .LBF                                                :          
VSH_GR      .V/V                                                :Volume of Shale from GR
VSH_SP      .V/V                                                :Volume of Shale from SP
ZCOR        .G/C3                                               :          
ZDEN        .G/C3                                               :          
~A        DEPTH           CILD            CNC           DT24             GR        GR_NORM           PORZ           RFOC           RILD           RILM           RWAZ             SP        SP_NORM            TEN         VSH_GR         VSH_SP           ZCOR           ZDEN
# ...
      8936.0000        1017.95         40.864        102.797         88.427       80.43683          17.12          1.152          0.982          1.035          0.036         -1.934     -0.7363952         -14.19              1      0.9894801          0.174          2.368
      8936.5000       1013.349         40.047       100.8669        89.0809       81.22031         17.256           1.16          0.987          1.066          0.036         -1.747     -0.5493952        -21.953              1      0.9921515          0.159          2.365
      8937.0000       1011.619         39.996         95.981        86.9349       78.64391         16.894          1.239          0.988          1.078          0.035         -2.273      -1.075395        -38.138      0.9711469      0.9846372          0.158          2.371
      8937.5000       1006.492        39.8929         94.167        83.4409        74.4499         15.988           1.37          0.993          1.074          0.031         -3.764      -2.566395        -53.949      0.8819127      0.9633372          0.151          2.386
      8938.0000       998.9619         38.537         95.063         83.381       74.37682         15.788          1.379          1.001          1.083          0.031          -5.27      -4.072395         -58.79      0.8803578      0.9418229          0.136          2.389
      8938.5000       992.5088         36.227         98.236         86.829       78.51321         17.225          1.227          1.008          1.111          0.037          -6.37      -5.172395        -40.964      0.9683663      0.9261087          0.145          2.366
      8939.0000       994.8828         34.106       101.2699         88.679       80.73201         18.783          1.123          1.005          1.134          0.045         -8.119      -6.921396        -16.703              1      0.9011229          0.174           2.34
      8939.5000       1011.691         32.819        99.9249         84.933        76.2356         18.701          1.161          0.988          1.126          0.043        -11.902       -10.7044        -18.549      0.9199064      0.8470801          0.181          2.341
      8940.0000       1032.768         31.375        94.5869        77.0129       66.73028         17.346          1.319          0.968          1.098          0.036        -17.853       -16.6554        -40.264      0.7176655      0.7620658          0.153          2.364
      8940.5000         1041.6         30.013         89.828        69.2489       57.41227         16.203          1.488           0.96          1.077          0.031        -24.844      -23.64639        -51.403      0.5194101      0.6621944          0.108          2.383
      8941.0000       1035.854          29.19        88.9989        65.2909       52.66148         15.573          1.542          0.965          1.075          0.029        -30.832       -29.6344       -48.7029      0.4183293      0.5766515           0.08          2.393
      8941.5000       1024.064         28.852          89.49         64.521       51.73639         14.987          1.512          0.976          1.082          0.027        -33.605      -32.40739        -48.683      0.3986466      0.5370372          0.077          2.403
      8942.0000       1010.829         28.482        89.9449        64.4829       51.68947         14.457          1.488          0.989          1.089          0.025        -32.985       -31.7874        -54.506      0.3976483      0.5458943          0.082          2.411
      8942.5000       996.3584          27.77         89.923        64.6379       51.87426         14.489          1.475          1.004          1.098          0.025        -31.411      -30.21339        -52.561        0.40158      0.5683801          0.087          2.411
      8943.0000       980.7266         27.173        88.9249        64.5099       51.71945         15.275          1.451           1.02          1.107          0.029        -30.767       -29.5694         -29.08      0.3982862      0.5775801          0.083          2.398
      8943.5000       964.4277         27.484         87.736         63.528       50.53997          16.31          1.437          1.037          1.115          0.034        -31.078      -29.88039         -1.743      0.3731909      0.5731372          0.078          2.381
      8944.0000       945.4912         28.152         86.976         62.776       49.63636         16.891          1.429          1.058          1.125          0.037        -31.469      -30.27139          0.382      0.3539651      0.5675515          0.086          2.371
      8944.5000       921.1602         28.155         87.776        63.7939       50.85664         16.857          1.391          1.086          1.148          0.038        -31.048       -29.8504        -21.806      0.3799285      0.5735658          0.109          2.372
      8945.0000       892.7334         28.122        91.4989        65.1239       52.45144         16.446          1.332           1.12          1.194          0.037        -29.526      -28.32839        -37.421      0.4138603      0.5953087          0.126          2.379
      8945.5000       865.4551         28.661        94.5829        65.1899       52.52944         15.995          1.299          1.156          1.253          0.036        -27.372      -26.17439        -17.022        0.41552      0.6260801          0.124          2.386
      8946.0000       844.7207           29.5         96.162         64.428       51.61395         15.849          1.321          1.184          1.295          0.036        -25.155       -23.9574         26.197      0.3960414      0.6577515          0.124          2.388
      8946.5000       834.1436         30.663        94.8929         64.829       52.09395         15.834          1.392          1.199          1.302          0.037        -22.899       -21.7014         39.666      0.4062542      0.6899801          0.135          2.389
      8947.0000       833.7197         32.103        90.7889         68.396       56.37314         15.361          1.459          1.199          1.279          0.034        -20.063      -18.86539         11.079      0.4973008      0.7304944          0.145          2.397
      8947.5000       839.3037         33.447        90.0359         74.054       63.16154         14.524          1.456          1.191          1.242           0.03        -16.613       -15.4154         -4.429      0.6417349      0.7797801          0.151           2.41
      8948.0000       846.9092        34.6609         90.783        78.5139       68.51221         14.003          1.387          1.181          1.206          0.028        -13.165      -11.96739         19.313      0.7555791      0.8290372          0.159          2.419
      8948.5000       855.7725         35.935         92.704        80.8269       71.28661         13.872          1.315          1.168          1.177          0.027        -10.374      -9.176394          34.78      0.8146086      0.8689086          0.158          2.421
      8949.0000       866.3213         37.137        95.5139        82.6969        73.5294         13.818          1.285          1.154          1.158          0.026         -8.391      -7.193395          5.075      0.8623278      0.8972372          0.151          2.422
      8949.5000       873.9453         37.935        95.5399        84.3359       75.49499         14.135          1.287          1.144           1.15          0.027         -7.124      -5.926395        -37.602      0.9041487      0.9153372           0.15          2.417
      8950.0000       871.2637         37.448        94.9679        84.0049       75.09659         15.451          1.293          1.148          1.162          0.033         -6.541      -5.343395        -47.746      0.8956721      0.9236658          0.145          2.395
      8950.5000       859.9805         36.163        96.6589         82.355       73.11551         17.847          1.297          1.163            1.2          0.046         -6.721      -5.523396         -32.25      0.8535215      0.9210944          0.142          2.355
