#------------------------------------------------------------------------------
# Created by    : vladimir.rabinovich
# Created on    : 09/19/2023 17:20:49
#------------------------------------------------------------------------------
~Version Information Section
VERS.           2.0     :   CWLS log ASCII Standard - VERSION 2.0
WRAP.           NO      :   One line per depth step
~Well Information Section
#MNEM       .UNIT                                         VALUE :DESCRIPTION
#------------------------------------------------------------------------------
STRT        .FT                                             507 :START DEPTH
STOP        .FT                                            6530 :STOP DEPTH
STEP        .FT                                             0.5 :STEP      
NULL        .                                           -999.25 :NULL      
COMP        .                                      SHELL OIL CO :COMPANY   
WELL        .                                ST TR 00692-L SE/4 :WELL      
FLD         .                                           WILDCAT :FIELD     
LOC         .                                                   :LOCATION  
CNTY        .                      MATAGORDA ISLAND LARGE BLOCK :LOCATION  
STAT        .                                             TEXAS :STATE     
CTRY        .                                     UNITED STATES :COUNTRY   
SRVC        .                                                   :SERVICE COMPANY
DATE        .                             9/13/2023 11:12:05 AM :LOG DATE  
API         .                                    42703000180000 :API NUMBER
UWI         .                                    42703000180000 :UNIQUE WELL ID
XCOORD      .                                  399042.886430441 :SURFACE X 
YCOORD      .                                  10159669.4462586 :SURFACE Y 
LAT         .                                        27.9430215 :LATITUDE  
LON         .                                       -96.8445442 :LONGITUDE 
ELEV        .FT                                              84 :ELEVATION VALUE
ELEV_TYPE   .                                                DF :ELEVATION REFERENCE TYPE
~Curve Information Section
#MNEM       .UNIT                                      API CODE :CURVE DESCRIPTION
#------------------------------------------------------------------------------
DEPT        .FT                                                 :DEPTH     
ASN         .OHMM                                               :          
CILD        .MMHO                                               :          
ILD         .OHMM                                               :          
SP          .MV                                                 :          
SP_NORM     .MV                                                 :SP Normalized
VSH_SP      .V/V                                                :Volume of Shale from SP
~A        DEPTH            ASN           CILD            ILD             SP        SP_NORM         VSH_SP
# ...
      4497.0000         0.7562       4306.719         0.1855      -108.2532       -70.5173              0
      4497.5000         0.7548       4314.531         0.1849      -108.5585       -70.8226              0
      4498.0000         0.7521       4321.953         0.1842      -108.7474       -71.0116              0
      4498.5000         0.7486       4329.375         0.1836      -108.5234       -70.7876              0
      4499.0000         0.7451       4336.805          0.183        -108.26       -70.5242              0
      4499.5000         0.7415       4330.063         0.1827       -107.882       -70.1461              0
      4500.0000         0.7355       4260.828         0.1841       -107.504       -69.7681    0.003410339
      4500.5000         0.7292       4220.852         0.1856       -107.209       -69.4731    0.007748548
      4501.0000         0.7228       4182.703         0.1871      -106.9451       -69.2092     0.01162944
      4501.5000         0.7164       4147.102         0.1886      -106.6813       -68.9454     0.01550888
      4502.0000         0.7101         4156.5         0.1901      -106.6034       -68.8676     0.01665295
      4502.5000         0.7107       4177.773         0.1916      -106.7999        -69.064     0.01376466
      4503.0000         0.7207       4199.047         0.1931      -106.9966       -69.2607     0.01087211
      4503.5000         0.7443       4220.328         0.1946      -107.2415       -69.5056    0.007270589
      4504.0000         0.7657       4241.609          0.196      -107.5588        -69.823     0.00260297
      4504.5000         0.7777       4262.898         0.1975      -107.8761       -70.1402              0
      4505.0000         0.7847       4285.523          0.199      -108.1935       -70.4576              0
      4505.5000          0.785       4310.547         0.2005      -108.5597       -70.8239              0
      4506.0000         0.7854       4117.945          0.202      -109.1646       -71.4287              0
      4506.5000         0.7866       4009.875         0.2035       -108.882       -71.1461              0
      4507.0000         0.7879       3598.102         0.2146      -107.8265       -70.0907              0
      4507.5000         0.7893       3179.957         0.2302       -104.022       -66.2861     0.05461614
      4508.0000          0.797       2762.211         0.2458      -101.8281       -64.0923     0.08687793
      4508.5000         0.8053       2344.461         0.2614       -99.7992       -62.0634      0.1167147
      4509.0000         0.8137       2004.414         0.2771        -97.816       -60.0802      0.1458794
      4509.5000         0.8221        2004.59         0.3175       -95.8341       -58.0982      0.1750264
      4510.0000         0.8357       2004.766         0.4029       -93.4183       -55.6824      0.2105529
      4510.5000         0.8531       2004.941         0.4882       -91.2047       -53.4688      0.2431059
      4511.0000         0.8705       2002.377         0.5718       -86.4897       -48.7538      0.3124441
      4511.5000         0.8879        1905.57         0.6094       -82.7341       -44.9982      0.3676735
      4512.0000         0.9186       1808.861         0.6219       -82.1724       -44.4366      0.3759324
      4512.5000         0.9512       1712.053         0.6058        -81.611       -43.8751      0.3841897
      4513.0000         1.0148       1615.246         0.5808       -80.9382       -43.2024      0.3940823
      4513.5000         1.0562       1518.537         0.5335       -79.2538       -41.5179      0.4188544
      4514.0000         0.9004       1696.398         0.4862       -75.3483       -37.6124      0.4762882
      4514.5000         0.8515       1904.678         0.4389       -73.2795       -35.5437      0.5067103
      4515.0000         0.8136       2121.125         0.3916        -71.465       -33.7291      0.5333956
      4515.5000         0.7873       2347.125         0.3443       -72.2098       -34.4739      0.5224426
      4516.0000         0.7654        2573.25          0.297        -75.399       -37.6632      0.4755412
      4516.5000         0.7405       2799.375         0.2699       -84.0282       -46.2923      0.3486426
      4517.0000         0.7467       3025.375         0.2449       -88.1432       -50.4074      0.2881265
      4517.5000         0.7694         3251.5         0.2386         -91.17       -53.4341      0.2436162
      4518.0000         0.7824         3477.5         0.2393       -93.8175       -56.0816      0.2046824
      4518.5000         0.7955       3619.703         0.2401       -96.2444       -58.5085      0.1689927
      4519.0000         0.7907       3560.895         0.2408       -98.5361       -60.8003      0.1352897
      4519.5000         0.7761       3525.719         0.2415        -99.744       -62.0082      0.1175264
      4520.0000         0.7583       3490.668         0.2422      -101.4426       -63.7067     0.09254854
      4520.5000         0.7406       3476.301         0.2402      -100.1146       -62.3787      0.1120779
      4521.0000         0.7264       3511.676         0.2275       -100.743       -63.0071      0.1028368
      4521.5000         0.7123       3578.086         0.2148      -101.3707       -63.6348     0.09360588
      4522.0000         0.7161         3978.5         0.2021      -102.2595       -64.5237     0.08053387
      4522.5000         0.7337       4099.516         0.1932      -103.5325       -65.7966      0.0618147
      4523.0000         0.7513       4206.531          0.185      -104.9454       -67.2095     0.04103672
      4523.5000         0.7644       4313.547         0.1767      -106.7067       -68.9709      0.0151338
      4524.0000         0.7719       4420.555         0.1696      -108.1432       -70.4073              0
      4524.5000         0.7793        4527.57         0.1762      -108.9229        -71.187              0
      4525.0000         0.7583       4634.586         0.1828      -109.7019        -71.966              0
      4525.5000         0.7005       4579.297         0.1894      -110.4719       -72.7361              0
      4526.0000          0.683       4493.734         0.1959      -110.7411       -73.0052              0
      4526.5000         0.6782       4408.172         0.2025      -110.4006       -72.6647              0
      4527.0000         0.6758       4322.656         0.2091      -110.0601       -72.3242              0
      4527.5000         0.6733       4237.102         0.2157      -109.2123       -71.4765              0
      4528.0000         0.6709       4151.539         0.2233      -108.3558       -70.6199              0
      4528.5000         0.6684       4065.977         0.2359      -107.6066       -69.8707    0.001901514
      4529.0000         0.6589         3957.5         0.2485      -106.9689        -69.233     0.01127939
      4529.5000          0.642        3817.25         0.2608      -106.4659         -68.73     0.01867642
      4530.0000         0.6264       3678.563         0.2592      -106.1251       -68.3893      0.0236868
      4530.5000         0.6306       3575.266         0.2575      -105.8491       -68.1133     0.02774564
      4531.0000         0.6378       3511.031         0.2558       -105.573       -67.8371     0.03180739
      4531.5000         0.6444       3498.105         0.2541      -105.3687       -67.6328     0.03481181
      4532.0000          0.643       3489.969         0.2578      -105.2758       -67.5399     0.03617791
      4532.5000         0.6388       3481.836         0.2642      -105.1694       -67.4335     0.03774261
      4533.0000         0.6342       3473.707         0.2705      -105.0146       -67.2787     0.04001909
      4533.5000         0.6279       3459.207         0.2769      -104.8599       -67.1241     0.04229265
      4534.0000         0.6274       3410.484         0.2833      -104.7051       -66.9693     0.04456913
      4534.5000         0.6547       3270.426         0.2897      -104.5503       -66.8145      0.0468456
