#------------------------------------------------------------------------------
# Created by    : vladimir.rabinovich
# Created on    : 09/19/2023 17:21:46
#------------------------------------------------------------------------------
~Version Information Section
VERS.           2.0     :   CWLS log ASCII Standard - VERSION 2.0
WRAP.           NO      :   One line per depth step
~Well Information Section
#MNEM       .UNIT                                         VALUE :DESCRIPTION
#------------------------------------------------------------------------------
STRT        .FT                                            2869 :START DEPTH
STOP        .FT                                           10002 :STOP DEPTH
STEP        .FT                                             0.5 :STEP      
NULL        .                                           -999.25 :NULL      
COMP        .                          SEAGULL ENERGY E & P INC :COMPANY   
WELL        .                               OCS G06145 ST00BP00 :WELL      
FLD         .                                           WILDCAT :FIELD     
LOC         .                                                   :LOCATION  
CNTY        .                           HIGH ISLAND LARGE BLOCK :LOCATION  
STAT        .                                             TEXAS :STATE     
CTRY        .                                     UNITED STATES :COUNTRY   
SRVC        .                                                   :SERVICE COMPANY
DATE        .                             9/13/2023 11:19:59 AM :LOG DATE  
API         .                                    42708402850000 :API NUMBER
UWI         .                                    42708402850000 :UNIQUE WELL ID
XCOORD      .                                  1277324.30822617 :SURFACE X 
YCOORD      .                                   10672684.104362 :SURFACE Y 
LAT         .                                         29.403374 :LATITUDE  
LON         .                                        -94.140646 :LONGITUDE 
ELEV        .FT                                              88 :ELEVATION VALUE
ELEV_TYPE   .                                                KB :ELEVATION REFERENCE TYPE
~Curve Information Section
#MNEM       .UNIT                                      API CODE :CURVE DESCRIPTION
#------------------------------------------------------------------------------
DEPT        .FT                                                 :DEPTH     
CALI        .IN                                                 :          
DPHI        .%                                                  :          
DRHO        .G/C3                                               :          
GR          .GAPI                                               :          
GR_NORM     .GAPI                                               :GammaRay Normalized
ILD         .OHMM                                               :          
ILM         .OHMM                                               :          
NPHI        .%                                                  :          
SFL         .OHMM                                               :          
SP          .MV                                                 :          
SP_NORM     .MV                                                 :SP Normalized
VSH_GR      .V/V                                                :Volume of Shale from GR
VSH_SP      .V/V                                                :Volume of Shale from SP
~A        DEPTH           CALI           DPHI           DRHO             GR        GR_NORM            ILD            ILM           NPHI            SFL             SP        SP_NORM         VSH_GR         VSH_SP
# ...
      3002.0000        -999.25        -999.25        -999.25        35.7839       41.34189        -999.25        -999.25        67.7896        -999.25        -999.25        -999.25       0.177487        -999.25
      3002.5000        -999.25        -999.25        -999.25        34.0221       38.93787        -999.25        -999.25        62.3744        -999.25        -999.25        -999.25      0.1263377        -999.25
      3003.0000        -999.25        -999.25        -999.25         32.697       37.12974        -999.25        -999.25        58.4695        -999.25        -999.25        -999.25     0.08786684        -999.25
      3003.5000        -999.25        -999.25        -999.25        32.7702       37.22962        -999.25        -999.25        57.2149        -999.25        -999.25        -999.25     0.08999196        -999.25
      3004.0000        -999.25        -999.25        -999.25        33.2783       37.92294        -999.25        -999.25        59.8624        -999.25        -999.25        -999.25      0.1047434        -999.25
      3004.5000        -999.25        -999.25        -999.25        33.8818       38.74644        -999.25        -999.25        60.6313        -999.25        -999.25        -999.25      0.1222646        -999.25
      3005.0000        -999.25        -999.25        -999.25        34.7608       39.94585        -999.25        -999.25        63.1067        -999.25        -999.25        -999.25       0.147784        -999.25
      3005.5000        -999.25        -999.25        -999.25        35.5406        41.0099        -999.25        -999.25        63.7553        -999.25        -999.25        -999.25      0.1704234        -999.25
      3006.0000        -999.25        -999.25        -999.25         35.035          40.32        -999.25        -999.25        63.4977        -999.25        -999.25        -999.25      0.1557446        -999.25
      3006.5000        -999.25        -999.25        -999.25        33.6525       38.43354        -999.25        -999.25        64.9636        -999.25        -999.25        -999.25      0.1156072        -999.25
      3007.0000        -999.25        -999.25        -999.25        32.1315       36.35811        -999.25        -999.25        66.2478        -999.25        -999.25        -999.25      0.0714492        -999.25
      3007.5000        -999.25        -999.25        -999.25        31.0014       34.81606        -999.25        -999.25        66.8955        -999.25        -999.25        -999.25     0.03863947        -999.25
      3008.0000        -999.25        -999.25        -999.25        30.7659       34.49471        -999.25        -999.25        67.6465        -999.25        -999.25        -999.25     0.03180232        -999.25
      3008.5000        -999.25        -999.25        -999.25        31.4132       35.37798        -999.25        -999.25        68.5031        -999.25        -999.25        -999.25     0.05059522        -999.25
      3009.0000        -999.25        -999.25        -999.25         32.766        37.2239        -999.25        -999.25        69.3971        -999.25        -999.25        -999.25     0.08987013        -999.25
      3009.5000        -999.25        -999.25        -999.25        34.4267       39.48996        -999.25        -999.25        69.8052        -999.25        -999.25        -999.25      0.1380842        -999.25
      3010.0000        -999.25        -999.25        -999.25        33.9489       38.83799        -999.25        -999.25        69.4135        -999.25        -999.25        -999.25      0.1242125        -999.25
      3010.5000        -999.25        -999.25        -999.25        32.6104       37.01158        -999.25        -999.25        68.7891        -999.25        -999.25        -999.25     0.08535279        -999.25
      3011.0000        -999.25        -999.25        -999.25        31.1747       35.05253        -999.25        -999.25        69.3529        -999.25        -999.25        -999.25      0.0436709        -999.25
      3011.5000        -999.25        -999.25        -999.25         29.737       33.09076        -999.25        -999.25        73.0609        -999.25        -999.25        -999.25    0.001931048        -999.25
      3012.0000        -999.25        -999.25        -999.25        28.7332       31.72105        -999.25        -999.25        79.7159        -999.25        -999.25        -999.25              0        -999.25
      3012.5000        -999.25        -999.25        -999.25        29.4453       32.69272        -999.25        -999.25        83.1072        -999.25        -999.25        -999.25              0        -999.25
      3013.0000        -999.25        -999.25        -999.25         31.622       35.66289        -999.25        -999.25        80.7792        -999.25        -999.25        -999.25     0.05665718        -999.25
      3013.5000        -999.25        -999.25        -999.25        34.7955       39.99319        -999.25        -999.25        74.9537        -999.25        -999.25        -999.25      0.1487914        -999.25
      3014.0000        -999.25        -999.25        -999.25         37.385       43.52663        -999.25        -999.25         69.275        -999.25        -999.25        -999.25      0.2239708        -999.25
      3014.5000        -999.25        -999.25        -999.25        38.5878       45.16787        -999.25        -999.25        67.3623        -999.25        -999.25        -999.25      0.2588908        -999.25
      3015.0000        18.0247        53.0903        -0.0422        39.4789        46.3838       1965.705         0.5154        67.3615         0.6327        -63.237      -15.90415      0.2847617      0.7727978
      3015.5000        18.8719        54.9592        -0.0351        40.0782       47.20155       1527.682         0.5167        67.2571         1.0354       -61.5029      -13.91347      0.3021607      0.8012361
      3016.0000        19.8674        59.8557        -0.0425        40.3989       47.63916       722.5967         0.4941        66.3976         1.0866       -60.1036      -12.30714      0.3114714      0.8241838
      3016.5000        21.1924        62.8626        -0.0601        40.4544       47.71489         6.8566         0.4935        65.2563         0.9972       -58.7278      -10.72777      0.3130827      0.8467461
      3017.0000        21.4542        66.4237        -0.0725        39.1019       45.86937         0.5092         0.5042        64.1505         0.8677       -57.4853      -9.301432      0.2738163      0.8671224
      3017.5000        21.3039        67.7738        -0.0742        37.6856        43.9368         0.4187         0.5206         63.246         0.8166       -56.2372      -7.868669      0.2326979      0.8875905
      3018.0000        21.1218        66.8057         -0.068        37.1528       43.20979         0.4595         0.5437        62.4081         0.8313       -55.1096      -6.574228      0.2172296      0.9060825
      3018.5000        21.2255        64.7847        -0.0611        38.1548       44.57703         0.5273         0.5693        62.2093         0.8826       -53.9854      -5.283693      0.2463198      0.9245186
      3019.0000        21.5448        63.5226        -0.0571        39.4067       46.28528         0.5599         0.5963        62.5679         0.9157       -53.1394      -4.312519      0.2826656      0.9383926
      3019.5000        20.9417         64.274        -0.0606        40.2147       47.38781         0.5497         0.6173        62.6812         0.8827       -52.4481      -3.518936      0.3061236      0.9497295
      3020.0000        20.1624        65.2725        -0.0673        39.8425       46.87994         0.5252         0.6227        61.5433         0.8145       -51.6841      -2.641895      0.2953179      0.9622586
      3020.5000        19.4606        65.9241        -0.0707        39.3703       46.23561         0.5133         0.6103        59.1467         0.7641       -51.0358      -1.897673      0.2816088      0.9728904
