#------------------------------------------------------------------------------
# Created by    : vladimir.rabinovich
# Created on    : 09/19/2023 17:22:45
#------------------------------------------------------------------------------
~Version Information Section
VERS.           2.0     :   CWLS log ASCII Standard - VERSION 2.0
WRAP.           NO      :   One line per depth step
~Well Information Section
#MNEM       .UNIT                                         VALUE :DESCRIPTION
#------------------------------------------------------------------------------
STRT        .FT                                             270 :START DEPTH
STOP        .FT                                            9392 :STOP DEPTH
STEP        .FT                                             0.5 :STEP      
NULL        .                                           -999.25 :NULL      
COMP        .                                     TALOS ERT LLC :COMPANY   
WELL        .                               OCS G12363 ST00BP00 :WELL      
FLD         .                                 BRAZOS BLOCK 0453 :FIELD     
LOC         .                                                   :LOCATION  
CNTY        .                                BRAZOS LARGE BLOCK :LOCATION  
STAT        .                                             TEXAS :STATE     
CTRY        .                                     UNITED STATES :COUNTRY   
SRVC        .                                                   :SERVICE COMPANY
DATE        .                             9/13/2023 11:19:08 AM :LOG DATE  
API         .                                    42704401340000 :API NUMBER
UWI         .                                    42704401340000 :UNIQUE WELL ID
XCOORD      .                                  788791.944469438 :SURFACE X 
YCOORD      .                                  10354739.7167093 :SURFACE Y 
LAT         .                                         28.507622 :LATITUDE  
LON         .                                        -95.652007 :LONGITUDE 
ELEV        .FT                                             100 :ELEVATION VALUE
ELEV_TYPE   .                                                KB :ELEVATION REFERENCE TYPE
~Curve Information Section
#MNEM       .UNIT                                      API CODE :CURVE DESCRIPTION
#------------------------------------------------------------------------------
DEPT        .FT                                                 :DEPTH     
DPHI        .%                                                  :          
DT          .US/F                                               :          
GR          .GAPI                                               :          
GR_NORM     .GAPI                                               :GammaRay Normalized
ILD         .OHMM                                               :          
ILM         .OHMM                                               :          
LL          .OHMM                                               :          
NPHI        .%                                                  :          
SP          .MV                                                 :          
SP_NORM     .MV                                                 :SP Normalized
VSH_GR      .V/V                                                :Volume of Shale from GR
VSH_SP      .V/V                                                :Volume of Shale from SP
~A        DEPTH           DPHI             DT             GR        GR_NORM            ILD            ILM             LL           NPHI             SP        SP_NORM         VSH_GR         VSH_SP
# ...
      5743.5000        23.8821       118.9468        75.9314       80.27907         0.8685         0.8636         0.9159        50.5628       -42.5439        -3.4458              1       0.838771
      5744.0000        23.6009       116.4767        76.4379       80.91377         0.8796         0.8766         0.9291        48.1256       -42.4341        -3.3447              1      0.8416342
      5744.5000        23.4602       114.7762        77.3412       82.04746          0.884         0.8834          0.935        44.9046       -42.3654        -3.2847              1      0.8434132
      5745.0000        23.4378       115.8591        76.3386       80.78531         0.8873         0.8889         0.9333        42.3007       -42.4516        -3.3795              1      0.8411184
      5745.5000        23.5143        117.634        74.9233       79.00655         0.8869         0.8948         0.9225        43.6912       -42.5527        -3.4893      0.9788627      0.8384316
      5746.0000         23.757       119.0675        74.5195       78.49973         0.8922         0.9009         0.9109        46.5727       -42.5264        -3.4717      0.9680793      0.8390948
      5746.5000        23.9758       120.2052        74.9307       79.01776          0.897         0.9062         0.9145        48.5493        -42.475        -3.4289      0.9791013       0.840421
      5747.0000        24.1749       121.4131        74.5352       78.52138         0.8949         0.9115         0.9221        49.3966       -42.4804         -3.443        0.96854      0.8402526
      5747.5000         23.957       122.8608        74.0581       77.92238         0.8854         0.9147         0.9236        46.7115       -42.5115        -3.4827      0.9557953      0.8394052
      5748.0000        23.8559       123.3994        73.5676       77.30654         0.8863         0.9173         0.9227        44.3171       -42.6395        -3.6194      0.9426924      0.8360105
      5748.5000        24.3434       122.8694        73.0255       76.62581         0.8874         0.9194         0.9198        43.0092       -42.7591        -3.7477      0.9282087      0.8328369
      5749.0000        24.7549       117.3739        72.7473       76.27693         0.8897         0.9211         0.9195        43.7134        -42.849        -3.8462      0.9207858      0.8304448
      5749.5000        24.8207       110.8167        72.6489       76.15415         0.8929         0.9199         0.9399        42.8941       -42.8897        -3.8956      0.9181734      0.8293447
      5750.0000        23.4691       104.8805        72.4258       75.87456         0.8961         0.9153          0.983        39.6347       -42.8408        -3.8553      0.9122247      0.8306053
      5750.5000        21.6549       102.7444        71.8175       75.11058         0.8964          0.915         1.0398        38.2257       -42.9897        -4.0129      0.8959698      0.8266605
      5751.0000        19.7108        104.735        70.8322       73.87254         0.8965         0.9169         1.0785        38.6066       -43.3733        -4.4052      0.8696286      0.8165368
      5751.5000        18.8013       108.1641        69.6965       72.44538         0.8924         0.9173         1.0654        38.0301       -43.8491        -4.8896      0.8392634      0.8039895
      5752.0000        19.0679       110.8733        68.8859       71.42702         0.8779         0.9173         1.0404        38.5446        -44.301        -5.3502      0.8175961       0.792071
      5752.5000          19.84       113.0229        68.8225       71.34824          0.861         0.9106         1.0047        40.0008       -44.7373        -5.7952      0.8159199      0.7805605
      5753.0000        20.6807       114.1089        68.7068       71.20371         0.8375         0.9027         0.9839        41.4858        -45.066        -6.1325      0.8128449      0.7718842
      5753.5000        21.5206       113.0476        67.3677       69.52076          0.821         0.8908         0.9765        42.6786       -45.5139        -6.5891      0.7770374       0.760071
      5754.0000        22.3273       111.7953        66.0015       67.80375         0.8107         0.8791         0.9792        45.2678       -45.8783        -6.9621      0.7405053      0.7504553
      5754.5000        22.9001       113.7131        65.6536       67.36723         0.8063         0.8828          0.981        45.5571       -45.2423        -6.3348      0.7312176      0.7671632
      5755.0000        23.4042       116.0724        65.8984       67.67599         0.8048         0.8925         0.9791        42.9974       -44.6162        -5.7174      0.7377871      0.7836131
      5755.5000        22.9539       117.9508        67.6656       69.89918         0.8166         0.9046         0.9767        40.3787       -43.6627        -4.7725      0.7850889      0.8086789
      5756.0000        22.0882       115.8899         68.304        70.7029         0.8485          0.918         0.9689        38.8671       -43.5283        -4.6468      0.8021895      0.8121868
      5756.5000        21.5763       111.8224         69.943       72.76488         0.8728         0.9319         0.9614        37.1444       -43.6752        -4.8023      0.8460612      0.8082948
      5757.0000        22.1302       107.5922        72.3639       75.81006         0.8877         0.9445         0.9624        35.4482       -43.7748        -4.9106      0.9108523      0.8056474
      5757.5000        22.7078       104.5378        74.5505       78.56062         0.8983         0.9565         0.9876        35.0054       -43.8809        -5.0254      0.9693748      0.8028263
      5758.0000        22.9215       102.8566        74.5505       78.56158         0.9051          0.969         1.0275        36.8196       -44.3881        -5.5412      0.9693954      0.7894526
      5758.5000        22.5074       106.4484          73.15       76.80143         0.9119         0.9827         1.0784        38.1179       -44.9124        -6.0742      0.9319453      0.7756289
      5759.0000        22.0923       111.0286        74.3727       78.33991         0.9158         0.9948         1.0904        38.7332       -45.3519        -6.5224       0.964679      0.7640368
      5759.5000        22.4344       115.1011        75.1613       79.33251         0.9197         1.0009         1.0547        39.3845       -45.5737        -6.7528      0.9857981      0.7581711
      5760.0000        23.1551        118.365        75.4436       79.68845         0.9167         1.0056         1.0329        39.0582       -45.4611        -6.6489      0.9933714      0.7611079
      5760.5000        23.6913       121.0175        75.4626       79.71328         0.9099         1.0038         1.0378        38.8878        -45.304        -6.5004      0.9938996      0.7652158
      5761.0000        23.9555       118.0026        75.2794       79.48389         0.9131         1.0102         1.0461        37.9356       -45.3657        -6.5708      0.9890189      0.7635632
      5761.5000        23.2071       113.6023         75.239       79.43402         0.9208         1.0174         1.0429        37.4673        -45.532        -6.7458      0.9879579      0.7591605
      5762.0000        22.2092       107.3457        75.1986       79.38418           0.93         1.0237         1.0323        37.7755       -45.2684        -6.4908      0.9868974       0.766071
      5762.5000        21.2468       101.4243        75.0325       79.17627         0.9452         1.0205         1.0277        37.2211       -45.0164        -6.2475      0.9824738      0.7726737
      5763.0000        20.1249       100.1461        74.2764       78.22643         0.9586         1.0212         1.0345        36.0698       -44.7908        -6.0305      0.9622644      0.7785842
      5763.5000        19.6302       103.4729        73.9429       77.80801         0.9675         1.0236         1.0745        34.7213       -44.5248        -5.7732      0.9533618      0.7855579
