#------------------------------------------------------------------------------
# Created by    : vladimir.rabinovich
# Created on    : 09/19/2023 17:22:50
#------------------------------------------------------------------------------
~Version Information Section
VERS.           2.0     :   CWLS log ASCII Standard - VERSION 2.0
WRAP.           NO      :   One line per depth step
~Well Information Section
#MNEM       .UNIT                                         VALUE :DESCRIPTION
#------------------------------------------------------------------------------
STRT        .FT                                            2472 :START DEPTH
STOP        .FT                                            8382 :STOP DEPTH
STEP        .FT                                             0.5 :STEP      
NULL        .                                           -999.25 :NULL      
COMP        .                                 EPL OIL & GAS LLC :COMPANY   
WELL        .                               OCS G07215 ST00BP00 :WELL      
FLD         .                                 BRAZOS BLOCK 0376 :FIELD     
LOC         .                                                   :LOCATION  
CNTY        .                                BRAZOS LARGE BLOCK :LOCATION  
STAT        .                                             TEXAS :STATE     
CTRY        .                                     UNITED STATES :COUNTRY   
SRVC        .                                                   :SERVICE COMPANY
DATE        .                             9/13/2023 11:19:08 AM :LOG DATE  
API         .                                    42704402290000 :API NUMBER
UWI         .                                    42704402290000 :UNIQUE WELL ID
XCOORD      .                                  871225.230552878 :SURFACE X 
YCOORD      .                                  10399792.7272756 :SURFACE Y 
LAT         .                                         28.636239 :LATITUDE  
LON         .                                        -95.398308 :LONGITUDE 
ELEV        .FT                                              95 :ELEVATION VALUE
ELEV_TYPE   .                                                KB :ELEVATION REFERENCE TYPE
~Curve Information Section
#MNEM       .UNIT                                      API CODE :CURVE DESCRIPTION
#------------------------------------------------------------------------------
DEPT        .FT                                                 :DEPTH     
DT          .US/F                                               :          
GR          .GAPI                                               :          
GR_NORM     .GAPI                                               :GammaRay Normalized
ILD         .OHMM                                               :          
ILM         .OHMM                                               :          
SFL         .OHMM                                               :          
SP          .MV                                                 :          
SP_NORM     .MV                                                 :SP Normalized
VSH_GR      .V/V                                                :Volume of Shale from GR
VSH_SP      .V/V                                                :Volume of Shale from SP
~A        DEPTH             DT             GR        GR_NORM            ILD            ILM            SFL             SP        SP_NORM         VSH_GR         VSH_SP
# ...
      5608.0000       115.9374        60.5914       71.37273         1.0151         0.9055         0.8952       -42.2313     -0.3966522       0.816441              1
      5608.5000       117.3807        65.0942        76.3778         1.0129         0.9005         0.8936        -42.219     -0.4035721      0.9229319              1
      5609.0000       117.8163        67.7585        79.3401         1.0116         0.8978          0.894       -42.1783     -0.3820915      0.9859596              1
      5609.5000       116.7074        68.1879       79.81918          1.015         0.8966         0.8957       -42.0796     -0.3026123      0.9961527              1
      5610.0000       113.9752        66.2399        77.6567         1.0193         0.9039         0.9002       -41.8602     -0.1024323      0.9501426              1
      5610.5000         111.76        64.3651       75.57555         1.0279         0.9109         0.9102        -41.541      0.1975479      0.9058629              1
      5611.0000       110.7485        63.3326       74.43031         1.0372         0.9195         0.9444       -41.2756      0.4437294      0.8814958              1
      5611.5000       110.3519        63.3588       74.46138         1.0447         0.9377         0.9685       -41.0275      0.6726074       0.882157              1
      5612.0000       110.7303        63.5333       74.65723         1.0516         0.9495         0.9639       -40.8262      0.8546906      0.8863241              1
      5612.5000       112.6274        63.1371       74.21898         1.0478          0.958         0.9516       -40.6084       1.053268      0.8769996              1
      5613.0000       114.6212        62.4464       73.45351         1.0435         0.9656         0.9516       -40.3855       1.256947      0.8607129              1
      5613.5000       115.5574        62.4596       73.47014         1.0382         0.9735         0.9558       -40.2791       1.344128      0.8610668              1
      5614.0000       114.9106        63.8597       75.02777         1.0312         0.9862         0.9441       -40.1409       1.463108      0.8942079              1
      5614.5000       113.1285        65.7273       77.10485         1.0215         0.9975         0.9155       -40.1074       1.477386      0.9384011              1
      5615.0000       113.3007        67.3687       78.93059          1.014         1.0042         0.8976       -40.1129       1.452667      0.9772465              1
      5615.5000       113.8755        68.5901       80.28967          1.008          1.008         0.8911       -40.0747       1.471649              1              1
      5616.0000       113.9558        69.4348       81.23019         1.0105         1.0097         0.8906       -39.9393       1.587826              1              1
      5616.5000       112.7576        69.9192       81.77038          1.014         1.0114         0.8981       -39.7972       1.710709              1              1
      5617.0000       111.6493        70.3821       82.28668         1.0212         1.0131         0.9127       -40.1508       1.337887              1              1
      5617.5000       111.4219        70.8123       82.76665         1.0283         1.0136         0.9333       -40.6893      0.7801666              1              1
      5618.0000       111.3761        71.1709       83.16705         1.0339         1.0145         0.9527       -41.1448      0.3054466              1              1
      5618.5000        111.333        71.1073       83.09836         1.0396          1.018         1.0016       -41.1803      0.2507248              1              1
      5619.0000       111.4707        69.9655       81.83166          1.051         1.0065         1.0162       -40.6774      0.7344055              1              1
      5619.5000       111.6864        68.2736       79.95374         1.0636         0.9884         0.9904       -40.5529      0.8396873      0.9990156              1
      5620.0000       111.8973        67.1821       78.74292         1.0784         0.9735         0.9696       -40.7257      0.6476631      0.9732536              1
      5620.5000       111.8005        67.2134       78.77967         1.0938         0.9639         0.9639       -40.9864      0.3677444      0.9740356              1
      5621.0000       110.5764        68.4252       80.12808         1.1035         0.9657         0.9805       -41.1984       0.136528              1              1
      5621.5000       109.3733        70.7573       82.72127         1.1113         0.9775         1.0063       -41.0776      0.2381058              1              1
      5622.0000       109.0366        72.7428       84.92934         1.1108         0.9882         1.0332        -40.421      0.8754845              1              1
      5622.5000       110.6531        74.7451       87.15609         1.1097         0.9949         1.0626       -39.3295       1.947765              1              1
      5623.0000       111.4523        76.8246       89.46861         1.1058         0.9998         1.0976       -38.2236       3.034447              1              1
      5623.5000       111.1415        77.4653       90.18247         1.1019         1.0018         1.0806       -37.5895       3.649323              1              1
      5624.0000       110.8328        76.4166       89.01922         1.1007         1.0012         1.0341       -37.1536       4.066006              1              1
      5624.5000       110.8024        74.9546       87.39673         1.0995         1.0027         1.0054       -37.0547       4.145683              1              1
      5625.0000       110.8186        73.5298       85.81559          1.094          1.005         1.0082       -36.9761       4.205063              1              1
      5625.5000        110.865        71.6093       83.68367         1.0876         1.0083         1.0342       -36.9176       4.244343              1              1
      5626.0000       110.9347         68.791       80.55419         1.0777         1.0118         1.0191       -36.7897       4.353024              1              1
      5626.5000       110.5059        68.8728       80.64705         1.0656         1.0036          0.985       -36.7646       4.358906              1              1
      5627.0000        109.897        72.7452       84.95168         1.0538         0.9917         0.9662       -36.9872       4.117081              1              1
      5627.5000       109.2183        75.5968       88.12209         1.0423         0.9802         0.9641       -37.7513       3.333763              1              1
      5628.0000       108.5796         75.772       88.31873          1.031         0.9664         0.9862       -38.6785       2.387341              1              1
      5628.5000       109.3611         75.476        87.9918           1.02         0.9494         0.9579       -39.5948       1.451824              1              1
      5629.0000       111.2041         75.502       88.02266         1.0103         0.9309          0.922       -40.0909      0.9365005              1              1
      5629.5000       112.5775         75.623       88.15907          1.003         0.9173         0.9061       -40.2955      0.7126808              1              1
      5630.0000        113.603        73.8716       86.21503         1.0011         0.9143         0.9013       -40.6042      0.3847618              1              1
      5630.5000        113.892        69.9919       81.90622         1.0028         0.9213         0.9122       -40.9992    -0.02945709              1              1
      5631.0000       113.6328        67.7483        79.4153         1.0055         0.9346         0.9384       -41.4002     -0.4496803      0.9875596              1
      5631.5000       112.6493        67.2598        78.8745          1.008         0.9482          0.975       -41.6806     -0.7492981      0.9760531              1
      5632.0000       109.7516        66.9342       78.51468           1.01         0.9537         1.0144       -41.5822     -0.6701164      0.9683974              1
