#------------------------------------------------------------------------------
# Created by    : vladimir.rabinovich
# Created on    : 09/19/2023 17:20:36
#------------------------------------------------------------------------------
~Version Information Section
VERS.           2.0     :   CWLS log ASCII Standard - VERSION 2.0
WRAP.           NO      :   One line per depth step
~Well Information Section
#MNEM       .UNIT                                         VALUE :DESCRIPTION
#------------------------------------------------------------------------------
STRT        .FT                                             504 :START DEPTH
STOP        .FT                                            9762 :STOP DEPTH
STEP        .FT                                             0.5 :STEP      
NULL        .                                           -999.25 :NULL      
COMP        .                                      SHELL OIL CO :COMPANY   
WELL        .                                OCS 00703 ST00BP00 :WELL      
FLD         .                                           WILDCAT :FIELD     
LOC         .                                                   :LOCATION  
CNTY        .                             GALVESTON LARGE BLOCK :LOCATION  
STAT        .                                             TEXAS :STATE     
CTRY        .                                     UNITED STATES :COUNTRY   
SRVC        .                                                   :SERVICE COMPANY
DATE        .                             9/13/2023 11:19:25 AM :LOG DATE  
API         .                                    42706000420000 :API NUMBER
UWI         .                                    42706000420000 :UNIQUE WELL ID
XCOORD      .                                  1132503.99790541 :SURFACE X 
YCOORD      .                                  10523078.0194322 :SURFACE Y 
LAT         .                                         28.987276 :LATITUDE  
LON         .                                        -94.589113 :LONGITUDE 
ELEV        .FT                                              83 :ELEVATION VALUE
ELEV_TYPE   .                                                KB :ELEVATION REFERENCE TYPE
~Curve Information Section
#MNEM       .UNIT                                      API CODE :CURVE DESCRIPTION
#------------------------------------------------------------------------------
DEPT        .FT                                                 :DEPTH     
ASN         .OHMM                                               :          
CILD        .MMHO                                               :          
DT          .US/F                                               :          
ILD         .OHMM                                               :          
LAT         .OHMM                                               :          
LN          .OHMM                                               :          
SP          .MV                                                 :          
SP_NORM     .MV                                                 :SP Normalized
VSH_SP      .V/V                                                :Volume of Shale from SP
~A        DEPTH            ASN           CILD             DT            ILD            LAT             LN             SP        SP_NORM         VSH_SP
# ...
      4797.0000         0.9269       1326.119       136.3902         0.6507        -999.25         0.6507       -42.2523      -3.215401      0.9631697
      4797.5000         0.9342       1335.967        138.039          0.648        -999.25          0.648       -41.8172      -2.782558      0.9762861
      4798.0000          0.942       1341.221       139.6878         0.6443        -999.25         0.6443       -40.8542      -1.821815              1
      4798.5000         0.9499       1345.344       141.3366         0.6405        -999.25         0.6405        -39.379      -0.348877              1
      4799.0000         0.9525       1349.469       142.9854         0.6366        -999.25         0.6366       -38.7938       0.234066              1
      4799.5000         0.9343       1356.082       144.6342         0.6327        -999.25         0.6327       -39.3759     -0.3502922              1
      4800.0000         0.9173       1363.371       146.2829         0.6288        -999.25         0.6288       -39.9581     -0.9347496              1
      4800.5000         0.9097       1376.551       147.9317         0.6249        -999.25         0.6249       -40.6003      -1.579208              1
      4801.0000         0.9021       1392.674       149.5805          0.621        -999.25          0.621       -41.3527      -2.333866      0.9898828
      4801.5000         0.8946       1405.742       151.2293         0.6171        -999.25         0.6171       -42.1027      -3.086124      0.9670871
      4802.0000         0.8894       1418.168       152.8781         0.6138        -999.25         0.6138       -42.7771      -3.762783      0.9465823
      4802.5000         0.8846       1427.793       154.5269         0.6124        -999.25         0.6124       -43.3884      -4.376343      0.9279896
      4803.0000         0.8798       1437.418       156.1756          0.611        -999.25          0.611       -43.4723      -4.462502      0.9253787
      4803.5000         0.8743       1440.262       156.0681         0.6095        -999.25         0.6095       -43.2843       -4.27676      0.9310073
      4804.0000         0.8686       1424.066       154.9414         0.6081        -999.25         0.6081       -42.9886      -3.983318      0.9398994
      4804.5000         0.8652       1407.869       153.8147         0.6067        -999.25         0.6067       -42.6929      -3.689877      0.9487916
      4805.0000         0.8667       1390.398        152.688         0.6105        -999.25         0.6105       -42.3142      -3.313431      0.9601991
      4805.5000         0.8715        1372.41       151.5613         0.6164        -999.25         0.6164        -41.846      -2.847488      0.9743185
      4806.0000         0.8764       1364.305       150.4346         0.6222        -999.25         0.6222       -41.3775      -2.381245      0.9884471
      4806.5000         0.8809       1360.129       149.3079         0.6281        -999.25         0.6281       -40.9489      -1.954903              1
      4807.0000         0.8855       1355.953       148.1812          0.634        -999.25          0.634       -40.5731      -1.581364              1
      4807.5000           0.89       1353.584       147.0545         0.6405        -999.25         0.6405       -40.1971      -1.207623              1
      4808.0000         0.8946       1352.369       145.9278         0.6481        -999.25         0.6481       -40.2452       -1.25798              1
      4808.5000         0.8996       1351.156       144.8011         0.6558        -999.25         0.6558       -40.2979      -1.312939              1
      4809.0000         0.9046       1349.715       143.6744         0.6634        -999.25         0.6634       -40.3506      -1.367897              1
      4809.5000         0.9096       1344.754       142.5477          0.671        -999.25          0.671       -40.4034      -1.422955              1
      4810.0000         0.9152       1339.793        141.421         0.6796        -999.25         0.6796       -40.4402      -1.462013              1
      4810.5000         0.9218       1334.832       140.2943         0.6919        -999.25         0.6919       -40.4671      -1.491169              1
      4811.0000         0.9289       1319.975       139.1676         0.7043        -999.25         0.7043        -40.494      -1.520329              1
      4811.5000         0.9362       1299.203       138.0409         0.7167        -999.25         0.7167       -40.5208      -1.549389              1
      4812.0000         0.9438       1276.145       136.9142         0.7291        -999.25         0.7291       -40.4998      -1.530647              1
      4812.5000         0.9513       1246.051       135.7875           0.74        -999.25           0.74       -40.4157      -1.448803              1
      4813.0000         0.9586       1204.904       134.6608         0.7489        -999.25         0.7489       -40.3408       -1.37616              1
      4813.5000         0.9665       1185.207       133.5341         0.7578        -999.25         0.7578       -40.6003      -1.637917              1
      4814.0000         0.9748       1165.797       132.9543         0.7667        -999.25         0.7667       -41.3075      -2.347374      0.9894735
      4814.5000         0.9856           1145       132.8671         0.7755        -999.25         0.7755       -42.0154      -3.057533      0.9679536
      4815.0000         1.0023       1124.922       132.7935         0.7844        -999.25         0.7844       -43.1418      -4.186192      0.9337518
      4815.5000         1.0293       1107.451       132.7951         0.7923        -999.25         0.7923       -46.6786       -7.72525      0.8265076
      4816.0000         1.0669       1093.184       132.9596         0.7996        -999.25         0.7996       -47.4884      -8.537308      0.8018998
      4816.5000         1.0904       1083.553       133.3113         0.8069        -999.25         0.8069       -47.8918      -8.942966       0.789607
      4817.0000         1.0917       1077.074       133.7881         0.8142        -999.25         0.8142       -47.1871      -8.240524      0.8108932
      4817.5000         1.0919       1075.896       134.7817          0.815        -999.25          0.815       -46.4805      -7.536182      0.8322369
      4818.0000         1.0917       1080.338       135.7753          0.815        -999.25          0.815       -45.2401      -6.298042      0.8697563
      4818.5000         1.0914       1085.234       136.7689         0.7988        -999.25         0.7988       -43.9308      -4.991001      0.9093636
      4819.0000         1.0862       1099.836       137.7624         0.7812        -999.25         0.7812       -43.1418      -4.204258      0.9332043
      4819.5000         1.0746       1120.854        138.756         0.7637        -999.25         0.7637       -42.6155      -3.680218      0.9490843
      4820.0000         1.0628       1157.426       139.7496         0.7461        -999.25         0.7461       -42.3348      -3.401775       0.957522
      4820.5000         1.0522       1181.535       140.7432         0.7285        -999.25         0.7285       -42.3442      -3.413433      0.9571687
      4821.0000         1.0423       1218.604       141.4699         0.7095        -999.25         0.7095       -42.3537      -3.425186      0.9568126
      4821.5000         1.0306       1262.766       141.7174         0.6905        -999.25         0.6905       -42.3632      -3.436947      0.9564562
      4822.0000         1.0168       1292.291        142.356         0.6715        -999.25         0.6715       -42.4028      -3.478806      0.9551877
      4822.5000         1.0014       1324.611       142.9946         0.6532        -999.25         0.6532        -42.465      -3.543262      0.9532345
      4823.0000         0.9846       1356.064       143.6331         0.6468        -999.25         0.6468       -42.5273      -3.607822      0.9512781
