#------------------------------------------------------------------------------
# Created by    : vladimir.rabinovich
# Created on    : 09/19/2023 17:20:32
#------------------------------------------------------------------------------
~Version Information Section
VERS.           2.0     :   CWLS log ASCII Standard - VERSION 2.0
WRAP.           NO      :   One line per depth step
~Well Information Section
#MNEM       .UNIT                                         VALUE :DESCRIPTION
#------------------------------------------------------------------------------
STRT        .FT                                             530 :START DEPTH
STOP        .FT                                           15895 :STOP DEPTH
STEP        .FT                                             0.5 :STEP      
NULL        .                                           -999.25 :NULL      
COMP        .                                      SHELL OIL CO :COMPANY   
WELL        .                                OCS 00708 ST00BP00 :WELL      
FLD         .                                FEDERAL BLOCK 0288 :FIELD     
LOC         .                                                   :LOCATION  
CNTY        .                             GALVESTON LARGE BLOCK :LOCATION  
STAT        .                                             TEXAS :STATE     
CTRY        .                                     UNITED STATES :COUNTRY   
SRVC        .                                                   :SERVICE COMPANY
DATE        .                             9/13/2023 11:19:24 AM :LOG DATE  
API         .                                    42706000930000 :API NUMBER
UWI         .                                    42706000930000 :UNIQUE WELL ID
XCOORD      .                                  1077631.85251343 :SURFACE X 
YCOORD      .                                  10490946.9562601 :SURFACE Y 
LAT         .                                         28.896779 :LATITUDE  
LON         .                                        -94.759235 :LONGITUDE 
ELEV        .FT                                              76 :ELEVATION VALUE
ELEV_TYPE   .                                                KB :ELEVATION REFERENCE TYPE
~Curve Information Section
#MNEM       .UNIT                                      API CODE :CURVE DESCRIPTION
#------------------------------------------------------------------------------
DEPT        .FT                                                 :DEPTH     
ASN         .OHMM                                               :          
CILD        .MMHO                                               :          
SP          .MV                                                 :          
SP_NORM     .MV                                                 :SP Normalized
VSH_SP      .V/V                                                :Volume of Shale from SP
~A        DEPTH            ASN           CILD             SP        SP_NORM         VSH_SP
# ...
      8714.0000         0.9086       1332.734       -55.4163      -7.121124      0.8430481
      8714.5000          0.913       1318.266       -55.4539      -7.149067      0.8423316
      8715.0000         0.9175       1303.781       -55.4915      -7.177017       0.841615
      8715.5000         0.9219       1289.313       -55.5291       -7.20496      0.8408985
      8716.0000         0.9264       1272.625       -55.5667      -7.232906      0.8401819
      8716.5000         0.9316       1253.875        -55.646      -7.302551      0.8383961
      8717.0000          0.938       1235.125       -55.7299      -7.376801      0.8364923
      8717.5000         0.9444       1216.375       -55.8136      -7.450844      0.8345938
      8718.0000         0.9508       1198.688       -55.8973      -7.524891      0.8326951
      8718.5000         0.9572       1181.938       -55.9951      -7.613037      0.8304349
      8719.0000         0.9636       1165.156       -56.2354      -7.843685      0.8245209
      8719.5000           0.97       1148.375       -56.4756       -8.07423      0.8186095
      8720.0000         0.9763       1138.016       -56.7153      -8.304279      0.8127108
      8720.5000         0.9814       1129.438       -56.9509      -8.530224      0.8069173
      8721.0000         0.9866       1120.875       -57.1323      -8.701969      0.8025136
      8721.5000         0.9917       1112.297       -57.3137      -8.873718      0.7981098
      8722.0000         0.9969       1105.756       -57.4949      -9.045261      0.7937112
      8722.5000         0.9934       1107.234       -57.6763      -9.217007      0.7893075
      8723.0000         0.9891       1115.203       -57.7703      -9.301353      0.7871448
      8723.5000         0.9837       1127.453       -57.8507      -9.372101      0.7853308
      8724.0000         0.9706       1139.719       -57.9312      -9.442944      0.7835143
      8724.5000         0.9575       1151.969       -58.0116      -9.513691      0.7817003
      8725.0000         0.9444       1164.219       -58.1938      -9.686241      0.7772759
      8725.5000         0.9309       1185.188       -58.3943      -9.877083      0.7723825
      8726.0000         0.9164       1208.563       -58.5945      -10.06763      0.7674966
      8726.5000         0.9019       1227.219       -58.8105      -10.27398      0.7622057
      8727.0000         0.8864       1244.406       -59.3838      -10.83762      0.7477533
      8727.5000          0.868       1260.313        -59.957      -11.40117      0.7333034
      8728.0000         0.8552       1276.188       -60.5273      -11.96181      0.7189278
      8728.5000         0.8492       1266.359       -61.0469      -12.47176      0.7058522
      8729.0000          0.852       1255.031       -61.5664      -12.98161      0.6927794
      8729.5000         0.8565       1243.703       -62.0859      -13.49145      0.6797064
      8730.0000          0.861       1232.375        -62.604       -13.9999      0.6666692
      8730.5000         0.8669       1221.047       -63.0366      -14.42284      0.6558245
      8731.0000         0.8744       1206.625       -63.4697      -14.84629      0.6449669
      8731.5000         0.8819       1189.969       -63.7361      -15.10304      0.6383836
      8732.0000         0.8894       1173.281       -63.8965      -15.25378      0.6345183
      8732.5000         0.8969       1156.594       -64.0569      -15.40453      0.6306531
      8733.0000         0.9044       1141.719       -64.2173      -15.55528      0.6267877
      8733.5000         0.9043       1133.672       -64.3777      -15.70602      0.6229225
      8734.0000         0.8979       1125.625        -64.689      -16.00767      0.6151879
      8734.5000         0.8916        1131.75       -65.1021      -16.41111      0.6048433
      8735.0000         0.8852       1154.438       -65.5156      -16.81496      0.5944881
      8735.5000         0.8788       1177.125       -65.9463        -17.236      0.5836922
      8736.0000         0.8724       1199.844       -66.3882      -17.66825      0.5726089
      8736.5000         0.8673       1223.281       -66.8301       -18.1005      0.5615256
      8737.0000         0.8633       1246.719       -67.2715      -18.53225      0.5504552
      8737.5000         0.8593       1273.094       -67.7383      -18.98939      0.5387337
      8738.0000         0.8595       1263.875       -68.2119      -19.45334      0.5268375
      8738.5000         0.8631       1245.188       -68.6855      -19.91729      0.5149414
      8739.0000         0.8667       1227.188       -69.1592      -20.38133      0.5030428
      8739.5000         0.8703       1209.156       -69.6035      -20.81598       0.491898
      8740.0000         0.8739       1191.156       -70.0479      -21.25072      0.4807507
      8740.5000         0.8775       1173.156       -70.4922      -21.68537      0.4696059
      8741.0000         0.8861       1155.656       -70.8994      -22.08291      0.4594125
      8741.5000         0.8983       1140.031       -71.2393      -22.41317      0.4509445
      8742.0000         0.9104       1124.406       -71.5791      -22.74331      0.4424793
      8742.5000         0.9225       1108.813       -71.9194      -23.07396      0.4340011
      8743.0000         0.9311       1093.188       -72.2729       -23.4178      0.4251845
      8743.5000         0.9391       1078.625       -72.6538      -23.78905      0.4156654
      8744.0000         0.9472       1067.438       -73.0347      -24.16029      0.4061464
      8744.5000         0.9464        1087.25       -73.4155      -24.53144      0.3966298
      8745.0000         0.9366       1107.094       -73.7964      -24.90269      0.3871106
      8745.5000         0.9269        1125.75       -74.1772      -25.27383      0.3775941
      8746.0000         0.9171       1143.781       -74.5581      -25.64507       0.368075
      8746.5000         0.9073       1161.813        -74.939      -26.01633      0.3585557
      8747.0000         0.8998       1179.844       -75.3198      -26.38747      0.3490392
      8747.5000         0.8934       1196.344       -75.8262      -26.88422      0.3363021
      8748.0000          0.887       1202.025       -76.3438      -27.39217      0.3232778
      8748.5000         0.8806       1200.289       -76.8604      -27.89911      0.3102794
      8749.0000         0.8742       1198.555       -77.3472      -28.37625      0.2980448
      8749.5000         0.8681       1204.547       -77.8037       -28.8231      0.2865871
      8750.0000         0.8651       1215.281       -78.2607      -29.27044      0.2751169
      8750.5000         0.8622       1233.625       -78.7212      -29.72129      0.2635567
      8751.0000         0.8593       1256.781       -79.1826      -30.17304      0.2519733
      8751.5000         0.8563       1279.969       -79.6294      -30.61019      0.2407644
      8752.0000         0.8534       1303.125        -79.936      -30.90713      0.2331506
      8752.5000         0.8508       1318.703       -80.2427      -31.20417       0.225534
      8753.0000         0.8521       1328.781       -80.5314      -31.48323      0.2183788
      8753.5000         0.8534       1338.859       -80.6151      -31.55727      0.2164804
      8754.0000         0.8548       1340.383        -80.699      -31.63151      0.2145766
      8754.5000         0.8561       1335.469       -80.4399      -31.36277      0.2214675
      8755.0000         0.8574       1323.031       -79.9687       -30.8819      0.2337973
      8755.5000         0.8587       1308.422       -78.8516      -29.75515      0.2626884
      8756.0000         0.8615       1293.813        -77.668       -28.5619      0.2932846
      8756.5000         0.8656       1279.203       -75.5391      -26.42335      0.3481193
      8757.0000         0.8697       1264.625       -73.5547      -24.42929      0.3992489
      8757.5000         0.8738       1249.375       -71.7187      -22.58364      0.4465734
