#------------------------------------------------------------------------------
# Created by    : vladimir.rabinovich
# Created on    : 09/19/2023 17:22:33
#------------------------------------------------------------------------------
~Version Information Section
VERS.           2.0     :   CWLS log ASCII Standard - VERSION 2.0
WRAP.           NO      :   One line per depth step
~Well Information Section
#MNEM       .UNIT                                         VALUE :DESCRIPTION
#------------------------------------------------------------------------------
STRT        .FT                                            2877 :START DEPTH
STOP        .FT                                            8775 :STOP DEPTH
STEP        .FT                                             0.5 :STEP      
NULL        .                                           -999.25 :NULL      
COMP        .                                       APACHE CORP :COMPANY   
WELL        .                                  HIGH ISLAND 10-L :WELL      
FLD         .                                           WILDCAT :FIELD     
LOC         .                                                   :LOCATION  
CNTY        .                           HIGH ISLAND LARGE BLOCK :LOCATION  
STAT        .                                             TEXAS :STATE     
CTRY        .                                     UNITED STATES :COUNTRY   
SRVC        .                                                   :SERVICE COMPANY
DATE        .                             9/13/2023 11:19:15 AM :LOG DATE  
API         .                                    42708303590000 :API NUMBER
UWI         .                                    42708303590000 :UNIQUE WELL ID
XCOORD      .                                  1323081.96300683 :SURFACE X 
YCOORD      .                                  10736101.4448574 :SURFACE Y 
LAT         .                                        29.5789626 :LATITUDE  
LON         .                                       -93.9986282 :LONGITUDE 
ELEV        .FT                                             100 :ELEVATION VALUE
ELEV_TYPE   .                                                KB :ELEVATION REFERENCE TYPE
~Curve Information Section
#MNEM       .UNIT                                      API CODE :CURVE DESCRIPTION
#------------------------------------------------------------------------------
DEPT        .FT                                                 :DEPTH     
CNCSS       .%                                                  :          
DCAL        .IN                                                 :          
GRR         .GAPI                                               :          
ILD         .OHMM                                               :          
ILM         .OHMM                                               :          
PORZSS      .%                                                  :          
RFOC        .OHMM                                               :          
SP          .MV                                                 :          
SP_NORM     .MV                                                 :SP Normalized
TENR        .LB                                                 :          
VSH_SP      .V/V                                                :Volume of Shale from SP
ZCOR        .G/CM3                                              :          
~A        DEPTH          CNCSS           DCAL            GRR            ILD            ILM         PORZSS           RFOC             SP        SP_NORM           TENR         VSH_SP           ZCOR
# ...
      4906.5000        50.3535          -0.05        68.7392         0.5681         0.5759        23.7241         0.8823       -15.9002      -11.24904       1252.053      0.8733009         0.0073
      4907.0000          55.74          -0.05        70.8283         0.5502         0.5553        24.5576         0.8208       -12.9126      -8.261436       1261.746      0.9142269         0.0174
      4907.5000           56.7          -0.05          78.45         0.5403         0.5452        25.7516         0.7808        -9.9278      -5.276638       1251.504      0.9551145         0.0295
      4908.0000        53.8803          -0.04           87.9         0.5378         0.5452        27.0066         0.7597        -7.5414      -2.890237       1251.229      0.9878049         0.0416
      4908.5000        47.4152          -0.03         97.637         0.5428         0.5452        27.1249          0.774        -6.5459      -1.894737       1260.936              1         0.0577
      4909.0000        42.5948          -0.02         93.296         0.5452         0.5578        26.0449         0.7813        -7.1374      -2.486238       1270.652      0.9933392         0.0678
      4909.5000        39.7216          -0.01          87.45         0.5578         0.5759        25.2635         0.7888        -9.5118      -4.860637       1280.379      0.9608132         0.0639
      4910.0000        39.7205          -0.01          79.35         0.5629         0.5946        24.8412          0.837       -13.2702      -8.619038       1270.121      0.9093282          0.056
      4910.5000          39.78          -0.01        71.4356         0.5733         0.6028           24.3         0.9509       -16.0396      -11.38844           1240      0.8713913           0.04
      4911.0000          38.82              0        63.4158         0.5812         0.6113        23.7624         0.9954       -17.0297      -12.37854           1240      0.8578283          0.018
      4911.5000          38.22           0.01             60         0.5892         0.6171        23.2277         0.9774       -16.4356      -11.78444           1270      0.8659666          0.018
      4912.0000             39           0.04        61.6337         0.5973         0.6228        22.8119         0.9336       -15.8416      -11.19044           1280      0.8741036          0.028
      4912.5000           39.6           0.04        63.2673         0.6085         0.6405        22.2772         0.8959       -15.2475      -10.59634           1280       0.882242          0.036
      4913.0000           39.3           0.04        64.0099         0.6346         0.6743         21.505         0.8919       -14.4554      -9.804237           1270      0.8930926           0.04
      4913.5000          38.52           0.04        64.1584         0.6743         0.7065        20.7327         0.9041       -13.2673      -8.616137           1260       0.909368          0.044
      4914.0000          36.78           0.04        64.0099         0.7065         0.7398        20.0198         0.9465       -12.8713      -8.220137           1260      0.9147927          0.044
      4914.5000        34.8713           0.04        64.7525         0.7398         0.7746        18.9505         0.9909       -14.6535      -10.00234           1250       0.890379          0.036
      4915.0000        33.2673           0.04        63.7129         0.7675         0.8036          17.88         1.0708       -18.6139      -13.96274           1240      0.8361269          0.022
      4915.5000        32.5545           0.04          59.55         0.7675         0.8036          16.38         1.2334            -23      -18.34884           1240      0.7760434           0.01
      4916.0000        32.7921           0.04           54.9          0.764          0.789           15.3          1.395          -27.6      -22.94884           1220      0.7130296           0.01
      4916.5000        34.2178           0.04           51.3         0.7605         0.7675          15.66         1.2504          -28.4      -23.74884           1220      0.7020707          0.018
      4917.0000        35.4059           0.05           53.1         0.7466         0.7605          17.94         1.0419          -25.6      -20.94884           1220      0.7404269          0.028
      4917.5000        35.3465           0.05           58.2         0.7535         0.7675        20.0198         0.9251          -21.4      -16.74884           1210      0.7979611          0.042
      4918.0000        33.0297           0.05        64.1584          0.789         0.7818        21.0891         0.9166       -18.4158      -13.76464           1210      0.8388406          0.048
      4918.5000        31.7228           0.05        66.2376         0.8258         0.8333        19.7822         0.9818       -16.6337      -11.98254           1210      0.8632529          0.044
      4919.0000        31.7228           0.06         65.495         0.8838         0.8919          17.82         1.0659       -15.4455      -10.79434           1210      0.8795296           0.04
      4919.5000        31.6634           0.06        62.0792         0.9336         0.9552          16.02         1.1466       -14.8515      -10.20034           1210      0.8876666           0.04
      4920.0000        31.0099           0.06        60.8911         0.9684         1.0231          15.96          1.131       -14.8515      -10.20034           1210      0.8876666          0.032
      4920.5000        31.1864           0.06        61.9345         0.9775         1.0232        16.8585         1.0857       -15.8404      -11.18924       1199.729      0.8741201          0.024
      4921.0000        32.1933           0.04         62.833         0.9688         1.0003        17.9954         1.0423       -17.6219      -12.97074       1199.226      0.8497159          0.032
      4921.5000        32.9626           0.02        62.2463         0.8604         0.9256        19.1805         1.0006       -18.8104      -14.15924       1198.724      0.8334351          0.048
      4922.0000         33.732              0        61.9574          0.764         0.8335         20.128         0.9604       -20.3993      -15.74814       1208.221      0.8116693          0.062
      4922.5000         35.333          -0.02        62.5588         0.6935         0.7466        21.0757         0.9176       -22.5941      -17.94294       1207.718      0.7816036          0.064
      4923.0000        37.4833          -0.04        64.1999          0.644         0.6591        22.2014         0.8888       -26.5817      -21.93054       1207.216       0.726979          0.052
      4923.5000        37.2402          -0.06        64.8014         0.5689         0.5847        23.6241         0.8729       -32.5588      -27.90764       1216.713      0.6451009          0.028
      4924.0000        34.6705          -0.12         62.878         0.4963         0.5101        24.6372         0.8571       -38.3307      -33.67954        1216.21      0.5660337          0.012
      4924.5000        34.3113          -0.18        59.7642         0.4325         0.4466        25.4145         0.8732       -43.5143      -38.86314       1205.708      0.4950255          0.006
      4925.0000        35.4965          -0.23        53.1718         0.3718          0.391        26.8514          0.902       -51.7042      -47.05304       1205.206      0.3828351         -0.004
      4925.5000        37.1684          -0.27        50.0293         0.3409         0.3425        29.1882          0.898       -61.2813      -56.63014       1204.703      0.2516419        -0.0199
      4926.0000        37.7054           -0.3        48.2368         0.3302         0.3287        31.0943         0.8264       -67.6082      -62.95704       1194.201      0.1649721        -0.0298
      4926.5000        37.4024           -0.3        47.0443         0.3183         0.3287        31.8636         0.7263       -69.3806      -64.72944       1193.749      0.1406926        -0.0298
