#------------------------------------------------------------------------------
# Created by    : vladimir.rabinovich
# Created on    : 09/19/2023 17:20:34
#------------------------------------------------------------------------------
~Version Information Section
VERS.           2.0     :   CWLS log ASCII Standard - VERSION 2.0
WRAP.           NO      :   One line per depth step
~Well Information Section
#MNEM       .UNIT                                         VALUE :DESCRIPTION
#------------------------------------------------------------------------------
STRT        .FT                                             495 :START DEPTH
STOP        .FT                                            9652 :STOP DEPTH
STEP        .FT                                             0.5 :STEP      
NULL        .                                           -999.25 :NULL      
COMP        .                                      SHELL OIL CO :COMPANY   
WELL        .                                OCS 00714 ST00BP00 :WELL      
FLD         .                                FEDERAL BLOCK 0288 :FIELD     
LOC         .                                                   :LOCATION  
CNTY        .                             GALVESTON LARGE BLOCK :LOCATION  
STAT        .                                             TEXAS :STATE     
CTRY        .                                     UNITED STATES :COUNTRY   
SRVC        .                                                   :SERVICE COMPANY
DATE        .                             9/13/2023 11:19:25 AM :LOG DATE  
API         .                                    42706000490000 :API NUMBER
UWI         .                                    42706000490000 :UNIQUE WELL ID
XCOORD      .                                  1093419.85109126 :SURFACE X 
YCOORD      .                                  10468907.9519753 :SURFACE Y 
LAT         .                                         28.836806 :LATITUDE  
LON         .                                        -94.708909 :LONGITUDE 
ELEV        .FT                                              83 :ELEVATION VALUE
ELEV_TYPE   .                                                KB :ELEVATION REFERENCE TYPE
~Curve Information Section
#MNEM       .UNIT                                      API CODE :CURVE DESCRIPTION
#------------------------------------------------------------------------------
DEPT        .FT                                                 :DEPTH     
ASN         .OHMM                                               :          
ASN_1       .OHMM                                               :          
CALI        .IN                                                 :          
CALI_1      .IN                                                 :          
DRHO        .G/C3                                               :          
DT          .US/F                                               :          
ILD         .OHMM                                               :          
LAT         .OHMM                                               :          
LN          .OHMM                                               :          
RHOB        .G/C3                                               :          
SP          .MV                                                 :          
SP_1        .MV                                                 :          
SP_NORM     .MV                                                 :SP Normalized
VSH_SP      .V/V                                                :Volume of Shale from SP
~A        DEPTH            ASN          ASN_1           CALI         CALI_1           DRHO             DT            ILD            LAT             LN           RHOB             SP           SP_1        SP_NORM         VSH_SP
# ...
      9621.0000         0.7313        -999.25        -999.25         7.8435        -999.25       117.6899         0.6863        -999.25        -999.25        -999.25        -999.25       -40.3992      -2.621422      0.9778064
      9621.5000         0.7183        -999.25        -999.25         7.8609        -999.25       117.9487         0.6817        -999.25        -999.25        -999.25        -999.25          -40.5      -2.722221      0.9742064
      9622.0000         0.7139        -999.25        -999.25         7.8199        -999.25       118.1558         0.6769        -999.25        -999.25        -999.25        -999.25       -40.5952      -2.817421      0.9708064
      9622.5000         0.7139        -999.25        -999.25         7.8704        -999.25       113.1912         0.6718        -999.25        -999.25        -999.25        -999.25       -40.6519      -2.874123      0.9687814
      9623.0000         0.7185        -999.25        -999.25         7.9578        -999.25       109.9224         0.6666        -999.25        -999.25        -999.25        -999.25       -40.6945      -2.916721      0.9672599
      9623.5000         0.7251        -999.25        -999.25         7.9799        -999.25       110.8417         0.6675        -999.25        -999.25        -999.25        -999.25       -40.7044       -2.92662      0.9669064
      9624.0000         0.7361        -999.25        -999.25         7.9565        -999.25       109.2394         0.6743        -999.25        -999.25        -999.25        -999.25        -41.053      -3.275223      0.9544563
      9624.5000         0.7508        -999.25        -999.25         7.8801        -999.25       106.9484         0.6811        -999.25        -999.25        -999.25        -999.25       -41.3744      -3.596622      0.9429778
      9625.0000         0.7762        -999.25        -999.25         7.7733        -999.25       109.0706         0.6923        -999.25        -999.25        -999.25        -999.25       -41.0845      -3.306721      0.9533314
      9625.5000         0.7807        -999.25        -999.25         7.7346        -999.25       109.5533         0.7041        -999.25        -999.25        -999.25        -999.25       -40.4012      -2.623421       0.977735
      9626.0000         0.7635        -999.25        -999.25          7.826        -999.25       110.6752          0.716        -999.25        -999.25        -999.25        -999.25       -39.7128       -1.93502              1
      9626.5000          0.748        -999.25        -999.25         7.8921        -999.25       112.9279         0.7194        -999.25        -999.25        -999.25        -999.25        -39.347      -1.569221              1
      9627.0000         0.7428        -999.25        -999.25         7.8725        -999.25       114.0239         0.7208        -999.25        -999.25        -999.25        -999.25       -39.3058      -1.528023              1
      9627.5000         0.7592        -999.25        -999.25         7.7894        -999.25       113.5389         0.7204        -999.25        -999.25        -999.25        -999.25       -39.8338      -2.056023      0.9979992
      9628.0000         0.7703        -999.25        -999.25         7.7132        -999.25       113.1265         0.7131        -999.25        -999.25        -999.25        -999.25       -40.0699      -2.292122      0.9895671
      9628.5000         0.7734        -999.25        -999.25         7.6895        -999.25       112.9386         0.7057        -999.25        -999.25        -999.25        -999.25       -40.1232      -2.345421      0.9876636
      9629.0000         0.7711        -999.25        -999.25         7.7412        -999.25       114.3345         0.7007        -999.25        -999.25        -999.25        -999.25       -39.7972      -2.019421      0.9993064
      9629.5000         0.7683        -999.25        -999.25         7.7765        -999.25       115.4501         0.6964        -999.25        -999.25        -999.25        -999.25       -39.3509       -1.57312              1
      9630.0000         0.7637        -999.25        -999.25         7.7915        -999.25       115.4181         0.6948        -999.25        -999.25        -999.25        -999.25       -38.8618      -1.084023              1
      9630.5000         0.7614        -999.25        -999.25         7.7627        -999.25       115.5363         0.7004        -999.25        -999.25        -999.25        -999.25       -38.7806      -1.002823              1
      9631.0000         0.7708        -999.25        -999.25         7.7653        -999.25       111.8949          0.706        -999.25        -999.25        -999.25        -999.25          -38.9      -1.122223              1
      9631.5000         0.7935        -999.25        -999.25         7.8505        -999.25       107.2388         0.7124        -999.25        -999.25        -999.25        -999.25       -39.0399      -1.262123              1
      9632.0000         0.8006        -999.25        -999.25         7.9455        -999.25       108.2357         0.7194        -999.25        -999.25        -999.25        -999.25        -39.195      -1.417221              1
      9632.5000         0.8038        -999.25        -999.25         8.0268        -999.25        112.282         0.7271        -999.25        -999.25        -999.25        -999.25       -39.2285      -1.450722              1
      9633.0000         0.8073        -999.25        -999.25          7.985        -999.25       113.5277         0.7454        -999.25        -999.25        -999.25        -999.25       -39.3132      -1.535423              1
      9633.5000         0.8437        -999.25        -999.25          7.821        -999.25       109.9325         0.7637        -999.25        -999.25        -999.25        -999.25       -39.8868       -2.10902      0.9961064
      9634.0000         0.8903        -999.25        -999.25          7.666        -999.25        99.9674          0.784        -999.25        -999.25        -999.25        -999.25        -39.665      -1.887222              1
      9634.5000         0.9226        -999.25        -999.25         7.6704        -999.25        95.8806         0.8065        -999.25        -999.25        -999.25        -999.25       -39.1201      -1.342319              1
      9635.0000         0.9537        -999.25        -999.25         7.7359        -999.25        99.8999          0.829        -999.25        -999.25        -999.25        -999.25       -38.8893      -1.111523              1
      9635.5000         0.9956        -999.25        -999.25         7.7212        -999.25       103.0078         0.8498        -999.25        -999.25        -999.25        -999.25       -39.0453      -1.267521              1
      9636.0000         1.0357        -999.25        -999.25         7.6567        -999.25       101.4258         0.8664        -999.25        -999.25        -999.25        -999.25       -39.2002      -1.422421              1
      9636.5000         1.0584        -999.25        -999.25         7.5827        -999.25        98.4281          0.883        -999.25        -999.25        -999.25        -999.25       -39.1618      -1.384022              1
      9637.0000         1.0725        -999.25        -999.25         7.5302        -999.25       100.0394         0.8934        -999.25        -999.25        -999.25        -999.25       -38.8528       -1.07502              1
      9637.5000         1.0847        -999.25        -999.25         7.5176        -999.25       101.6125         0.9011        -999.25        -999.25        -999.25        -999.25        -38.698     -0.9202232              1
      9638.0000         1.0919        -999.25        -999.25         7.5507        -999.25       101.9063         0.9063        -999.25        -999.25        -999.25        -999.25       -38.7498      -0.972023              1
      9638.5000         1.0906        -999.25        -999.25         7.5821        -999.25       103.4421         0.9063        -999.25        -999.25        -999.25        -999.25       -38.8629      -1.085121              1
