#------------------------------------------------------------------------------
# Created by    : vladimir.rabinovich
# Created on    : 09/19/2023 17:20:31
#------------------------------------------------------------------------------
~Version Information Section
VERS.           2.0     :   CWLS log ASCII Standard - VERSION 2.0
WRAP.           NO      :   One line per depth step
~Well Information Section
#MNEM       .UNIT                                         VALUE :DESCRIPTION
#------------------------------------------------------------------------------
STRT        .FT                                            2310 :START DEPTH
STOP        .FT                                           12118 :STOP DEPTH
STEP        .FT                                             0.5 :STEP      
NULL        .                                           -999.25 :NULL      
COMP        .                                   FOREST OIL CORP :COMPANY   
WELL        .                               OCS G01793 ST00BP00 :WELL      
FLD         .                                           WILDCAT :FIELD     
LOC         .                                                   :LOCATION  
CNTY        .                             GALVESTON LARGE BLOCK :LOCATION  
STAT        .                                             TEXAS :STATE     
CTRY        .                                     UNITED STATES :COUNTRY   
SRVC        .                                                   :SERVICE COMPANY
DATE        .                             9/13/2023 11:19:24 AM :LOG DATE  
API         .                                    42706001380000 :API NUMBER
UWI         .                                    42706001380000 :UNIQUE WELL ID
XCOORD      .                                  1024149.02927821 :SURFACE X 
YCOORD      .                                  10425384.3690734 :SURFACE Y 
LAT         .                                         28.714212 :LATITUDE  
LON         .                                        -94.923031 :LONGITUDE 
ELEV        .FT                                              60 :ELEVATION VALUE
ELEV_TYPE   .                                                KB :ELEVATION REFERENCE TYPE
~Curve Information Section
#MNEM       .UNIT                                      API CODE :CURVE DESCRIPTION
#------------------------------------------------------------------------------
DEPT        .FT                                                 :DEPTH     
ASN         .OHMM                                               :          
CALI        .IN                                                 :          
CILD        .MMHO                                               :          
DT          .US/F                                               :          
ILD         .OHMM                                               :          
RHOB        .G/C3                                               :          
SP          .MV                                                 :          
SP_NORM     .MV                                                 :SP Normalized
VSH_SP      .V/V                                                :Volume of Shale from SP
~A        DEPTH            ASN           CALI           CILD             DT            ILD           RHOB             SP        SP_NORM         VSH_SP
# ...
     12088.5000         0.5091          9.869        2606.02       114.5576         0.4576         2.4134       -45.0411      -7.057539      0.8914225
     12089.0000         0.5054         9.9216       2679.555       114.7751         0.4582         2.4073       -44.9876      -6.982638      0.8925748
     12089.5000         0.5017         9.8852        2727.98       115.7238         0.4537         2.4026       -44.9341      -6.907742      0.8937271
     12090.0000         0.4984         9.8488       2842.168       118.5311         0.4493         2.3978       -44.8806       -6.83284      0.8948794
     12090.5000          0.495         9.8123       2952.074       119.4236         0.4448         2.3931       -44.8568       -6.79952       0.895392
     12091.0000         0.4916         9.9049       2987.246       120.0519         0.4404         2.3755       -44.8643      -6.810019      0.8952305
     12091.5000         0.4882        10.0378       2948.484        120.515         0.4359         2.3668       -44.8716      -6.820241      0.8950732
     12092.0000         0.4799         9.9584        2910.82        120.798         0.4315         2.3593       -44.8791      -6.830741      0.8949117
     12092.5000         0.4705         9.8186       2875.449       120.4197         0.4276         2.3504       -44.8865      -6.841102      0.8947523
     12093.0000         0.4662         9.7096       2842.469        120.042         0.4239         2.3516       -44.8939      -6.851462      0.8945929
     12093.5000         0.4708         9.7987        2816.66       119.6636         0.4201          2.357       -44.9014      -6.861962      0.8944314
     12094.0000         0.4753         9.8877       2770.477       119.2004         0.4163         2.3645       -44.9088      -6.872317       0.894272
     12094.5000         0.4799         9.9766        2741.23       118.6907         0.4125         2.3718       -44.9162      -6.882678      0.8941126
     12095.0000         0.4785        10.0656        2705.16       118.1964         0.4088         2.3701       -44.9236      -6.893039      0.8939533
     12095.5000          0.472          10.11       2677.363       118.0178          0.405         2.3684       -44.9372      -6.912078      0.8936604
     12096.0000         0.4655        10.1768       2683.516       118.0885         0.4012         2.3666       -44.9549      -6.936858      0.8932791
     12096.5000         0.4589        10.2672       2697.164       118.2867         0.3974         2.3646       -44.9726      -6.961638      0.8928978
     12097.0000         0.4524        10.3719       2722.199       118.9387         0.3935         2.3647       -44.9903      -6.986419      0.8925166
     12097.5000         0.4459        10.4767       2848.547       119.7478         0.3891         2.3671       -45.0078      -7.010921      0.8921397
     12098.0000         0.4393        10.5652       2926.664       120.9956         0.3847         2.3694       -45.0247       -7.03458      0.8917757
     12098.5000         0.4328         10.645       2987.645       121.8108         0.3803         2.3717       -45.0416      -7.058239      0.8914117
     12099.0000         0.4283        10.6318       3070.746       122.5151         0.3759          2.374       -45.0585      -7.081898      0.8910477
     12099.5000         0.4251        10.5351       3139.695        123.192         0.3716         2.3763       -45.0754      -7.105562      0.8906837
     12100.0000          0.422        10.4214       3186.578       123.8989         0.3672         2.3786        -45.147      -7.205799      0.8891416
     12100.5000         0.4188         10.308       3205.461       124.4998         0.3628         2.3724       -45.2427      -7.339778      0.8870803
     12101.0000         0.4168        10.1744       3224.293       124.4897         0.3584         2.3684       -45.3384      -7.473763      0.8850191
     12101.5000         0.4157        10.0273       3237.895        123.869         0.3543         2.3643       -45.4341      -7.607741      0.8829578
     12102.0000         0.4145         9.8693       3248.879       122.8193         0.3509         2.3603       -45.5594      -7.783158      0.8802591
     12102.5000         0.4134         9.8253       3186.527       121.3334         0.3476         2.3562       -45.7102      -7.994282      0.8770111
     12103.0000         0.4122         9.8579       3155.328       120.5692         0.3442         2.3443       -45.8613      -8.205822      0.8737566
     12103.5000         0.4109          9.843       3167.047       119.7352         0.3408         2.3367       -46.0123      -8.417218      0.8705043
     12104.0000         0.4095         9.8017        3183.59       118.7306         0.3375         2.3394       -46.2109      -8.695259      0.8662268
     12104.5000         0.4081         9.7604       3197.563       117.9103         0.3341         2.3425       -46.4449      -9.022861      0.8611867
     12105.0000         0.4068         9.7191       3208.625       117.5974         0.3308         2.3456       -46.6782       -9.34948      0.8561618
     12105.5000         0.4054         9.6971       3219.707       118.4102         0.3274         2.3489       -46.9122      -9.677081      0.8511218
     12106.0000         0.4053         9.6837       3228.488       119.3887         0.3283         2.3541       -47.1599      -10.02386      0.8457868
     12106.5000         0.4051         9.7052       3234.441       120.5905         0.3294         2.3593       -47.2287      -10.12018       0.844305
     12107.0000          0.405         9.7384       3240.398       121.9368         0.3305         2.3646       -46.6857       -9.35998      0.8560003
     12107.5000         0.4048         9.7715       3199.082        122.944         0.3317         2.3698        -46.408      -8.971201      0.8619815
     12108.0000         0.4047         9.8058       3125.148        123.566         0.3328         2.3662       -46.4441      -9.021739       0.861204
     12108.5000         0.4063         9.8461       3047.828       123.8584         0.3339         2.3623       -46.5762      -9.206678      0.8583588
     12109.0000         0.4094         9.6564       2973.297        123.437          0.335         2.3351        -46.954      -9.735598      0.8502216
     12109.5000         0.4125         9.3284       2904.941       122.5402         0.3402         2.3415       -46.7545      -9.456302      0.8545184
     12110.0000         0.4156          8.908       2859.805        121.306         0.3459         2.3459       -46.3016      -8.822242      0.8642732
     12110.5000         0.4324         8.5183       2811.777       120.8024         0.3516         2.3503       -45.8713       -8.21982      0.8735412
     12111.0000         0.4504         8.3302       2760.961       120.5051         0.3573         2.3547       -45.5941      -7.831741      0.8795117
     12111.5000         0.4641         8.2838       2725.488       120.5162         0.3631         2.3591       -45.3176       -7.44464      0.8854671
     12112.0000         0.4741         8.2967       2691.313       120.5272         0.3688         2.3635       -45.2397       -7.33558      0.8871449
     12112.5000         0.4749         8.3385        2658.43       120.5383         0.3748         2.3674       -45.2129      -7.298058      0.8877222
     12113.0000         0.4749         8.3803       2641.316       120.5493         0.3809         2.3707       -45.3827      -7.535783      0.8840649
     12113.5000         0.4749         8.4306       2625.922       120.5604         0.3871         2.3728       -45.5522       -7.77308      0.8804141
     12114.0000         0.4761         8.4544        2612.57       120.5714         0.3932         2.3697        -45.722        -8.0108      0.8767569
     12114.5000         0.4807         8.3074        2603.75       120.5823         0.3993         2.3636        -45.947      -8.325798      0.8719108
