#------------------------------------------------------------------------------
# Created by    : vladimir.rabinovich
# Created on    : 09/19/2023 17:20:04
#------------------------------------------------------------------------------
~Version Information Section
VERS.           2.0     :   CWLS log ASCII Standard - VERSION 2.0
WRAP.           NO      :   One line per depth step
~Well Information Section
#MNEM       .UNIT                                         VALUE :DESCRIPTION
#------------------------------------------------------------------------------
STRT        .FT                                             900 :START DEPTH
STOP        .FT                                            8286 :STOP DEPTH
STEP        .FT                                             0.5 :STEP      
NULL        .                                           -999.25 :NULL      
COMP        .                                       ALLIED CORP :COMPANY   
WELL        .                               OCS G04069 ST00BP00 :WELL      
FLD         .                                           WILDCAT :FIELD     
LOC         .                                                   :LOCATION  
CNTY        .                             GALVESTON LARGE BLOCK :LOCATION  
STAT        .                                             TEXAS :STATE     
CTRY        .                                     UNITED STATES :COUNTRY   
SRVC        .                                                   :SERVICE COMPANY
DATE        .                             9/13/2023 11:18:53 AM :LOG DATE  
API         .                                    42706400840000 :API NUMBER
UWI         .                                    42706400840000 :UNIQUE WELL ID
XCOORD      .                                  987200.391396966 :SURFACE X 
YCOORD      .                                   10401886.486665 :SURFACE Y 
LAT         .                                         28.647914 :LATITUDE  
LON         .                                        -95.037018 :LONGITUDE 
ELEV        .FT                                              83 :ELEVATION VALUE
ELEV_TYPE   .                                                KB :ELEVATION REFERENCE TYPE
~Curve Information Section
#MNEM       .UNIT                                      API CODE :CURVE DESCRIPTION
#------------------------------------------------------------------------------
DEPT        .FT                                                 :DEPTH     
ASFL        .OHMM                                               :          
CILD        .MMHO                                               :          
DPHI        .%                                                  :          
DT          .US/F                                               :          
GR          .GAPI                                               :          
GR_NORM     .GAPI                                               :GammaRay Normalized
ILD         .OHMM                                               :          
SP          .MV                                                 :          
SP_NORM     .MV                                                 :SP Normalized
VSH_GR      .V/V                                                :Volume of Shale from GR
VSH_SP      .V/V                                                :Volume of Shale from SP
~A        DEPTH           ASFL           CILD           DPHI             DT             GR        GR_NORM            ILD             SP        SP_NORM         VSH_GR         VSH_SP
# ...
      4815.0000         0.8468        1528.77        28.8321       120.7064        52.1899       65.03139         0.6083       -68.5453      -14.56405      0.6815189      0.7759377
      4815.5000         0.8662       1549.611        29.5898       119.5416        50.6238       62.78411         0.5915       -71.3302      -17.35016      0.6337045      0.7330745
      4816.0000         0.8895       1566.402        29.5811       117.8513        49.4343       61.07724         0.5782       -73.1827      -19.20387      0.5973881      0.7045558
      4816.5000         0.9127       1583.205        27.8895       115.5798        48.3849        59.5714         0.5754       -74.7184      -20.74078      0.5653489       0.680911
      4817.0000          0.936       1599.994        26.5646       114.4103        47.3361       58.06644         0.5727       -75.6569       -21.6805      0.5333284      0.6664538
      4817.5000         0.9647       1616.783         26.039       114.3779        46.7828       57.27247         0.5699       -76.4119      -22.43672      0.5164356      0.6548197
      4818.0000         0.9768       1633.574        25.5944       115.0988        46.5681       56.96439         0.5672       -76.7452      -22.77123      0.5098807      0.6496734
      4818.5000         0.9622       1650.363        25.6841       116.5691        46.3533       56.65615         0.5644       -77.0786      -23.10584      0.5033224      0.6445255
      4819.0000         0.9458       1640.104        25.9992       116.1069        46.3593       56.66477         0.5663       -77.0984      -23.12685      0.5035058      0.6442022
      4819.5000         0.9294       1627.871        27.2517       115.6543        46.6199       57.03872         0.5774       -76.8988      -22.92847      0.5114621      0.6472542
      4820.0000         0.9495       1615.639        28.1569       115.3928        46.8804       57.41253         0.5885       -76.6993      -22.73019      0.5194154      0.6503048
      4820.5000         0.9897       1603.418        28.9015       115.3044        47.1411       57.78662         0.5996       -76.4998       -22.5319      0.5273749      0.6533554
      4821.0000         1.0096       1591.186        29.9927       114.9454        47.4017       58.16056         0.6107       -76.1992      -22.23252      0.5353311      0.6579612
      4821.5000         0.9987       1579.361        30.3654       114.8027        47.6623       58.53451         0.6181       -75.7108      -21.74533      0.5432875      0.6654565
      4822.0000         0.9842       1572.574        29.2503       115.5385        48.0037       59.02441         0.6194       -75.2227      -21.25845      0.5537108       0.672947
      4822.5000         0.9638       1599.771        27.4698       116.4269        48.3462       59.51587         0.6208       -74.7343      -20.77126      0.5641675      0.6804422
      4823.0000         0.9434       1626.996        25.4675       118.0962         48.689       60.00777          0.613       -74.2458      -20.28397      0.5746335       0.687939
      4823.5000          0.923       1645.146        25.5115       120.9562        49.0315       60.49925         0.5995       -73.7577      -19.79708      0.5850904      0.6954295
      4824.0000          0.907       1652.994        25.6951       122.4197         49.374       60.99072          0.586       -73.2866       -19.3272      0.5955471      0.7026585
      4824.5000         0.8948       1660.846         25.277       121.7675        49.4606       61.11498         0.5725       -72.9084      -18.95021       0.598191      0.7084582
      4825.0000         0.8825       1668.693        24.5563       119.6987        49.4273        61.0672          0.559       -72.7585      -18.80153      0.5971744      0.7107458
      4825.5000         0.8557       1678.105         24.496       117.8297        49.3828       61.00334         0.5455       -73.1066      -19.15084      0.5958158      0.7053717
      4826.0000         0.8565       1689.229        24.9648       116.7743        49.2399       60.79829         0.5309       -74.2296      -20.27505      0.5914529      0.6880761
      4826.5000         0.8918       1700.363        26.8872       116.1466         49.097       60.59323         0.5157       -75.3876      -21.43427        0.58709       0.670242
      4827.0000         0.9163       1711.488        27.8113       117.0192        48.9541       60.38818         0.5005       -76.5442      -22.59208      0.5827273      0.6524295
      4827.5000         0.9116       1750.229        27.6167       117.6588        48.4586       59.67716         0.4854       -78.8075       -24.8566      0.5675991      0.6175907
      4828.0000         0.9069       1802.359        27.3593       117.7511        47.8511       58.80543         0.4702       -81.2694      -27.31971      0.5490516      0.5796967
      4828.5000         0.9023       1870.652        27.3464       118.0807        47.2435       57.93356          0.455       -83.7289      -29.78042      0.5305012      0.5418397
      4829.0000          0.898        1915.75        27.2495       119.2844        46.6201         57.039         0.4538       -86.0203      -32.07304      0.5114681      0.5065686
      4829.5000          0.894       1933.906        26.8693       120.3534        45.9053       56.01331         0.4716       -88.4231      -34.47706      0.4896448      0.4695837
      4830.0000         0.8899       1909.283        26.8994       120.4758        45.8175       55.88732         0.4893          -83.2      -29.25517      0.4869642      0.5499206
      4830.5000         0.8859        1861.34        27.4661       119.9818        46.5007       56.86768         0.5071       -81.1877      -27.24408       0.507823      0.5808603
      4831.0000         0.8871       1813.348        28.3966       118.9445        47.1838       57.84789         0.5274       -79.5442       -25.6018      0.5286784      0.6061262
      4831.5000         0.8975       1765.404         28.816       117.9891        47.8876       58.85781         0.5491       -78.8184      -24.87721      0.5501661      0.6172737
      4832.0000         0.9079       1715.736        28.8657       116.9326        48.7981       60.16432         0.5708       -78.0927      -24.15272      0.5779643      0.6284197
      4832.5000         0.9183       1663.262        28.4146       116.1812        49.7091       61.47156         0.5925       -77.3022      -23.36344      0.6057779      0.6405624
      4833.0000         0.9287       1610.785        27.6569        116.272        50.6202       62.77895         0.6142       -76.1943      -22.25675      0.6335946      0.6575884
      4833.5000         0.9367       1558.309        27.0814       116.8745         51.502       64.04428         0.6359       -75.0852      -21.14886      0.6605166      0.6746328
      4834.0000         0.9392       1505.832        24.3838       119.3376        52.2979       65.18637          0.655       -73.4412      -19.50608      0.6848164      0.6999064
      4834.5000         0.9322       1453.109        22.1734       121.3544        53.0943       66.32915          0.668       -71.1632       -17.2293      0.7091309      0.7349339
      4835.0000         0.9253       1399.895        22.5495       120.7708        53.8902       67.47124          0.681        -68.204      -14.27131      0.7334306      0.7804413
      4835.5000         0.9183       1346.631         25.283       118.5314        54.7908       68.76353          0.694       -67.3087      -13.37722      0.7609262      0.7941965
      4836.0000         0.9259        1344.24        27.1322       116.1053         55.822       70.24326          0.707       -66.8636      -12.93334      0.7924097      0.8010255
      4836.5000         0.9363       1345.338        27.1285       113.8202          55.53       69.82426           0.72       -66.1924      -12.26335      0.7834948      0.8113331
      4837.0000         0.9467       1354.785         25.808       112.4783        55.1467       69.27425         0.7243       -65.1692      -11.24136      0.7717927      0.8270559
