#------------------------------------------------------------------------------
# Created by    : vladimir.rabinovich
# Created on    : 09/19/2023 17:22:34
#------------------------------------------------------------------------------
~Version Information Section
VERS.           2.0     :   CWLS log ASCII Standard - VERSION 2.0
WRAP.           NO      :   One line per depth step
~Well Information Section
#MNEM       .UNIT                                         VALUE :DESCRIPTION
#------------------------------------------------------------------------------
STRT        .FT                                            2432 :START DEPTH
STOP        .FT                                            8088 :STOP DEPTH
STEP        .FT                                             0.5 :STEP      
NULL        .                                           -999.25 :NULL      
COMP        .                                  XTO OFFSHORE INC :COMPANY   
WELL        .                               OCS G23162 ST00BP00 :WELL      
FLD         .                                 BRAZOS BLOCK 0398 :FIELD     
LOC         .                                                   :LOCATION  
CNTY        .                                BRAZOS LARGE BLOCK :LOCATION  
STAT        .                                             TEXAS :STATE     
CTRY        .                                     UNITED STATES :COUNTRY   
SRVC        .                                                   :SERVICE COMPANY
DATE        .                             9/13/2023 11:09:58 AM :LOG DATE  
API         .                                    42704403400000 :API NUMBER
UWI         .                                    42704403400000 :UNIQUE WELL ID
XCOORD      .                                  869002.191083907 :SURFACE X 
YCOORD      .                                  10369331.9113669 :SURFACE Y 
LAT         .                                        28.5523806 :LATITUDE  
LON         .                                       -95.4033279 :LONGITUDE 
ELEV        .FT                                             100 :ELEVATION VALUE
ELEV_TYPE   .                                                KB :ELEVATION REFERENCE TYPE
~Curve Information Section
#MNEM       .UNIT                                      API CODE :CURVE DESCRIPTION
#------------------------------------------------------------------------------
DEPT        .FT                                                 :DEPTH     
CO12        .MMHO                                               :          
DCAL        .IN                                                 :          
DPHI        .FRAC                                               :          
DRHO        .G/CC                                               :          
GR          .GAPI                                               :          
GR_NORM     .GAPI                                               :GammaRay Normalized
HO01        .OHMM                                               :          
HO02        .OHMM                                               :          
HO03        .OHMM                                               :          
HO06        .OHMM                                               :          
HO09        .OHMM                                               :          
HO12        .OHMM                                               :          
NPHI        .FRAC                                               :          
RWA         .OHMM                                               :          
SP          .MV                                                 :          
SP_NORM     .MV                                                 :SP Normalized
TENS        .LB/F                                               :          
VSH_GR      .V/V                                                :Volume of Shale from GR
VSH_SP      .V/V                                                :Volume of Shale from SP
~A        DEPTH           CO12           DCAL           DPHI           DRHO             GR        GR_NORM           HO01           HO02           HO03           HO06           HO09           HO12           NPHI            RWA             SP        SP_NORM           TENS         VSH_GR         VSH_SP
# ...
      6576.5000       2757.663        -2.7375         0.3369         0.0963        58.0371       40.24006         0.5396         0.4081         0.3725         0.3536         0.3863         0.3661         0.3839         0.0701        46.6393      -27.36518       4670.378      0.1540439       0.207338
      6577.0000        2861.82        -2.7452         0.3529         0.0828        61.8392       44.64075           0.48          0.399         0.3651         0.3356         0.3526         0.3333         0.3847         0.0638        48.1763      -25.83372       4655.459      0.2476756      0.2551961
      6577.5000       2934.925        -2.7375         0.3541         0.0773        65.5365       48.91527         0.4938         0.3995          0.363         0.3346          0.374         0.3504         0.3838         0.0614        49.1357      -24.87986       4640.541      0.3386227      0.2850043
      6578.0000       2908.313        -2.7375         0.3544         0.0771        67.0829       50.60016         0.5308          0.383         0.3511         0.3346         0.3617         0.3389         0.4017         0.0592        48.8436       -25.1775       4630.594      0.3744715      0.2757031
      6578.5000       2880.185        -2.7221         0.3582         0.0812        65.7944       48.87191         0.5201         0.3834         0.3546         0.3376         0.3649         0.3425         0.3901          0.062        48.0103      -26.01634       4632.628      0.3377003      0.2494893
      6579.0000        2850.68        -2.7144         0.3626         0.0894        63.3412       45.74139         0.5049         0.3672         0.3466         0.3571         0.3836         0.3611         0.3782         0.0668        48.0269      -26.00527       4650.486      0.2710935      0.2498353
      6579.5000       2764.098        -2.7067         0.3666          0.097        64.4221       46.86583         0.5417         0.3482         0.3376          0.366         0.3668         0.3493          0.384         0.0691        49.7465      -24.29121        4685.75      0.2950177      0.3033996
      6580.0000       2618.954         -2.699         0.3647         0.1034        70.6973       54.24407           0.61         0.3549         0.3647         0.4343         0.3912         0.3759         0.3767          0.075         54.477      -19.56625       4724.629      0.4520015      0.4510547
      6580.5000       2284.776         -2.699         0.3613         0.1046        80.1673       65.46875         0.6624         0.4103         0.4289         0.4739         0.4414         0.4284         0.3885         0.0813        61.3653      -12.68349       4753.111      0.6908244      0.6661409
      6581.0000       1899.051        -2.7836         0.3554         0.1039        89.1137       76.06303         0.7854         0.5098         0.5314         0.5193         0.5473         0.5376         0.4158         0.0936        67.3971      -6.657227       4765.091      0.9162346      0.8544617
      6581.5000       1542.568        -2.8066         0.3495          0.104        96.7155       85.03846         0.8994         0.6692         0.6613         0.6274         0.6659         0.6653          0.428         0.1075         70.657       -3.40287        4759.44              1      0.9561603
      6582.0000       1288.005        -2.8066         0.3443         0.1073       101.2596        90.3325         0.7574         0.8217         0.8225         0.7448         0.7774         0.7908         0.4238         0.1233        72.2172      -1.848206       4749.042              1              1
      6582.5000       1080.149        -2.8066         0.3414         0.1129       102.0464       91.10284         0.6783         0.9116         0.9262         0.8139         0.8843         0.9121         0.4122         0.1429        72.8413      -1.229637       4741.583              1              1
      6583.0000       936.6893        -2.8066         0.3386         0.1215       102.1361       91.03391         0.9245         1.0205         1.0366          1.016          1.091          1.137         0.3921         0.1654        73.1168     -0.9596786       4739.774              1              1
      6583.5000       874.4492        -2.8528         0.3366         0.1281        104.035        93.1432         1.0478         1.1112          1.138         1.1518         1.1611         1.1988         0.3923         0.1669        73.2264     -0.8556137       4742.939              1              1
      6584.0000       916.1533        -2.8451         0.3309         0.1366       105.3557       94.55635         0.8613         1.0247         1.0672         1.0321         1.0734         1.0993         0.3957         0.1697        73.1932     -0.8943558       4744.973              1              1
      6584.5000       906.2078        -2.8451         0.3253         0.1433       101.7773       90.07111         0.9733          0.959         0.9674         0.9947           0.98         0.9954         0.3858         0.1624        73.1932     -0.8998947       4749.042              1              1
      6585.0000       845.5779        -2.8451         0.3234         0.1489        96.9129        84.0376         1.3389         1.1132         1.1238         1.1931         1.2389         1.2432         0.3699         0.1598        73.2529     -0.8457336       4759.214              1              1
      6585.5000       805.9095        -2.8374         0.3284         0.1499        95.4889        82.1462         0.7948         1.0455         1.2046         1.3303         1.3904         1.3741         0.3798         0.1667        73.3293     -0.7748642       4768.934              1              1
      6586.0000       901.8967        -2.8604         0.3441         0.1431        99.3729        86.6455         0.6432         0.8045         0.8877         1.0238          1.131         1.1291         0.4273         0.1742        73.4089     -0.7008057        4770.29              1              1
      6586.5000       1006.038        -2.8604         0.3638         0.1315       102.8518       90.65707         0.7523         0.7934         0.8398         0.8567         0.9132         0.9155          0.447         0.1948        73.4919     -0.6233444       4768.482              1              1
      6587.0000       1050.717        -2.9142         0.3839         0.1177       102.9376       90.58344         0.8637         0.8498         0.8779         0.8873         0.9586         0.9614         0.4526         0.2079        73.5318     -0.5889816       4770.516              1              1
      6587.5000       1037.274        -2.9757         0.3987         0.1075       101.0451       88.12799         0.8452         0.8616         0.8912          0.911         0.9791         0.9807         0.4604         0.2211         73.472     -0.6543198       4777.976              1              1
      6588.0000       1023.958        -3.0526         0.4096         0.0991       101.4951       88.49284         0.6783         0.8321         0.9035         0.9164         0.9524         0.9506         0.4528         0.2251        73.2728     -0.8590622       4792.443              1              1
      6588.5000       1082.816         -3.091         0.4169         0.0945       104.2169       91.59289         0.6447         0.8033         0.8922         0.9082         1.0073         0.9998         0.4538         0.2282        72.9176      -1.219795       4805.553              1              1
      6589.0000        1173.62         -3.091         0.4216         0.0927       103.2686       90.27423         0.6693         0.7997         0.8421         0.7806         0.8482         0.8359         0.4522         0.2279        72.2039      -1.939026       4821.829              1              1
      6589.5000       1181.003         -3.091         0.4227         0.0954        95.2797       80.47888         0.6766         0.6931          0.726          0.715         0.7722         0.7551         0.4153         0.2316        70.5375       -3.61097       4841.268              1      0.9496572
