#------------------------------------------------------------------------------
# Created by    : vladimir.rabinovich
# Created on    : 09/19/2023 17:19:22
#------------------------------------------------------------------------------
~Version Information Section
VERS.           2.0     :   CWLS log ASCII Standard - VERSION 2.0
WRAP.           NO      :   One line per depth step
~Well Information Section
#MNEM       .UNIT                                         VALUE :DESCRIPTION
#------------------------------------------------------------------------------
STRT        .FT                                            2350 :START DEPTH
STOP        .FT                                            7008 :STOP DEPTH
STEP        .FT                                             0.5 :STEP      
NULL        .                                           -999.25 :NULL      
COMP        .                                  W&T OFFSHORE INC :COMPANY   
WELL        .                               OCS G04565 ST00BP00 :WELL      
FLD         .                              GALVESTON BLOCK 0303 :FIELD     
LOC         .                                                   :LOCATION  
CNTY        .                             GALVESTON LARGE BLOCK :LOCATION  
STAT        .                                             TEXAS :STATE     
CTRY        .                                     UNITED STATES :COUNTRY   
SRVC        .                                                   :SERVICE COMPANY
DATE        .                             9/13/2023 11:19:03 AM :LOG DATE  
API         .                                    42706403950000 :API NUMBER
UWI         .                                    42706403950000 :UNIQUE WELL ID
XCOORD      .                                  979190.041446607 :SURFACE X 
YCOORD      .                                   10483081.623763 :SURFACE Y 
LAT         .                                        28.8707847 :LATITUDE  
LON         .                                       -95.0663777 :LONGITUDE 
ELEV        .FT                                              91 :ELEVATION VALUE
ELEV_TYPE   .                                                KB :ELEVATION REFERENCE TYPE
~Curve Information Section
#MNEM       .UNIT                                      API CODE :CURVE DESCRIPTION
#------------------------------------------------------------------------------
DEPT        .FT                                                 :DEPTH     
AF20        .OHMM                                               :          
AFCO        .MMHO                                               :          
AO90        .OHMM                                               :          
AT10        .OHMM                                               :          
AT20        .OHMM                                               :          
AT30        .OHMM                                               :          
AT60        .OHMM                                               :          
AT90        .OHMM                                               :          
DCAL        .IN                                                 :          
DPHI        .%                                                  :          
DRHO        .G/C3                                               :          
GR          .GAPI                                               :          
GR_NORM     .GAPI                                               :GammaRay Normalized
GRN         .GAPI                                               :          
NPOR        .%                                                  :          
RWA         .OHMM                                               :          
SP          .MV                                                 :          
SP_NORM     .MV                                                 :SP Normalized
TENR        .LBF                                                :          
TPHI        .%                                                  :          
VSH_GR      .V/V                                                :Volume of Shale from GR
VSH_SP      .V/V                                                :Volume of Shale from SP
~A        DEPTH           AF20           AFCO           AO90           AT10           AT20           AT30           AT60           AT90           DCAL           DPHI           DRHO             GR        GR_NORM            GRN           NPOR            RWA             SP        SP_NORM           TENR           TPHI         VSH_GR         VSH_SP
# ...
      3106.0000           0.57        2173.91           0.46           0.65           0.57           0.49           0.43           0.44          5.525           40.9          -0.03           58.8       57.92001        -999.25        43.1998           0.11          -25.8      -21.15664           1875        -999.25      0.5302129      0.6153337
      3106.5000           0.55       2380.949           0.42           0.61           0.52           0.47           0.42           0.43          6.625        39.4999          -0.03           63.9       62.51001        -999.25        43.2715           0.09          -20.8      -16.16488           1875        -999.25      0.6278725      0.7060931
      3107.0000           0.54       2325.578           0.43            0.6           0.51           0.46           0.42           0.42          4.125        34.9999          -0.01        72.8999       70.60992        -999.25         41.975           0.07          -19.6      -14.97312           1885        -999.25       0.800211      0.7277615
      3107.5000           0.54       2325.578           0.43           0.63           0.52           0.46           0.42           0.43          3.825        31.4999          -0.01        75.7999       73.21991        -999.25         41.796           0.06          -24.4      -19.78135           1885        -999.25      0.8557428       0.640339
      3108.0000           0.53       2272.727           0.44           0.69           0.55           0.47           0.42           0.42          3.825        32.4999          -0.02           72.2          69.98        -999.25        40.7885           0.06          -32.9      -28.28959           1885        -999.25      0.7868086      0.4856438
      3108.5000           0.52       2325.578           0.43           0.75           0.57           0.47            0.4            0.4          4.725           32.4          -0.02           60.1          59.09        -999.25        37.7404           0.06          -39.8      -35.19783           1885        -999.25      0.5551065      0.3600395
      3109.0000           0.51       2702.699           0.37           0.73           0.55           0.44           0.37           0.38          5.725        32.9999          -0.03           51.9       51.71001        -999.25        35.3655           0.06          -43.6      -39.00607           1875        -999.25      0.3980852      0.2907988
      3109.5000            0.5           3125           0.32           0.69            0.5           0.41           0.34           0.35          6.325        33.9999          -0.04           43.1          43.79        -999.25        35.8663           0.05          -45.2       -40.6143           1875        -999.25      0.2295746      0.2615581
      3110.0000           0.49       3448.273           0.29           0.65           0.47           0.39           0.32           0.33          6.525           33.6          -0.03           39.2       40.28001        -999.25        37.1588           0.05          -46.4      -41.82254           1875        -999.25      0.1548938      0.2395902
      3110.5000           0.48       3448.273           0.29           0.63           0.46           0.37           0.31           0.32          6.725        33.2999          -0.03           37.1          38.39        -999.25         38.055           0.04          -46.6      -42.03077           1875        -999.25      0.1146809      0.2358041
      3111.0000           0.47       3333.332            0.3           0.63           0.45           0.37           0.31           0.32          6.925           32.9          -0.03           41.3       42.17001        -999.25          37.29           0.04          -46.7      -42.13902           1880        -999.25      0.1951065      0.2338361
      3111.5000           0.46       3333.332            0.3           0.63           0.45           0.37           0.32           0.33          7.025           33.2          -0.04           47.8          48.02        -999.25         36.339           0.04          -46.5      -41.94725           1880        -999.25      0.3195746      0.2373227
      3112.0000           0.46       3333.332            0.3           0.62           0.45           0.38           0.33           0.33          7.125           33.1          -0.04           46.1          46.49        -999.25        38.3493           0.04          -46.1      -41.55548           1880        -999.25      0.2870213      0.2444457
      3112.5000           0.46       3333.332            0.3           0.61           0.45           0.38           0.33           0.34          7.225           33.7          -0.05           44.8          45.32        -999.25        41.4127           0.05          -45.5      -40.96372           1880        -999.25      0.2621277      0.2552051
      3113.0000           0.46       3448.273           0.29           0.59           0.45           0.38           0.33           0.34          7.625        32.7999          -0.04           45.1          45.59        -999.25        43.2962           0.04          -44.3      -39.77196           1850        -999.25      0.2678724      0.2768735
      3113.5000           0.47       3448.273           0.29           0.58           0.45           0.38           0.34           0.34          6.925        33.2999          -0.04           47.8          48.02        -999.25        44.4605           0.04          -43.7       -39.1802           1850        -999.25      0.3195746      0.2876328
      3114.0000           0.48       3333.332            0.3           0.59           0.46           0.39           0.35           0.35          8.125        34.4999          -0.04             49       49.10001        -999.25        45.7441           0.05          -44.3      -39.78843           1850        -999.25      0.3425533       0.276574
      3114.5000           0.49       3030.301           0.33           0.63           0.49           0.42           0.36           0.36          9.125           35.7          -0.04             45           45.5        -999.25          45.96           0.06          -44.9      -40.39667           1850        -999.25      0.2659575      0.2655151
      3115.0000           0.51       2777.777           0.36           0.67           0.52           0.44           0.37           0.38          9.025           34.9          -0.04           44.8          45.32        -999.25        44.9036           0.06          -45.9      -41.40491           1850        -999.25      0.2621277      0.2471835
      3115.5000           0.53       2857.141           0.35           0.67           0.53           0.44           0.38           0.38          8.325           33.9          -0.04           43.2          43.88        -999.25        43.1637           0.06          -45.9      -41.41315           1850        -999.25      0.2314895      0.2470337
      3116.0000           0.56           3125           0.32           0.65           0.52           0.44           0.38           0.38          8.025           33.7          -0.04           44.4       44.96001        -999.25         42.228           0.05          -45.4      -40.92138           1850        -999.25      0.2544682      0.2559749
      3116.5000           0.59           3125           0.32           0.66           0.53           0.46            0.4            0.4          8.125        34.7999          -0.02           43.3       43.97001        -999.25        42.8407           0.05          -44.9      -40.42962           1850        -999.25      0.2334044       0.264916
      3117.0000           0.64       2564.102           0.39           0.76           0.61           0.51           0.45           0.45          5.225        40.5999          -0.03           42.3          43.07        -999.25         47.593           0.09          -43.8      -39.33785           1870        -999.25      0.2142554      0.2847663
      3117.5000            0.7       1754.385           0.57           0.93           0.75           0.62           0.53           0.53          1.225           48.1          -0.03           36.9       38.21001        -999.25         52.813           0.19          -42.8      -38.34609           1870        -999.25      0.1108512      0.3027983
