#------------------------------------------------------------------------------
# Created by    : vladimir.rabinovich
# Created on    : 09/19/2023 17:22:53
#------------------------------------------------------------------------------
~Version Information Section
VERS.           2.0     :   CWLS log ASCII Standard - VERSION 2.0
WRAP.           NO      :   One line per depth step
~Well Information Section
#MNEM       .UNIT                                         VALUE :DESCRIPTION
#------------------------------------------------------------------------------
STRT        .FT                                             411 :START DEPTH
STOP        .FT                                           10036 :STOP DEPTH
STEP        .FT                                             0.5 :STEP      
NULL        .                                           -999.25 :NULL      
COMP        .                          HUMBLE OIL & REFINING CO :COMPANY   
WELL        .                                     ST TR 00278-L :WELL      
FLD         .                                           WILDCAT :FIELD     
LOC         .                                                   :LOCATION  
CNTY        .                             GALVESTON LARGE BLOCK :LOCATION  
STAT        .                                             TEXAS :STATE     
CTRY        .                                     UNITED STATES :COUNTRY   
SRVC        .                                                   :SERVICE COMPANY
DATE        .                             9/13/2023 11:19:42 AM :LOG DATE  
API         .                                    42706000220000 :API NUMBER
UWI         .                                    42706000220000 :UNIQUE WELL ID
XCOORD      .                                  941560.719964966 :SURFACE X 
YCOORD      .                                  10497824.1170516 :SURFACE Y 
LAT         .                                        28.9094621 :LATITUDE  
LON         .                                       -95.1847519 :LONGITUDE 
ELEV        .FT                                              10 :ELEVATION VALUE
ELEV_TYPE   .                                                KB :ELEVATION REFERENCE TYPE
~Curve Information Section
#MNEM       .UNIT                                      API CODE :CURVE DESCRIPTION
#------------------------------------------------------------------------------
DEPT        .FT                                                 :DEPTH     
LAT         .OHMM                                               :          
LN          .OHMM                                               :          
SN          .OHMM                                               :          
SP          .MV                                                 :          
SP_NORM     .MV                                                 :SP Normalized
VSH_SP      .V/V                                                :Volume of Shale from SP
~A        DEPTH            LAT             LN             SN             SP        SP_NORM         VSH_SP
# ...
      9341.0000         0.4032         0.3283         0.4458        99.3586       -20.0798      0.7856202
      9341.5000         0.4009         0.3263         0.4451        99.6868      -20.40047      0.7820171
      9342.0000         0.3987         0.3242         0.4444         89.637      -10.34315      0.8950207
      9342.5000         0.3965         0.3221         0.4437        87.4814      -8.180023      0.9193256
      9343.0000         0.3942         0.3205          0.443        85.3214      -6.012505      0.9436797
      9343.5000          0.392         0.3208         0.4423         83.376      -4.059578      0.9656227
      9344.0000         0.3898         0.3211         0.4416        82.9707      -3.646751      0.9702612
      9344.5000         0.3875         0.3214         0.4409        82.5659      -3.234428       0.974894
      9345.0000         0.3853         0.3217         0.4385        82.1613      -2.822296      0.9795248
      9345.5000          0.383          0.322         0.4356        81.7565      -2.409973      0.9841576
      9346.0000         0.3808         0.3223         0.4326        81.3512      -1.997139      0.9887962
      9346.5000         0.3786         0.3226         0.4297        80.9464      -1.584824      0.9934289
      9347.0000         0.3763         0.3229         0.4267        80.5441      -1.174995      0.9980338
      9347.5000         0.3745         0.3232         0.4238        80.1813     -0.8046646              1
      9348.0000         0.3738         0.3235         0.4209        79.8186     -0.4344482              1
      9348.5000          0.373         0.3238         0.4179        79.4559    -0.06421661              1
      9349.0000         0.3723         0.3241          0.415        79.0933      0.3059082              1
      9349.5000         0.3716          0.324          0.412        78.8157      0.5910416              1
      9350.0000         0.3709         0.3219         0.4091        78.6528      0.7614594              1
      9350.5000         0.3702         0.3198         0.4062        78.7213      0.7004852              1
      9351.0000         0.3695         0.3177         0.4032        79.7219     -0.2925873              1
      9351.5000         0.3688         0.3156         0.4007        80.7225      -1.285667      0.9967902
      9352.0000         0.3681         0.3136         0.3986        81.7231      -2.278732      0.9856322
      9352.5000         0.3674         0.3115         0.3965        82.8757      -3.423813      0.9727662
      9353.0000         0.3667         0.3094         0.3944        84.1078      -4.648384      0.9590069
      9353.5000          0.366         0.3073         0.3923        85.3398      -5.872856      0.9452488
      9354.0000         0.3653         0.3052         0.3903        86.5718      -7.097336      0.9314906
      9354.5000         0.3646         0.3031         0.3882        87.8038      -8.321808      0.9177325
      9355.0000         0.3639          0.301         0.3861        89.4735      -9.983986      0.8990563
      9355.5000         0.3656         0.2996          0.384        91.4171      -11.92005      0.8773028
      9356.0000         0.3692         0.2986         0.3819        89.6969      -10.19233      0.8967154
      9356.5000         0.3728         0.2977         0.3798        87.6196      -8.107498      0.9201404
      9357.0000         0.3764         0.2968         0.3777        85.5378      -6.018181       0.943616
      9357.5000         0.3799         0.2959         0.3786        84.1572      -4.630058      0.9592128
      9358.0000         0.3835          0.295         0.3798         83.205      -3.670326      0.9699963
      9358.5000         0.3871          0.294          0.381        82.2528      -2.710602      0.9807798
      9359.0000         0.3907         0.2931         0.3821        81.3005      -1.750771      0.9915644
      9359.5000         0.3943         0.2922         0.3833        80.3472     -0.7899475              1
      9360.0000         0.3979         0.2913         0.3845        79.6073    -0.04251862              1
      9360.5000         0.4014         0.2903         0.3857         79.126      0.4463043              1
      9361.0000          0.405         0.2901         0.3869        78.6442      0.9356308              1
      9361.5000         0.4086         0.2898          0.388        78.1628       1.424553              1
      9362.0000         0.4083         0.2896         0.3892        77.6809       1.913979              1
      9362.5000         0.4048         0.2893          0.394        77.1991       2.403313              1
      9363.0000         0.4013         0.2891         0.3989         76.875       2.734932              1
      9363.5000         0.3978         0.2888         0.4039        76.5859       3.031563              1
      9364.0000         0.3943         0.2902         0.4089        76.5033       3.121681              1
      9364.5000         0.3908         0.2918         0.4138        76.4729       3.159615              1
      9365.0000         0.3873         0.2934         0.4188        77.0724       2.567635              1
      9365.5000         0.3839          0.295         0.4238        78.1639       1.483658              1
      9366.0000         0.3804         0.2966         0.4287        79.4951      0.1599884              1
      9366.5000         0.3769         0.2982         0.4337        81.5032      -1.840584      0.9905552
      9367.0000         0.3734         0.2998         0.4381        83.5114      -3.841255      0.9680758
      9367.5000         0.3692         0.3014         0.4416        85.5217      -5.844032      0.9455727
      9368.0000         0.3645          0.303         0.4452        87.0439      -7.358704      0.9285539
      9368.5000         0.3597         0.3045         0.4487         88.276      -8.583282      0.9147946
      9369.0000          0.355         0.3061         0.4522        88.3324      -8.632156      0.9142454
      9369.5000         0.3502         0.3076         0.4557        87.3318      -7.624031      0.9255727
      9370.0000         0.3455         0.3088         0.4592        86.3312      -6.615906         0.9369
      9370.5000         0.3407           0.31         0.4628        85.3306      -5.607773      0.9482273
      9371.0000          0.336         0.3112         0.4663          84.33      -4.599655      0.9595544
      9371.5000         0.3312         0.3124         0.4698        83.4606      -3.722725      0.9694076
      9372.0000         0.3265         0.3136         0.4733        83.2554      -3.510002      0.9717977
      9372.5000         0.3217         0.3148         0.4769        83.0498      -3.296875      0.9741924
      9373.0000          0.317         0.3159         0.4804        82.8446      -3.084145      0.9765826
      9373.5000         0.3123         0.3171          0.483         82.639      -2.871025      0.9789773
      9374.0000         0.3075         0.3183         0.4813        83.0588      -3.283295       0.974345
      9374.5000         0.3041         0.3195         0.4795        83.5389      -3.755875      0.9690351
      9375.0000         0.3039         0.3207         0.4778        84.0186      -4.228043      0.9637299
      9375.5000         0.3036         0.3219          0.476        84.4987      -4.700623        0.95842
      9376.0000         0.3034         0.3231         0.4743        84.9783      -5.172699      0.9531158
      9376.5000         0.3031         0.3243         0.4725        85.4578      -5.644669      0.9478127
      9377.0000         0.3029         0.3257         0.4708        85.3853      -5.564644      0.9487119
      9377.5000         0.3026         0.3274          0.469        85.1141      -5.285912      0.9518437
      9378.0000         0.3024         0.3291         0.4673        84.8435       -5.00779      0.9549686
      9378.5000         0.3021         0.3309         0.4655        84.5724      -4.729164      0.9580993
