#------------------------------------------------------------------------------
# Created by    : vladimir.rabinovich
# Created on    : 09/19/2023 17:22:17
#------------------------------------------------------------------------------
~Version Information Section
VERS.           2.0     :   CWLS log ASCII Standard - VERSION 2.0
WRAP.           NO      :   One line per depth step
~Well Information Section
#MNEM       .UNIT                                         VALUE :DESCRIPTION
#------------------------------------------------------------------------------
STRT        .FT                                            2222 :START DEPTH
STOP        .FT                                            8603 :STOP DEPTH
STEP        .FT                                             0.5 :STEP      
NULL        .                                           -999.25 :NULL      
COMP        .                                    HRUBETZ OIL CO :COMPANY   
WELL        .                                     ST TR 00028-L :WELL      
FLD         .                                           WILDCAT :FIELD     
LOC         .                                                   :LOCATION  
CNTY        .                           HIGH ISLAND LARGE BLOCK :LOCATION  
STAT        .                                             TEXAS :STATE     
CTRY        .                                     UNITED STATES :COUNTRY   
SRVC        .                                                   :SERVICE COMPANY
DATE        .                             9/13/2023 11:19:15 AM :LOG DATE  
API         .                                    42708303040000 :API NUMBER
UWI         .                                    42708303040000 :UNIQUE WELL ID
XCOORD      .                                  1211101.11829014 :SURFACE X 
YCOORD      .                                  10709910.5532953 :SURFACE Y 
LAT         .                                         29.503814 :LATITUDE  
LON         .                                       -94.3499952 :LONGITUDE 
ELEV        .FT                                              60 :ELEVATION VALUE
ELEV_TYPE   .                                                KB :ELEVATION REFERENCE TYPE
~Curve Information Section
#MNEM       .UNIT                                      API CODE :CURVE DESCRIPTION
#------------------------------------------------------------------------------
DEPT        .FT                                                 :DEPTH     
CALI        .IN                                                 :          
GR          .GAPI                                               :          
GR_NORM     .GAPI                                               :GammaRay Normalized
ILD         .OHMM                                               :          
ILM         .OHMM                                               :          
RHOB        .G/C3                                               :          
SFL         .OHMM                                               :          
SP          .MV                                                 :          
SP_NORM     .MV                                                 :SP Normalized
VSH_GR      .V/V                                                :Volume of Shale from GR
VSH_SP      .V/V                                                :Volume of Shale from SP
~A        DEPTH           CALI             GR        GR_NORM            ILD            ILM           RHOB            SFL             SP        SP_NORM         VSH_GR         VSH_SP
# ...
      6047.0000        13.8448        56.1583       63.08452         1.2241         0.9406         2.1979         1.3097       -81.3491      -6.286423      0.6400962      0.9370664
      6047.5000        13.4934        56.8764       64.30793         1.1706         0.9003         2.2094         1.3333       -81.9977      -6.931427      0.6661262      0.9293877
      6048.0000        13.1639        57.5945       65.53135         1.1152         0.8596         2.2209         1.3681       -82.3397      -7.269821      0.6921564      0.9253592
      6048.5000        13.0016        58.4672       67.01808         1.0624         0.8124         2.2324         1.4038       -82.5687      -7.495224       0.723789      0.9226759
      6049.0000        12.9254          59.41       68.62418         1.0029         0.7677         2.2484         1.4403       -82.7548      -7.677719      0.7579613      0.9205033
      6049.5000        12.8755        60.4285       70.35925         0.9469         0.7229           2.23         1.4682       -82.8868      -7.806122      0.7948776      0.9189748
      6050.0000        12.8366        61.4862       72.16107         0.8957         0.6781         2.2042         1.4427       -82.7579      -7.673615      0.8332143      0.9205522
      6050.5000        12.7976        62.6013         74.752         0.8448         0.6418         2.1784         1.4176       -81.7878      -6.699921      0.8883404      0.9321438
      6051.0000        12.7594        63.5715       76.21239         0.7955         0.6192          2.158         1.3147       -79.3431       -4.25161      0.9194127      0.9612904
      6051.5000        12.7237        64.0436        76.9232         0.7535         0.5975         2.1382         1.2082         -76.39      -1.294907      0.9345362      0.9964892
      6052.0000        12.7958        64.2026       77.16277         0.7159         0.5978         2.1236         1.1421       -75.0662     0.03249359      0.9396333              1
      6052.5000        12.8942        64.0498        76.9331          0.691         0.6165         2.1217         1.1267        -74.928      0.1742935      0.9347467              1
      6053.0000        12.9777        64.2625        77.2535         0.6946         0.6357         2.1296          1.117       -75.0389     0.06699371      0.9415638              1
      6053.5000        13.0061        65.2307       78.71088         0.7194         0.6685         2.1374         1.1249       -75.4438     -0.3343048       0.972572              1
      6054.0000        13.0345        66.5509       80.69805         0.7451         0.7238         2.1619         1.1329       -75.8491     -0.7360001              1              1
      6054.5000        13.0629        67.8442       82.64471         0.7717         0.7837         2.1866         1.1435       -76.2187      -1.101997              1      0.9987857
      6055.0000        13.0762        69.1034       84.54004          0.801          0.846         2.2117         1.1724       -76.5485        -1.4282              1      0.9949024
      6055.5000        13.0893        69.6847       85.41517         0.8316         0.8867         2.2392         1.2094       -76.8787      -1.754799              1      0.9910143
      6056.0000        13.0952         70.197       86.18644         0.8635         0.9293         2.2546         1.2562       -77.0674      -1.939888              1      0.9888108
      6056.5000        13.0683        69.9125       85.75858         0.8965         0.9732         2.2641         1.2865       -76.6809      -1.549789              1      0.9934549
      6057.0000        13.0414        69.6206       85.31956         0.9164         1.0168         2.2613         1.2585       -76.2943      -1.159584              1      0.9981002
      6057.5000        13.0204        68.8756       84.19865         0.9256         1.0623         2.2584         1.2336       -75.8707     -0.7323837              1              1
      6058.0000        13.0018        68.1312       83.07864         0.9349         1.0711         2.2555         1.2206       -75.3403     -0.1983871              1              1
      6058.5000        13.0073        67.3862       81.95773         0.9443         1.0447         2.2517         1.2078       -74.8096      0.3359146              1              1
      6059.0000        13.0431        66.5411       80.68618         0.9186          0.968         2.2476         1.1952        -76.139     -0.9898834              1              1
      6059.5000         13.079        65.3528       78.89811         0.8749         0.8968         2.2435         1.1964       -77.6174      -2.464684      0.9765555      0.9825633
      6060.0000        13.1148        64.1632        77.1081         0.8325         0.8327         2.2394         1.2043       -80.8344      -5.678078      0.9384702      0.9443086
      6060.5000        13.1698        62.9738       75.31838          0.747           0.79         2.2352         1.2124       -84.6448      -9.484879      0.9003911      0.8989896
      6061.0000        13.2416        61.6205       73.28199         0.6475         0.7493         2.2243          1.229       -88.4515      -13.28797      0.8570636      0.8537146
      6061.5000        13.3134         60.056       70.92778         0.5603         0.7112         2.2044         1.2524       -94.6069      -19.43977      0.8069741      0.7804789
      6062.0000        13.4659        57.2104       66.64555         0.4959         0.6755          2.146         1.2956      -101.3632      -26.19247      0.7158627      0.7000897
      6062.5000        14.0818        54.2427       62.17953         0.4507         0.6105         2.0322         1.3465      -108.8374      -33.66307      0.6208411      0.6111539
      6063.0000         14.256         51.678       58.32005          0.417          0.504         1.9775          1.353      -113.6115      -38.43357      0.5387245      0.5543622
      6063.5000        14.1666        52.1616       59.04813         0.3942         0.4339         1.9375         1.3446      -117.3853      -42.20377      0.5542156       0.509479
      6064.0000         13.976        54.2891       62.25023         0.3785         0.4045         1.9382         1.3291      -118.3232      -43.13806      0.6223454      0.4983564
      6064.5000        13.7853        57.0181       66.35758         0.3738         0.3893          1.978         1.2794      -116.5701      -41.38136      0.7097358      0.5192695
      6065.0000        13.7036        57.2863       66.76151         0.3692         0.3801         2.0257         1.2315      -114.8187      -39.62637      0.7183299      0.5401623
      6065.5000        13.6892         57.493       67.07286         0.3656          0.371         2.0665         1.2038       -113.431      -38.23506      0.7249545      0.5567254
      6066.0000        13.7619        57.6997       67.38423         0.3721         0.3709         2.0519         1.2022      -112.7139      -37.51435      0.7315794      0.5653054
      6066.5000        13.8347        57.9064       67.69559         0.3787         0.3732         2.0213         1.2084      -111.9957      -36.79255      0.7382041      0.5738982
      6067.0000        13.7875         58.113       68.00681         0.3854          0.376         1.9912         1.2165      -111.6603      -36.45355      0.7448258      0.5779339
      6067.5000        13.5393         59.007       69.35254         0.3923         0.3863         1.9658         1.2253      -111.4171      -36.20675      0.7734583      0.5808721
      6068.0000        13.3037        59.9095       70.71107         0.4048          0.397         1.9599         1.2285        -110.99      -35.77605      0.8023632      0.5859994
      6068.5000        13.2558        62.0834       73.98298         0.4221         0.4259         1.9694         1.2254      -108.5718      -33.35425      0.8719783      0.6148304
      6069.0000        13.3311        64.9681       78.32465         0.4402         0.4638         2.0157         1.2208      -106.1537      -30.93255      0.9643543      0.6436601
