#------------------------------------------------------------------------------
# Created by    : vladimir.rabinovich
# Created on    : 09/19/2023 17:22:39
#------------------------------------------------------------------------------
~Version Information Section
VERS.           2.0     :   CWLS log ASCII Standard - VERSION 2.0
WRAP.           NO      :   One line per depth step
~Well Information Section
#MNEM       .UNIT                                         VALUE :DESCRIPTION
#------------------------------------------------------------------------------
STRT        .FT                                            3496 :START DEPTH
STOP        .FT                                          7091.5 :STOP DEPTH
STEP        .FT                                             0.5 :STEP      
NULL        .                                           -999.25 :NULL      
COMP        .                          SEAGULL ENERGY E & P INC :COMPANY   
WELL        .                               OCS G07251 ST00BP00 :WELL      
FLD         .                              GALVESTON BLOCK 0349 :FIELD     
LOC         .                                                   :LOCATION  
CNTY        .                             GALVESTON LARGE BLOCK :LOCATION  
STAT        .                                             TEXAS :STATE     
CTRY        .                                     UNITED STATES :COUNTRY   
SRVC        .                                                   :SERVICE COMPANY
DATE        .                             9/13/2023 11:19:36 AM :LOG DATE  
API         .                                    42706402300000 :API NUMBER
UWI         .                                    42706402300000 :UNIQUE WELL ID
XCOORD      .                                  1015542.86720011 :SURFACE X 
YCOORD      .                                  10434819.2372955 :SURFACE Y 
LAT         .                                         28.739771 :LATITUDE  
LON         .                                        -94.950355 :LONGITUDE 
ELEV        .FT                                              93 :ELEVATION VALUE
ELEV_TYPE   .                                                KB :ELEVATION REFERENCE TYPE
~Curve Information Section
#MNEM       .UNIT                                      API CODE :CURVE DESCRIPTION
#------------------------------------------------------------------------------
DEPT        .FT                                                 :DEPTH     
DCAL        .IN                                                 :          
DPHI        .%                                                  :          
DRHO        .G/C3                                               :          
GR          .GAPI                                               :          
GR_NORM     .GAPI                                               :GammaRay Normalized
ILD         .OHMM                                               :          
ILM         .OHMM                                               :          
NPHI        .%                                                  :          
SGRD        .OHMM                                               :          
SP          .MV                                                 :          
SP_NORM     .MV                                                 :SP Normalized
VSH_GR      .V/V                                                :Volume of Shale from GR
VSH_SP      .V/V                                                :Volume of Shale from SP
~A        DEPTH           DCAL           DPHI           DRHO             GR        GR_NORM            ILD            ILM           NPHI           SGRD             SP        SP_NORM         VSH_GR         VSH_SP
# ...
      6593.0000        -0.0223        29.4784        -0.0367        56.3983       65.69417         0.6336         0.7104        35.4523         0.9969       -80.7042      -31.72461      0.6956206      0.5119291
      6593.5000        -0.0579        30.7434         -0.047        53.4761       61.77103         0.5988         0.6923        35.6054           1.02       -81.1915      -32.21191      0.6121496      0.5044322
      6594.0000        -0.0655         30.685        -0.0577        53.5432       61.86478         0.5644         0.6476        35.7867           0.94        -82.363      -33.38341      0.6141442      0.4864091
      6594.5000        -0.0624        29.3883        -0.0592        52.2451       60.12402         0.5367         0.6106        35.8624         0.8049       -85.7181      -36.73851      0.5771069      0.4347922
      6595.0000        -0.0633        24.4095        -0.0569        49.8782       56.94707         0.5149         0.5844        35.8525         0.7445       -88.3052      -39.32561      0.5095122      0.3949907
      6595.5000        -0.0695        23.3373         -0.067         47.963        54.3771          0.493         0.5626        35.8641         0.7231       -89.7712      -40.79161       0.454832      0.3724368
      6596.0000         -0.073        24.2485        -0.0772        49.3203       56.20455         0.4718         0.5439        35.8377         0.6982       -90.5463      -41.56671      0.4937138      0.3605121
      6596.5000        -0.0739        23.5706         -0.079          50.61       57.94115         0.4472         0.5238        35.7967         0.6851       -90.9951      -42.01551      0.5306628      0.3536075
      6597.0000        -0.0748        23.0376        -0.0756        51.5402       59.19468         0.4194         0.5016        35.7895         0.6792       -91.4451      -42.46551      0.5573337      0.3466845
      6597.5000        -0.0785        22.7768        -0.0678        50.9766       58.44093          0.395          0.482        36.0422         0.6702       -94.1296      -45.15001      0.5412964      0.3053845
      6598.0000        -0.0899        22.4073        -0.0603        48.5072       55.12624         0.3772         0.4592        36.6143         0.6674       -98.5631      -49.58351       0.470771      0.2371767
      6598.5000        -0.0861         23.242        -0.0547        46.0153       51.78133         0.3623         0.4376        37.2659          0.674      -104.0424      -55.06281      0.3996027      0.1528799
      6599.0000        -0.0763        25.8605        -0.0557        44.0637       49.16244         0.3535         0.4214         37.317         0.6833      -108.3032      -59.32361      0.3438816      0.0873291
      6599.5000        -0.0618        26.5384        -0.0629        43.1871       47.98808         0.3461         0.4086        36.8904         0.7115       -108.484      -59.50441      0.3188954     0.08454754
      6600.0000        -0.0503        26.7318        -0.0621        44.0737       49.18303         0.3405          0.398        36.1904         0.7792      -107.0748      -58.09521      0.3443197      0.1062276
      6600.5000        -0.0408        26.4157        -0.0647        46.7908       52.83769         0.3412         0.3911        35.5836         0.8092      -104.5128      -55.53321      0.4220785      0.1456429
      6601.0000        -0.0197        25.1087         -0.064        49.9683       57.11104         0.3489         0.3985        35.6742         0.7905        -100.99      -52.01041      0.5130008      0.1998399
      6601.5000        -0.0064        23.5526        -0.0607        53.2784       61.56256          0.369          0.415        36.1765         0.7417       -91.4777      -42.49811      0.6077141      0.3461829
      6602.0000        -0.0097        22.5412        -0.0504         55.415       64.43719         0.3904         0.4383        36.3947         0.6881       -85.2979      -36.31831      0.6688763      0.4412568
      6602.5000         0.0016        21.6311        -0.0395        58.4274       68.48868          0.414         0.4544        36.5776         0.6638       -81.1545      -32.17491      0.7550783      0.5050014
      6603.0000        -0.0136        20.9799        -0.0301        59.2418        69.5866         0.4388         0.4735        36.0006         0.6662        -78.724      -29.74441      0.7784383      0.5423937
      6603.5000         -0.032         20.641        -0.0257        59.4269        69.8389         0.4629         0.4927        35.5062         0.6951       -78.0629      -29.08331      0.7838063      0.5525646
      6604.0000        -0.0664        20.8831        -0.0236        59.4194       69.83239         0.4936         0.5148        35.3376         0.7624       -77.6056      -28.62601      0.7836679      0.5595999
      6604.5000        -0.0768        21.3862        -0.0244         61.062       72.04322         0.5312         0.5411        35.8588         0.7785       -73.4536      -24.47401      0.8307068      0.6234768
      6605.0000         0.0168        22.8008         -0.034        63.8604       75.80714          0.561         0.5662        37.3924         0.7589       -66.9285      -17.94891      0.9107903       0.723863
      6605.5000         0.2543        23.1895        -0.0499        64.6666       76.89406         0.5838         0.5915        39.7363         0.7031       -60.1583      -11.17871      0.9339162      0.8280199
      6606.0000         0.6163        21.2823        -0.0611        65.3796       77.85571         0.5989         0.6179        41.0417         0.6718       -57.1922      -8.212608      0.9543769      0.8736522
      6606.5000         0.8445        19.6256        -0.0634        66.4496        79.2971         0.6019         0.6391        42.2557         0.6649       -56.2421      -7.262508      0.9850448      0.8882691
      6607.0000         0.9483        17.8977        -0.0612        66.5881       79.48678         0.5963         0.6551         43.018         0.6821       -55.9681       -6.98851      0.9890804      0.8924845
      6607.5000         0.9763        17.6944        -0.0571        66.5447       79.43204         0.5945         0.6596        43.4907         0.7044       -55.9603      -6.980709      0.9879157      0.8926045
      6608.0000         0.9512        18.5992        -0.0501        65.5604       78.11296         0.5967           0.65        43.5965         0.7342       -56.2227      -7.243107      0.9598503      0.8885676
      6608.5000         0.8713        18.4034        -0.0408        65.9545        78.6461         0.5985         0.6394        43.1591         0.7577       -56.6086      -7.629009      0.9711937      0.8826306
      6609.0000         0.6969        18.3325        -0.0327        66.5344       79.42892         0.5967         0.6311        42.4133         0.7544        -57.069      -8.089409      0.9878495      0.8755475
      6609.5000         0.4638        18.3389        -0.0262         66.817       79.81225         0.5931         0.6273        41.7504          0.721       -57.5519      -8.572308      0.9960053      0.8681183
      6610.0000         0.3415        19.0029        -0.0201        67.9961       81.40024         0.5901         0.6248        41.4921         0.6857       -57.8704      -8.890808              1      0.8632183
      6610.5000         0.3779        19.7809        -0.0145        68.9974        82.7493         0.5877         0.6198        41.7617         0.6703        -57.191      -8.211411              1      0.8736706
      6611.0000         0.4158        20.3999        -0.0096        69.3749       83.26015         0.5832         0.6147        42.1245         0.6883       -57.2579      -8.278309              1      0.8726414
      6611.5000         0.3982        21.3363        -0.0063        69.2993       83.16214         0.5802         0.6135        42.4624         0.7155       -58.2405       -9.26091              1      0.8575245
