#------------------------------------------------------------------------------
# Created by    : vladimir.rabinovich
# Created on    : 09/19/2023 17:20:09
#------------------------------------------------------------------------------
~Version Information Section
VERS.           2.0     :   CWLS log ASCII Standard - VERSION 2.0
WRAP.           NO      :   One line per depth step
~Well Information Section
#MNEM       .UNIT                                         VALUE :DESCRIPTION
#------------------------------------------------------------------------------
STRT        .FT                                             880 :START DEPTH
STOP        .FT                                           10998 :STOP DEPTH
STEP        .FT                                             0.5 :STEP      
NULL        .                                           -999.25 :NULL      
COMP        .                        HUGHES TEXAS PETROLEUM LTD :COMPANY   
WELL        .                                ST TR 00564-L NE/4 :WELL      
FLD         .                       MATAGORDA ISLAND BLOCK 0565 :FIELD     
LOC         .                                                   :LOCATION  
CNTY        .                      MATAGORDA ISLAND LARGE BLOCK :LOCATION  
STAT        .                                             TEXAS :STATE     
CTRY        .                                     UNITED STATES :COUNTRY   
SRVC        .                                                   :SERVICE COMPANY
DATE        .                             9/13/2023 11:12:01 AM :LOG DATE  
API         .                                    42703303560000 :API NUMBER
UWI         .                                    42703303560000 :UNIQUE WELL ID
XCOORD      .                                  580856.659723482 :SURFACE X 
YCOORD      .                                  10268633.8274002 :SURFACE Y 
LAT         .                                         28.256926 :LATITUDE  
LON         .                                       -96.2914173 :LONGITUDE 
ELEV        .FT                                              25 :ELEVATION VALUE
ELEV_TYPE   .                                                KB :ELEVATION REFERENCE TYPE
~Curve Information Section
#MNEM       .UNIT                                      API CODE :CURVE DESCRIPTION
#------------------------------------------------------------------------------
DEPT        .FT                                                 :DEPTH     
ASFL        .OHMM                                               :          
GR          .GAPI                                               :          
GR_NORM     .GAPI                                               :GammaRay Normalized
ILD         .OHMM                                               :          
SP          .MV                                                 :          
SP_NORM     .MV                                                 :SP Normalized
VSH_GR      .V/V                                                :Volume of Shale from GR
VSH_SP      .V/V                                                :Volume of Shale from SP
~A        DEPTH           ASFL             GR        GR_NORM            ILD             SP        SP_NORM         VSH_GR         VSH_SP
# ...
      2296.0000         0.5612        68.4015       86.03736         0.6183       -55.8877      -3.309551              1      0.9345224
      2296.5000         0.5658         68.436       86.08457         0.6237       -55.7426      -3.196426              1      0.9401787
      2297.0000         0.5703        67.3171       84.59592          0.629       -55.5975      -3.083298              1      0.9458351
      2297.5000         0.5747        65.5721       82.27347         0.6377       -55.4524      -2.970173              1      0.9514914
      2298.0000         0.5791        63.8265       79.95028         0.6506        -55.205      -2.754749      0.9989421      0.9622625
      2298.5000         0.5836        63.9669       80.13853         0.6635       -54.9383       -2.52002              1       0.973999
      2299.0000         0.5889        63.9001       80.05084         0.6765       -54.6716      -2.285294              1      0.9857353
      2299.5000         0.5959         63.032       78.89617         0.6894       -54.5046      -2.150265      0.9765143      0.9924868
      2300.0000         0.6029         62.164       77.74159         0.7066       -54.7316      -2.409241      0.9519488       0.979538
      2300.5000         0.6238        61.0186       76.21761         0.7289       -54.9585      -2.668114      0.9195237      0.9665943
      2301.0000         0.6465        59.7877       74.57979         0.7512       -55.1978      -2.939384      0.8846763      0.9530308
      2301.5000         0.6677        58.4521       72.80256         0.7735       -55.5945      -3.368061       0.846863      0.9315969
      2302.0000         0.6809        56.9695       70.82955         0.7939       -55.9913      -3.796833      0.8048841      0.9101583
      2302.5000         0.6941        55.3954       68.73473         0.8119       -56.3881      -4.225605      0.7603133      0.8887197
      2303.0000         0.7073        53.6743       66.44415           0.83        -56.785       -4.65448      0.7115775       0.867276
      2303.5000         0.7196        51.5508       63.61769          0.848       -57.1818      -5.083256      0.6514403      0.8458372
      2304.0000         0.7066        49.4561        60.8296         0.8603       -57.5063      -5.439728      0.5921192      0.8280136
      2304.5000         0.6811        48.3124       60.66428         0.8525       -57.4125      -5.377899      0.5886016      0.8311051
      2305.0000         0.6503         50.754       67.85413         0.8273       -56.5253      -4.522671      0.7415773      0.8738664
      2305.5000         0.6207        51.4803       66.28872          0.782       -55.5933      -3.622646      0.7082706      0.9188677
      2306.0000         0.5931        52.4822       68.06817         0.7366       -54.8735      -2.934822      0.7461312      0.9532589
      2306.5000         0.5695        53.7538       70.32619         0.6913       -54.4457      -2.538994      0.7941742      0.9730503
      2307.0000         0.5498        55.1103       72.73483          0.668       -54.0179      -2.143166      0.8454218      0.9928417
      2307.5000         0.5411        56.4271       75.07303         0.6466         -53.59      -1.747242      0.8951708              1
      2308.0000         0.5356        56.5035        75.2103         0.6253       -53.1633      -1.352512      0.8980916              1
      2308.5000         0.5334          56.58       75.34776         0.6039       -52.7767     -0.9978867      0.9010162              1
      2309.0000         0.5316        56.6796       75.52621         0.6009       -52.3902      -0.643364      0.9048129              1
      2309.5000         0.5353        57.6328       77.21924         0.6002        -52.064     -0.3491325      0.9408349              1
      2310.0000         0.5389         58.586       78.91227         0.5996       -52.1906     -0.5077095      0.9768568              1
      2310.5000          0.541        59.8618       81.17775         0.5989       -52.3173     -0.6663818              1              1
      2311.0000         0.5428        61.0443       83.27763         0.5982        -52.444     -0.8250542              1              1
      2311.5000         0.5447        61.7551       84.54059         0.5976        -52.621      -1.034027              1              1
      2312.0000         0.5465        62.3015        85.5118         0.5969       -52.9453      -1.390301              1              1
      2312.5000         0.5487        61.5261       84.13765         0.5984       -53.2698      -1.746773              1              1
      2313.0000         0.5509         60.751       82.76408         0.6014       -53.5941       -2.10305              1      0.9948475
      2313.5000         0.5531        59.9756       81.38994         0.6043       -53.7629      -2.303822              1      0.9848089
      2314.0000          0.557        59.2272       80.06373         0.6073       -53.9083      -2.481194              1      0.9759403
      2314.5000         0.5629        58.4808       78.74106         0.6103       -53.9891      -2.593971       0.973214      0.9703014
      2315.0000         0.5687        57.7344       77.41837         0.6132       -53.9568      -2.593639      0.9450716       0.970318
      2315.5000         0.5754         56.988       76.09567         0.6197       -53.9246      -2.593414      0.9169292      0.9703293
      2316.0000         0.5822        56.4064       75.06545         0.6267       -53.8923       -2.59309      0.8950096      0.9703455
      2316.5000         0.5891         57.055       76.21801         0.6337       -53.8601      -2.592861      0.9195321      0.9703569
      2317.0000          0.596        58.6954       79.13039         0.6407       -53.8279      -2.592636      0.9814978      0.9703682
      2317.5000         0.6017        60.3364       82.04384         0.6478       -53.7136      -2.510307              1      0.9744846
      2318.0000         0.6046        61.9769       84.95641         0.6548       -53.5523      -2.380981              1       0.980951
      2318.5000         0.6076        62.8682       86.53963         0.6612       -53.3911      -2.251759              1      0.9874121
      2319.0000         0.6106        63.4625       87.59584         0.6675       -53.2297      -2.122326              1      0.9938837
      2319.5000         0.6128        62.7603       86.35159         0.6738       -53.0685      -1.993103              1              1
      2320.0000         0.6132        62.0576       85.10646         0.6802       -52.9072      -1.863777              1              1
      2320.5000         0.6135        60.7854       82.85083         0.6865        -52.746      -1.734547              1              1
      2321.0000         0.6138         59.414       80.41917         0.6911       -52.6101      -1.630623              1              1
      2321.5000         0.6142        58.0922       78.07552         0.6942       -52.5132      -1.565697      0.9590537              1
      2322.0000         0.6145        56.9907       76.12276         0.6973       -52.5201      -1.604568      0.9175054              1
      2322.5000         0.6146         57.157       76.41956         0.7004       -52.9402      -2.056644      0.9238203      0.9971678
      2323.0000         0.6146        57.3234       76.71655         0.7035       -53.3603      -2.508717      0.9301394      0.9745642
      2323.5000         0.6146        57.2104       76.51774         0.7066       -53.8133       -2.99369      0.9259093      0.9503155
      2324.0000         0.6147         56.919        76.0024         0.7098       -54.2065      -3.418865      0.9149448      0.9290568
      2324.5000         0.6148        56.6276       75.48708         0.7131       -54.0356      -3.279934      0.9039805      0.9360033
      2325.0000         0.6205        56.3359        74.9712         0.7163       -53.8646      -3.140911      0.8930042      0.9429544
