#------------------------------------------------------------------------------
# Created by    : vladimir.rabinovich
# Created on    : 09/19/2023 17:19:50
#------------------------------------------------------------------------------
~Version Information Section
VERS.           2.0     :   CWLS log ASCII Standard - VERSION 2.0
WRAP.           NO      :   One line per depth step
~Well Information Section
#MNEM       .UNIT                                         VALUE :DESCRIPTION
#------------------------------------------------------------------------------
STRT        .FT                                             816 :START DEPTH
STOP        .FT                                            7470 :STOP DEPTH
STEP        .FT                                             0.5 :STEP      
NULL        .                                           -999.25 :NULL      
COMP        .                                   KERR-MCGEE CORP :COMPANY   
WELL        .                               OCS G05003 ST00BP00 :WELL      
FLD         .                                 BRAZOS BLOCK 0412 :FIELD     
LOC         .                                                   :LOCATION  
CNTY        .                                BRAZOS LARGE BLOCK :LOCATION  
STAT        .                                             TEXAS :STATE     
CTRY        .                                     UNITED STATES :COUNTRY   
SRVC        .                                                   :SERVICE COMPANY
DATE        .                             9/13/2023 11:19:08 AM :LOG DATE  
API         .                                    42704401140000 :API NUMBER
UWI         .                                    42704401140000 :UNIQUE WELL ID
XCOORD      .                                  819493.037302503 :SURFACE X 
YCOORD      .                                  10380289.6446028 :SURFACE Y 
LAT         .                                         28.579682 :LATITUDE  
LON         .                                        -95.558179 :LONGITUDE 
ELEV        .FT                                              90 :ELEVATION VALUE
ELEV_TYPE   .                                                KB :ELEVATION REFERENCE TYPE
~Curve Information Section
#MNEM       .UNIT                                      API CODE :CURVE DESCRIPTION
#------------------------------------------------------------------------------
DEPT        .FT                                                 :DEPTH     
ASFL        .OHMM                                               :          
CALI        .IN                                                 :          
CILD        .MMHO                                               :          
GR          .GAPI                                               :          
GR_NORM     .GAPI                                               :GammaRay Normalized
ILD         .OHMM                                               :          
ILM         .OHMM                                               :          
RHOB        .G/C3                                               :          
SP          .MV                                                 :          
SP_NORM     .MV                                                 :SP Normalized
VSH_GR      .V/V                                                :Volume of Shale from GR
VSH_SP      .V/V                                                :Volume of Shale from SP
~A        DEPTH           ASFL           CALI           CILD             GR        GR_NORM            ILD            ILM           RHOB             SP        SP_NORM         VSH_GR         VSH_SP
# ...
      2169.0000         0.7232        -999.25       1610.719        83.1555       80.82701         0.5422         0.5619        -999.25        -64.408      -2.211273              1      0.9837482
      2169.5000         0.7187        -999.25        1652.84        81.8671         79.174         0.5359         0.5492        -999.25       -64.3442      -2.141933      0.9824255       0.989082
      2170.0000         0.7138        -999.25       1684.975         79.702       76.39809         0.5374         0.5382        -999.25       -64.2805      -2.072697      0.9233636       0.994408
      2170.5000         0.7075        -999.25       1717.109        77.9055        74.0943         0.5549         0.5415        -999.25       -64.2169      -2.003559      0.8743468      0.9997262
      2171.0000         0.7011        -999.25       1746.791        78.4757       74.82181         0.5724          0.553        -999.25       -64.1532      -1.934315      0.8898257              1
      2171.5000         0.6946        -999.25       1731.008        79.4695       76.09189         0.5898         0.5669        -999.25       -64.3025      -2.078075      0.9168487      0.9939942
      2172.0000         0.6877        -999.25       1707.414        80.3634       77.23404         0.6068         0.5815        -999.25       -64.6254      -2.395432      0.9411498      0.9695822
      2172.5000         0.7557        -999.25       1683.551        77.5204       73.58985         0.6177          0.594        -999.25       -64.9507      -2.715195      0.8636138       0.944985
      2173.0000         0.7746        -999.25       1659.674        72.4248       67.06048         0.6286          0.605        -999.25        -65.301      -3.059959       0.724691      0.9184647
      2173.5000         0.7832        -999.25       1635.811        68.5936       62.15061         0.6394          0.614        -999.25       -65.6516      -3.405022      0.6202257      0.8919214
      2174.0000         0.7779        -999.25       1606.689        69.3418       63.10612         0.6503         0.6208        -999.25        -66.002      -3.749878      0.6405559       0.865394
      2174.5000         0.7671        -999.25       1576.279        71.5898       65.98261         0.6602         0.6259        -999.25       -66.1844      -3.926743      0.7017577      0.8517891
      2175.0000         0.7545        -999.25       1551.725        72.1571       66.70642          0.658         0.6299        -999.25       -66.2891      -4.025898      0.7171579      0.8441617
      2175.5000         0.7419        -999.25       1530.795         72.641       67.32342         0.6559         0.6324        -999.25         -66.37      -4.101261      0.7302855      0.8383645
      2176.0000         0.7293        -999.25       1537.229        73.9596        69.0095         0.6538         0.6341        -999.25       -66.4081      -4.133816      0.7661595      0.8358603
      2176.5000         0.7213        -999.25        1543.66         76.611       72.40267         0.6517         0.6359        -999.25       -66.4462      -4.166378      0.8383547      0.8333555
      2177.0000          0.735        -999.25       1550.092        79.2499       75.77984         0.6496         0.6367        -999.25       -66.4843       -4.19894      0.9102094      0.8308507
      2177.5000         0.7514        -999.25       1556.523        81.7356       78.96078         0.6475         0.6354        -999.25       -66.5223        -4.2314      0.9778891      0.8283539
      2178.0000         0.7618        -999.25       1562.955         83.804       81.60722         0.6464         0.6347        -999.25        -66.652       -4.35556              1      0.8188031
      2178.5000         0.7632        -999.25       1568.264         83.761       81.54935         0.6454         0.6347        -999.25       -66.7953      -4.493324              1      0.8082058
      2179.0000         0.7629        -999.25       1567.602        81.8925       79.15335         0.6445         0.6339        -999.25       -66.9386      -4.631081      0.9819862      0.7976092
      2179.5000         0.7582        -999.25       1566.939        74.7734       70.03224         0.6436         0.6321        -999.25       -67.1963       -4.88324      0.7879201      0.7782123
      2180.0000         0.7536        -999.25       1566.275        65.5242       58.18287         0.6427         0.6313        -999.25       -67.4862      -5.167603      0.5358057      0.7563382
      2180.5000         0.7489        -999.25       1565.613        63.1254       55.10763         0.6418         0.6313        -999.25        -67.696      -5.371861      0.4703752      0.7406261
      2181.0000         0.7435        -999.25       1559.408        62.5682       54.39116         0.6405         0.6313        -999.25        -67.726       -5.39632      0.4551311      0.7387446
      2181.5000         0.7365        -999.25       1550.381        63.6092       55.72169         0.6392         0.6313        -999.25       -67.7557      -5.420483      0.4834403       0.736886
      2182.0000         0.7372        -999.25       1541.357        65.8827       58.63084         0.6378         0.6342        -999.25       -67.7755      -5.434742      0.5453371      0.7357891
      2182.5000         0.7476        -999.25       1532.332        68.5626       62.06052         0.6364         0.6364        -999.25       -67.7784      -5.432102       0.618309      0.7359921
      2183.0000         0.7568        -999.25       1524.113        70.6824       64.77282         0.6349         0.6368        -999.25       -67.7814      -5.429569      0.6760175       0.736187
      2183.5000         0.7637        -999.25       1516.748        72.1277       66.62119         0.6334          0.635        -999.25       -67.7843      -5.426926      0.7153445      0.7363904
      2184.0000         0.7655        -999.25       1509.381        69.5254       63.28529         0.6316         0.6255        -999.25       -67.8182      -5.455284      0.6443679      0.7342089
      2184.5000         0.7685        -999.25       1502.578        66.3257       59.18426         0.6294         0.6147        -999.25       -67.9376      -5.569145      0.5571119      0.7254504
      2185.0000         0.7757        -999.25       1502.617        64.8966       57.35104         0.6272         0.6092        -999.25       -68.0569      -5.682907      0.5181072      0.7166995
      2185.5000         0.7785        -999.25       1502.863        64.9194       57.37745          0.625         0.6035        -999.25       -68.2744      -5.894867      0.5186691      0.7003949
      2186.0000         0.7682        -999.25       1513.941        64.5907       56.95363         0.6207         0.5993        -999.25       -68.5702      -6.185123      0.5096517      0.6780674
      2186.5000         0.7598        -999.25        1525.02        62.4833       54.25163          0.613         0.5944        -999.25       -68.8657      -6.475086      0.4521623      0.6557626
      2187.0000         0.7519        -999.25       1540.514        57.6322       48.03543         0.6054         0.5875        -999.25       -69.1333      -6.737148      0.3199028       0.635604
      2187.5000         0.7476        -999.25       1561.488        53.5789       42.84109         0.5977         0.5813        -999.25       -69.3418      -6.940105      0.2093848      0.6199919
      2188.0000         0.7494        -999.25       1582.467        51.4542       40.11692         0.5901         0.5755        -999.25       -69.5503       -7.14307      0.1514238      0.6043792
      2188.5000         0.7513        -999.25        1597.32        51.3308       39.95607         0.5823         0.5704        -999.25       -69.7588      -7.346027      0.1480015      0.5887671
      2189.0000         0.7518        -999.25       1609.938        51.9338       40.72561         0.5734         0.5654        -999.25       -69.9414      -7.523087      0.1643746      0.5751472
