#------------------------------------------------------------------------------
# Created by    : vladimir.rabinovich
# Created on    : 09/19/2023 17:22:29
#------------------------------------------------------------------------------
~Version Information Section
VERS.           2.0     :   CWLS log ASCII Standard - VERSION 2.0
WRAP.           NO      :   One line per depth step
~Well Information Section
#MNEM       .UNIT                                         VALUE :DESCRIPTION
#------------------------------------------------------------------------------
STRT        .FT                                             272 :START DEPTH
STOP        .FT                                            9222 :STOP DEPTH
STEP        .FT                                             0.5 :STEP      
NULL        .                                           -999.25 :NULL      
COMP        .                   MCMORAN OFFSHORE EXPLORATION CO :COMPANY   
WELL        .                               OCS G03108 ST00BP00 :WELL      
FLD         .                       MATAGORDA ISLAND BLOCK 0700 :FIELD     
LOC         .                                                   :LOCATION  
CNTY        .                      MATAGORDA ISLAND LARGE BLOCK :LOCATION  
STAT        .                                             TEXAS :STATE     
CTRY        .                                     UNITED STATES :COUNTRY   
SRVC        .                                                   :SERVICE COMPANY
DATE        .                             9/13/2023 11:12:09 AM :LOG DATE  
API         .                                    42703400850000 :API NUMBER
UWI         .                                    42703400850000 :UNIQUE WELL ID
XCOORD      .                                  483045.974763742 :SURFACE X 
YCOORD      .                                  10146137.6323278 :SURFACE Y 
LAT         .                                         27.912878 :LATITUDE  
LON         .                                       -96.5835889 :LONGITUDE 
ELEV        .FT                                              85 :ELEVATION VALUE
ELEV_TYPE   .                                                KB :ELEVATION REFERENCE TYPE
~Curve Information Section
#MNEM       .UNIT                                      API CODE :CURVE DESCRIPTION
#------------------------------------------------------------------------------
DEPT        .FT                                                 :DEPTH     
CILD        .MMHO                                               :          
DT          .US/F                                               :          
GR          .GAPI                                               :          
GR_NORM     .GAPI                                               :GammaRay Normalized
ILD         .OHMM                                               :          
ILM         .OHMM                                               :          
SFL         .OHMM                                               :          
SP          .MV                                                 :          
SP_NORM     .MV                                                 :SP Normalized
VSH_GR      .V/V                                                :Volume of Shale from GR
VSH_SP      .V/V                                                :Volume of Shale from SP
~A        DEPTH           CILD             DT             GR        GR_NORM            ILD            ILM            SFL             SP        SP_NORM         VSH_GR         VSH_SP
# ...
      7427.0000       2001.752        95.0402        -999.25        -999.25         0.4926         0.5402         0.6982       -89.3054       -61.1881        -999.25     0.06050637
      7427.5000       1931.939        91.9402        -999.25        -999.25          0.516         0.5785          0.791        -88.707       -60.5845        -999.25     0.07008731
      7428.0000       1824.947        91.1058        -999.25        -999.25         0.5452         0.6066          0.907       -89.5016        -61.374        -999.25     0.05755555
      7428.5000       1742.279        92.2418        -999.25        -999.25         0.5816         0.6156         1.0048       -88.9219       -60.7891        -999.25     0.06683967
      7429.0000       1670.293        95.2627        -999.25        -999.25         0.5973          0.629         1.0262       -88.2794       -60.1415        -999.25     0.07711907
      7429.5000       1662.047        96.1675        -999.25        -999.25         0.6063          0.632         1.0464       -87.6804       -59.5373        -999.25     0.08670952
      7430.0000       1708.561        94.8832        -999.25        -999.25         0.6049         0.6323         1.1616       -86.9714       -58.8232        -999.25     0.09804444
      7430.5000       1776.197        94.6941        -999.25        -999.25         0.5964         0.6212         1.1299       -89.9659       -61.8125        -999.25     0.05059524
      7431.0000       1840.471        95.6187        -999.25        -999.25         0.5864         0.6092         1.0309       -94.4873       -66.3288        -999.25              0
      7431.5000       1858.098        96.5914        -999.25        -999.25         0.5702         0.6007         0.9199       -95.3116        -67.148        -999.25              0
      7432.0000       1882.893        96.6169        -999.25        -999.25         0.5519         0.5937         0.8019       -95.5773       -67.4085        -999.25              0
      7432.5000       1915.871        95.4308        -999.25        -999.25         0.5276         0.5955         0.7967       -95.7853       -67.6114        -999.25              0
      7433.0000       1940.344        94.3654        -999.25        -999.25         0.5219         0.5971         0.8032       -95.7963       -67.6172        -999.25              0
      7433.5000       1965.064        93.1169        -999.25        -999.25         0.5187         0.5948         0.8142       -95.7579       -67.5737        -999.25              0
      7434.0000       1925.352         92.848        -999.25        -999.25         0.5167         0.5957         0.8181       -95.4537       -67.2643        -999.25              0
      7434.5000       1912.225        93.1021        -999.25        -999.25         0.5173         0.6008         0.8219       -95.0745         -66.88        -999.25              0
      7435.0000       1910.309        93.7764        -999.25        -999.25         0.5179         0.5987         0.8335       -94.5332       -66.3335        -999.25              0
      7435.5000       1927.662        95.6434        -999.25        -999.25         0.5144          0.591         0.8831       -93.9113       -65.7065        -999.25              0
      7436.0000       1957.254        98.0876        -999.25        -999.25         0.5097         0.5763         0.8985       -91.9622       -63.7523        -999.25     0.01980476
      7436.5000       1999.525        98.0082        -999.25        -999.25         0.5006         0.5635         0.8686       -88.5581        -60.343        -999.25     0.07392066
      7437.0000       2059.102        97.9806        -999.25        -999.25         0.4868         0.5521         0.7706       -85.9436       -57.7234        -999.25      0.1155016
      7437.5000       2112.871        98.0353        -999.25        -999.25         0.4819         0.5451         0.7223       -87.2474        -59.022        -999.25      0.0948889
      7438.0000       2119.652        100.647        -999.25        -999.25          0.479         0.5269         0.7104       -87.0485        -58.818        -999.25     0.09812697
      7438.5000       2112.922       104.3303        -999.25        -999.25          0.481         0.5209         0.6613       -86.1062       -57.8705        -999.25      0.1131667
      7439.0000       2052.477       104.8038        -999.25        -999.25         0.4847         0.5353          0.591       -88.9702       -60.7294        -999.25     0.06778729
      7439.5000       1977.525       103.9954        -999.25        -999.25         0.4961         0.5591         0.5954        -91.468        -63.222        -999.25     0.02822222
      7440.0000        1934.51        96.5432        -999.25        -999.25         0.5085          0.569         0.6358        -91.532       -63.2809        -999.25     0.02728732
      7440.5000       1898.961        89.2704        -999.25        -999.25         0.5218         0.5825         1.0339       -91.2682        -63.012        -999.25     0.03155554
      7441.0000        1863.66         87.017        -999.25        -999.25         0.5376         0.5997         1.1513       -92.5903       -64.3289        -999.25     0.01065233
      7441.5000       1834.785        84.0369        -999.25        -999.25         0.5421         0.6124         1.1751       -95.2781       -67.0116        -999.25              0
      7442.0000       1818.816        81.5302        -999.25        -999.25          0.533         0.5983         1.0923       -94.9913       -66.7196        -999.25              0
      7442.5000       1879.531        81.8342        -999.25        -999.25         0.5241         0.5761         0.9845       -92.6996       -64.4228        -999.25    0.009161934
      7443.0000       1956.066        87.8118        -999.25        -999.25          0.506         0.5429          0.793       -91.2495       -62.9675        -999.25     0.03226192
      7443.5000           2086        95.7175        -999.25        -999.25         0.4847         0.4999         0.6121       -89.3278       -61.0407        -999.25     0.06284605
      7444.0000       2202.582        99.4258        -999.25        -999.25         0.4613         0.4722         0.5326       -87.3154       -59.0231        -999.25      0.0948714
      7444.5000       2315.805       101.7693        -999.25        -999.25         0.4355         0.4566         0.4566       -88.1968       -59.8994        -999.25     0.08096192
      7445.0000       2456.617       102.6252        -999.25        -999.25         0.4126         0.4521         0.5033        -89.077       -60.7744        -999.25     0.06707303
      7445.5000       2635.793       103.4491        -999.25        -999.25         0.3926         0.4498         0.5722        -90.028       -61.7203        -999.25     0.05205875
      7446.0000        2760.98       104.9211        -999.25        -999.25          0.375         0.4464         0.6931        -91.077       -62.7642        -999.25     0.03548891
      7446.5000           2817       106.7333        -999.25        -999.25          0.361         0.4421         0.7375       -90.5109       -62.1929        -999.25     0.04455712
      7447.0000       2841.176       107.6334        -999.25        -999.25         0.3533         0.4378         0.7304       -90.5046       -62.1815        -999.25      0.0447381
      7447.5000        2853.52       106.7394        -999.25        -999.25         0.3489         0.4309         0.7094       -92.1185       -63.7902        -999.25     0.01920319
      7448.0000       2870.348       105.8915        -999.25        -999.25         0.3466          0.424         0.6912       -93.5959       -65.2625        -999.25              0
      7448.5000       2981.691       105.4681        -999.25        -999.25         0.3406         0.4128         0.6973       -93.8157       -65.4771        -999.25              0
      7449.0000       3063.863       105.5287        -999.25        -999.25         0.3315         0.4005         0.7194         -92.83       -64.4863        -999.25    0.008154007
