#------------------------------------------------------------------------------
# Created by    : vladimir.rabinovich
# Created on    : 09/19/2023 17:21:34
#------------------------------------------------------------------------------
~Version Information Section
VERS.           2.0     :   CWLS log ASCII Standard - VERSION 2.0
WRAP.           NO      :   One line per depth step
~Well Information Section
#MNEM       .UNIT                                         VALUE :DESCRIPTION
#------------------------------------------------------------------------------
STRT        .FT                                            4495 :START DEPTH
STOP        .FT                                            9058 :STOP DEPTH
STEP        .FT                                             0.5 :STEP      
NULL        .                                           -999.25 :NULL      
COMP        .                          SEAGULL ENERGY E & P INC :COMPANY   
WELL        .                               OCS G11322 ST00BP00 :WELL      
FLD         .                                           WILDCAT :FIELD     
LOC         .                                                   :LOCATION  
CNTY        .                             GALVESTON LARGE BLOCK :LOCATION  
STAT        .                                             TEXAS :STATE     
CTRY        .                                     UNITED STATES :COUNTRY   
SRVC        .                                                   :SERVICE COMPANY
DATE        .                             9/13/2023 11:19:34 AM :LOG DATE  
API         .                                    42706402570000 :API NUMBER
UWI         .                                    42706402570000 :UNIQUE WELL ID
XCOORD      .                                  1032943.49501878 :SURFACE X 
YCOORD      .                                  10418025.6284813 :SURFACE Y 
LAT         .                                         28.694364 :LATITUDE  
LON         .                                        -94.895236 :LONGITUDE 
ELEV        .FT                                              97 :ELEVATION VALUE
ELEV_TYPE   .                                                KB :ELEVATION REFERENCE TYPE
~Curve Information Section
#MNEM       .UNIT                                      API CODE :CURVE DESCRIPTION
#------------------------------------------------------------------------------
DEPT        .FT                                                 :DEPTH     
CALI        .IN                                                 :          
DCAL        .IN                                                 :          
DPHI        .%                                                  :          
DRHO        .G/C3                                               :          
GR          .GAPI                                               :          
GR_1        .GAPI                                               :          
GR_NORM     .GAPI                                               :GammaRay Normalized
ILD         .OHMM                                               :          
ILM         .OHMM                                               :          
NPHI        .%                                                  :          
SGRD        .OHMM                                               :          
SP          .MV                                                 :          
SP_NORM     .MV                                                 :SP Normalized
VSH_GR      .V/V                                                :Volume of Shale from GR
VSH_SP      .V/V                                                :Volume of Shale from SP
~A        DEPTH           CALI           DCAL           DPHI           DRHO             GR           GR_1        GR_NORM            ILD            ILM           NPHI           SGRD             SP        SP_NORM         VSH_GR         VSH_SP
      4495.0000        -999.25        -999.25        -999.25        -999.25        -999.25        42.5789       82.16712        -999.25        -999.25        60.7223        -999.25        -999.25       2.257825              1              1
      4495.5000        -999.25        -999.25        -999.25        -999.25        -999.25        39.7968       83.71377        -999.25        -999.25        60.6082        -999.25        -999.25        3.04629              1              1
      4496.0000        -999.25        -999.25        -999.25        -999.25        -999.25        40.4719       76.36219        -999.25        -999.25        63.4514        -999.25        -999.25     -0.6004933      0.9225998      0.9914215
      4496.5000        -999.25        -999.25        -999.25        -999.25        -999.25        44.0293       78.68398        -999.25        -999.25        67.3038        -999.25        -999.25       1.759993      0.9719996              1
      4497.0000        -999.25        -999.25        -999.25        -999.25        -999.25        46.4515       76.46957        -999.25        -999.25        68.7294        -999.25        -999.25        2.57082      0.9248846              1
      4497.5000        -999.25        -999.25        -999.25        -999.25        -999.25        47.1078       80.03226        -999.25        -999.25        68.1058        -999.25        -999.25      -1.187833              1       0.983031
      4498.0000        -999.25        -999.25        -999.25        -999.25        -999.25        47.6072       83.40073        -999.25        -999.25        66.3939        -999.25        -999.25       1.332391              1              1
      4498.5000        -999.25        -999.25        -999.25        -999.25        -999.25         46.619       76.92146        -999.25        -999.25        63.0507        -999.25        -999.25        3.21349       0.934499              1
      4499.0000        -999.25        -999.25        -999.25        -999.25        -999.25         45.392       76.10547        -999.25        -999.25        61.9545        -999.25        -999.25      0.3368217      0.9171376              1
      4499.5000        -999.25        -999.25        -999.25        -999.25        -999.25        44.4354       79.17581        -999.25        -999.25        60.8815        -999.25        -999.25     -0.3733689      0.9824641      0.9946662
      4500.0000        -999.25        -999.25        -999.25        -999.25        -999.25        42.5934       79.12585        -999.25        -999.25        60.7786        -999.25        -999.25       2.675424      0.9814011              1
      4500.5000        -999.25        -999.25        -999.25        -999.25        -999.25        40.6696       76.97663        -999.25        -999.25         61.442        -999.25        -999.25       2.006135       0.935673              1
      4501.0000        -999.25        -999.25        -999.25        -999.25        -999.25         38.887       81.11081        -999.25        -999.25        62.4234        -999.25        -999.25       1.294275              1              1
      4501.5000        -999.25        -999.25        -999.25        -999.25        -999.25        37.3574       75.99717        -999.25        -999.25        62.9436        -999.25        -999.25       1.559504      0.9148334              1
      4502.0000        -999.25        -999.25        -999.25        -999.25        -999.25         36.296       80.60751        -999.25        -999.25        63.7596        -999.25        -999.25     -0.7847615              1      0.9887891
      4502.5000        -999.25        -999.25        -999.25        -999.25        -999.25        36.6282       75.66246        -999.25        -999.25        62.8466        -999.25        -999.25     -0.4283945      0.9077119      0.9938801
      4503.0000        -999.25        -999.25        -999.25        -999.25        -999.25        39.1137       80.80113        -999.25        -999.25        63.1315        -999.25        -999.25     -0.6464711              1      0.9907647
      4503.5000        -999.25        -999.25        -999.25        -999.25        -999.25        41.3961       81.25907        -999.25        -999.25        65.5942        -999.25        -999.25      -0.964353              1      0.9862235
      4504.0000        -999.25         3.7478        59.9294            0.2        -999.25        42.7727       77.73062       1996.666         1.5931        66.4607         0.4339       -56.2717     -0.4316422      0.9517154      0.9938337
      4504.5000        -999.25          4.537        59.9031            0.2        -999.25        45.1263       79.69411         5.0512         1.4862        59.6242         0.6258       -52.7248      0.4839507      0.9934918              1
      4505.0000        -999.25         4.7674        57.4379            0.2        -999.25        45.6439       82.89859         1.1448         0.9708        57.1583         0.6737         -51.25       2.416708              1              1
      4505.5000        -999.25         5.0337        57.1055        -0.5424        -999.25        43.9027       80.40987         0.6392         0.7448        55.8455         0.6832       -50.4977       1.759347              1              1
      4506.0000        -999.25         5.4969        61.0895         -0.723        -999.25        42.2743       81.75052         0.4558         0.5088        54.7786         0.6829       -49.7923       2.368037              1              1
      4506.5000        -999.25         6.3821        62.3535        -0.7717        -999.25        40.8865       79.62663         0.4525         0.4434        53.8128         0.6798       -49.1943       2.019289      0.9920558              1
      4507.0000        -999.25         6.9387        62.7145        -0.6603        -999.25        40.0311       77.51925         0.5223         0.4883        53.5853         0.6781       -48.8456        1.03315      0.9472181              1
      4507.5000        -999.25          7.108        62.8198        -0.5172        -999.25        39.6413       84.33874         0.5685         0.5284         54.173         0.6779       -48.5519       3.177583              1              1
      4508.0000        -999.25         6.7479        59.8913         -0.403        -999.25        41.7034       83.46177         0.6221         0.5629         53.413         0.6861       -48.2805     -0.3215964              1      0.9954058
      4508.5000        -999.25         5.9481         48.621        -0.4828        -999.25        45.0103       75.75262         0.6684         0.5922        52.0822          0.713       -48.0429      0.2321511      0.9096301              1
      4509.0000        -999.25         4.9401        41.0992        -0.3333        -999.25        49.4459       77.06525         0.6742         0.6168        52.0811         0.7432       -47.8755       -0.73076      0.9375584      0.9895605
      4509.5000        -999.25         3.7895        37.9874        -0.2271        -999.25        53.6415       84.29655         0.6716         0.6239        53.0054         0.7724       -47.7479       1.151818              1              1
      4510.0000        -999.25         3.0635        36.5914        -0.1514        -999.25        57.3151       82.24176         0.6709         0.6267        54.3532         0.7901       -47.7426       1.978947              1              1
      4510.5000        -999.25         2.6157        35.7323        -0.0995        -999.25        60.7037       83.46073         0.6725         0.6264         56.045          0.801       -47.8603       1.931433              1              1
      4511.0000        -999.25          2.305        36.8958        -0.0683        -999.25         63.085       79.31738         0.6745         0.6264        57.1467          0.805       -47.9836    0.008888122      0.9854761              1
      4511.5000        -999.25         2.0284        37.5558        -0.0554        -999.25        64.0905       76.58241         0.6815         0.6274        57.7775         0.8079       -48.1883       2.977442      0.9272852              1
