#------------------------------------------------------------------------------
# Created by    : vladimir.rabinovich
# Created on    : 09/19/2023 17:21:51
#------------------------------------------------------------------------------
~Version Information Section
VERS.           2.0     :   CWLS log ASCII Standard - VERSION 2.0
WRAP.           NO      :   One line per depth step
~Well Information Section
#MNEM       .UNIT                                         VALUE :DESCRIPTION
#------------------------------------------------------------------------------
STRT        .FT                                             692 :START DEPTH
STOP        .FT                                            6716 :STOP DEPTH
STEP        .FT                                             0.5 :STEP      
NULL        .                                           -999.25 :NULL      
COMP        .                                  FMP OPERATING CO :COMPANY   
WELL        .                                          SL 89457 :WELL      
FLD         .                                           WILDCAT :FIELD     
LOC         .                                                   :LOCATION  
CNTY        .                      MATAGORDA ISLAND LARGE BLOCK :LOCATION  
STAT        .                                             TEXAS :STATE     
CTRY        .                                     UNITED STATES :COUNTRY   
SRVC        .                                                   :SERVICE COMPANY
DATE        .                             9/13/2023 11:12:01 AM :LOG DATE  
API         .                                    42703303600000 :API NUMBER
UWI         .                                    42703303600000 :UNIQUE WELL ID
XCOORD      .                                  499223.886875127 :SURFACE X 
YCOORD      .                                  10221285.9321665 :SURFACE Y 
LAT         .                                        28.1205561 :LATITUDE  
LON         .                                       -96.5403272 :LONGITUDE 
ELEV        .FT                                              81 :ELEVATION VALUE
ELEV_TYPE   .                                                KB :ELEVATION REFERENCE TYPE
~Curve Information Section
#MNEM       .UNIT                                      API CODE :CURVE DESCRIPTION
#------------------------------------------------------------------------------
DEPT        .FT                                                 :DEPTH     
CALI        .IN                                                 :          
CILD        .MMHO                                               :          
DT          .US/F                                               :          
DTL         .US/F                                               :          
GR          .GAPI                                               :          
GR_NORM     .GAPI                                               :GammaRay Normalized
ILD         .OHMM                                               :          
ILM         .OHMM                                               :          
SFLU        .OHMM                                               :          
SP          .MV                                                 :          
SP_NORM     .MV                                                 :SP Normalized
TENS        .LBS                                                :          
VSH_GR      .V/V                                                :Volume of Shale from GR
VSH_SP      .V/V                                                :Volume of Shale from SP
~A        DEPTH           CALI           CILD             DT            DTL             GR        GR_NORM            ILD            ILM           SFLU             SP        SP_NORM           TENS         VSH_GR         VSH_SP
# ...
      5156.0000        -999.25        745.004        93.7052        91.7131         50.496       50.50253         1.3175         1.5684         1.2187        -9.5437        -5.6311       2583.665      0.3723942      0.8789634
      5156.5000        -999.25        745.004        92.1116        90.9163        50.0098       49.73759         1.3297         1.5489         1.5756       -11.8155        -7.9104       2603.586      0.3561189      0.8029867
      5157.0000        -999.25        745.004        91.7131        89.7211        50.0197       49.75028         1.3847         1.5399         1.8756       -12.8969        -8.9994       2633.466       0.356389      0.7666867
      5157.5000        -999.25       713.1315        90.9163        89.7211        49.0384       48.20911          1.442         1.4862              2       -12.4903        -8.6003       2653.386      0.3235981        0.77999
      5158.0000        -999.25       665.3386        90.7171        90.1195        48.2509       46.97178         1.5017         1.3954         2.0939       -10.9924          -7.11       2653.386      0.2972719      0.8296667
      5158.5000        -999.25       645.4183        91.3147        91.1155        45.7844        43.1019         1.5639         1.3419          2.037        -8.5025        -4.6276       2613.546       0.214934      0.9124133
      5159.0000        -999.25       633.4661        91.5139        91.0105        48.0759       46.69192         1.6286         1.3055         1.7833        -6.3103         -2.443       2603.586      0.2913174      0.9852333
      5159.5000        -999.25       605.5777        89.3227        89.4248        51.4586       51.99276         1.7191         1.4289         1.3985        -4.7132        -0.8535       2593.625      0.4041012              1
      5160.0000        -999.25       593.6255        85.9363         85.857        53.0556       54.49376         1.7036          1.564         1.2299        -3.9087        -0.0565        2595.47      0.4573141              1
      5160.5000        -999.25        589.892        85.3781        85.5429        54.4406       56.66255         1.7053         1.7119         1.4213        -4.2041        -0.3595       2597.314      0.5034584              1
      5161.0000        -999.25       593.9242        85.5452        84.9477        54.5348       56.80756          1.707         1.7597         1.6058        -4.4992        -0.6621       2599.181      0.5065438              1
      5161.5000        -999.25       594.0819        85.7483        84.7525        53.5376       55.24146         1.7086         1.7456          1.651         -5.092        -1.2625       2601.048      0.4732225              1
      5162.0000        -999.25       586.2744        85.9513        84.9556        52.4413       53.51982         1.7103         1.7316         1.7611        -5.9823        -2.1604       2602.914       0.436592      0.9948258
      5162.5000        -999.25       570.5019         86.751        85.9552        51.9443       52.73795          1.712         1.7176         1.7612        -7.9639        -4.1495       2604.781      0.4199564      0.9306613
      5163.0000        -999.25       566.6638        87.5513         87.153        50.4476       50.38871         1.7145         1.7038         1.7369       -10.3424        -6.5356       2606.648      0.3699725      0.8536903
      5163.5000        -999.25       586.7003        88.5505        88.4582        50.2441       50.06683         1.7068         1.6913         1.7225       -12.4232        -8.6239       2608.514       0.363124      0.7863258
      5164.0000        -999.25         610.75        91.7403        91.6322        50.1399       49.90079         1.4951         1.5228         1.8039       -13.3136        -9.5219       2610.381      0.3595914      0.7573581
      5164.5000        -999.25       706.4623        96.5202        96.3883        50.0372       49.73711         1.3769         1.3707         2.0519       -13.8744       -10.0902       2612.248      0.3561088      0.7390258
      5165.0000        -999.25       834.0105       103.2924        102.137         50.031       49.72457         1.1893         1.2509         1.9247       -14.9687       -11.1921       2614.115      0.3558419      0.7034807
      5165.5000        -999.25       929.6907       102.6968        102.138        49.8277       49.40316         1.0181         1.0466         1.3778        -17.953        -14.184       2615.997      0.3490035      0.6069677
      5166.0000        -999.25       989.5771       100.4808       100.3291        48.6321         47.526         0.9818         1.0325         1.0373       -19.1465        -15.385       2617.848      0.3090639      0.5682258
      5166.5000        -999.25       1029.457        98.6629        98.5203         46.838       44.71033         0.9822         1.0234         0.9556       -20.1436       -16.3897       2628.385      0.2491559      0.5358161
      5167.0000        -999.25       1069.358        97.1344        96.9999         46.836       44.70452         0.9917         1.0381         0.9047        -16.974       -13.2276       2598.766      0.2490325      0.6378193
      5167.5000        -999.25       1093.382        97.1356        97.0006        48.0215       46.56053         0.9919         1.0575         0.8927       -14.9949       -11.2561       2600.566      0.2885219      0.7014161
      5168.0000        -999.25       970.1198        93.9551        93.8359        52.1835       53.08303         0.9922         1.1461         0.9435         -11.23        -7.4987       2602.366      0.4272985      0.8226226
      5168.5000        -999.25       811.0829        90.1781        90.0777        53.7658       55.56115         1.1813         1.1922         1.1758        -9.2509        -5.5272       2604.166      0.4800245      0.8862193
      5169.0000        -999.25       715.7322        69.9546        74.8649        51.9755       52.75159         1.4064          1.295         1.0882        -8.6606        -4.9445       2605.966      0.4202466      0.9050161
      5169.5000        -999.25       684.1484        69.7541        73.2763         49.591       49.01027            1.5         1.6974         1.1553        -9.2604        -5.5518       2607.766      0.3406439      0.8854258
      5170.0000        -999.25       727.9843         71.093        74.0768        43.8308       39.97658         1.4597         2.0108         1.4136       -10.5552        -6.8542       2609.566      0.1484379      0.8434129
      5170.5000        -999.25       817.6476        81.2834        98.3398        42.1475       37.33478          1.285         1.8728         2.4115       -14.5018       -10.8083       2620.482      0.0922294      0.7158613
      5171.0000        -999.25       886.7739        91.3728       105.3375        42.2487       37.49078         1.1413         1.5999         3.9806       -17.4913       -13.8054       2638.809     0.09554843      0.6191806
      5171.5000        -999.25       1033.772        93.9551       108.4768        43.5473       39.52395         1.0138         1.1349         3.4068       -20.4734       -16.7951       2657.136      0.1388075      0.5227388
      5172.0000        -999.25       1137.071        91.1659       108.0749        43.3548       39.21947         0.8013         0.8845         1.6201       -25.0179       -21.3471       2659.074      0.1323291         0.3759
      5172.5000        -999.25       1359.695        86.5843       103.3275        43.9828        40.2014         0.7903         0.8741         0.8013       -27.9901       -24.3269       2658.617      0.1532214      0.2797774
      5173.0000        -999.25       1884.643        89.3657        96.1293        46.1415       43.58307         0.6342         0.7211         0.6826       -29.4197        -25.764       2658.159      0.2251716      0.2334194
      5173.5000        -999.25       2003.972        96.1657        98.1161        49.5194       48.87637         0.4864         0.5923         0.7977       -31.2569       -27.6088       2615.449      0.3377951      0.1739096
