#------------------------------------------------------------------------------
# Created by    : vladimir.rabinovich
# Created on    : 09/19/2023 17:21:52
#------------------------------------------------------------------------------
~Version Information Section
VERS.           2.0     :   CWLS log ASCII Standard - VERSION 2.0
WRAP.           NO      :   One line per depth step
~Well Information Section
#MNEM       .UNIT                                         VALUE :DESCRIPTION
#------------------------------------------------------------------------------
STRT        .FT                                            2690 :START DEPTH
STOP        .FT                                            8272 :STOP DEPTH
STEP        .FT                                             0.5 :STEP      
NULL        .                                           -999.25 :NULL      
COMP        .                        PG&E RESOURCES OFFSHORE CO :COMPANY   
WELL        .                               OCS G09053 ST00BP00 :WELL      
FLD         .                              GALVESTON BLOCK 0427 :FIELD     
LOC         .                                                   :LOCATION  
CNTY        .                             GALVESTON LARGE BLOCK :LOCATION  
STAT        .                                             TEXAS :STATE     
CTRY        .                                     UNITED STATES :COUNTRY   
SRVC        .                                                   :SERVICE COMPANY
DATE        .                             9/13/2023 11:11:09 AM :LOG DATE  
API         .                                    42706402380000 :API NUMBER
UWI         .                                    42706402380000 :UNIQUE WELL ID
XCOORD      .                                  948581.259723803 :SURFACE X 
YCOORD      .                                  10360666.4777899 :SURFACE Y 
LAT         .                                         28.532718 :LATITUDE  
LON         .                                        -95.155068 :LONGITUDE 
ELEV        .FT                                             119 :ELEVATION VALUE
ELEV_TYPE   .                                                KB :ELEVATION REFERENCE TYPE
~Curve Information Section
#MNEM       .UNIT                                      API CODE :CURVE DESCRIPTION
#------------------------------------------------------------------------------
DEPT        .FT                                                 :DEPTH     
CALI        .IN                                                 :          
DRHO        .G/C3                                               :          
DT          .US/F                                               :          
GR          .GAPI                                               :          
GR_1        .GAPI                                               :          
GR_NORM     .GAPI                                               :GammaRay Normalized
ILD         .OHMM                                               :          
ILM         .OHMM                                               :          
NPHI        .%                                                  :          
RFOC        .OHMM                                               :          
RHOB        .G/C3                                               :          
SP          .MV                                                 :          
SP_NORM     .MV                                                 :SP Normalized
VSH_GR      .V/V                                                :Volume of Shale from GR
VSH_SP      .V/V                                                :Volume of Shale from SP
~A        DEPTH           CALI           DRHO             DT             GR           GR_1        GR_NORM            ILD            ILM           NPHI           RFOC           RHOB             SP        SP_NORM         VSH_GR         VSH_SP
# ...
      2758.0000        -999.25        -999.25        -999.25        -999.25        43.2046       38.66607        -999.25        -999.25        49.2294        -999.25        -999.25        -999.25        -999.25      0.1205546        -999.25
      2758.5000        -999.25        -999.25        -999.25        -999.25        42.2114       37.53055        -999.25        -999.25         48.474        -999.25        -999.25        -999.25        -999.25     0.09639473        -999.25
      2759.0000        -999.25        -999.25        -999.25        -999.25        40.9894        36.1361        -999.25        -999.25        47.4063        -999.25        -999.25        -999.25        -999.25     0.06672547        -999.25
      2759.5000        -999.25        -999.25        -999.25        -999.25          39.84        34.8238        -999.25        -999.25        46.1521        -999.25        -999.25        -999.25        -999.25     0.03880424        -999.25
      2760.0000        -999.25        -999.25        -999.25        -999.25        39.6217       34.56527        -999.25        -999.25        47.3815        -999.25        -999.25        -999.25        -999.25     0.03330353        -999.25
      2760.5000        -999.25        -999.25        -999.25        -999.25        40.8668       35.96291        -999.25        -999.25        49.2327        -999.25        -999.25        -999.25        -999.25     0.06304063        -999.25
      2761.0000        -999.25        -999.25        -999.25        -999.25        46.5479       42.38093        -999.25        -999.25        50.6827        -999.25        -999.25        -999.25        -999.25      0.1995943        -999.25
      2761.5000        -999.25        -999.25        -999.25        -999.25        53.4418        50.1715        -999.25        -999.25        50.9002        -999.25        -999.25        -999.25        -999.25      0.3653512        -999.25
      2762.0000        12.5755         0.0312       167.0405        -999.25        58.1907       55.53452         0.5221         0.6574        49.9109         0.7307         2.1261       -90.4285      -8.815712      0.4794579      0.7995971
      2762.5000        12.8516         0.0815       167.9966        -999.25         61.529       59.30112         0.5278          0.667        48.7405         0.7426         2.0968       -85.1519      -4.313843      0.5595982      0.9150296
      2763.0000        12.8886         0.0744       166.6819        -999.25        63.5093       61.53082         0.5389          0.677        47.8743         0.7552         2.0614        -81.916      -1.852669      0.6070386      0.9781367
      2763.5000        12.7179         0.0656       163.3252        -999.25         64.929       63.12605          0.563         0.6896        47.0344         0.7673         2.0461       -80.1273     -0.8386917      0.6409798              1
      2764.0000        12.9208         0.0594       160.5125        -999.25        65.7902       64.08923          0.595         0.7034        46.7685         0.7784         2.0359       -78.7506     -0.2367249      0.6614729              1
      2764.5000        13.1485         0.0588       158.4084        -999.25        66.0249       64.34337         0.6389         0.7232        46.9449         0.7893          2.029       -77.4419      0.2972488      0.6668802              1
      2765.0000        13.2809         0.0627       156.6089        -999.25        63.8303       61.84819         0.6912         0.7439        46.6547         0.7988         2.0225       -76.4866      0.4778214      0.6137913              1
      2765.5000        13.3898         0.0667       154.5413        -999.25         61.443       59.13492         0.7391         0.7671        45.9543         0.8053         2.0228        -75.955      0.2346878      0.5560621              1
      2766.0000        13.4469         0.0698       152.3406        -999.25        62.6735       60.51604         0.7143         0.7946        44.6641         0.8112         2.0425       -75.1941      0.2208633      0.5854477              1
      2766.5000        13.4424         0.0674       150.7832        -999.25        64.7808       62.88947         0.6897          0.822        41.3835         0.8197          2.056       -74.1238      0.5164337      0.6359462              1
      2767.0000        13.4173         0.0576       149.5225        -999.25        64.9208       63.03644         0.6787          0.845        39.5778         0.8374         2.0695       -73.4199        0.44561      0.6390731              1
      2767.5000         13.397         0.0418       146.5862        -999.25        61.4534       59.10078         0.6729         0.8624        40.9324         0.8731          2.087       -73.6101     -0.5193176      0.5553358              1
      2768.0000        13.3752         0.0246       143.1631        -999.25        59.3797       56.74243         0.6745         0.8695        41.1844         0.9229         2.1073       -74.4631      -2.147041      0.5051581      0.9705887
      2768.5000        13.3117         0.0169       139.5417        -999.25         58.524       55.76252         0.6814         0.8697        40.7512         0.9742         2.1335       -75.9501      -4.408775       0.484309      0.9125955
      2769.0000         13.201         0.0139        138.063        -999.25        61.2069       58.78738         0.6952         0.8604        40.4214         1.0095         2.1569       -77.0862      -6.319595      0.5486677      0.8636001
      2769.5000        13.2917         0.0161       138.3928        -999.25        66.7683       65.06993         0.7179         0.8459        40.3057          1.034         2.1711       -77.9597      -7.967827       0.682339      0.8213378
      2770.0000        13.4502         0.0193       138.6785        -999.25        73.1754       72.30958         0.7462         0.8313        39.8744         1.0516         2.1727       -78.6028      -9.385651       0.836374      0.7849833
      2770.5000        13.6281         0.0212        138.446        -999.25        72.7997       71.87291         0.7684         0.8215        39.4075         1.0553         2.1673       -79.1276      -9.991798      0.8270832      0.7694411
      2771.0000        13.6921          0.023       138.1086        -999.25        68.8842       67.43014         0.7794         0.8183        40.0674         1.0475         2.1608       -79.3085       -10.1727      0.7325561      0.7648026
      2771.5000         13.726         0.0248       138.5193        -999.25        65.1418       63.18325          0.778         0.8188        39.8827         1.0161         2.1589       -79.0968      -9.960999      0.6421969      0.7702308
      2772.0000        13.7744         0.0245       139.1418        -999.25        64.0162       61.89789         0.7669         0.8186         38.704         0.9766         2.1645       -78.8215      -9.685699      0.6148487      0.7772897
      2772.5000        13.8157         0.0228       139.3779        -999.25        63.4087       61.19889         0.7512         0.8123        39.0879         0.9717         2.1667       -79.2048        -10.069      0.5999763      0.7674615
      2773.0000         13.851         0.0194         139.47        -999.25         62.643       60.32085          0.736         0.7994        39.8251         1.0165         2.1613       -81.1312       -11.9954      0.5812946      0.7180667
      2773.5000        13.8567         0.0153       139.3311        -999.25        61.1404       58.60883         0.7207          0.783        40.2936         1.0651         2.1478       -84.3622      -15.22639      0.5448686      0.6352206
      2774.0000        13.8953         0.0137       139.1692        -999.25        61.0275       58.46957         0.7031         0.7631        41.6064         1.0811         2.1326       -85.4916       -16.3558      0.5419058      0.6062616
      2774.5000        14.1558         0.0162       139.5461        -999.25        63.4922       61.24747         0.6924         0.7484        42.3382         1.0384         2.1274       -83.6655      -14.52969      0.6010101      0.6530848
