#------------------------------------------------------------------------------
# Created by    : vladimir.rabinovich
# Created on    : 09/19/2023 17:21:26
#------------------------------------------------------------------------------
~Version Information Section
VERS.           2.0     :   CWLS log ASCII Standard - VERSION 2.0
WRAP.           NO      :   One line per depth step
~Well Information Section
#MNEM       .UNIT                                         VALUE :DESCRIPTION
#------------------------------------------------------------------------------
STRT        .FT                                            3102 :START DEPTH
STOP        .FT                                            8740 :STOP DEPTH
STEP        .FT                                             0.5 :STEP      
NULL        .                                           -999.25 :NULL      
COMP        .                          SEAGULL ENERGY E & P INC :COMPANY   
WELL        .                               OCS G13314 ST00BP00 :WELL      
FLD         .                              GALVESTON BLOCK 0330 :FIELD     
LOC         .                                                   :LOCATION  
CNTY        .                             GALVESTON LARGE BLOCK :LOCATION  
STAT        .                                             TEXAS :STATE     
CTRY        .                                     UNITED STATES :COUNTRY   
SRVC        .                                                   :SERVICE COMPANY
DATE        .                             9/13/2023 11:19:54 AM :LOG DATE  
API         .                                    42706403240000 :API NUMBER
UWI         .                                    42706403240000 :UNIQUE WELL ID
XCOORD      .                                  980373.867630971 :SURFACE X 
YCOORD      .                                  10452895.3513713 :SURFACE Y 
LAT         .                                         28.787844 :LATITUDE  
LON         .                                        -95.061044 :LONGITUDE 
ELEV        .FT                                              95 :ELEVATION VALUE
ELEV_TYPE   .                                                KB :ELEVATION REFERENCE TYPE
~Curve Information Section
#MNEM       .UNIT                                      API CODE :CURVE DESCRIPTION
#------------------------------------------------------------------------------
DEPT        .FT                                                 :DEPTH     
CALI        .IN                                                 :          
DRHO        .G/C3                                               :          
DT          .US/F                                               :          
GR          .GAPI                                               :          
GR_1        .GAPI                                               :          
GR_NORM     .GAPI                                               :GammaRay Normalized
ILD         .OHMM                                               :          
ILM         .OHMM                                               :          
NPHI        .%                                                  :          
RFOC        .OHMM                                               :          
RHOB        .G/C3                                               :          
SP          .MV                                                 :          
SP_NORM     .MV                                                 :SP Normalized
VSH_GR      .V/V                                                :Volume of Shale from GR
VSH_SP      .V/V                                                :Volume of Shale from SP
~A        DEPTH           CALI           DRHO             DT             GR           GR_1        GR_NORM            ILD            ILM           NPHI           RFOC           RHOB             SP        SP_NORM         VSH_GR         VSH_SP
# ...
      8355.0000        10.6799          0.003       121.4883        63.8935         66.427       76.45744         0.6227         0.6657        41.6862         0.8881         2.3148       -45.9798      -7.777554      0.9246265      0.9027806
      8355.5000        10.5109         -0.002       120.3019        64.8242        66.8889       77.21664         0.6222         0.6647        39.9645         0.9279         2.3213       -45.4161      -7.213852      0.9407797      0.9098269
      8356.0000        10.4635        -0.0064       119.4888         65.569        67.3029       77.82465           0.62         0.6637         39.152         0.9514         2.3285       -45.0521      -6.849854      0.9537159      0.9143769
      8356.5000        10.5637        -0.0053       119.3258        65.9856        66.9268       78.16576         0.6097         0.6628        40.1307         0.9464          2.326       -44.8389      -6.636654      0.9609736      0.9170418
      8357.0000        10.5647        -0.0002       119.8022        65.9114        65.5311       78.10773          0.608         0.6672        41.2415          0.928         2.3198       -45.0617      -6.859451       0.959739      0.9142569
      8357.5000        10.4179          0.005       120.5063        65.4374        63.9171       77.72457         0.6082         0.6642        41.9796         0.9171         2.3157       -45.0524      -6.850151      0.9515866      0.9143731
      8358.0000        10.4522         0.0094       120.9852        64.7427          63.29       77.16193         0.6112         0.6615        41.0409         0.9114         2.3144       -44.7861      -6.583851      0.9396156      0.9177018
      8358.5000        10.6769         0.0103       120.8459        63.6673        63.1776        76.2897         0.6142         0.6622        40.3571         0.9192          2.319       -44.2672      -6.064953      0.9210573      0.9241881
      8359.0000        10.7877         0.0049       119.9829        62.8799         63.101       75.65166         0.6168         0.6637        40.3588         0.9309         2.3251       -43.8154      -5.613152      0.9074821      0.9298356
      8359.5000        10.6819        -0.0093       119.4882        62.5078        62.8486       75.35138         0.6166         0.6629        40.5167         0.9313         2.3284       -43.5894      -5.387154      0.9010932      0.9326606
      8360.0000        10.9759        -0.0187       120.1923        62.7186        62.6838       75.52512         0.6164         0.6593        40.8178         0.9355         2.3258       -43.7261      -5.523853      0.9047899      0.9309518
      8360.5000        11.1962        -0.0206       121.0634        63.7205        62.4128       76.34222         0.6138         0.6533        41.1775         0.9314          2.319       -43.9415      -5.739254       0.922175      0.9282593
      8361.0000        10.9307         -0.018       121.7139        65.2037        62.3321       77.55073         0.6111         0.6487        41.2172         0.9245         2.3133       -44.3463      -6.144051      0.9478878      0.9231994
      8361.5000        10.6238        -0.0098       120.8365        65.2957        62.8604       77.62786         0.6086         0.6484        40.1442          0.922         2.3149       -44.7474      -6.545151      0.9495289      0.9181856
      8362.0000        10.3511         -0.002       119.8496        65.4102        64.4447       77.72329         0.6072         0.6506        39.3646         0.9347         2.3198       -45.0327      -6.830452      0.9515594      0.9146193
      8362.5000         9.9817         0.0072       119.4215        65.8514        64.5825       78.08441         0.6061         0.6508        39.2911         0.9393         2.3223        -45.223      -7.020752      0.9592428      0.9122406
      8363.0000        10.4315         0.0146       119.5267        64.4225        63.6154       76.92469         0.6051         0.6506          39.96         0.9282         2.3216       -45.3649      -7.162651      0.9345679      0.9104668
      8363.5000          10.62         0.0087       119.8358         61.765        61.2873       74.76583         0.6037         0.6491        40.6266         0.9186         2.3173       -45.4128      -7.210552      0.8886347      0.9098681
      8364.0000         10.616         0.0002        120.277        61.6933        62.4172       74.70984         0.6018         0.6469         40.717         0.9081         2.3225        -45.275      -7.072754      0.8874434      0.9115906
      8364.5000         10.548          0.002       120.7462        63.8416        63.3448       76.45922         0.6008         0.6457        40.6146          0.909         2.3269       -44.9755      -6.773251      0.9246643      0.9153343
      8365.0000        10.4534         0.0062       121.1584        65.9281        63.0113       78.15836         0.6011         0.6448        40.2437         0.9104         2.3266       -44.6631      -6.460854      0.9608163      0.9192393
      8365.5000        10.3434         0.0085       121.4519        67.6882        62.8269       79.59206         0.6014          0.644        39.7347         0.9108         2.3245       -44.2889      -6.086651      0.9913205      0.9239169
      8366.0000        10.2257         0.0084       121.5079        67.8341        63.9468       79.71304         0.6016         0.6445        38.9907         0.9096         2.3246       -44.0172      -5.814953      0.9938944      0.9273131
      8366.5000         9.8619         0.0122       120.7556        66.9404        65.4219       78.98856         0.6019         0.6451        38.5745         0.9082          2.324       -44.2536      -6.051353      0.9784799      0.9243581
      8367.0000         9.3434          0.018       119.7216        67.1963        65.7952       79.19898          0.603         0.6437        38.1992          0.913         2.3224       -44.7351      -6.532852      0.9829571      0.9183394
      8367.5000         9.1322         0.0147        119.958        68.6698        65.1854        80.3996          0.605         0.6416        38.2238         0.9083         2.3215       -45.2759      -7.073654              1      0.9115793
      8368.0000         9.1168         0.0084       120.9587        69.7217        64.9464       81.25737         0.6064         0.6404        38.6426         0.9034         2.3218       -45.5861      -7.383854              1      0.9077018
      8368.5000          9.151         0.0069       121.4902        70.3712        65.3424       81.78788         0.6072         0.6423        38.6493         0.9094         2.3247       -45.6216      -7.419353              1      0.9072581
      8369.0000         9.1169         0.0086       121.0135        70.6517        66.0552       82.01832         0.6071          0.647        37.7533         0.9179         2.3307       -45.5289      -7.326653              1      0.9084169
      8369.5000         9.0731         0.0125       120.1238        70.6135        66.8821       81.98956         0.6068         0.6507        37.2476         0.9271         2.3381       -45.4157      -7.213451              1      0.9098319
      8370.0000         9.1102         0.0178         119.27        70.2316        67.3831        81.6813         0.6071         0.6523        37.3216         0.9374         2.3399       -45.2079      -7.005653              1      0.9124293
      8370.5000         9.1225         0.0253       118.8057        69.5548        67.0996       81.13322         0.6087         0.6551        37.7316         0.9371         2.3354       -45.0306      -6.828354              1      0.9146456
      8371.0000         9.1436         0.0239       119.4408        68.6006        66.2737       80.35954         0.6125         0.6591        38.5138         0.9286         2.3307       -44.7839      -6.581654              1      0.9177293
      8371.5000         9.1407         0.0156        120.743        66.8478        64.6198       78.93641         0.6198         0.6642        39.6748         0.9184          2.331       -44.4885      -6.286251      0.9773704      0.9214219
