#------------------------------------------------------------------------------
# Created by    : vladimir.rabinovich
# Created on    : 09/19/2023 17:20:01
#------------------------------------------------------------------------------
~Version Information Section
VERS.           2.0     :   CWLS log ASCII Standard - VERSION 2.0
WRAP.           NO      :   One line per depth step
~Well Information Section
#MNEM       .UNIT                                         VALUE :DESCRIPTION
#------------------------------------------------------------------------------
STRT        .FT                                            3470 :START DEPTH
STOP        .FT                                           12708 :STOP DEPTH
STEP        .FT                                             0.5 :STEP      
NULL        .                                           -999.25 :NULL      
COMP        .                                     INEXCO OIL CO :COMPANY   
WELL        .                                     ST TR 00794-L :WELL      
FLD         .                                       BLOCK 794-L :FIELD     
LOC         .                                                   :LOCATION  
CNTY        .                        MUSTANG ISLAND LARGE BLOCK :LOCATION  
STAT        .                                             TEXAS :STATE     
CTRY        .                                     UNITED STATES :COUNTRY   
SRVC        .                                                   :SERVICE COMPANY
DATE        .                             9/13/2023 11:18:55 AM :LOG DATE  
API         .                                    42702301710000 :API NUMBER
UWI         .                                    42702301710000 :UNIQUE WELL ID
XCOORD      .                                  319607.894357718 :SURFACE X 
YCOORD      .                                   10038241.944616 :SURFACE Y 
LAT         .                                        27.6026524 :LATITUDE  
LON         .                                       -97.0775955 :LONGITUDE 
ELEV        .FT                                               0 :ELEVATION VALUE
ELEV_TYPE   .                                                GL :ELEVATION REFERENCE TYPE
~Curve Information Section
#MNEM       .UNIT                                      API CODE :CURVE DESCRIPTION
#------------------------------------------------------------------------------
DEPT        .FT                                                 :DEPTH     
ASFL        .OHMM                                               :          
CILD        .MMHO                                               :          
DT          .US/F                                               :          
GR          .GAPI                                               :          
GR_NORM     .GAPI                                               :GammaRay Normalized
ILD         .OHMM                                               :          
ILM         .OHMM                                               :          
SP          .MV                                                 :          
SP_NORM     .MV                                                 :SP Normalized
VSH_GR      .V/V                                                :Volume of Shale from GR
VSH_SP      .V/V                                                :Volume of Shale from SP
~A        DEPTH           ASFL           CILD             DT             GR        GR_NORM            ILD            ILM             SP        SP_NORM         VSH_GR         VSH_SP
# ...
      9027.5000         0.6551       1991.545       126.8989        70.7209       83.10073         0.4561         0.4279       -46.5524     -0.9383659              1              1
      9028.0000         0.6614       1954.752        125.225        69.9821       81.80598         0.4591         0.4356       -47.1867      -1.572666              1      0.9802529
      9028.5000         0.6659       1920.531       123.6555        69.2032       80.44123         0.4641         0.4434       -48.1409      -2.526867              1      0.9473494
      9029.0000         0.6704       1894.223       122.5184        68.2842       78.83196         0.4711         0.4509       -48.9995      -3.385468      0.9751481      0.9177425
      9029.5000         0.6749       1870.791       121.5977        67.4534       77.37663         0.4739         0.4587       -49.6691      -4.055069      0.9441836      0.8946528
      9030.0000         0.6794       1861.205       120.7874        67.2792       77.06724         0.4751         0.4647       -49.8959      -4.281868      0.9376008      0.8868321
      9030.5000         0.6816       1851.631       120.5032        67.5846       77.59484         0.4764         0.4705       -50.0939      -4.479866      0.9488264      0.8800046
      9031.0000         0.6809       1843.221       120.6438        67.8899       78.12225         0.4776         0.4755       -50.1925      -4.578468       0.960048      0.8766046
      9031.5000         0.6798       1851.266       120.8816        68.3035       78.83866         0.4786         0.4785       -50.2911      -4.677067      0.9752907      0.8732046
      9032.0000         0.6788       1859.311        121.436        68.9639       79.98581         0.4795         0.4794       -50.3898      -4.775768       0.999698      0.8698011
      9032.5000         0.6777       1867.357       122.0131        69.6254       81.13488         0.4804         0.4843       -50.4883      -4.874268              1      0.8664046
      9033.0000         0.6767       1875.402        122.527        70.6654       82.94453         0.4812         0.4877       -50.5869      -4.972866              1      0.8630046
      9033.5000         0.6756       1885.656       122.9303        71.4708       84.34472         0.4821         0.4904       -50.5922      -4.978168              1      0.8628218
      9034.0000         0.6743       1899.877       122.9144         70.317        82.3257          0.483         0.4918        -50.538      -4.923965              1      0.8646908
      9034.5000         0.6747       1917.934       122.3751        69.1609       80.30264         0.4838         0.4922       -50.4839      -4.869865              1      0.8665563
      9035.0000         0.6776       1936.016       121.5017        67.9564       78.19514         0.4813         0.4915       -50.4297      -4.815666      0.9615986      0.8684253
      9035.5000         0.6771       1954.266       120.4279        66.7229       76.03702         0.4779         0.4894       -50.1405      -4.526466      0.9156812      0.8783977
      9036.0000         0.6728       1990.234       119.2495        65.5377        73.9632         0.4745         0.4863       -49.7451      -4.131065      0.8715574      0.8920322
      9036.5000         0.6684       2030.957       118.6215        65.4265       73.76373         0.4711         0.4798       -49.3496      -3.735569      0.8673133        0.90567
      9037.0000          0.664       2080.809       118.6454        66.0735       74.88749         0.4677         0.4728       -48.9499      -3.335869      0.8912232      0.9194528
      9037.5000         0.6596       2115.316       119.3746        66.7192       76.00898         0.4602         0.4661       -48.5417      -2.927666      0.9150847      0.9335288
      9038.0000         0.6552       2130.109       120.7546        67.3662       77.13274         0.4485         0.4593        -48.133      -2.518967      0.9389945      0.9476218
      9038.5000         0.6503       2139.355       122.7662        68.0229       78.27343         0.4367         0.4507       -47.7249      -2.110867      0.9632645      0.9616942
      9039.0000          0.644       2127.695       124.6322        68.8658       79.73907         0.4249         0.4437       -47.5111      -1.897068      0.9944482      0.9690666
      9039.5000         0.6376       2100.078       125.6246        69.7087       81.20471         0.4132         0.4371       -47.3563      -1.742268              1      0.9744046
      9040.0000         0.6312       2066.684       126.5345        70.5674       82.69796         0.4014         0.4325       -47.2015      -1.587467              1      0.9797425
      9040.5000         0.6248       2033.287       128.4731        71.6897       84.65118          0.415         0.4309        -47.222      -1.607967              1      0.9790356
      9041.0000         0.6371       1972.031        133.624        72.8143       86.60847           0.43         0.4321       -47.3274      -1.713367              1      0.9754011
      9041.5000         0.6601       1921.357       136.3062        72.1891       85.51197          0.445         0.4368       -47.4328      -1.818768              1      0.9717667
      9042.0000         0.6738       1871.555       137.3181        68.4353        78.9554         0.4599         0.4455       -47.5381      -1.924068      0.9777744      0.9681356
      9042.5000         0.6855       1827.094       136.4592        65.6829       74.14645         0.4748         0.4569       -47.6254      -2.011368      0.8754563      0.9651253
      9043.0000         0.6891       1784.572       133.8767        63.8592        70.9583         0.4898         0.4697        -47.691      -2.076969      0.8076233      0.9628631
      9043.5000         0.6882        1754.09        129.241        62.2411       68.12897         0.5047         0.4852       -47.7567      -2.142666       0.747425      0.9605978
      9044.0000         0.6851       1723.559       124.6151        61.0221       65.99617         0.5196          0.497       -47.8224      -2.208366      0.7020462      0.9583322
      9044.5000          0.682        1712.65       120.2566        60.0594       64.31063         0.5345         0.5036       -47.8807      -2.266666      0.6661837      0.9563218
      9045.0000         0.6788       1706.631       117.9108        59.3593       63.08342         0.5458         0.5054       -47.8365      -2.222466      0.6400727       0.957846
      9045.5000         0.6757       1715.199       117.3362        59.3541       63.06895         0.5484         0.5066       -47.7922      -2.178165       0.639765      0.9593736
      9046.0000         0.6712       1723.754       118.2643         59.593       63.48047         0.5509         0.5085       -47.7614      -2.147366      0.6485206      0.9604357
      9046.5000         0.6654        1732.32       120.5165        59.8318       63.89185         0.5534         0.5121       -47.8271      -2.213066      0.6572734      0.9581701
      9047.0000         0.6596       1744.236       121.0939        60.0706       64.30319         0.5451         0.5089       -47.8929      -2.278866      0.6660253      0.9559012
      9047.5000         0.6575       1759.188       120.9374        60.3098       64.71526         0.5339         0.5025       -48.0326      -2.418568      0.6747928      0.9510839
      9048.0000         0.6648       1774.162       121.3474        60.5486       65.12662         0.5226          0.493       -48.1783      -2.564266      0.6835451      0.9460598
      9048.5000         0.6768       1789.111       123.3737        60.8746       65.69016         0.5113         0.4858       -48.3014      -2.687366      0.6955354       0.941815
      9049.0000          0.688       1804.086       125.4097        61.2537       66.34639            0.5         0.4841       -48.2195      -2.605469      0.7094976       0.944639
      9049.5000         0.6818       1831.656       126.4604        61.6328       67.00262         0.4887         0.4883       -48.1377      -2.523666        0.72346      0.9474598
