#------------------------------------------------------------------------------
# Created by    : vladimir.rabinovich
# Created on    : 09/19/2023 17:19:44
#------------------------------------------------------------------------------
~Version Information Section
VERS.           2.0     :   CWLS log ASCII Standard - VERSION 2.0
WRAP.           NO      :   One line per depth step
~Well Information Section
#MNEM       .UNIT                                         VALUE :DESCRIPTION
#------------------------------------------------------------------------------
STRT        .FT                                            3520 :START DEPTH
STOP        .FT                                           13769 :STOP DEPTH
STEP        .FT                                             0.5 :STEP      
NULL        .                                           -999.25 :NULL      
COMP        .                           WILLIAMS EXPLORATION CO :COMPANY   
WELL        .                                          SL 73414 :WELL      
FLD         .                                           WILDCAT :FIELD     
LOC         .                                                   :LOCATION  
CNTY        .                           HIGH ISLAND LARGE BLOCK :LOCATION  
STAT        .                                             TEXAS :STATE     
CTRY        .                                     UNITED STATES :COUNTRY   
SRVC        .                                                   :SERVICE COMPANY
DATE        .                             9/13/2023 11:19:15 AM :LOG DATE  
API         .                                    42708301040000 :API NUMBER
UWI         .                                    42708301040000 :UNIQUE WELL ID
XCOORD      .                                  1272749.25589155 :SURFACE X 
YCOORD      .                                  10699068.0748216 :SURFACE Y 
LAT         .                                        29.4758188 :LATITUDE  
LON         .                                       -94.1558378 :LONGITUDE 
ELEV        .FT                                             106 :ELEVATION VALUE
ELEV_TYPE   .                                                KB :ELEVATION REFERENCE TYPE
~Curve Information Section
#MNEM       .UNIT                                      API CODE :CURVE DESCRIPTION
#------------------------------------------------------------------------------
DEPT        .FT                                                 :DEPTH     
ASFL        .OHMM                                               :          
CILD        .MMHO                                               :          
ILD         .OHMM                                               :          
SP          .MV                                                 :          
SP_NORM     .MV                                                 :SP Normalized
VSH_SP      .V/V                                                :Volume of Shale from SP
~A        DEPTH           ASFL           CILD            ILD             SP        SP_NORM         VSH_SP
# ...
      9638.0000         0.6427       1543.518         0.5883       -80.7134     -0.4181747              1
      9638.5000          0.657       1540.273         0.5863       -82.2234      -1.930786      0.9865103
      9639.0000         0.6659       1537.031         0.5846       -83.7335      -3.443497       0.964587
      9639.5000         0.6486       1529.574          0.591       -85.2435      -4.956108      0.9426651
      9640.0000         0.6314       1519.484         0.5973       -85.9216      -5.636826      0.9327996
      9640.5000         0.6142       1520.539         0.6037       -84.7247      -4.442535      0.9501082
      9641.0000         0.5969       1556.281         0.6101       -83.5278      -3.248245      0.9674168
      9641.5000         0.5795       1592.021         0.6165       -82.3291      -2.052162      0.9847513
      9642.0000         0.5618       1627.762         0.6191       -82.8191      -2.544769       0.977612
      9642.5000         0.5498       1663.502         0.6076       -83.7946      -3.522881      0.9634365
      9643.0000          0.554       1697.303          0.596       -84.2568      -3.987686      0.9567002
      9643.5000         0.5581        1730.26         0.5845       -83.5529      -3.286407      0.9668636
      9644.0000         0.5623       1739.605         0.5729       -82.8497      -2.585815      0.9770172
      9644.5000         0.5664       1728.596         0.5616       -82.1466      -1.885323      0.9871693
      9645.0000         0.5703       1717.559          0.551       -81.4536      -1.194939      0.9971748
      9645.5000         0.5738       1706.523         0.5404       -81.1619     -0.9058533              1
      9646.0000         0.5774       1697.813         0.5298       -80.9709     -0.7174606              1
      9646.5000          0.581       1689.748         0.5192       -81.1461     -0.8952789              1
      9647.0000         0.5786       1681.707         0.5086       -81.3209      -1.072685      0.9989466
      9647.5000          0.573       1675.643         0.5053       -81.4957      -1.250092      0.9963755
      9648.0000         0.5674       1679.482         0.5121       -81.6051      -1.362114       0.994752
      9648.5000         0.5619       1696.459         0.5189       -81.6224      -1.382019      0.9944635
      9649.0000         0.5563       1719.225         0.5257       -81.6398      -1.402031      0.9941735
      9649.5000         0.5507       1745.023         0.5325       -81.6571      -1.421936       0.993885
      9650.0000         0.5451       1770.822         0.5394       -81.6028      -1.370255       0.994634
      9650.5000         0.5396        1796.67         0.5462       -81.2791      -1.049164      0.9992875
      9651.0000          0.534       1822.469          0.553       -80.9547     -0.7273712              1
      9651.5000         0.5284       1848.268         0.5559       -80.6305     -0.4057922              1
      9652.0000         0.5229       1874.066         0.5562       -80.3068    -0.08470154              1
      9652.5000         0.5173       1899.865         0.5565       -79.9825      0.2369919              1
      9653.0000         0.5117       1925.615         0.5568       -79.6583      0.5585709              1
      9653.5000         0.5061       1951.363          0.557       -79.3341      0.8801651              1
      9654.0000         0.5015       1977.162         0.5573       -79.0701       1.141556              1
      9654.5000         0.4973       2002.887         0.5576       -78.8079       1.401138              1
      9655.0000         0.4932       2023.191         0.5478       -79.3499      0.8565292              1
      9655.5000          0.489       2043.523         0.5354       -79.8297      0.3741226              1
      9656.0000         0.4848       2063.852          0.523       -80.3086     -0.1073914              1
      9656.5000         0.4807       2083.066         0.5105       -80.7876     -0.5890045              1
      9657.0000         0.4765       2099.172         0.4981       -81.2665      -1.070518       0.998978
      9657.5000         0.4723        2112.27         0.4857       -81.6559      -1.462524      0.9932967
      9658.0000         0.4711       2092.781         0.4755       -81.6296      -1.438843      0.9936399
      9658.5000         0.4772       2073.297          0.467       -81.5398      -1.351654      0.9949036
      9659.0000         0.4832       2053.813         0.4584       -81.1461     -0.9605637              1
      9659.5000         0.4892       2037.607         0.4499       -80.7523     -0.5693741              1
      9660.0000         0.4952       2031.791         0.4413       -80.3582      -0.177887              1
      9660.5000         0.4952       2048.594         0.4328       -79.9645      0.2132034              1
      9661.0000         0.4923       2065.367         0.4273       -79.5707      0.6043854              1
      9661.5000          0.488       2082.172         0.4227       -79.1765      0.9959793              1
      9662.0000         0.4796       2098.945          0.418       -78.7828        1.38707              1
      9662.5000         0.4712       2126.137         0.4134       -78.3887       1.778549              1
      9663.0000         0.4647       2080.852         0.4088       -78.2117       1.952942              1
      9663.5000         0.4773        2016.83         0.4068       -78.2396       1.922432              1
      9664.0000           0.49       1959.465          0.416        -78.297       1.862427              1
      9664.5000         0.5026       1902.002         0.4252       -78.5902       1.566605              1
      9665.0000         0.5152       1834.996         0.4344       -78.8833       1.270897              1
      9665.5000         0.5304       1756.258         0.4436       -79.1765        0.97509              1
      9666.0000         0.5471       1687.412         0.4547       -79.4697      0.6792679              1
      9666.5000         0.5637       1646.055         0.4663       -79.7629       0.383461              1
      9667.0000         0.5804       1604.746         0.4778       -80.0566     0.08715057              1
      9667.5000          0.597         1570.1         0.4894       -80.3499     -0.2087631              1
      9668.0000         0.6093       1542.412          0.501       -80.6431       -0.50457              1
      9668.5000         0.6181       1579.295         0.5125       -80.7977     -0.6617813              1
      9669.0000         0.6239       1642.426         0.5212       -80.8268     -0.6934967              1
      9669.5000         0.6116       1713.111         0.5149       -80.8557     -0.7250061              1
      9670.0000         0.5967       1797.715         0.5086       -80.8846     -0.7565155              1
      9670.5000         0.5798       1882.318         0.5023       -80.9137     -0.7882233              1
      9671.0000          0.563       1943.559         0.4961       -80.6069     -0.4840469              1
      9671.5000         0.5462       1998.438         0.4898       -80.2688     -0.1485519              1
      9672.0000         0.5293       2053.414         0.4838       -79.9302       0.187439              1
      9672.5000          0.518       2091.641         0.4792       -79.5916      0.5234222              1
      9673.0000           0.51        2120.32         0.4747       -79.2534      0.8590088              1
      9673.5000          0.502       2149.004         0.4702       -79.2722      0.8376007              1
      9674.0000         0.4939       2170.426         0.4657       -79.3389      0.7682877              1
      9674.5000         0.4859       2183.824         0.4611        -79.408       0.696579              1
      9675.0000         0.4782       2197.219         0.4566       -79.5054      0.5965652              1
      9675.5000         0.4764       2210.617         0.4521       -79.6029      0.4964523              1
