#------------------------------------------------------------------------------
# Created by    : vladimir.rabinovich
# Created on    : 09/19/2023 17:22:50
#------------------------------------------------------------------------------
~Version Information Section
VERS.           2.0     :   CWLS log ASCII Standard - VERSION 2.0
WRAP.           NO      :   One line per depth step
~Well Information Section
#MNEM       .UNIT                                         VALUE :DESCRIPTION
#------------------------------------------------------------------------------
STRT        .FT                                            2472 :START DEPTH
STOP        .FT                                            8382 :STOP DEPTH
STEP        .FT                                             0.5 :STEP      
NULL        .                                           -999.25 :NULL      
COMP        .                                 EPL OIL & GAS LLC :COMPANY   
WELL        .                               OCS G07215 ST00BP00 :WELL      
FLD         .                                 BRAZOS BLOCK 0376 :FIELD     
LOC         .                                                   :LOCATION  
CNTY        .                                BRAZOS LARGE BLOCK :LOCATION  
STAT        .                                             TEXAS :STATE     
CTRY        .                                     UNITED STATES :COUNTRY   
SRVC        .                                                   :SERVICE COMPANY
DATE        .                             9/13/2023 11:19:08 AM :LOG DATE  
API         .                                    42704402290000 :API NUMBER
UWI         .                                    42704402290000 :UNIQUE WELL ID
XCOORD      .                                  871225.230552878 :SURFACE X 
YCOORD      .                                  10399792.7272756 :SURFACE Y 
LAT         .                                         28.636239 :LATITUDE  
LON         .                                        -95.398308 :LONGITUDE 
ELEV        .FT                                              95 :ELEVATION VALUE
ELEV_TYPE   .                                                KB :ELEVATION REFERENCE TYPE
~Curve Information Section
#MNEM       .UNIT                                      API CODE :CURVE DESCRIPTION
#------------------------------------------------------------------------------
DEPT        .FT                                                 :DEPTH     
DT          .US/F                                               :          
GR          .GAPI                                               :          
GR_NORM     .GAPI                                               :GammaRay Normalized
ILD         .OHMM                                               :          
ILM         .OHMM                                               :          
SFL         .OHMM                                               :          
SP          .MV                                                 :          
SP_NORM     .MV                                                 :SP Normalized
VSH_GR      .V/V                                                :Volume of Shale from GR
VSH_SP      .V/V                                                :Volume of Shale from SP
~A        DEPTH             DT             GR        GR_NORM            ILD            ILM            SFL             SP        SP_NORM         VSH_GR         VSH_SP
# ...
      3672.5000       142.3314        28.3305       30.88065         0.3839         0.4964         0.5723      -100.6349      -45.78091              0    0.004868656
      3673.0000       135.4391        27.4485        29.5449         0.3738         0.4917         0.5751      -100.2993      -45.45657              0     0.01207631
      3673.5000       128.8571        27.3473       29.39124         0.3625         0.4721         0.5808       -99.6882      -44.85672              0     0.02540614
      3674.0000       125.6132        27.9428       30.29239         0.3526         0.4424         0.5844       -98.4525      -43.63228              0     0.05261603
      3674.5000       125.0646        28.7049       31.44574         0.3445         0.4181         0.5797       -96.6478      -41.83884              0      0.0924703
      3675.0000       125.9492        29.4389       32.55658         0.3386            0.4         0.5658       -94.8744      -40.07669              0       0.131629
      3675.5000       129.5602        29.9979       33.40246         0.3357         0.3899         0.5484       -93.1117      -38.32526     0.00856294      0.1705499
      3676.0000        132.091        30.4236       34.04652         0.3354         0.3865         0.5321       -91.0424      -36.26721     0.02226639      0.2162843
      3676.5000       132.3905        31.5155       35.69919         0.3373         0.3875         0.5201       -88.0011      -33.23717     0.05742962      0.2836185
      3677.0000       130.6808         32.884       37.77062         0.3424         0.3922         0.5145       -85.0676      -30.31492      0.1015026      0.3485573
      3677.5000       127.9329        34.9833       40.94849         0.3538         0.3998         0.5169       -82.3727      -27.63129      0.1691167      0.4081936
      3678.0000        124.768        37.7921        45.2005         0.3709           0.41          0.524       -79.0139      -24.28374      0.2595852      0.4825835
      3678.5000       121.6419        41.1833       50.33426         0.3915         0.4231         0.5385       -77.1379        -22.419      0.3688139      0.5240222
      3679.0000        119.367        44.6823       55.63121         0.4141         0.4416         0.5739       -76.3433      -21.63566      0.4815152      0.5414298
      3679.5000       117.7701        49.1255       62.35767         0.4403         0.4675         0.6055       -75.0511      -20.35472      0.6246313      0.5698951
      3680.0000       116.4058         51.733       66.30492          0.479         0.5001         0.6414       -72.6833      -17.99817      0.7086154      0.6222629
      3680.5000       115.5728         52.943        68.1364         0.5221         0.5322         0.6541       -70.3119      -15.63803       0.747583      0.6747104
      3681.0000       118.1545        52.2818       67.13493         0.5602         0.5607          0.651       -67.9333      -13.27069       0.726275       0.727318
      3681.5000        124.346        51.3867       65.77933         0.6012         0.5896         0.6442       -65.8052      -11.15385      0.6974325       0.774359
      3682.0000       130.0841        50.4083       64.29764         0.6314         0.6131         0.6399       -63.6231      -8.983006      0.6659072      0.8225999
      3682.5000       138.1261        49.6115       63.09087         0.6479          0.638          0.643       -61.5513      -6.922462      0.6402312      0.8683897
      3683.0000        150.068         49.334        62.6703         0.6636         0.6629         0.6553       -59.5526      -4.935024       0.631283       0.912555
      3683.5000       149.4494         49.852       63.45411         0.6813          0.697         0.6891        -57.718      -3.111679      0.6479598      0.9530738
      3684.0000       141.1723        50.9949         65.184         0.7028         0.7462         0.7279        -55.796      -1.200939      0.6847659      0.9955347
      3684.5000       128.1076        51.9733       66.66483         0.7242         0.7992         0.7977       -54.0992      0.4846039      0.7162731              1
      3685.0000        124.705        51.9475       66.62536         0.7481         0.8092         0.8289       -52.5402       2.032349      0.7154332              1
      3685.5000       123.7567        50.4316       64.32988         0.7689         0.7999         0.8302       -51.1214       3.439892      0.6665932              1
      3686.0000       131.0299         48.264       61.04776         0.7803         0.7955         0.8246       -50.3677       4.182331      0.5967607              1
      3686.5000       138.5434        46.0531       57.70008         0.7853          0.792         0.8138       -50.0074       4.531372      0.5255336              1
      3687.0000       140.6871        47.1627       59.37955         0.7843         0.7871         0.7992       -50.3635       4.164017       0.561267              1
      3687.5000       137.9005        49.9955       63.66792         0.7758         0.7769         0.7792       -52.2202       2.296059      0.6525089              1
      3688.0000       132.8732        53.2716       68.62742         0.7644          0.762         0.7583       -55.1081     -0.6030998      0.7580302              1
      3688.5000       126.2911        55.6741       72.26428         0.7541         0.7506         0.7868       -57.8438      -3.350056      0.8354102      0.9477766
      3689.0000       121.7668        57.8406       75.54388         0.7446         0.7421         0.8233       -59.8437      -5.361217       0.905189       0.903084
      3689.5000       119.9345        58.9808       77.26969         0.7343         0.7341         0.8549       -61.4159      -6.944675      0.9419083      0.8678961
      3690.0000        122.595        59.3257       77.79142         0.7182          0.722         0.8407       -62.5393       -8.07933      0.9530089      0.8426815
      3690.5000       124.7899        59.2725       77.71045         0.6955         0.7004         0.8025       -63.3344      -8.885689      0.9512861      0.8247625
      3691.0000       125.4644        58.8688       77.09883         0.6668         0.6971         0.7608       -64.0958      -9.658348       0.938273      0.8075923
      3691.5000       124.3703        58.0665       75.88374         0.6446         0.7181         0.7471        -65.121      -10.69481      0.9124199      0.7845599
      3692.0000       120.5772        57.0372       74.32497         0.6215         0.6995         0.7593       -66.4026      -11.98767      0.8792548      0.7558296
      3692.5000       117.4791        55.5424       72.06146         0.5972         0.6713         0.7967       -68.3792      -13.97552      0.8310949       0.711655
      3693.0000       115.8869        53.3578       68.75359         0.5691         0.6465          0.817       -70.4713      -16.07888      0.7607148      0.6649138
      3693.5000       117.6185        50.1656       63.92024         0.5322         0.6262         0.8102       -72.8595      -18.47833      0.6578774      0.6115926
      3694.0000       130.0551        46.8583       58.91265          0.505         0.5982         0.7689       -77.4513      -23.08139      0.5513331      0.5093024
      3694.5000       138.9701        43.4385       53.73473         0.4854          0.568         0.7023       -81.0929      -26.73425      0.4411646      0.4281277
      3695.0000        143.486         40.396       49.12804         0.4713         0.5456         0.6881       -82.8304      -28.48301      0.3431499      0.3892665
      3695.5000       144.4408        38.6968       46.55507         0.4575         0.5279         0.6937       -84.0245      -29.68837      0.2884056      0.3624808
      3696.0000       144.5585        37.7921       45.18494         0.4464         0.5173         0.6947        -83.323      -28.99812       0.259254      0.3778195
      3696.5000       144.1085        37.5742       44.85461         0.4404         0.5086         0.6728       -81.2115      -26.89788      0.2522257      0.4244915
