#------------------------------------------------------------------------------
# Created by    : vladimir.rabinovich
# Created on    : 09/19/2023 17:20:37
#------------------------------------------------------------------------------
~Version Information Section
VERS.           2.0     :   CWLS log ASCII Standard - VERSION 2.0
WRAP.           NO      :   One line per depth step
~Well Information Section
#MNEM       .UNIT                                         VALUE :DESCRIPTION
#------------------------------------------------------------------------------
STRT        .FT                                             254 :START DEPTH
STOP        .FT                                            9030 :STOP DEPTH
STEP        .FT                                             0.5 :STEP      
NULL        .                                           -999.25 :NULL      
COMP        .                                    MOBIL OIL CORP :COMPANY   
WELL        .                                OCS 00724 ST00BP00 :WELL      
FLD         .                                           WILDCAT :FIELD     
LOC         .                                                   :LOCATION  
CNTY        .                             GALVESTON LARGE BLOCK :LOCATION  
STAT        .                                             TEXAS :STATE     
CTRY        .                                     UNITED STATES :COUNTRY   
SRVC        .                                                   :SERVICE COMPANY
DATE        .                             9/13/2023 11:19:25 AM :LOG DATE  
API         .                                    42706000340000 :API NUMBER
UWI         .                                    42706000340000 :UNIQUE WELL ID
XCOORD      .                                  1011870.95166473 :SURFACE X 
YCOORD      .                                   10400634.765487 :SURFACE Y 
LAT         .                                         28.645607 :LATITUDE  
LON         .                                        -94.960058 :LONGITUDE 
ELEV        .FT                                              34 :ELEVATION VALUE
ELEV_TYPE   .                                                KB :ELEVATION REFERENCE TYPE
~Curve Information Section
#MNEM       .UNIT                                      API CODE :CURVE DESCRIPTION
#------------------------------------------------------------------------------
DEPT        .FT                                                 :DEPTH     
ASN         .OHMM                                               :          
CALI        .IN                                                 :          
CILD        .MMHO                                               :          
DT          .US/F                                               :          
ILD         .OHMM                                               :          
SP          .MV                                                 :          
SP_NORM     .MV                                                 :SP Normalized
VSH_SP      .V/V                                                :Volume of Shale from SP
~A        DEPTH            ASN           CALI           CILD             DT            ILD             SP        SP_NORM         VSH_SP
# ...
      5505.0000         0.6828         9.5576       1993.049       131.4519         0.5863       -47.9158      0.2175446              1
      5505.5000         0.6819         9.5697       2006.227       130.3472         0.5791       -48.2779     -0.1458168              1
      5506.0000         0.6814         9.5924       2017.547       129.4841         0.5725       -48.6854     -0.5545769              1
      5506.5000         0.6809         9.6238        2080.98       130.1702         0.5677       -49.2214      -1.091843      0.9972987
      5507.0000         0.6785         9.6551       2107.809       132.2148         0.5629       -49.7573      -1.629005      0.9814999
      5507.5000         0.6731         9.6865        2123.68       134.9785         0.5568       -50.3829      -2.255867      0.9630628
      5508.0000         0.6522         9.7145       2138.309       136.2512         0.5514       -50.9999       -2.87413      0.9448785
      5508.5000         0.6347         9.7374       2159.613        139.772         0.5582       -50.8427      -2.718193      0.9494649
      5509.0000         0.6286           9.76       2144.781        141.689          0.565       -50.6853       -2.56205      0.9540573
      5509.5000         0.6366         9.7313       2125.559       140.5769         0.5718       -50.5281      -2.406113      0.9586437
      5510.0000         0.6482         9.7103        2088.09       139.9709         0.5785       -50.3625      -2.241776      0.9634772
      5510.5000         0.6612         9.6893       2004.344       139.4424         0.5856       -50.1855       -2.06604      0.9686459
      5511.0000         0.6747         9.6683       1872.713       137.7273         0.5932       -50.0088      -1.890602      0.9738058
      5511.5000         0.6858         9.6472       1846.744       133.9929         0.6008       -49.9789      -1.861965      0.9746481
      5512.0000         0.6947         9.6262         1821.5       130.2629         0.6083        -49.949      -1.833328      0.9754903
      5512.5000         0.7076         9.6106       1797.162       127.8804         0.6159       -49.9191      -1.804691      0.9763326
      5513.0000         0.7228         9.6241       1765.035       127.9761         0.6243       -49.8635      -1.750347       0.977931
      5513.5000         0.7341         9.6376        1713.73       128.1245          0.633       -49.7913      -1.679413      0.9800172
      5514.0000         0.7406         9.6511       1636.709       125.7305         0.6418       -49.7191      -1.608475      0.9821037
      5514.5000          0.742         9.6646       1591.744       126.1962         0.6505       -49.6173      -1.507935      0.9850608
      5515.0000         0.7426         9.6843       1553.799       126.7139         0.6592       -49.3995      -1.291401      0.9914294
      5515.5000         0.7447         9.7177       1517.301       127.4836         0.6696       -49.1819      -1.075062      0.9977923
      5516.0000         0.7611         9.7593       1482.729       128.5601         0.6816       -48.9471      -0.841526              1
      5516.5000         0.7825         9.7917       1449.719       129.0388         0.6936       -48.6998     -0.5954819              1
      5517.0000         0.7992         9.8241       1417.797       125.3225         0.7056        -48.746     -0.6429443              1
      5517.5000         0.8426         9.8524       1386.439       124.6047         0.7123       -49.0317     -0.9299088              1
      5518.0000         0.8743         9.8487       1362.168        122.568         0.7163       -49.3206       -1.22007      0.9935274
      5518.5000         0.8958         9.8274       1345.719       113.0916         0.7204        -49.958      -1.858734      0.9747431
      5519.0000         0.8993         9.8061       1348.787       110.6637         0.7245       -50.5948      -2.496796      0.9559766
      5519.5000         0.9025         9.7847       1375.322       114.6333         0.7285       -50.8705      -2.773758      0.9478307
      5520.0000         0.8981         9.7527       1414.604       118.5984         0.7296       -51.1091      -3.013622      0.9407758
      5520.5000         0.8922         9.7053       1466.314        117.593         0.7288       -51.2754      -3.181179      0.9358477
      5521.0000         0.8816         9.6569       1492.713       113.5646         0.7281        -51.069      -2.976044      0.9418811
      5521.5000         0.8695         9.6615       1519.135       112.4156         0.7274       -50.8625      -2.770805      0.9479175
      5522.0000         0.8576         9.6822       1543.768       112.0642         0.7267       -50.6129      -2.522469      0.9552215
      5522.5000         0.8508         9.7029       1567.609       114.0365          0.726       -50.3483      -2.259132      0.9629667
      5523.0000          0.844         9.7563       1591.473       116.5234         0.7253        -50.207      -2.119095      0.9670854
      5523.5000         0.8372         9.8184       1616.082       116.9309         0.7246       -50.3481      -2.261456      0.9628984
      5524.0000         0.8272         9.8284       1640.828       117.8344         0.7153       -50.4894      -2.404015      0.9587054
      5524.5000         0.8061         9.8079       1670.217       119.6427         0.7006       -50.6308      -2.546677      0.9545095
      5525.0000         0.7902         9.7874       1708.615       117.1866          0.686       -50.8716      -2.788742        0.94739
      5525.5000         0.7744         9.7994       1727.633       119.4901         0.6732       -50.9006      -2.819004      0.9464999
      5526.0000         0.7606         9.8188       1742.654       121.2433         0.6608       -50.7291      -2.648766      0.9515069
      5526.5000         0.7472         9.8383       1754.598       122.6143         0.6483       -50.5844      -2.505329      0.9557256
      5527.0000         0.7362         9.8824        1762.16        123.037         0.6394       -50.4398      -2.361992      0.9599414
      5527.5000         0.7357         9.9261       1769.727       127.3943         0.6398       -50.0809      -2.004353      0.9704602
      5528.0000         0.7413         9.8856       1774.824       128.5359         0.6402       -49.7117      -1.636414      0.9812819
      5528.5000         0.7452         9.8451       1777.625       126.8134         0.6406        -49.422      -1.347977      0.9897654
      5529.0000         0.7478         9.8046       1780.053       125.8628          0.641       -49.1399      -1.067139      0.9980254
      5529.5000         0.7441          9.764       1780.344       125.2106         0.6414       -49.0684     -0.9969025              1
      5530.0000           0.74         9.7313       1780.635       124.0068         0.6427       -49.0253     -0.9550629              1
      5530.5000         0.7346         9.7038       1780.725       125.3711         0.6445       -48.9604     -0.8914261              1
      5531.0000         0.7289         9.6763       1779.693        127.947         0.6464       -48.8724     -0.8046875              1
      5531.5000         0.7232         9.6868        1776.91        130.333         0.6482       -49.0434     -0.9769478              1
      5532.0000         0.7234         9.6896       1763.449       131.3989           0.65       -49.2777      -1.212509      0.9937497
      5532.5000         0.7251         9.6787       1753.295       128.2144         0.6495       -49.7348      -1.670872      0.9802685
      5533.0000         0.7283         9.6677       1764.514       127.4197         0.6458       -50.1919      -2.129234      0.9667872
      5533.5000         0.7315         9.6567       1788.943       132.3064         0.6422       -50.6484      -2.586998      0.9533236
      5534.0000         0.7267          9.666       1819.689       130.4121         0.6385       -51.0931      -3.032963       0.940207
