#------------------------------------------------------------------------------
# Created by    : vladimir.rabinovich
# Created on    : 09/19/2023 17:22:21
#------------------------------------------------------------------------------
~Version Information Section
VERS.           2.0     :   CWLS log ASCII Standard - VERSION 2.0
WRAP.           NO      :   One line per depth step
~Well Information Section
#MNEM       .UNIT                                         VALUE :DESCRIPTION
#------------------------------------------------------------------------------
STRT        .FT                                            2180 :START DEPTH
STOP        .FT                                            6738 :STOP DEPTH
STEP        .FT                                             0.5 :STEP      
NULL        .                                           -999.25 :NULL      
COMP        .                          SEAGULL ENERGY E & P INC :COMPANY   
WELL        .                               OCS G08131 ST00BP00 :WELL      
FLD         .                              GALVESTON BLOCK 0384 :FIELD     
LOC         .                                                   :LOCATION  
CNTY        .                             GALVESTON LARGE BLOCK :LOCATION  
STAT        .                                             TEXAS :STATE     
CTRY        .                                     UNITED STATES :COUNTRY   
SRVC        .                                                   :SERVICE COMPANY
DATE        .                             9/13/2023 11:19:36 AM :LOG DATE  
API         .                                    42706401890000 :API NUMBER
UWI         .                                    42706401890000 :UNIQUE WELL ID
XCOORD      .                                  986765.057424596 :SURFACE X 
YCOORD      .                                  10402321.6077632 :SURFACE Y 
LAT         .                                          28.64909 :LATITUDE  
LON         .                                        -95.038398 :LONGITUDE 
ELEV        .FT                                             100 :ELEVATION VALUE
ELEV_TYPE   .                                                KB :ELEVATION REFERENCE TYPE
~Curve Information Section
#MNEM       .UNIT                                      API CODE :CURVE DESCRIPTION
#------------------------------------------------------------------------------
DEPT        .FT                                                 :DEPTH     
CALN        .IN                                                 :          
DRHO        .G/CM3                                              :          
GR          .GAPI                                               :          
GR_NORM     .GAPI                                               :GammaRay Normalized
ILD         .OHMM                                               :          
ILM         .OHMM                                               :          
NPSS        .V/V                                                :Neutron Porosity Sandstone
RHOB        .G/CM3                                              :          
SFL         .OHMM                                               :          
SP          .MV                                                 :          
SP_NORM     .MV                                                 :SP Normalized
TENN        .LB                                                 :          
VSH_GR      .V/V                                                :Volume of Shale from GR
VSH_SP      .V/V                                                :Volume of Shale from SP
~A        DEPTH           CALN           DRHO             GR        GR_NORM            ILD            ILM           NPSS           RHOB            SFL             SP        SP_NORM           TENN         VSH_GR         VSH_SP
# ...
      2234.0000          14.14          0.089        44.8757       60.37642       1952.799       1471.792         0.5188          1.989         1.0659       -49.5243      -39.81556       1529.412       0.582477      0.4312063
      2234.5000           14.7          0.074        45.8854       61.15016       1598.515       218.5956         0.5118         2.0049         1.4402       -50.5145      -40.80576       1529.412      0.5989395      0.4170605
      2235.0000          14.84          0.038        46.2951        61.3839         1.3028        16.9473         0.5016         2.0078          1.376       -50.5048      -40.79606       1529.412      0.6039127      0.4171992
      2235.5000          14.82          0.014        47.3068       62.15944         0.7342         1.8593         0.4944         2.0127         1.3028       -48.8932      -39.18446       1529.412      0.6204136      0.4402219
      2236.0000          14.74              0        48.9165       63.47318         0.5467         0.6393         0.4866         2.0275         1.3028       -46.4835      -36.77477       1529.412      0.6483654      0.4746462
      2236.5000          14.46         -0.003        50.7261       64.96683          0.589         0.7203         0.4656          2.049         1.3636       -43.4738      -33.76506       1529.412      0.6801453       0.517642
      2237.0000           14.1         -0.006        52.5354       66.46021         0.6937         0.7774         0.4445          2.069         1.4938       -39.6707      -29.96196       1529.412      0.7119192       0.571972
      2237.5000          13.78          -0.01        53.9468       67.59547         0.8073         0.8146         0.4231          2.082         1.5635       -36.5239      -26.81516       1529.412      0.7360739      0.6169263
      2238.0000          13.48         -0.013        55.5562       68.90894         0.7774         0.9624         0.4341          2.082         1.5074       -34.1614      -24.45266       1529.412      0.7640201      0.6506763
      2238.5000          13.14         -0.012        57.1656       70.22241         0.7483         1.0372         0.4451          2.076          1.376        -31.799      -22.09026       1529.412      0.7919662      0.6844248
      2239.0000        12.6939         -0.009        57.1753       70.09615         0.7483         1.0184         0.4457          2.067         1.4014       -31.1993      -21.49056       1529.412      0.7892799       0.692992
      2239.5000        12.5918         -0.005        56.7851       69.60999         0.7555              1         0.4396          2.064         1.5074       -32.7584      -23.04966       1529.412      0.7789358      0.6707191
      2240.0000          13.36         -0.002        56.1969       68.94561         0.7627         1.0184         0.4329          2.061         1.6068       -33.1411      -23.43236       1529.412      0.7648002       0.665252
      2240.5000        14.0394         -0.004        56.2025       68.81566         0.7703         1.0469         0.4292          2.062         1.6219       -31.9562      -22.24746       1529.412      0.7620353      0.6821792
      2241.0000        14.3185         -0.005        57.6039       69.94193         0.8006         1.0379         0.4433           2.06         1.5503       -30.1811      -20.47236       1529.412      0.7859986      0.7075377
      2241.5000        13.8973         -0.008         59.601       71.60433         0.8381         0.9822         0.4776          2.058         1.3528       -27.9732      -18.26446       1529.412      0.8213688      0.7390791
      2242.0000        13.7564         -0.007        59.4021       71.29033         0.8615         0.9549         0.5046          2.052         1.1485       -27.1636      -17.45486       1529.412      0.8146878      0.7506448
      2242.5000        14.6154         -0.006        58.2081       70.08073         0.8464         0.9553         0.4926         2.0392         1.0205       -28.9536      -19.24486       1529.412      0.7889518      0.7250734
      2243.0000        14.8945         -0.004        56.0221       67.97835         0.8167         0.9376         0.4764         2.0155         1.0117        -31.719      -22.01026       1529.412      0.7442201      0.6855677
      2243.5000        15.4868         -0.003        54.6351       66.59505         0.7949         0.9203         0.4914         1.9797         1.0888        -36.645      -26.93626       1568.627      0.7147884      0.6151962
      2244.0000          16.12          0.002        52.6554       64.67833         0.7728         0.8949         0.5094         1.9516         1.1825          -41.4      -31.69126       1568.627       0.674007      0.5472677
      2244.5000          17.64          0.008        50.4813       62.58665         0.7514         0.8793         0.5229         1.9383         1.2382            -45      -35.29126       1568.627      0.6295032      0.4958391
      2245.0000          17.56          0.013        48.4953       60.66426         0.7305         0.8561         0.5165         1.9362         1.2275            -48      -38.29126       1607.843      0.5886013       0.452982
      2245.5000          17.02          0.022        47.7051       59.81809         0.6969         0.8336          0.507         1.9403         1.2059       -50.5937      -40.88496       1568.627      0.5705976      0.4159291
      2246.0000          16.46          0.032        47.5168       59.51363         0.6786         0.8116          0.498         1.9484         1.1846       -52.3725      -42.66376       1529.412      0.5641198      0.3905177
      2246.5000          16.02          0.043        48.7264       60.46728         0.6668         0.7973          0.504         1.9614         1.1961       -53.3578      -43.64906       1529.412      0.5844103       0.376442
      2247.0000          16.12          0.044        48.7361       60.34101         0.6492         0.7751         0.4992         1.9673         1.2411       -53.5519      -43.84316       1529.412      0.5817237      0.3736691
      2247.5000          16.22          0.032         47.146       58.77494          0.632         0.7536          0.486         1.9763          1.253       -53.7456      -44.03687       1529.412       0.548403      0.3709019
      2248.0000          16.26          0.012        46.5559       58.10886         0.6266         0.7327         0.4717         1.9782         1.2422       -53.3481      -43.63936       1529.412       0.534231      0.3765806
      2248.5000        15.8804         -0.004        46.1657       57.62269         0.6156         0.7192         0.4623         1.9752         1.1983       -52.7541      -43.04536       1529.412       0.523887      0.3850662
      2249.0000        15.3815         -0.003        46.5753       57.85633         0.6048         0.7195         0.4523         1.9711         1.1559       -51.5722      -41.86346       1529.412      0.5288581      0.4019505
      2249.5000        15.0812          0.002        47.5868       58.63169         0.6162         0.7267         0.4328         1.9711         1.1048          -49.6      -39.89126       1529.412      0.5453552      0.4301249
      2250.0000        14.8604          0.007        48.5964       59.40534         0.6221         0.7271          0.417          1.979         1.0854            -47      -37.29126       1529.412      0.5618158      0.4672677
      2250.5000           14.7           0.01             50       60.53359         0.6395         0.7485          0.408          1.999         1.0858       -43.3938      -33.68506       1490.196      0.5858211      0.5187849
      2251.0000          14.56          0.011        53.3388       63.40352         0.6515         0.7634         0.4237          2.019         1.0475       -40.5849      -30.87616       1490.196      0.6468834       0.558912
      2251.5000          14.42          0.008        57.2734       66.80967         0.6759         0.7859         0.4494         2.0409          1.029       -37.1812      -27.49234       1529.412      0.7193547      0.6072523
