#------------------------------------------------------------------------------
# Created by    : vladimir.rabinovich
# Created on    : 09/19/2023 17:20:31
#------------------------------------------------------------------------------
~Version Information Section
VERS.           2.0     :   CWLS log ASCII Standard - VERSION 2.0
WRAP.           NO      :   One line per depth step
~Well Information Section
#MNEM       .UNIT                                         VALUE :DESCRIPTION
#------------------------------------------------------------------------------
STRT        .FT                                            2377 :START DEPTH
STOP        .FT                                            9500 :STOP DEPTH
STEP        .FT                                             0.5 :STEP      
NULL        .                                           -999.25 :NULL      
COMP        .                                     SKELLY OIL CO :COMPANY   
WELL        .                                     ST TR 00146-L :WELL      
FLD         .                                           WILDCAT :FIELD     
LOC         .                                                   :LOCATION  
CNTY        .                             GALVESTON LARGE BLOCK :LOCATION  
STAT        .                                             TEXAS :STATE     
CTRY        .                                     UNITED STATES :COUNTRY   
SRVC        .                                                   :SERVICE COMPANY
DATE        .                             9/13/2023 11:19:24 AM :LOG DATE  
API         .                                    42706001330000 :API NUMBER
UWI         .                                    42706001330000 :UNIQUE WELL ID
XCOORD      .                                  1116482.89093459 :SURFACE X 
YCOORD      .                                  10631825.2810539 :SURFACE Y 
LAT         .                                         29.285733 :LATITUDE  
LON         .                                       -94.6439746 :LONGITUDE 
ELEV        .FT                                              61 :ELEVATION VALUE
ELEV_TYPE   .                                                KB :ELEVATION REFERENCE TYPE
~Curve Information Section
#MNEM       .UNIT                                      API CODE :CURVE DESCRIPTION
#------------------------------------------------------------------------------
DEPT        .FT                                                 :DEPTH     
ASN         .OHMM                                               :          
CALI        .IN                                                 :          
CILD        .MMHO                                               :          
DT          .US/F                                               :          
ILD         .OHMM                                               :          
SP          .MV                                                 :          
SP_NORM     .MV                                                 :SP Normalized
VSH_SP      .V/V                                                :Volume of Shale from SP
~A        DEPTH            ASN           CALI           CILD             DT            ILD             SP        SP_NORM         VSH_SP
# ...
      2849.0000         1.2075        11.7471       2026.643       137.4377         0.5395      -106.6938      -35.91805      0.2873867
      2849.5000         1.1469        11.6868       2145.078       135.7964         0.5205      -106.4323      -35.64818      0.2928943
      2850.0000          1.093         11.623        2198.68       135.0449         0.4951      -106.4338      -35.64131      0.2930345
      2850.5000         1.0592         11.542       2215.246       134.3618         0.4861      -106.9874      -36.18655      0.2819072
      2851.0000          1.027        11.4641       2226.832       132.8474         0.4889      -105.2662      -34.45698      0.3172045
      2851.5000         0.9986        11.4132       2215.469       131.4224         0.4919      -104.4797      -33.66211      0.3334263
      2852.0000         0.9719           11.4       2204.695       130.4783         0.5023       -104.153      -33.32705      0.3402643
      2852.5000         0.9596        11.4612        2182.75       130.0862         0.5128      -103.8899      -33.05558      0.3458045
      2853.0000         0.9503        11.5206       2139.191       129.8997         0.5232      -103.4657      -32.62301      0.3546325
      2853.5000         0.9455        11.5787       2082.758       130.0386         0.5337      -102.8745      -32.02344      0.3668686
      2854.0000         0.9474        11.6401       2044.471       131.3982         0.5441      -102.3013      -31.44188      0.3787372
      2854.5000         0.9579        11.7065       2005.957       131.6516         0.5613      -101.9065      -31.03871      0.3869651
      2855.0000         0.9837         11.787        1957.18       131.2686         0.5799      -101.5118      -30.63564       0.395191
      2855.5000         1.0441        11.9335       1859.059       130.4941         0.5986      -101.1721      -30.28757      0.4022944
      2856.0000         1.0694        12.1704       1777.656       129.5198         0.6173      -100.9618      -30.06891       0.406757
      2856.5000         1.0691         12.447       1706.029       129.4495         0.6356      -100.7513      -29.85004      0.4112237
      2857.0000         1.0542        12.6057       1616.674        131.428          0.652      -100.2128      -29.30318      0.4223841
      2857.5000         0.9922        12.6448       1461.994       133.3225         0.6685       -96.1776      -25.25961       0.504906
      2858.0000         0.8758        12.7434        1420.16       135.1345         0.6849       -89.6482      -18.72184      0.6383298
      2858.5000         0.8348         12.583       1371.729       137.9072         0.6949       -84.8833      -13.94858      0.7357433
      2859.0000         0.8185        12.3735       1367.324       150.8232         0.6946       -82.6163      -11.67321      0.7821794
      2859.5000         0.8081        12.3567       1374.844        151.939         0.6944       -80.7859      -9.834435      0.8197054
      2860.0000         0.7985        12.3671       1398.518       148.4312          0.688       -79.5332       -8.57338      0.8454412
      2860.5000         0.7883        12.3246       1427.498       148.2671         0.6774       -78.3287      -7.360504      0.8701938
      2861.0000         0.7771        12.2194       1487.504       146.2839         0.6669       -77.0608      -6.084236      0.8962401
      2861.5000         0.7689        12.0359       1546.131       141.6775         0.6563       -76.7571      -5.772179      0.9026086
      2862.0000         0.7654        11.8209       1583.199       136.7585         0.6457       -76.4535      -5.460205      0.9089754
      2862.5000         0.7801        11.8228        1611.65       132.8848         0.6351        -76.478      -5.476334      0.9086462
      2863.0000         0.7949        11.8708       1642.885        130.373         0.6224       -76.9116      -5.901573      0.8999679
      2863.5000         0.8256        11.8948       1680.988        130.564         0.6068       -77.3456      -6.327202      0.8912816
      2864.0000         0.8525        11.9379       1722.607       132.3923         0.5913       -86.1255      -15.09874      0.7122706
      2864.5000         0.8728         12.028       1743.025       132.4834         0.5758       -87.5942      -16.55907      0.6824679
      2865.0000         0.8757        12.0712       1760.877       133.8311          0.558       -88.9756      -17.93211      0.6544468
      2865.5000         0.8857        12.0526       1775.441       133.3506         0.5348       -89.4232      -18.37134      0.6454829
      2866.0000         0.9077         12.481       1820.303       130.1582         0.5116       -89.8314      -18.77117       0.637323
      2866.5000          0.956         12.618       1889.172        131.501         0.4934       -90.1536      -19.08501      0.6309182
      2867.0000         1.0079        12.5724       1948.783       131.7969         0.4798       -93.7229      -22.64594      0.5582462
      2867.5000         1.0513        12.5451       2009.008       131.1067         0.4677       -99.4471      -28.36176      0.4415967
      2868.0000         1.0869        12.4897       2035.865       133.3494         0.4638      -110.8982       -39.8045      0.2080713
      2868.5000          1.072        12.3556       2071.602       135.0823         0.4599       -112.708      -41.60593      0.1713075
      2869.0000         1.0379        12.0652       2132.715       135.5688         0.4561      -113.4001      -42.28967      0.1573538
      2869.5000          1.003        11.7496       2270.406       134.3643         0.4522      -112.5559       -41.4371       0.174753
      2870.0000         0.9678        11.4926       2443.848       131.2632         0.4281      -111.7333      -40.60613      0.1917116
      2870.5000         0.9327         11.411       2615.715       129.3999         0.3735      -111.9061      -40.77056      0.1883559
      2871.0000         0.8688        11.4481       2865.684       127.5479         0.3633      -112.0791       -40.9352      0.1849958
      2871.5000          0.808        11.4626       2911.605        129.679         0.3631      -112.5725      -41.42023      0.1750973
      2872.0000         0.7603        11.4766       2934.813        130.458         0.3628      -113.5674      -42.40676      0.1549641
      2872.5000         0.7397        11.5583       2919.793       129.5793         0.3653      -114.1725       -43.0035      0.1427857
      2873.0000         0.7232        11.7282       2894.945       129.5603         0.3684      -114.9019      -43.72453      0.1280708
      2873.5000         0.6999        11.6311       2866.066       128.8943         0.3794      -111.0167      -39.83096      0.2075314
      2874.0000           0.68        11.4821       2824.516       127.2814         0.4008       -104.522       -33.3279      0.3402469
      2874.5000          0.659        11.4164       2747.789       132.9336         0.4261       -99.2373      -28.03483      0.4482688
      2875.0000         0.6496        11.4425       2320.539        135.157         0.4651       -94.4044      -23.19357      0.5470701
      2875.5000         0.6542         11.589       2204.418       133.7593         0.5041       -93.0018       -21.7826      0.5758653
      2876.0000         0.6588        11.6167        2084.75       137.1868         0.4943       -92.6534      -21.42583      0.5831464
      2876.5000         0.6647        11.6448        2040.26       137.8337         0.4846       -92.3663      -21.13036      0.5891762
      2877.0000         0.6851        11.7045       2034.979       138.5737         0.4748       -90.1138       -18.8695      0.6353164
      2877.5000         0.7179        11.6232       2085.172        142.208          0.465       -88.3662      -17.11353      0.6711524
      2878.0000         0.7534        11.4677       2192.746       140.4309         0.4321       -87.9153      -16.65426      0.6805253
