#------------------------------------------------------------------------------
# Created by    : vladimir.rabinovich
# Created on    : 09/19/2023 17:21:23
#------------------------------------------------------------------------------
~Version Information Section
VERS.           2.0     :   CWLS log ASCII Standard - VERSION 2.0
WRAP.           NO      :   One line per depth step
~Well Information Section
#MNEM       .UNIT                                         VALUE :DESCRIPTION
#------------------------------------------------------------------------------
STRT        .FT                                            1005 :START DEPTH
STOP        .FT                                            8973 :STOP DEPTH
STEP        .FT                                             0.5 :STEP      
NULL        .                                           -999.25 :NULL      
COMP        .                            MARITECH RESOURCES INC :COMPANY   
WELL        .                               OCS G06113 ST00BP00 :WELL      
FLD         .                              GALVESTON BLOCK 0343 :FIELD     
LOC         .                                                   :LOCATION  
CNTY        .                             GALVESTON LARGE BLOCK :LOCATION  
STAT        .                                             TEXAS :STATE     
CTRY        .                                     UNITED STATES :COUNTRY   
SRVC        .                                                   :SERVICE COMPANY
DATE        .                             9/13/2023 11:19:36 AM :LOG DATE  
API         .                                    42706402140000 :API NUMBER
UWI         .                                    42706402140000 :UNIQUE WELL ID
XCOORD      .                                  914498.553138379 :SURFACE X 
YCOORD      .                                  10427492.1426863 :SURFACE Y 
LAT         .                                         28.714711 :LATITUDE  
LON         .                                        -95.265111 :LONGITUDE 
ELEV        .FT                                              84 :ELEVATION VALUE
ELEV_TYPE   .                                                KB :ELEVATION REFERENCE TYPE
~Curve Information Section
#MNEM       .UNIT                                      API CODE :CURVE DESCRIPTION
#------------------------------------------------------------------------------
DEPT        .FT                                                 :DEPTH     
CALI        .IN                                                 :          
DPHI        .%                                                  :          
DRHO        .G/C3                                               :          
DT          .US/F                                               :          
GR          .GAPI                                               :          
ILD         .OHMM                                               :          
ILM         .OHMM                                               :          
NPHI        .%                                                  :          
SGRD        .OHMM                                               :          
SP          .MV                                                 :          
SP_NORM     .MV                                                 :SP Normalized
VSH_SP      .V/V                                                :Volume of Shale from SP
~A        DEPTH           CALI           DPHI           DRHO             DT             GR            ILD            ILM           NPHI           SGRD             SP        SP_NORM         VSH_SP
# ...
      5802.0000        -999.25        -999.25        -999.25        -999.25        -999.25          0.753         0.7557        -999.25         0.6686      -109.7098      -12.49187      0.4527682
      5802.5000        -999.25        -999.25        -999.25        -999.25        -999.25         0.7147         0.7135        -999.25          0.612      -112.1395      -14.93468      0.3364436
      5803.0000        -999.25        -999.25        -999.25        -999.25        -999.25         0.6836         0.6751        -999.25         0.5965      -113.9849      -16.79321      0.2479426
      5803.5000        -999.25        -999.25        -999.25        -999.25        -999.25         0.6566         0.6382        -999.25         0.6025      -115.3882      -18.20962      0.1804944
      5804.0000        -999.25        -999.25        -999.25        -999.25        -999.25         0.6247         0.5998        -999.25         0.5561      -116.5369      -19.37144      0.1251693
      5804.5000        -999.25        -999.25        -999.25        -999.25        -999.25         0.5825         0.5643        -999.25         0.5278       -117.525      -20.37266     0.07749249
      5805.0000        -999.25        -999.25        -999.25        -999.25        -999.25         0.5376          0.533        -999.25         0.5079      -118.4009      -21.26168     0.03515807
      5805.5000        -999.25        -999.25        -999.25        -999.25        -999.25         0.4994         0.5065        -999.25         0.5168       -118.884       -21.7579     0.01152874
      5806.0000        -999.25        -999.25        -999.25        -999.25        -999.25         0.4649         0.4825        -999.25         0.5338       -119.162      -22.04902              0
      5806.5000        -999.25        -999.25        -999.25        -999.25        -999.25          0.433           0.46        -999.25         0.5358      -119.2083      -22.10843              0
      5807.0000        -999.25        -999.25        -999.25        -999.25        -999.25         0.4078          0.442        -999.25          0.517      -118.9861      -21.89935    0.004792713
      5807.5000        -999.25        -999.25        -999.25        -999.25        -999.25         0.3871         0.4258        -999.25         0.4932      -118.6569      -21.58327     0.01984442
      5808.0000        -999.25        -999.25        -999.25        -999.25        -999.25         0.3708         0.4112        -999.25          0.483      -118.4883      -21.42778     0.02724857
      5808.5000        -999.25        -999.25        -999.25        -999.25        -999.25         0.3571         0.4013        -999.25         0.4806      -118.9774      -21.93001    0.003332956
      5809.0000        -999.25        -999.25        -999.25        -999.25        -999.25         0.3485         0.3968        -999.25         0.4733      -119.3938      -22.35952              0
      5809.5000        -999.25        -999.25        -999.25        -999.25        -999.25         0.3499          0.396        -999.25         0.4588      -119.5605      -22.53934              0
      5810.0000        -999.25        -999.25        -999.25        -999.25        -999.25         0.3572         0.3993        -999.25         0.4548      -119.5743      -22.56626              0
      5810.5000        -999.25        -999.25        -999.25        -999.25        -999.25         0.3686         0.4071        -999.25         0.4977      -119.5663      -22.57138              0
      5811.0000        -999.25        -999.25        -999.25        -999.25        -999.25         0.3892         0.4177        -999.25         0.5722      -119.5084       -22.5266              0
      5811.5000        -999.25        -999.25        -999.25        -999.25        -999.25          0.415         0.4312        -999.25         0.6167      -119.4005      -22.43182              0
      5812.0000        -999.25        -999.25        -999.25        -999.25        -999.25         0.4504          0.452        -999.25          0.628      -119.2867      -22.33113              0
      5812.5000        -999.25        -999.25        -999.25        -999.25        -999.25          0.493         0.4819        -999.25         0.6121      -119.1178      -22.17535              0
      5813.0000        -999.25        -999.25        -999.25        -999.25        -999.25         0.5378         0.5184        -999.25          0.591      -118.9491      -22.01977              0
      5813.5000        -999.25        -999.25        -999.25        -999.25        -999.25         0.5838         0.5583        -999.25         0.6037      -118.8787      -21.96249    0.001786005
      5814.0000        -999.25        -999.25        -999.25        -999.25        -999.25         0.6224         0.6013        -999.25         0.6283      -118.8462      -21.94311    0.002709162
      5814.5000        -999.25        -999.25        -999.25        -999.25        -999.25         0.6315         0.6449        -999.25         0.6862       -118.934      -22.04403              0
      5815.0000        -999.25        -999.25        -999.25        -999.25        -999.25         0.6179         0.6817        -999.25          0.781      -118.9646      -22.08775              0
      5815.5000        -999.25        -999.25        -999.25        -999.25        -999.25         0.6117         0.6861        -999.25         0.8926      -118.9353      -22.07157              0
      5816.0000        -999.25        -999.25        -999.25        -999.25        -999.25         0.6081         0.6621        -999.25         0.8516      -118.9059      -22.05528              0
      5816.5000        -999.25        -999.25        -999.25        -999.25        -999.25         0.6061         0.6296        -999.25         0.7335      -118.8766      -22.03911              0
      5817.0000        -999.25        -999.25        -999.25        -999.25        -999.25         0.6048         0.5861        -999.25         0.6172      -118.5663      -21.74192      0.0122895
      5817.5000        -999.25        -999.25        -999.25        -999.25        -999.25         0.6041         0.5384        -999.25         0.5518      -118.0875      -21.27625     0.03446452
      5818.0000        -999.25        -999.25        -999.25        -999.25        -999.25         0.6039         0.5289        -999.25          0.542      -117.3809      -20.58276     0.06748781
      5818.5000        -999.25        -999.25        -999.25        -999.25        -999.25         0.5973         0.5588        -999.25          0.597      -116.8914      -20.10638     0.09017218
      5819.0000        -999.25        -999.25        -999.25        -999.25        -999.25         0.5791         0.5915        -999.25         0.6605      -116.8146      -20.04269     0.09320504
      5819.5000        -999.25        -999.25        -999.25        -999.25        -999.25         0.5544          0.598        -999.25         0.7221      -117.3621      -20.60332      0.0665087
      5820.0000        -999.25        -999.25        -999.25        -999.25        -999.25          0.529         0.5801        -999.25         0.7567      -118.1343      -21.38863     0.02911268
      5820.5000        -999.25        -999.25        -999.25        -999.25        -999.25         0.4997         0.5339        -999.25         0.6896      -118.8466      -22.11405              0
      5821.0000        -999.25        -999.25        -999.25        -999.25        -999.25         0.4726         0.5015        -999.25         0.5854      -119.4019      -22.68247              0
      5821.5000        -999.25        -999.25        -999.25        -999.25        -999.25         0.4491         0.4776        -999.25         0.5314      -119.5613      -22.85499              0
      5822.0000        -999.25        -999.25        -999.25        -999.25        -999.25         0.4298          0.463        -999.25         0.4978       -119.444      -22.75081              0
