#------------------------------------------------------------------------------
# Created by    : vladimir.rabinovich
# Created on    : 09/19/2023 17:22:16
#------------------------------------------------------------------------------
~Version Information Section
VERS.           2.0     :   CWLS log ASCII Standard - VERSION 2.0
WRAP.           NO      :   One line per depth step
~Well Information Section
#MNEM       .UNIT                                         VALUE :DESCRIPTION
#------------------------------------------------------------------------------
STRT        .FT                                              10 :START DEPTH
STOP        .FT                                            7932 :STOP DEPTH
STEP        .FT                                             0.5 :STEP      
NULL        .                                           -999.25 :NULL      
COMP        .                                       ALLIED CORP :COMPANY   
WELL        .                               OCS G04069 ST00BP00 :WELL      
FLD         .                                           WILDCAT :FIELD     
LOC         .                                                   :LOCATION  
CNTY        .                             GALVESTON LARGE BLOCK :LOCATION  
STAT        .                                             TEXAS :STATE     
CTRY        .                                     UNITED STATES :COUNTRY   
SRVC        .                                                   :SERVICE COMPANY
DATE        .                             9/13/2023 11:18:53 AM :LOG DATE  
API         .                                    42706400790000 :API NUMBER
UWI         .                                    42706400790000 :UNIQUE WELL ID
XCOORD      .                                  993545.470392299 :SURFACE X 
YCOORD      .                                  10396443.6120929 :SURFACE Y 
LAT         .                                         28.633244 :LATITUDE  
LON         .                                        -95.016955 :LONGITUDE 
ELEV        .FT                                              82 :ELEVATION VALUE
ELEV_TYPE   .                                                KB :ELEVATION REFERENCE TYPE
~Curve Information Section
#MNEM       .UNIT                                      API CODE :CURVE DESCRIPTION
#------------------------------------------------------------------------------
DEPT        .FT                                                 :DEPTH     
CALI        .IN                                                 :          
CILD        .MMHO                                               :          
DPHI        .B                                                  :          
DRHO        .G/C3                                               :          
DT          .US/F                                               :          
GR          .GAPI                                               :          
GR_1        .GAPI                                               :          
GR_NORM     .GAPI                                               :GammaRay Normalized
ILD         .OHMM                                               :          
ILM         .OHMM                                               :          
NPHI        .%                                                  :          
SFL         .OHMM                                               :          
SP          .MV                                                 :          
SP_NORM     .MV                                                 :SP Normalized
VSH_GR      .V/V                                                :Volume of Shale from GR
VSH_SP      .V/V                                                :Volume of Shale from SP
~A        DEPTH           CALI           CILD           DPHI           DRHO             DT             GR           GR_1        GR_NORM            ILD            ILM           NPHI            SFL             SP        SP_NORM         VSH_GR         VSH_SP
# ...
      4378.0000        15.3919       1051.197        33.4136        -0.0685       134.5671        90.7885        88.7208       90.46462         0.9184         1.0078        46.7162         1.2062       -58.8726     -0.2169228              1      0.9969011
      4378.5000        15.3811       1041.879        31.5043         -0.059       134.2761         91.814        82.2205        91.7485         0.9384         1.0166        44.6259         1.2276       -58.1237      0.5297165              1              1
      4379.0000        15.3737       1032.449        30.1832        -0.0311       134.4617        91.9142         79.915       91.87576         0.9567         1.0219        44.2344         1.2458       -57.5618       1.089359              1              1
      4379.5000        15.3693       1023.019        30.4871        -0.0298        134.741        91.1135        79.2372       90.87691         0.9662         1.0265        45.1683         1.2498        -57.764      0.8848991              1              1
      4380.0000        15.3719        1013.59        31.6559        -0.0401       134.9072        90.3813        79.7881       89.96367         0.9766         1.0314        46.1266         1.2496       -57.9644      0.6822395              1              1
      4380.5000        15.3746       1012.295        32.0046        -0.0443       134.9294        86.5272        80.6205       85.14805         0.9874         1.0364        45.6438         1.2376        -57.991      0.6533813              1              1
      4381.0000        15.3781       1011.807         31.084        -0.0413       134.8096         82.599        81.3358        80.2398         0.9987         1.0385        42.4948         1.2348       -57.8448      0.7973213              1              1
      4381.5000        15.3816       1011.317         30.642        -0.0378       134.5186         80.968         79.731       78.20306         1.0114         1.0398        41.4413         1.2359       -57.1497       1.490162      0.9617673              1
      4382.0000        15.3818       1014.634        30.2385        -0.0391       134.0601        83.3566        77.9028       81.19083         1.0243         1.0294        42.7464         1.2359        -57.191       1.446602              1              1
      4382.5000        15.3778       1019.119        30.4551         -0.045       133.0823         88.886        76.1913       88.10459           1.03         1.0185        45.0134         1.2409       -57.9282      0.7071457              1              1
      4383.0000        15.3738       1023.608        31.2033        -0.0522       132.7234        91.2153        75.2201       91.01823         1.0341         1.0065        50.4055         1.2425       -59.1187      -0.485611              1      0.9930627
      4383.5000        15.3677       1028.373        31.5583        -0.0587       132.9631        89.3746        76.7238       88.71936         1.0358         0.9964        52.1254         1.2725       -59.8989      -1.268074              1      0.9818847
      4384.0000        15.3615       1034.137        31.7054        -0.0606       133.6477        85.4242        80.0144       83.78337         1.0177         0.9881        51.3463         1.2878       -60.1844      -1.555832              1      0.9777738
      4384.5000         15.355       1039.902        32.2008        -0.0639        134.717        85.1973        85.3051       83.50175         0.9998         0.9818        50.2557         1.2441       -60.4701      -1.843792              1      0.9736601
      4385.0000        15.3484       1044.771        33.8135        -0.0747       135.6292        88.5948        85.3284       87.75064          0.973         0.9783         50.191         1.2036       -59.9064      -1.282349              1      0.9816808
      4385.5000        15.3428       1048.576        34.7805        -0.0779       136.4771        92.6069         82.681       92.76778         0.9452         0.9753        51.9178          1.191       -59.2365     -0.6147079              1      0.9912184
      4386.0000        15.3508       1052.381        33.4616        -0.0672       136.5405        95.2631         83.175       96.09003         0.9235          0.974        53.4116         1.1898       -58.4457      0.1738281              1              1
      4386.5000        15.3589       1055.768         32.744        -0.0504       136.2976        96.9366        83.9456       98.18391         0.9044         0.9735        52.1912         1.1994       -57.6549      0.9623718              1              1
      4387.0000        15.3698       1055.785        33.4521        -0.0476       135.7939        95.9059        84.0593       96.89755         0.8981          0.975        47.3095         1.2091       -57.3364       1.278614              1              1
      4387.5000         15.381       1055.801        33.9611        -0.0525       135.2356        93.4113         85.121       93.78132         0.9077         0.9763        41.7814         1.2183       -57.1255       1.487255              1              1
      4388.0000        15.3882       1057.705        33.0893        -0.0449       135.2913        85.0591         86.532       83.34308         0.9175         0.9769        41.5555         1.2274       -57.2441       1.366394              1              1
      4388.5000        15.3939        1060.24        31.8373        -0.0335       135.3354        81.2666        87.2512       78.60446         0.9228         0.9787        41.9408         1.2354       -58.3661      0.2421341      0.9703077              1
      4389.0000        15.3966       1062.773        31.5376        -0.0298       135.3674         79.738        87.1173       76.69572         0.9245         0.9815        45.1574          1.236       -59.0644     -0.4584236      0.9296961      0.9934511
      4389.5000        15.3952       1068.254        32.4619        -0.0532       134.5354        78.6042        84.3456       75.28049         0.9263         0.9852        46.8668         1.2366       -59.3657      -0.761982      0.8995848      0.9891145
      4390.0000        15.3939       1075.689        33.2929        -0.0757       133.5742        77.8706        83.7418       74.36549         0.9096         0.9886        47.4709         1.2372       -58.5438     0.05765915      0.8801169              1
      4390.5000        15.3926       1083.285        31.9362        -0.0699       132.7974        77.8663        84.8142       74.36214         0.8863         0.9892        45.4948         1.2345       -57.4088       1.190399      0.8800455              1
      4391.0000        15.3913       1094.771        30.2552        -0.0571       132.3145        79.0867        85.1621       75.88963         0.8636         0.9894        44.0616         1.2305       -56.1775       2.419437      0.9125454              1
      4391.5000        15.3902        1106.26        29.7486         -0.046       132.3413        81.9304        84.0656       79.44627          0.851         0.9872        43.6938         1.2265       -55.3438       3.250881      0.9882184              1
      4392.0000        15.3837       1116.631        29.9371         -0.039       133.2339        82.7162         82.109       80.43053         0.8394         0.9839        44.6302         1.2106       -54.7683       3.824123              1              1
      4392.5000        15.3733       1124.016        31.9696        -0.0521       134.3162        81.0039        80.7778       78.29217          0.828         0.9777        47.1983         1.1696       -54.5402       4.049965      0.9636632              1
      4393.0000        15.3477       1131.402        34.4689        -0.0823       135.3804        78.9349        80.0743       75.70793         0.8451         0.9714        46.6334         1.1391       -54.4084       4.179501      0.9086794              1
      4393.5000        15.3329       1126.646         34.472        -0.0816       136.3066        76.5341        79.1046       72.70894         0.8679         0.9749         44.599         1.1403       -54.4314       4.154243       0.844871              1
