#------------------------------------------------------------------------------
# Created by    : vladimir.rabinovich
# Created on    : 09/19/2023 17:22:54
#------------------------------------------------------------------------------
~Version Information Section
VERS.           2.0     :   CWLS log ASCII Standard - VERSION 2.0
WRAP.           NO      :   One line per depth step
~Well Information Section
#MNEM       .UNIT                                         VALUE :DESCRIPTION
#------------------------------------------------------------------------------
STRT        .FT                                             494 :START DEPTH
STOP        .FT                                            6854 :STOP DEPTH
STEP        .FT                                             0.5 :STEP      
NULL        .                                           -999.25 :NULL      
COMP        .                          HUMBLE OIL & REFINING CO :COMPANY   
WELL        .                                     ST TR 00247-L :WELL      
FLD         .                                           WILDCAT :FIELD     
LOC         .                                                   :LOCATION  
CNTY        .                             GALVESTON LARGE BLOCK :LOCATION  
STAT        .                                             TEXAS :STATE     
CTRY        .                                     UNITED STATES :COUNTRY   
SRVC        .                                                   :SERVICE COMPANY
DATE        .                             9/13/2023 11:19:42 AM :LOG DATE  
API         .                                    42706000180000 :API NUMBER
UWI         .                                    42706000180000 :UNIQUE WELL ID
XCOORD      .                                  979775.061814126 :SURFACE X 
YCOORD      .                                  10543201.0009156 :SURFACE Y 
LAT         .                                        29.0361078 :LATITUDE  
LON         .                                       -95.0678326 :LONGITUDE 
ELEV        .FT                                              11 :ELEVATION VALUE
ELEV_TYPE   .                                                KB :ELEVATION REFERENCE TYPE
~Curve Information Section
#MNEM       .UNIT                                      API CODE :CURVE DESCRIPTION
#------------------------------------------------------------------------------
DEPT        .FT                                                 :DEPTH     
LAT         .OHMM                                               :          
LN          .OHMM                                               :          
SN          .OHMM                                               :          
SP          .MV                                                 :          
SP_NORM     .MV                                                 :SP Normalized
VSH_SP      .V/V                                                :Volume of Shale from SP
~A        DEPTH            LAT             LN             SN             SP        SP_NORM         VSH_SP
# ...
      5548.0000         0.5408         0.4447         0.4846        -48.072      -3.198841      0.9639534
      5548.5000         0.5681         0.4458         0.4797       -42.9924       1.873688              1
      5549.0000          0.623         0.4469          0.467       -40.0638       4.795223              1
      5549.5000         0.6445         0.4474         0.4543       -39.4877       5.364254              1
      5550.0000         0.6011         0.4456         0.4416       -42.5518       2.293087              1
      5550.5000         0.5578         0.4437          0.429       -51.0231      -6.185284      0.9149954
      5551.0000         0.5144         0.4419         0.4163       -59.5149      -14.68415      0.7756696
      5551.5000         0.4915           0.44         0.3995       -73.0502      -28.22652      0.5536636
      5552.0000         0.4764         0.4382         0.3764       -82.0391      -37.22249      0.4061887
      5552.5000         0.4613         0.4463         0.3533       -85.3743      -40.56475      0.3513975
      5553.0000         0.4461         0.4611         0.3302       -87.7311      -42.92862      0.3126455
      5553.5000         0.4709         0.4759         0.3071       -55.8497      -11.05429      0.8351756
      5554.0000         0.5113         0.4889         0.3255        -50.639      -5.850658       0.920481
      5554.5000         0.5517         0.4996         0.3739       -48.7805      -3.999226      0.9508324
      5555.0000         0.5817         0.5096         0.4222       -51.4118      -6.637596      0.9075804
      5555.5000         0.5563         0.4994         0.4706       -59.9081      -15.14096      0.7681809
      5556.0000         0.5309         0.4855         0.4999       -74.4241      -29.66403      0.5300978
      5556.5000         0.5069         0.4695         0.5023       -79.9738       -35.2208      0.4390033
      5557.0000         0.4857         0.4535         0.4844       -73.7643      -29.01836      0.5406826
      5557.5000         0.4645         0.4374         0.4665       -67.5592      -22.82033      0.6422896
      5558.0000         0.4432         0.4214         0.4487       -61.3497       -16.6179      0.7439688
      5558.5000          0.422         0.4054         0.4309       -57.0067      -12.28197      0.8150496
      5559.0000         0.4008          0.396         0.4158       -56.2384      -11.52074      0.8275288
      5559.5000         0.3862          0.388         0.4008       -78.0575      -33.34691      0.4697228
      5560.0000         0.4174         0.3801         0.3857       -83.2163      -38.51278      0.3850365
      5560.5000         0.4485         0.3721         0.3706        -80.272      -35.57555      0.4331878
      5561.0000         0.4653         0.3641         0.3556       -76.7493      -32.05991      0.4908212
      5561.5000         0.4561         0.3562         0.3405       -73.3756      -28.69328      0.5460117
      5562.0000         0.4469         0.3482         0.3255       -69.9996      -25.32435      0.6012401
      5562.5000         0.4376         0.3469         0.3114       -66.6193      -21.95112       0.656539
      5563.0000         0.4284         0.3666         0.2988       -66.1808      -21.51968      0.6636118
      5563.5000         0.4084         0.3863         0.2861       -88.3796      -43.72555      0.2995811
      5564.0000          0.385         0.3901         0.2734       -92.6594      -48.01242      0.2293046
      5564.5000         0.3615         0.3913         0.2607       -95.2308      -50.59089      0.1870347
      5565.0000         0.3381         0.3925          0.248       -94.4581      -49.82526       0.199586
      5565.5000         0.3196         0.3937           0.25       -90.4901      -45.86432      0.2645193
      5566.0000          0.311         0.3948         0.2986       -94.4672       -49.8485       0.199205
      5566.5000         0.3025          0.396         0.3473       -97.5741      -52.96246      0.1481565
      5567.0000         0.2939         0.3972         0.3814      -100.5365      -55.93193     0.09947661
      5567.5000         0.2853         0.3984         0.3971      -102.2629       -57.6654     0.07105906
      5568.0000         0.2767         0.3995         0.3721      -103.8405      -59.25006      0.0450809
      5568.5000         0.2681         0.4007          0.347      -104.0033      -59.41994     0.04229611
      5569.0000         0.2676          0.394          0.322      -104.1659       -59.5896      0.0395147
      5569.5000         0.2699         0.3863          0.297      -104.1809      -59.61167     0.03915293
      5570.0000         0.2723         0.3786         0.2719      -104.1791      -59.61694     0.03906656
      5570.5000         0.2746         0.3709         0.2462       -76.4487       -31.8936      0.4935475
      5571.0000          0.277         0.3632         0.2188       -68.8291      -24.28107      0.6183431
      5571.5000         0.3068         0.3555         0.1914       -62.8231      -18.28214      0.7166862
      5572.0000         0.3381         0.3479         0.1801       -58.8325      -14.29861        0.78199
      5572.5000         0.3694         0.3402         0.2141       -56.3333      -11.80648      0.8228446
      5573.0000         0.3845         0.3343         0.2481       -62.0412      -17.52145      0.7291566
      5573.5000         0.3734          0.344         0.2763       -81.8718      -37.35912      0.4039489
      5574.0000         0.3865         0.3538         0.2905       -91.0596      -46.55398      0.2532134
      5574.5000         0.4065         0.3636         0.3047       -93.6039      -49.10535      0.2113878
      5575.0000         0.4615         0.3734         0.3188       -95.4907      -50.99922      0.1803407
      5575.5000         0.5254         0.3831         0.3489       -70.4199      -25.93549      0.5912216
      5576.0000         0.5852          0.407         0.3853       -65.9548      -21.47746       0.664304
      5576.5000         0.5496         0.4435         0.4217       -62.1655      -17.69522      0.7263078
      5577.0000         0.5141         0.4799         0.4582       -59.0923      -14.62909      0.7765722
      5577.5000         0.4786         0.5052         0.4725       -57.4891      -13.03296      0.8027384
      5578.0000         0.4447         0.5217         0.4474       -57.3095      -12.86043      0.8055667
      5578.5000         0.4168         0.5355         0.4222       -59.8199       -15.3779      0.7642968
      5579.0000         0.3888         0.5446          0.397       -62.8773      -18.44236      0.7140596
      5579.5000         0.3609         0.5538         0.3719       -67.1886      -22.76073      0.6432667
      5580.0000         0.3329         0.5492         0.3467       -72.3633       -27.9425      0.5583197
      5580.5000          0.305          0.535         0.3931       -77.9536      -33.53987      0.4665596
      5581.0000         0.3075         0.5209         0.4436       -81.7227      -37.31604      0.4046552
      5581.5000         0.3311         0.5067         0.4941       -70.8086        -26.409       0.583459
      5582.0000         0.3547         0.4925         0.5378       -57.0881      -12.69557      0.8082693
      5582.5000         0.3783         0.4783         0.5634       -53.9223      -9.536839      0.8600518
      5583.0000         0.4131         0.4799         0.5371       -51.4276       -7.04921      0.9008327
      5583.5000         0.4549         0.4857         0.5109       -49.0098      -4.638477      0.9403529
      5584.0000         0.4967         0.4916         0.4847       -46.6168      -2.252544      0.9794665
      5584.5000         0.5278         0.4974         0.4584       -44.3504    0.006790161              1
      5585.0000          0.529         0.5004         0.4322       -42.6172       1.732922              1
      5585.5000         0.5303         0.4991         0.4121       -42.1741       2.168953              1
