#------------------------------------------------------------------------------
# Created by    : vladimir.rabinovich
# Created on    : 09/19/2023 17:20:36
#------------------------------------------------------------------------------
~Version Information Section
VERS.           2.0     :   CWLS log ASCII Standard - VERSION 2.0
WRAP.           NO      :   One line per depth step
~Well Information Section
#MNEM       .UNIT                                         VALUE :DESCRIPTION
#------------------------------------------------------------------------------
STRT        .FT                                             510 :START DEPTH
STOP        .FT                                            7943 :STOP DEPTH
STEP        .FT                                             0.5 :STEP      
NULL        .                                           -999.25 :NULL      
COMP        .                       BLUE DOLPHIN EXPLORATION CO :COMPANY   
WELL        .                                OCS 00709 ST00BP00 :WELL      
FLD         .                                FEDERAL BLOCK 0288 :FIELD     
LOC         .                                                   :LOCATION  
CNTY        .                             GALVESTON LARGE BLOCK :LOCATION  
STAT        .                                             TEXAS :STATE     
CTRY        .                                     UNITED STATES :COUNTRY   
SRVC        .                                                   :SERVICE COMPANY
DATE        .                             9/13/2023 11:19:25 AM :LOG DATE  
API         .                                    42706000400000 :API NUMBER
UWI         .                                    42706000400000 :UNIQUE WELL ID
XCOORD      .                                   1098851.8122004 :SURFACE X 
YCOORD      .                                  10485233.3471489 :SURFACE Y 
LAT         .                                         28.881916 :LATITUDE  
LON         .                                        -94.692672 :LONGITUDE 
ELEV        .FT                                              93 :ELEVATION VALUE
ELEV_TYPE   .                                                KB :ELEVATION REFERENCE TYPE
~Curve Information Section
#MNEM       .UNIT                                      API CODE :CURVE DESCRIPTION
#------------------------------------------------------------------------------
DEPT        .FT                                                 :DEPTH     
ASN         .OHMM                                               :          
GR          .GAPI                                               :          
ILD         .OHMM                                               :          
NEUT        .NAPI                                               :          
SP          .MV                                                 :          
SP_NORM     .MV                                                 :SP Normalized
VSH_SP      .V/V                                                :Volume of Shale from SP
~A        DEPTH            ASN             GR            ILD           NEUT             SP        SP_NORM         VSH_SP
# ...
      5937.0000         0.8519        -999.25         0.3348        -999.25      -110.0533      -58.83379              0
      5937.5000         0.8303        -999.25         0.3394        -999.25      -112.8182      -61.59869              0
      5938.0000         0.7711        -999.25          0.362        -999.25      -115.4453      -64.22578              0
      5938.5000         0.7008        -999.25         0.3953        -999.25      -114.9796      -63.76009              0
      5939.0000         0.6346        -999.25         0.4496        -999.25      -110.3428      -59.12328              0
      5939.5000          0.577        -999.25         0.5171        -999.25       -98.8669      -47.64738      0.1029349
      5940.0000         0.5707        -999.25         0.6077        -999.25       -81.3594      -30.13988      0.4396176
      5940.5000         0.6169        -999.25         0.6898        -999.25       -63.8699      -12.65039      0.7759541
      5941.0000         0.6965        -999.25         0.7696        -999.25       -57.3317      -6.112186      0.9016887
      5941.5000         0.7518        -999.25         0.8337        -999.25       -55.8594      -4.639889      0.9300022
      5942.0000         0.7925        -999.25         0.8825        -999.25       -56.6523      -5.432789       0.914754
      5942.5000          0.805        -999.25         0.8864        -999.25       -57.1746      -5.955086      0.9047099
      5943.0000         0.7975        -999.25          0.865        -999.25       -56.7292      -5.509686      0.9132753
      5943.5000          0.781        -999.25         0.8321        -999.25       -56.0736      -4.854088      0.9258829
      5944.0000         0.7605        -999.25         0.7966        -999.25       -55.1354      -3.915886      0.9439253
      5944.5000         0.7395        -999.25         0.7617        -999.25       -53.8354      -2.615887      0.9689252
      5945.0000         0.7211        -999.25         0.7279        -999.25       -52.8158      -1.596287       0.988533
      5945.5000         0.7092        -999.25         0.6968        -999.25       -52.1461     -0.9265862              1
      5946.0000         0.7094        -999.25         0.6599        -999.25       -51.6877     -0.4681854              1
      5946.5000         0.7272        -999.25         0.6246        -999.25       -52.3942      -1.174686      0.9966406
      5947.0000         0.7469        -999.25         0.5923        -999.25        -56.025      -4.805489      0.9268175
      5947.5000         0.7669        -999.25         0.5667        -999.25       -63.1375      -11.91799      0.7900387
      5948.0000          0.778        -999.25          0.548        -999.25       -71.1316      -19.91209       0.636306
      5948.5000          0.762        -999.25         0.5368        -999.25       -78.9403      -27.72079      0.4861387
      5949.0000         0.7443        -999.25         0.5396        -999.25       -78.7686      -27.54909      0.4894406
      5949.5000         0.7531        -999.25         0.5408        -999.25       -73.2432      -22.02369      0.5956983
      5950.0000         0.7985        -999.25         0.5325        -999.25       -73.3042      -22.08469      0.5945253
      5950.5000         0.8064        -999.25         0.5219        -999.25       -79.1122      -27.89268       0.482833
      5951.0000         0.7851        -999.25         0.5089        -999.25       -88.6211      -37.40159      0.2999695
      5951.5000         0.7425        -999.25         0.4942        -999.25       -96.5067      -45.28719      0.1483234
      5952.0000         0.6913        -999.25         0.4761        -999.25       -97.7592      -46.53969      0.1242368
      5952.5000         0.6507        -999.25         0.4551        -999.25         -90.71      -39.49049      0.2597983
      5953.0000         0.6204        -999.25         0.4396        -999.25       -85.2593      -34.03979      0.3646195
      5953.5000         0.6042        -999.25         0.4278        -999.25       -85.4628      -34.24329       0.360706
      5954.0000         0.6041        -999.25         0.4168        -999.25       -89.2676      -38.04809      0.2875368
      5954.5000         0.6137        -999.25         0.4062        -999.25       -95.7561      -44.53659      0.1627579
      5955.0000         0.5931        -999.25         0.3945        -999.25       -94.6031      -43.38359       0.184931
      5955.5000         0.5509        -999.25         0.3814        -999.25       -93.1494      -41.92989      0.2128868
      5956.0000         0.5392        -999.25         0.3728        -999.25       -83.5208      -32.30128      0.3980522
      5956.5000         0.5657        -999.25         0.3703        -999.25       -78.5198      -27.30029      0.4942253
      5957.0000         0.6368        -999.25         0.3769        -999.25       -82.0376      -30.81808      0.4265753
      5957.5000         0.7145        -999.25         0.3932        -999.25       -90.3212      -39.10168      0.2672753
      5958.0000         0.7313        -999.25         0.4137        -999.25       -99.0161      -47.79659      0.1000657
      5958.5000         0.6992        -999.25         0.4411        -999.25      -100.6394      -49.41988     0.06884839
      5959.0000         0.6478        -999.25         0.4686        -999.25       -96.2626      -45.04309      0.1530175
      5959.5000         0.6114        -999.25         0.5003        -999.25       -86.3512      -35.13168      0.3436215
      5960.0000         0.6147        -999.25         0.5296        -999.25       -70.9417      -19.72219      0.6399578
      5960.5000         0.6361        -999.25         0.5184        -999.25       -66.3839      -15.16439      0.7276078
      5961.0000          0.664        -999.25         0.5023        -999.25        -69.011      -17.79149      0.6770868
      5961.5000         0.6875        -999.25         0.4773        -999.25       -77.2538      -26.03429      0.5185714
      5962.0000         0.7076        -999.25         0.4543        -999.25       -90.5472      -39.32769       0.262929
      5962.5000          0.722        -999.25         0.4314        -999.25        -97.601      -46.38148      0.1272791
      5963.0000         0.7153        -999.25         0.4081        -999.25      -100.5524      -49.33289     0.07052143
      5963.5000          0.693        -999.25         0.4219        -999.25        -99.188      -47.96849      0.0967598
      5964.0000          0.679        -999.25         0.4544        -999.25       -90.1312      -38.91169       0.270929
      5964.5000         0.7218        -999.25         0.4868        -999.25        -81.902      -30.68249      0.4291829
      5965.0000         0.7513        -999.25         0.5193        -999.25       -78.5153      -27.29578      0.4943118
      5965.5000         0.7351        -999.25         0.5517        -999.25       -78.9313      -27.71178      0.4863119
      5966.0000         0.7071        -999.25         0.5862        -999.25       -74.5227      -23.30318      0.5710926
      5966.5000          0.684        -999.25         0.6216        -999.25       -66.0674      -14.84789      0.7336945
      5967.0000         0.6753        -999.25         0.6555        -999.25       -56.4093      -5.189789      0.9194272
      5967.5000         0.6851        -999.25         0.6874        -999.25       -51.3181    -0.09858704              1
      5968.0000         0.7026        -999.25         0.7063        -999.25       -49.0391       2.180412              1
      5968.5000          0.722        -999.25         0.7131        -999.25       -48.0161       3.203411              1
      5969.0000         0.7416        -999.25         0.7124        -999.25       -47.3961       3.823414              1
      5969.5000         0.7555        -999.25         0.7097        -999.25       -47.1512       4.068314              1
      5970.0000         0.7677        -999.25         0.7061        -999.25       -47.2755       3.944012              1
