#------------------------------------------------------------------------------
# Created by    : vladimir.rabinovich
# Created on    : 09/19/2023 17:22:50
#------------------------------------------------------------------------------
~Version Information Section
VERS.           2.0     :   CWLS log ASCII Standard - VERSION 2.0
WRAP.           NO      :   One line per depth step
~Well Information Section
#MNEM       .UNIT                                         VALUE :DESCRIPTION
#------------------------------------------------------------------------------
STRT        .FT                                            1142 :START DEPTH
STOP        .FT                                           15630 :STOP DEPTH
STEP        .FT                                             0.5 :STEP      
NULL        .                                           -999.25 :NULL      
COMP        .                                     PRIMARY FUELS :COMPANY   
WELL        .                                ST TR 00520-L SE/4 :WELL      
FLD         .                                          EL GORDO :FIELD     
LOC         .                                                   :LOCATION  
CNTY        .                      MATAGORDA ISLAND LARGE BLOCK :LOCATION  
STAT        .                                             TEXAS :STATE     
CTRY        .                                     UNITED STATES :COUNTRY   
SRVC        .                                                   :SERVICE COMPANY
DATE        .                             9/13/2023 11:19:05 AM :LOG DATE  
API         .                                    42703303520000 :API NUMBER
UWI         .                                    42703303520000 :UNIQUE WELL ID
XCOORD      .                                  629148.716839967 :SURFACE X 
YCOORD      .                                   10306131.761235 :SURFACE Y 
LAT         .                                        28.3634759 :LATITUDE  
LON         .                                       -96.1446235 :LONGITUDE 
ELEV        .FT                                             101 :ELEVATION VALUE
ELEV_TYPE   .                                                KB :ELEVATION REFERENCE TYPE
~Curve Information Section
#MNEM       .UNIT                                      API CODE :CURVE DESCRIPTION
#------------------------------------------------------------------------------
DEPT        .FT                                                 :DEPTH     
DT          .US/F                                               :          
ILD         .OHMM                                               :          
SP          .MV                                                 :          
SP_NORM     .MV                                                 :SP Normalized
VSH_SP      .V/V                                                :Volume of Shale from SP
~A        DEPTH             DT            ILD             SP        SP_NORM         VSH_SP
# ...
      3078.0000       152.6682          0.823        93.7744      -1.416779      0.9780643
      3078.5000       153.1584         0.8054        94.1335      -1.062012      0.9967362
      3079.0000       153.6582          0.817        94.7903     -0.4095459              1
      3079.5000       154.2178          0.832        95.3441      0.1399231              1
      3080.0000       152.4888          0.854        95.8071       0.598587              1
      3080.5000       149.2495         0.8851        96.1885      0.9756546              1
      3081.0000       146.0105         0.9387        96.4863       1.269119              1
      3081.5000       142.4343         0.9996        96.5812       1.359688              1
      3082.0000       138.7546         1.0811         96.323       1.097153              1
      3082.5000        135.709         1.1681        96.0184      0.7882233              1
      3083.0000       132.8931         1.2598        95.5403      0.3057861              1
      3083.5000       130.3279         1.3344        95.0221     -0.2167435              1
      3084.0000       128.0444          1.341        94.4923     -0.7508774              1
      3084.5000       126.8412         1.2752        93.7614      -1.486115       0.974415
      3085.0000       125.6378         1.1928        92.8987      -2.353149      0.9287816
      3085.5000       124.4203         1.0742        91.9783      -3.277878      0.8801117
      3086.0000       123.1989         0.9441        90.8625       -4.39801      0.8211573
      3086.5000       122.6718         0.8311        89.5503      -5.714546       0.751866
      3087.0000       122.8101         0.7328        87.2216      -8.047577      0.6290749
      3087.5000       126.7083         0.6626        85.2948      -9.978706      0.5274365
      3088.0000       129.7625         0.6023        83.3167      -11.96114      0.4230981
      3088.5000       133.6145         0.5169        81.5096      -13.77258      0.3277592
      3089.0000       132.2939         0.4536        80.0925      -15.19401      0.2529469
      3089.5000       126.7344         0.4053        78.9254      -16.36544      0.1912926
      3090.0000       121.1449         0.3632         78.152      -17.14317      0.1503593
      3090.5000       119.0486         0.3313         77.538      -17.76151      0.1178155
      3091.0000       119.9535         0.3132        77.0575      -18.24634     0.09229801
      3091.5000       121.0314         0.3094        76.6422      -18.66598     0.07021171
      3092.0000       121.3147         0.3185        76.0685      -19.24401      0.0397889
      3092.5000       120.3499         0.3323        75.5917      -19.72514     0.01446613
      3093.0000       119.8905         0.3524        75.7645      -19.55667      0.0233331
      3093.5000       119.6122         0.3763        76.3561      -18.96941     0.05424178
      3094.0000       119.4094         0.4066        77.3894      -17.94044      0.1083976
      3094.5000       119.5647         0.4381        78.3959      -16.93828      0.1611433
      3095.0000       120.3767         0.4698        79.3057      -16.03281      0.2087997
      3095.5000       121.5269         0.4993          80.14      -15.20284       0.252482
      3096.0000       123.1895         0.5283        80.2728      -15.07438      0.2592432
      3096.5000       124.9344         0.5437        79.5353      -15.81621      0.2201996
      3097.0000       123.5602         0.5301        78.6605      -16.69534      0.1739293
      3097.5000        121.902         0.4819         77.946      -17.41418       0.136096
      3098.0000       120.6176         0.4232        77.3978      -17.96671      0.1070151
      3098.5000       119.7717          0.391        76.8413      -18.52754     0.07749778
      3099.0000       120.5526         0.3622         76.245      -19.12817     0.04588559
      3099.5000       122.0905         0.3417        75.7161      -19.66141     0.01782066
      3100.0000       123.6558         0.3236        75.5007      -19.88114    0.006255702
      3100.5000       125.2552         0.3162        76.0651      -19.32108     0.03573287
      3101.0000       126.5579         0.3161        77.0956      -18.29491     0.08974176
      3101.5000       127.4235         0.3273        79.0898      -16.30504      0.1944717
      3102.0000       126.7618         0.3433         81.557      -13.84217      0.3240963
      3102.5000       124.7684         0.3903        84.2228       -11.1807      0.4641736
      3103.0000       123.1976         0.4518        86.9446      -8.463234      0.6071982
      3103.5000       124.5476         0.5277        89.4218      -5.990372      0.7373489
      3104.0000       126.0785         0.6394        91.3562      -4.060303      0.8389314
      3104.5000       127.3898         0.7922        92.8357      -2.585136      0.9165718
      3105.0000       128.2703         0.9616          93.72       -1.70517      0.9628858
      3105.5000       128.6116         1.1137        93.8225      -1.607002      0.9680525
      3106.0000       128.8313         1.2174        93.9915      -1.442337      0.9767191
      3106.5000       128.8457          1.293        94.2156      -1.222572      0.9882857
      3107.0000        128.874         1.3391        94.5736     -0.8689041              1
      3107.5000       128.9253         1.3498        94.9315     -0.5153351              1
      3108.0000       128.8474         1.3315        94.7986     -0.6525726              1
      3108.5000       128.4338         1.3134        94.6108     -0.8447037              1
      3109.0000       127.6906         1.2606        93.9719      -1.487938       0.974319
      3109.5000       125.8082         1.1826         93.241      -2.223175      0.9356224
      3110.0000       122.4006         1.0274          92.49      -2.978508       0.895868
      3110.5000       118.8132         0.9079        91.7068      -3.766037      0.8544191
      3111.0000       115.5929         0.8135        90.9237      -4.553474       0.812975
      3111.5000       114.2295         0.7408        89.1622      -6.319305      0.7200366
      3112.0000       114.4829          0.678        87.2141      -8.271736       0.617277
      3112.5000       114.6361         0.6086        85.2186      -10.27158      0.5120223
      3113.0000       114.0604         0.5458        83.6636      -11.83091      0.4299521
      3113.5000       113.3811          0.488        82.3208      -13.17804      0.3590505
      3114.0000       116.2145         0.4554        81.1792      -14.32397      0.2987382
      3114.5000       123.7837         0.4295        80.7549       -14.7526      0.2761789
      3115.0000        128.417          0.412        80.6392      -14.87263      0.2698613
      3115.5000       131.4426         0.3992        80.7396      -14.77657      0.2749176
      3116.0000       127.1289         0.3884        80.3202       -15.2003      0.2526157
      3116.5000       122.7102         0.3869        79.8292      -15.69563      0.2265456
      3117.0000       119.4424         0.3854         79.333      -16.19617      0.2002017
      3117.5000       116.6888         0.3985        79.0165        -16.517      0.1833159
      3118.0000       115.3569          0.412        79.7899      -15.74793       0.223793
      3118.5000       116.5397          0.426        80.5634      -14.97877      0.2642754
      3119.0000       117.5001         0.4408        80.9236       -14.6229      0.2830051
      3119.5000       118.4607         0.4561        80.5967      -14.95413       0.265572
      3120.0000       118.7069         0.4718        79.9207      -15.63447      0.2297648
      3120.5000       116.9235         0.4811        79.4418       -16.1177      0.2043317
      3121.0000       114.6193         0.4907         79.519      -16.04484      0.2081664
      3121.5000        113.348         0.4971        80.2004      -15.36777      0.2438017
