#------------------------------------------------------------------------------
# Created by    : vladimir.rabinovich
# Created on    : 09/19/2023 17:19:45
#------------------------------------------------------------------------------
~Version Information Section
VERS.           2.0     :   CWLS log ASCII Standard - VERSION 2.0
WRAP.           NO      :   One line per depth step
~Well Information Section
#MNEM       .UNIT                                         VALUE :DESCRIPTION
#------------------------------------------------------------------------------
STRT        .FT                                            3127 :START DEPTH
STOP        .FT                                           13892 :STOP DEPTH
STEP        .FT                                             0.5 :STEP      
NULL        .                                           -999.25 :NULL      
COMP        .                                       MONSANTO CO :COMPANY   
WELL        .                                     ST TR 00010-L :WELL      
FLD         .                                           WILDCAT :FIELD     
LOC         .                                                   :LOCATION  
CNTY        .                           HIGH ISLAND LARGE BLOCK :LOCATION  
STAT        .                                             TEXAS :STATE     
CTRY        .                                     UNITED STATES :COUNTRY   
SRVC        .                                                   :SERVICE COMPANY
DATE        .                             9/13/2023 11:19:15 AM :LOG DATE  
API         .                                    42708300750000 :API NUMBER
UWI         .                                    42708300750000 :UNIQUE WELL ID
XCOORD      .                                  1327265.43976741 :SURFACE X 
YCOORD      .                                  10725214.5969587 :SURFACE Y 
LAT         .                                        29.5491158 :LATITUDE  
LON         .                                       -93.9851741 :LONGITUDE 
ELEV        .FT                                              54 :ELEVATION VALUE
ELEV_TYPE   .                                                KB :ELEVATION REFERENCE TYPE
~Curve Information Section
#MNEM       .UNIT                                      API CODE :CURVE DESCRIPTION
#------------------------------------------------------------------------------
DEPT        .FT                                                 :DEPTH     
ASFL        .OHMM                                               :          
CILD        .MMHO                                               :          
ILD         .OHMM                                               :          
SP          .MV                                                 :          
SP_NORM     .MV                                                 :SP Normalized
VSH_SP      .V/V                                                :Volume of Shale from SP
~A        DEPTH           ASFL           CILD            ILD             SP        SP_NORM         VSH_SP
# ...
      3849.0000         0.9488        1480.58        -999.25       -45.3896     -0.8761444              1
      3849.5000         0.8837       1495.207        -999.25       -44.9973      -0.481926              1
      3850.0000         0.8298       1501.354        -999.25       -44.6919     -0.1746063              1
      3850.5000         0.8145       1491.961        -999.25       -44.5844    -0.06518936              1
      3851.0000         0.8026       1482.566        -999.25        -44.477     0.04413223              1
      3851.5000         0.8008       1473.174        -999.25       -44.4667     0.05635071              1
      3852.0000          0.799       1463.775        -999.25       -44.5276   -0.002628326              1
      3852.5000         0.7972       1459.621        -999.25       -44.9057     -0.3788071              1
      3853.0000         0.7953       1491.779        -999.25       -45.4744     -0.9455872              1
      3853.5000         0.7945       1524.262        -999.25       -46.0432       -1.51247      0.9936732
      3854.0000         0.7939       1556.916        -999.25       -46.6119       -2.07925      0.9866759
      3854.5000         0.7933       1589.547        -999.25        -46.228      -1.693428      0.9914392
      3855.0000         0.7927        1618.34        -999.25       -45.7256       -1.18911      0.9976653
      3855.5000         0.7921       1644.242        -999.25       -45.2232     -0.6847916              1
      3856.0000         0.7915       1670.143        -999.25       -44.7208     -0.1804657              1
      3856.5000          0.791       1696.029        -999.25       -44.2188       0.323452              1
      3857.0000         0.7904       1692.939        -999.25       -44.5513   -0.007129669              1
      3857.5000         0.7898       1683.664        -999.25       -45.0323     -0.4862061              1
      3858.0000         0.7893       1674.395        -999.25       -45.1822     -0.6341896              1
      3858.5000         0.7888       1663.797        -999.25       -45.2892     -0.7392693              1
      3859.0000         0.7882       1653.082        -999.25       -45.3963     -0.8444519              1
      3859.5000         0.7877       1652.684        -999.25       -45.4811     -0.9273262              1
      3860.0000         0.7884        1667.41        -999.25       -45.5488     -0.9931107              1
      3860.5000         0.7917       1682.123        -999.25       -47.6213       -3.06369      0.9745224
      3861.0000         0.7951       1709.143        -999.25       -50.2388      -5.679268      0.9422312
      3861.5000         0.7984       1769.783        -999.25       -53.1143      -8.552849       0.906755
      3862.0000         0.8018       1830.426        -999.25       -56.0597      -11.49633      0.8704157
      3862.5000         0.8138       1864.422        -999.25       -59.1248      -14.55951      0.8325986
      3863.0000          0.831       1893.947        -999.25        -70.958      -26.39079      0.6865335
      3863.5000         0.8482       1923.449        -999.25       -75.5079      -30.93877      0.6303856
      3864.0000         0.8655       1987.768        -999.25       -78.3059      -33.73485       0.595866
      3864.5000         0.9574       2132.008        -999.25       -80.5717      -35.99873      0.5679169
      3865.0000          1.044       2140.172        -999.25       -82.6956      -38.12071      0.5417196
      3865.5000         1.1102       2148.336        -999.25       -84.7015      -40.12469      0.5169791
      3866.0000         1.1603       2141.344        -999.25       -87.3098      -42.73107      0.4848016
      3866.5000         1.2118       2127.352        -999.25       -91.3945      -46.81385      0.4343969
      3867.0000         1.2642       2113.359        -999.25       -92.6213      -48.03873      0.4192749
      3867.5000         1.2929       2099.375        -999.25       -93.5985      -49.01402      0.4072344
      3868.0000         1.3206       2085.383        -999.25       -92.6375      -48.05109      0.4191224
      3868.5000         1.3324       2058.961        -999.25       -91.6764      -47.08807      0.4310115
      3869.0000          1.331       2018.535        -999.25       -90.3557      -45.76545      0.4473401
      3869.5000         1.2975       1978.131        -999.25       -88.8148      -44.22263      0.4663873
      3870.0000         1.2637       1958.252        -999.25       -87.2749      -42.68081      0.4854221
      3870.5000         1.2254       1938.473        -999.25       -85.7349      -41.13889      0.5044581
      3871.0000         1.1636        1924.74        -999.25       -88.4574      -43.85947      0.4708707
      3871.5000         1.1089       1970.682        -999.25       -93.0662      -48.46635      0.4139957
      3872.0000         1.0679       2086.801        -999.25       -99.3512      -54.74943      0.3364268
      3872.5000         1.0524       2186.578        -999.25      -105.6362      -61.03251      0.2588579
      3873.0000         1.0369       2278.113        -999.25      -111.9213       -67.3157      0.1812877
      3873.5000         1.0214       2450.352        -999.25      -114.7672      -70.15967      0.1461769
      3874.0000          1.011       2567.066        -999.25      -116.8708      -72.26135      0.1202302
      3874.5000         1.0046        2704.84        -999.25      -117.8204      -73.20903      0.1085305
      3875.0000         0.9982       2892.574        -999.25      -118.7368      -74.12351     0.09724059
      3875.5000         0.9936       3080.211        -999.25      -118.9036      -74.28839     0.09520505
      3876.0000         1.0119       3267.949        -999.25      -118.1156      -73.49847      0.1049571
      3876.5000         1.0301       3328.527        -999.25      -117.3541      -72.73506       0.114382
      3877.0000         1.0638       3225.535        -999.25      -117.0007      -72.37973      0.1187688
      3877.5000         1.1348        3107.43        -999.25      -116.6473      -72.02441      0.1231554
      3878.0000         1.1955       2989.324        -999.25      -116.2938      -71.66899      0.1275433
      3878.5000         1.2427       2871.121        -999.25      -116.7576      -72.13087      0.1218411
      3879.0000         1.2534       2753.016        -999.25       -117.674      -73.04536      0.1105511
      3879.5000         1.2641        2812.02        -999.25      -118.3008      -73.67023      0.1028367
      3880.0000         1.2624       2937.574        -999.25       -118.928      -74.29552     0.09511708
      3880.5000         1.2572       3063.227        -999.25      -119.5547       -74.9203     0.08740376
      3881.0000         1.2472       3188.781        -999.25      -120.1819      -75.54558     0.07968422
      3881.5000         1.2314       3262.883        -999.25      -120.8087      -76.17046     0.07196968
      3882.0000         1.2157       3321.191        -999.25      -121.4359      -76.79573     0.06425024
      3882.5000         1.1999       3547.367        -999.25      -121.9415      -77.29941       0.058032
      3883.0000         1.1842       3662.891        -999.25      -122.4313      -77.78729     0.05200873
      3883.5000         1.1684       3704.016        -999.25       -122.921      -78.27507     0.04598679
      3884.0000         1.1526       3733.492        -999.25      -123.4108      -78.76295     0.03996352
      3884.5000         1.1436       3756.262        -999.25      -123.9005      -79.25073     0.03394157
      3885.0000         1.1351       3772.539        -999.25      -124.3035      -79.65181        0.02899
      3885.5000         1.1267       3781.379        -999.25       -124.644      -79.99039     0.02481004
      3886.0000         1.1245       3788.621        -999.25      -124.9846      -80.32907     0.02062875
      3886.5000         1.1411       3784.281        -999.25      -125.3252      -80.66776     0.01644747
