#------------------------------------------------------------------------------
# Created by    : vladimir.rabinovich
# Created on    : 09/19/2023 17:22:39
#------------------------------------------------------------------------------
~Version Information Section
VERS.           2.0     :   CWLS log ASCII Standard - VERSION 2.0
WRAP.           NO      :   One line per depth step
~Well Information Section
#MNEM       .UNIT                                         VALUE :DESCRIPTION
#------------------------------------------------------------------------------
STRT        .FT                                            3493 :START DEPTH
STOP        .FT                                            8566 :STOP DEPTH
STEP        .FT                                             0.5 :STEP      
NULL        .                                           -999.25 :NULL      
COMP        .                          SEAGULL ENERGY E & P INC :COMPANY   
WELL        .                               OCS G09038 ST00BP00 :WELL      
FLD         .                                           WILDCAT :FIELD     
LOC         .                                                   :LOCATION  
CNTY        .                             GALVESTON LARGE BLOCK :LOCATION  
STAT        .                                             TEXAS :STATE     
CTRY        .                                     UNITED STATES :COUNTRY   
SRVC        .                                                   :SERVICE COMPANY
DATE        .                             9/13/2023 11:19:36 AM :LOG DATE  
API         .                                    42706402070000 :API NUMBER
UWI         .                                    42706402070000 :UNIQUE WELL ID
XCOORD      .                                  986976.405819811 :SURFACE X 
YCOORD      .                                  10491452.3738699 :SURFACE Y 
LAT         .                                         28.894171 :LATITUDE  
LON         .                                        -95.042508 :LONGITUDE 
ELEV        .FT                                              93 :ELEVATION VALUE
ELEV_TYPE   .                                                KB :ELEVATION REFERENCE TYPE
~Curve Information Section
#MNEM       .UNIT                                      API CODE :CURVE DESCRIPTION
#------------------------------------------------------------------------------
DEPT        .FT                                                 :DEPTH     
DCAL        .IN                                                 :          
DPHI        .%                                                  :          
DRHO        .G/C3                                               :          
GR          .GAPI                                               :          
GR_NORM     .GAPI                                               :GammaRay Normalized
ILD         .OHMM                                               :          
ILM         .OHMM                                               :          
NPHI        .%                                                  :          
SGRD        .OHMM                                               :          
SP          .MV                                                 :          
SP_NORM     .MV                                                 :SP Normalized
VSH_GR      .V/V                                                :Volume of Shale from GR
VSH_SP      .V/V                                                :Volume of Shale from SP
~A        DEPTH           DCAL           DPHI           DRHO             GR        GR_NORM            ILD            ILM           NPHI           SGRD             SP        SP_NORM         VSH_GR         VSH_SP
# ...
      7198.0000          0.464        21.6971         0.0643        75.6033       68.90009         0.9183         0.9386          44.94         1.0911       -46.8864       1.139999      0.7638316              1
      7198.5000         0.4303         21.996         0.0642        79.6262       73.36997         0.9122         0.9262        45.0723         1.0894       -46.8274        1.19305      0.8589356              1
      7199.0000          0.386        22.2654         0.0641         82.368       76.41641         0.9058         0.9129        44.9028         1.0933       -46.8938       1.120705      0.9237534              1
      7199.5000         0.3651        22.3905         0.0641        81.2844       75.21242          0.898         0.9025        44.5694         1.0986       -47.1718      0.8367577      0.8981366              1
      7200.0000         0.3576        22.2647         0.0648        85.8291       80.26208         0.8899         0.8934        45.5596         1.1049       -47.3937      0.6089096              1              1
      7200.5000         0.3588        21.9395         0.0655        87.1127       81.68831          0.882          0.885        45.9554         1.1022       -47.5955       0.401165              1              1
      7201.0000         0.3607        21.8518         0.0653         87.955        82.6242         0.8753         0.8784        46.0762         1.0817       -48.0707    -0.07998276              1      0.9988574
      7201.5000         0.3668        22.3558         0.0649        87.9537       82.62275         0.8689         0.8731        46.6158          1.055       -48.4526     -0.4678268              1      0.9933168
      7202.0000         0.3693        22.8479         0.0637        90.1588       85.07286         0.8634         0.8683         47.276         1.0558       -48.6003     -0.6214752              1      0.9911218
      7202.5000         0.3664        23.3214         0.0628        92.8794       88.09576         0.8579         0.8611        47.6583         1.0594       -48.1279     -0.1550217              1      0.9977854
      7203.0000         0.3571        23.7291         0.0619        95.1624       90.63242         0.8526         0.8537        47.6083         1.0604       -47.6307      0.3362312              1              1
      7203.5000         0.3462         23.894         0.0605        95.7609       91.29742         0.8469         0.8474        47.2273         1.0587       -47.3198      0.6411819              1              1
      7204.0000         0.3417        23.6522         0.0596        94.8531       90.28876          0.841         0.8411         46.876         1.0545       -47.0502      0.9048386              1              1
      7204.5000         0.3388        23.3333         0.0626        94.3522        89.7322         0.8327         0.8343        46.5542         1.0466       -46.7318       1.217293              1              1
      7205.0000         0.3382        23.1815         0.0673        93.8524       89.17686          0.824         0.8288        46.2215         1.0352       -46.2723       1.670845              1              1
      7205.5000         0.3389         23.165         0.0714        92.0992       87.22886         0.8132          0.823        45.9658         1.0245       -45.8851       2.052097              1              1
      7206.0000         0.3399        23.0363         0.0739        91.3707       86.41942         0.8024         0.8166        46.1009         1.0214       -45.6173       2.313953              1              1
      7206.5000         0.3414        22.9438         0.0735        90.1035       85.01142         0.7917         0.8081        46.2715         1.0212       -45.4423       2.483006              1              1
      7207.0000         0.3465        23.5042         0.0713        89.3511       84.17542         0.7801         0.7988        46.5326         1.0218       -45.4011       2.518261              1              1
      7207.5000         0.3543        23.9882         0.0673        88.1398       82.82953         0.7694         0.7895        46.8749         1.0215       -45.3748       2.538612              1              1
      7208.0000          0.373        24.4951         0.0621        86.3043       80.79008         0.7603         0.7802        47.1574         1.0182       -45.4033       2.504166              1              1
      7208.5000          0.388        24.6342         0.0571        86.0881       80.54986           0.75          0.769         46.824         1.0111       -45.5562       2.345322              1              1
      7209.0000         0.3906        24.3335         0.0528        86.2666        80.7482         0.7393         0.7561        46.0539          1.006       -45.7292       2.166374              1              1
      7209.5000         0.3938        24.0999         0.0533        85.8945       80.33475         0.7301         0.7427        46.0056         0.9976       -45.9376       1.952026              1              1
      7210.0000         0.3971        23.9501         0.0545        88.3737       83.08942         0.7208           0.73        47.0537         0.9869       -46.2645       1.619179              1              1
      7210.5000          0.402        24.0439         0.0555        90.4681       85.41653          0.712         0.7193        47.8929         0.9734       -46.7236       1.154137              1              1
      7211.0000          0.411        24.5219         0.0558        90.2468       85.17065         0.7061          0.711          48.64         0.9506       -47.2214      0.6503868              1              1
      7211.5000          0.402         25.098          0.054         89.705       84.56864         0.7007         0.7059        49.4562         0.9325       -47.7891     0.07674026              1              1
      7212.0000         0.4349        25.6674         0.0513        91.7529       86.84409         0.7008         0.7011        49.8541         0.9262       -48.4271     -0.5672073              1       0.991897
      7212.5000         0.4654        26.0272         0.0482        94.4005       89.78586         0.7028         0.7133        49.4867         0.9332       -48.8775      -1.023552              1      0.9853778
      7213.0000         0.4933        26.0075         0.0468        96.8772       92.53775         0.7074         0.7327        48.9359         0.9498       -49.1229      -1.274899              1      0.9817871
      7213.5000         0.5057        25.4868         0.0469        99.2482        95.1722         0.7154         0.7554        48.5174         0.9765       -49.3206      -1.478546              1      0.9788779
      7214.0000         0.5109        24.5702         0.0492        99.3362       95.26997         0.7257         0.7794        48.2884         1.0072       -49.4301       -1.59399              1      0.9772287
      7214.5000         0.5156        23.8358         0.0513        97.2367       92.93719         0.7409         0.8023        48.3643         1.0371       -49.4067      -1.576538              1       0.977478
      7215.0000         0.5201        23.5078          0.053        94.9135       90.35586         0.7595         0.8228        48.7117         1.0633       -49.3178      -1.493584              1      0.9786631
      7215.5000         0.5315        23.3166         0.0538        91.9617       87.07609         0.7805         0.8384        49.1574          1.082       -49.1577      -1.339432              1      0.9808652
      7216.0000         0.5472        23.1863         0.0544        90.9408       85.94176         0.8032         0.8575        49.6978           1.09       -49.0002      -1.187878              1      0.9830303
      7216.5000         0.5579        23.1675         0.0547        94.0309        89.3752         0.8241         0.8745        50.3051         1.0888        -48.844      -1.037628              1      0.9870297
