#------------------------------------------------------------------------------
# Created by    : vladimir.rabinovich
# Created on    : 09/19/2023 17:22:28
#------------------------------------------------------------------------------
~Version Information Section
VERS.           2.0     :   CWLS log ASCII Standard - VERSION 2.0
WRAP.           NO      :   One line per depth step
~Well Information Section
#MNEM       .UNIT                                         VALUE :DESCRIPTION
#------------------------------------------------------------------------------
STRT        .FT                                            2981 :START DEPTH
STOP        .FT                                           10477 :STOP DEPTH
STEP        .FT                                             0.5 :STEP      
NULL        .                                           -999.25 :NULL      
COMP        .                          SEAGULL ENERGY E & P INC :COMPANY   
WELL        .                               OCS G13783 ST00BP00 :WELL      
FLD         .                                           WILDCAT :FIELD     
LOC         .                                                   :LOCATION  
CNTY        .                             GALVESTON LARGE BLOCK :LOCATION  
STAT        .                                             TEXAS :STATE     
CTRY        .                                     UNITED STATES :COUNTRY   
SRVC        .                                                   :SERVICE COMPANY
DATE        .                             9/13/2023 11:19:39 AM :LOG DATE  
API         .                                    42706403890000 :API NUMBER
UWI         .                                    42706403890000 :UNIQUE WELL ID
XCOORD      .                                  1047250.65699841 :SURFACE X 
YCOORD      .                                  10470150.2239286 :SURFACE Y 
LAT         .                                         28.838318 :LATITUDE  
LON         .                                         -94.85315 :LONGITUDE 
ELEV        .FT                                              94 :ELEVATION VALUE
ELEV_TYPE   .                                                KB :ELEVATION REFERENCE TYPE
~Curve Information Section
#MNEM       .UNIT                                      API CODE :CURVE DESCRIPTION
#------------------------------------------------------------------------------
DEPT        .FT                                                 :DEPTH     
CILD        .MMHO                                               :          
CNC         .%                                                  :          
DT24        .US/F                                               :          
GR          .GAPI                                               :          
GR_NORM     .GAPI                                               :GammaRay Normalized
PORZ        .%                                                  :          
RFOC        .OHMM                                               :          
RILD        .OHMM                                               :          
RILM        .OHMM                                               :          
RWAZ        .OHMM                                               :          
SP          .MV                                                 :          
SP_NORM     .MV                                                 :SP Normalized
TEN         .LBF                                                :          
VSH_GR      .V/V                                                :Volume of Shale from GR
VSH_SP      .V/V                                                :Volume of Shale from SP
ZCOR        .G/C3                                               :          
ZDEN        .G/C3                                               :          
~A        DEPTH           CILD            CNC           DT24             GR        GR_NORM           PORZ           RFOC           RILD           RILM           RWAZ             SP        SP_NORM            TEN         VSH_GR         VSH_SP           ZCOR           ZDEN
      2981.0000       1787.715        59.2209        129.855        62.9269       58.01228         41.131          1.154          0.559          0.554          0.134        -23.222      -17.23398        -19.566      0.5321761      0.7538003          0.064          1.971
      2981.5000       1960.879        56.9969       141.8589         65.454        61.0448         41.519          1.111           0.51          0.552          0.124        -19.186      -13.19798        -19.411      0.5966979      0.8114575          0.055          1.965
      2982.0000       1860.021         58.506       154.0288        68.1479       64.27748         42.999           1.01          0.538          0.563          0.141        -15.637      -9.648975        -17.695      0.6654783      0.8621575          0.044          1.941
      2982.5000       1690.389         60.061        163.604         69.224        65.5688          44.77          0.926          0.592          0.585          0.169        -12.964      -6.975976        -16.285      0.6929532      0.9003432          0.044          1.911
      2983.0000       1607.639         59.128        171.917           67.7          63.74         45.947          0.902          0.622          0.623          0.189        -11.448      -5.459976        -12.288      0.6540425      0.9220003          0.057          1.892
      2983.5000       1627.594         61.184       177.5178        65.6749       61.30988        46.4969          0.917          0.614          0.658          0.191        -10.939      -4.950976         -7.584      0.6023378      0.9292718          0.069          1.883
      2984.0000       1652.352        66.5399       179.2778         64.819        60.2828        46.4109          0.938          0.605          0.669          0.187        -11.011      -5.022975         -7.798      0.5804851      0.9282432           0.07          1.884
      2984.5000       1647.199        65.8529       179.7639        64.8309       60.29708         46.317          0.949          0.607          0.666          0.187         -11.22      -5.231976        -10.925       0.580789      0.9252575          0.065          1.886
      2985.0000       1631.705         60.317        178.335         63.957        59.2484         46.561          0.954          0.613          0.671          0.191        -11.418      -5.429976        -10.323      0.5584766      0.9224289          0.062          1.882
      2985.5000       1611.566         57.151       169.9558         61.587        56.4044          46.75          0.961          0.621           0.69          0.195        -11.734      -5.745976          -5.78       0.497966      0.9179146           0.06          1.879
      2986.0000       1578.104         55.481       160.8728         60.022        54.5264        46.7599          0.972          0.634          0.713          0.199        -12.134      -6.145976         -5.701      0.4580086      0.9122003          0.061          1.878
      2986.5000       1511.477         53.912        157.698         62.269        57.2228         46.672          0.986          0.662          0.731          0.207        -12.557      -6.568976        -12.909      0.5153788      0.9061575          0.067           1.88
      2987.0000       1418.395         53.375       157.8079           64.5           59.9         46.456          0.999          0.705          0.746          0.219        -13.214      -7.225976        -17.101      0.5723404      0.8967718          0.079          1.883
      2987.5000       1330.439         53.593        164.814         61.989        56.8868         46.035          1.013          0.752          0.764          0.229        -14.208      -8.219976        -11.672      0.5082298      0.8825718          0.082           1.89
      2988.0000       1259.609         54.218       172.3169        58.6349       52.86188         45.311          1.027          0.794          0.788          0.234          -15.3      -9.311975         -6.892      0.4225932      0.8669718          0.074          1.902
      2988.5000       1191.215         54.709       171.3398         59.223        53.5676         44.687          1.038           0.84          0.822           0.24        -16.312      -10.32398        -11.386      0.4376084      0.8525146          0.067          1.913
      2989.0000       1114.072           53.7       167.3499         61.155         55.886          45.06          1.045          0.898          0.878          0.261        -17.312      -11.32398        -17.573      0.4869361      0.8382289          0.064          1.906
      2989.5000       1030.877         51.926       159.6099         60.761        55.4132        45.7549          1.059           0.97          0.959          0.291        -18.448      -12.45998        -17.145      0.4768766      0.8220003          0.061          1.895
      2990.0000       956.2637         51.276       147.5398        59.2809       53.63708         44.503          1.102          1.046          1.051          0.296        -19.821      -13.83298        -14.526      0.4390868       0.802386          0.061          1.916
      2990.5000       903.2256         51.722       142.3318         57.064        50.9768         40.653          1.195          1.107          1.128          0.258        -21.309      -15.32098        -18.073      0.3824851      0.7811289          0.066          1.979
      2991.0000       869.1162         52.685       141.7388         53.539        46.7468         36.836           1.31          1.151          1.168          0.217        -22.435      -16.44698        -26.362      0.2924852      0.7650432          0.078          2.042
      2991.5000       847.3975         56.073       139.5959        50.5959       43.21508         36.405          1.369           1.18          1.168          0.217        -22.703      -16.71498         -28.97      0.2173421      0.7612146          0.095          2.049
      2992.0000       839.3936         60.168       140.4189         50.665         43.298         39.653          1.333          1.191          1.138          0.263        -21.935      -15.94698        -27.128      0.2191065       0.772186          0.108          1.996
      2992.5000       851.4082         58.025       140.2078         52.473        45.4676         44.512          1.256          1.174          1.089          0.332        -20.328      -14.33998         -32.41       0.265268      0.7951432          0.095          1.916
      2993.0000       888.8125          53.15       139.9829         53.222        46.3664         49.132          1.188          1.125          1.032          0.394         -18.42      -12.43198        -43.949      0.2843915      0.8224003           0.06          1.839
      2993.5000       950.9053        51.2469       145.4348         53.878       47.15359          52.12          1.143          1.052          0.976          0.418        -16.765      -10.77698       -51.9399      0.3011403      0.8460432          0.035           1.79
      2994.0000       1027.416         51.275        151.825         55.529        49.1348        53.2549          1.121          0.973          0.924          0.405        -15.508      -9.519976        -57.084      0.3432935      0.8640003          0.036          1.771
      2994.5000        1102.27         53.834        153.365         57.401        51.3812         53.759          1.113          0.907           0.88          0.385        -14.535      -8.546976        -60.149      0.3910894      0.8779004          0.047          1.763
      2995.0000       1163.656         60.256       151.4568          58.91         53.192         54.974          1.105          0.859          0.845          0.383        -13.804      -7.815976        -53.895       0.429617      0.8883432          0.047          1.743
      2995.5000       1208.906         66.875       149.0068         59.954        54.4448         57.465           1.09          0.827          0.821          0.405        -13.115      -7.126976        -37.528      0.4562723      0.8981861          0.029          1.702
