#------------------------------------------------------------------------------
# Created by    : vladimir.rabinovich
# Created on    : 09/19/2023 17:22:17
#------------------------------------------------------------------------------
~Version Information Section
VERS.           2.0     :   CWLS log ASCII Standard - VERSION 2.0
WRAP.           NO      :   One line per depth step
~Well Information Section
#MNEM       .UNIT                                         VALUE :DESCRIPTION
#------------------------------------------------------------------------------
STRT        .FT                                             996 :START DEPTH
STOP        .FT                                            8436 :STOP DEPTH
STEP        .FT                                             0.5 :STEP      
NULL        .                                           -999.25 :NULL      
COMP        .                                    TDC ENERGY LLC :COMPANY   
WELL        .                               OCS G03738 ST00BP00 :WELL      
FLD         .                              GALVESTON BLOCK 0255 :FIELD     
LOC         .                                                   :LOCATION  
CNTY        .                             GALVESTON LARGE BLOCK :LOCATION  
STAT        .                                             TEXAS :STATE     
CTRY        .                                     UNITED STATES :COUNTRY   
SRVC        .                                                   :SERVICE COMPANY
DATE        .                             9/13/2023 11:18:53 AM :LOG DATE  
API         .                                    42706400460000 :API NUMBER
UWI         .                                    42706400460000 :UNIQUE WELL ID
XCOORD      .                                   1080542.6436948 :SURFACE X 
YCOORD      .                                  10548065.2081286 :SURFACE Y 
LAT         .                                        29.0539695 :LATITUDE  
LON         .                                       -94.7527854 :LONGITUDE 
ELEV        .FT                                              94 :ELEVATION VALUE
ELEV_TYPE   .                                                KB :ELEVATION REFERENCE TYPE
~Curve Information Section
#MNEM       .UNIT                                      API CODE :CURVE DESCRIPTION
#------------------------------------------------------------------------------
DEPT        .FT                                                 :DEPTH     
CALI        .IN                                                 :          
CILD        .MMHO                                               :          
DT          .US/F                                               :          
GR          .GAPI                                               :          
GR_NORM     .GAPI                                               :GammaRay Normalized
ILD         .OHMM                                               :          
ILM         .OHMM                                               :          
RHOB        .G/C3                                               :          
SFL         .OHMM                                               :          
SP          .MV                                                 :          
SP_NORM     .MV                                                 :SP Normalized
VSH_GR      .V/V                                                :Volume of Shale from GR
VSH_SP      .V/V                                                :Volume of Shale from SP
~A        DEPTH           CALI           CILD             DT             GR        GR_NORM            ILD            ILM           RHOB            SFL             SP        SP_NORM         VSH_GR         VSH_SP
# ...
      4967.0000        16.2754         3742.5         94.625         46.252       52.48379         0.4045         0.4424         1.9358         0.8005       -65.9727       -17.1452      0.4145487       0.688269
      4967.5000        14.9805         3180.5        93.0518        48.3262       55.53677          0.472         0.5414         1.9432         1.0472        -61.707      -12.88418      0.4795058      0.7657422
      4968.0000        13.5889         2678.5        94.2422          51.25       59.84172         0.5428         0.6582         1.9511          1.175       -58.4648      -9.646656      0.5711005      0.8246062
      4968.5000        12.9758           2010       104.1328        53.9473       63.81292         0.6083         0.7371         1.9595         1.1427       -55.7305       -6.91703      0.6555939      0.8742358
      4969.0000        13.1721        1663.25       107.5996        56.1914       67.11625         0.6624         0.7845         1.9686         0.9937       -53.5547      -4.745907      0.7258776      0.9137108
      4969.5000        13.5081        1445.25       109.7441        58.0342       69.82824         0.7113         0.8077         1.9784          0.894       -52.0234      -3.219284      0.7835796      0.9414676
      4970.0000        13.8269       1238.125        111.457        59.6992        72.2782         0.7138         0.8042         1.9891         0.8503       -51.1859      -2.386463      0.8357064      0.9566098
      4970.5000         14.093       1143.141       112.8262        60.7866       73.87702         0.7052         0.7898         1.9931         0.8352       -51.2095      -2.414738      0.8697239      0.9560957
      4971.0000        14.2843       1143.531       113.4456        61.4434       74.84129         0.6977         0.7657         1.9826         0.8145       -51.4961      -2.706017      0.8902403      0.9507997
      4971.5000        14.3154         1213.5        113.708         62.291       76.08675         0.6913         0.7423         1.9716         0.7719       -51.5605      -2.775093      0.9167395      0.9495438
      4972.0000        14.3804       1299.438          115.5        63.4121       77.73521          0.683          0.726         1.9626         0.7364        -51.596      -2.815269       0.951813      0.9488133
      4972.5000        14.8511       1372.875        117.957        64.3223       79.07292         0.6739         0.7223         1.9547         0.7334       -51.6138      -2.837746      0.9802749      0.9484046
      4973.0000        15.4976       1445.344       120.2676        65.1152       80.23775         0.6674         0.7266         1.9465         0.7332       -51.5957      -2.824322              1      0.9486487
      4973.5000        15.9429       1494.625       122.5156         65.644       81.01341         0.6479         0.7286         1.9391          0.726       -51.4692      -2.702499              1      0.9508637
      4974.0000         16.169       1543.875       124.0475        65.8796         81.357         0.6079         0.7239         1.9346         0.7061       -51.3429      -2.580875              1       0.953075
      4974.5000        16.2261       1574.688       123.8625        65.9067       81.39335         0.5783          0.677         1.9341         0.6783       -51.1748      -2.417454              1      0.9560463
      4975.0000        16.2831       1587.641        123.623        65.8638       81.32655         0.5655         0.6494         1.9353         0.6544       -50.9944       -2.24173              1      0.9592413
      4975.5000        16.2871       1593.555       127.5586        65.4702       80.74294         0.5596         0.6356         1.9383         0.6517       -50.8141      -2.066105              1      0.9624345
      4976.0000        16.2816        1594.83       132.4687          65.05       80.12015          0.554         0.6269         1.9426          0.675       -50.6038      -1.860485              1       0.966173
      4976.5000        16.2791       1620.563       136.0586        64.7595       79.68846         0.5484         0.6165         1.9479         0.7124       -50.3921      -1.653461      0.9933715      0.9699371
      4977.0000        16.2801       1657.844       132.1914        65.1738       80.29539         0.5429         0.5955         1.9491         0.7484       -50.2557      -1.521736              1      0.9723321
      4977.5000        16.3009       1704.375        126.875        65.7449       81.13338         0.5373         0.5769         1.9503         0.6005       -50.2563      -1.527016              1      0.9722361
      4978.0000        16.3465       1737.438       120.7031        65.8145       81.23235         0.5221         0.5664         1.9519         0.5287       -50.2269      -1.502289              1      0.9726856
      4978.5000        16.3944        1761.75        118.584        65.1094       80.18972         0.5119         0.5597         1.9514         0.5458       -49.8413      -1.121368              1      0.9796115
      4979.0000        16.4472       1785.266       120.5859        64.2754       78.95714         0.5083          0.552         1.9459         0.5677       -49.3467      -0.631443      0.9778115      0.9885192
      4979.5000        16.4999       1835.375       128.7148        63.6528       78.03608         0.5076         0.5428         1.9437           0.61       -48.8496     -0.1390228      0.9582145      0.9974723
      4980.0000        16.5508        1924.25       133.7461        63.2549       77.44614         0.5106         0.5335         1.9427         0.6489       -48.4172      0.2887039      0.9456626              1
      4980.5000         16.601       1997.594       136.5166        64.0322         78.588         0.5197         0.5242         1.9419         0.6803       -48.2671       0.434124      0.9699574              1
      4981.0000        16.6667       1977.625       136.5801        65.9062       81.34595         0.5275         0.5164          1.942         0.6578       -48.6624     0.03414536              1              1
      4981.5000        16.7429           1921       135.2607        67.5498       83.76438         0.5341         0.5207         1.9506         0.6284       -49.0779     -0.3860321              1      0.9929813
      4982.0000        16.8561       1869.063       134.0107        68.7451       85.52221         0.5423         0.5457         1.9559         0.6334       -49.4888      -0.801609              1      0.9854253
      4982.5000        17.0182       1846.031       133.3398        68.5303       85.20208         0.5514         0.5699         1.9492         0.6549       -49.8672      -1.184685              1      0.9784603
      4983.0000        17.2174        1841.82       134.2031        68.3652        84.9552         0.5545         0.5799         1.9432         0.6836       -50.2458      -1.567963              1      0.9714916
      4983.5000        17.3108         1849.5       136.4648        70.1426        87.5708         0.5505         0.5677         1.9387         0.7129       -50.6431       -1.96994              1      0.9641829
      4984.0000        17.2026       1866.313       138.4453         71.873       90.11716         0.5381         0.5515         1.9367         0.7261       -51.0723      -2.403816              1      0.9562942
      4984.5000        17.1005        1878.18       136.0937        72.6667       91.28319         0.5277         0.5352          1.937         0.6257       -51.5195      -2.855694              1      0.9480783
      4985.0000        17.0085       1880.813       129.3437        72.2627       90.68426          0.517         0.5327         1.9406         0.5442       -52.0234      -3.364269              1      0.9388314
      4985.5000        16.9308       1883.445       114.9805        70.9365       88.72636         0.5062         0.5424         1.9488          0.491       -52.5845      -3.930046              1      0.9285446
