#------------------------------------------------------------------------------
# Created by    : vladimir.rabinovich
# Created on    : 09/19/2023 17:20:40
#------------------------------------------------------------------------------
~Version Information Section
VERS.           2.0     :   CWLS log ASCII Standard - VERSION 2.0
WRAP.           NO      :   One line per depth step
~Well Information Section
#MNEM       .UNIT                                         VALUE :DESCRIPTION
#------------------------------------------------------------------------------
STRT        .FT                                             400 :START DEPTH
STOP        .FT                                           11002 :STOP DEPTH
STEP        .FT                                             0.5 :STEP      
NULL        .                                           -999.25 :NULL      
COMP        .                            STANOLIND OIL & GAS CO :COMPANY   
WELL        .                                     ST TR 00245-L :WELL      
FLD         .                              GALVESTON BLOCK 0245 :FIELD     
LOC         .                                                   :LOCATION  
CNTY        .                             GALVESTON LARGE BLOCK :LOCATION  
STAT        .                                             TEXAS :STATE     
CTRY        .                                     UNITED STATES :COUNTRY   
SRVC        .                                                   :SERVICE COMPANY
DATE        .                             9/13/2023 11:19:42 AM :LOG DATE  
API         .                                    42706000160000 :API NUMBER
UWI         .                                    42706000160000 :UNIQUE WELL ID
XCOORD      .                                  1024804.26554262 :SURFACE X 
YCOORD      .                                  10549089.4715911 :SURFACE Y 
LAT         .                                        29.0543948 :LATITUDE  
LON         .                                       -94.9272588 :LONGITUDE 
ELEV        .FT                                              11 :ELEVATION VALUE
ELEV_TYPE   .                                                KB :ELEVATION REFERENCE TYPE
~Curve Information Section
#MNEM       .UNIT                                      API CODE :CURVE DESCRIPTION
#------------------------------------------------------------------------------
DEPT        .FT                                                 :DEPTH     
ASN         .OHMM                                               :          
LAT         .OHMM                                               :          
LN          .OHMM                                               :          
SP          .MV                                                 :          
SP_NORM     .MV                                                 :SP Normalized
VSH_SP      .V/V                                                :Volume of Shale from SP
~A        DEPTH            ASN            LAT             LN             SP        SP_NORM         VSH_SP
# ...
      3212.0000         0.8412         0.8806         0.4868       -69.4531      -12.47516      0.8737932
      3212.5000         0.8245         0.8543         0.4919       -66.8615      -9.887032      0.9049755
      3213.0000         0.8079         0.8279         0.4971       -64.2709      -7.299896      0.9361458
      3213.5000         0.7969         0.8263         0.5023       -61.6793      -4.711769      0.9673281
      3214.0000         0.7877         0.8355         0.5075       -59.0877      -2.123642      0.9985104
      3214.5000         0.7785         0.8447         0.5126       -57.9009     -0.9403114              1
      3215.0000         0.7757         0.8539         0.5178       -56.8513      0.1058197              1
      3215.5000         0.7836         0.8631          0.523       -55.8011       1.152546              1
      3216.0000         0.7914         0.8722         0.5282       -54.7515       2.198677              1
      3216.5000         0.7993         0.8814         0.5334       -53.7264       3.220306              1
      3217.0000         0.8072         0.8906         0.5385       -53.7524       3.190834              1
      3217.5000          0.815         0.9061         0.5437       -53.7784       3.161362              1
      3218.0000         0.8227         0.9234         0.5489       -53.8044       3.131889              1
      3218.5000         0.8305         0.9407         0.5541       -53.8304       3.102421              1
      3219.0000         0.8382          0.958         0.5581        -53.945       2.984348              1
      3219.5000          0.846         0.9753         0.5569       -54.1078       2.818077              1
      3220.0000         0.8538         0.9926         0.5558       -54.2707       2.651707              1
      3220.5000         0.8656         1.0099         0.5546       -54.4335       2.485435              1
      3221.0000         0.8779         1.0272         0.5534       -55.3408       1.574661              1
      3221.5000         0.8902         1.0428         0.5523       -57.1191     -0.2071075              1
      3222.0000         0.9025         1.0352         0.5511       -58.8973      -1.988781              1
      3222.5000         0.9078         1.0277           0.55       -60.6757      -3.770653      0.9786668
      3223.0000         0.9009         1.0201         0.5488        -62.231      -5.329422      0.9598865
      3223.5000          0.894         1.0125         0.5476       -63.6175      -6.719395      0.9431399
      3224.0000         0.8871          1.005         0.5458        -65.004      -8.109364      0.9263932
      3224.5000         0.8802         0.9974         0.5358       -63.9838      -7.092636      0.9386429
      3225.0000         0.8733         0.9861         0.5258        -62.777      -5.889305      0.9531409
      3225.5000         0.8664         0.9733         0.5158       -61.5709      -4.686676      0.9676304
      3226.0000         0.8635         0.9779         0.5058       -60.3641      -3.483349      0.9821283
      3226.5000         0.8616         0.9965         0.4957       -59.4872      -2.609921      0.9926516
      3227.0000         0.8693         1.0152         0.4857        -59.024      -2.150188      0.9981905
      3227.5000         0.8827         1.0338         0.4757       -59.0307      -2.160362      0.9980679
      3228.0000         0.8961         1.0524         0.4657       -60.2972      -3.430332      0.9827671
      3228.5000         0.9095         1.0711         0.4557       -61.5637      -4.700306      0.9674662
      3229.0000         0.9229         1.0897         0.4457       -62.8302      -5.970276      0.9521654
      3229.5000         0.9396         1.0933         0.4356       -65.4816      -8.625145      0.9201789
      3230.0000         0.9597         1.0879         0.4256       -68.4316      -11.57862      0.8845949
      3230.5000         0.9799         1.0825         0.4127       -71.3818      -14.53229      0.8490086
      3231.0000              1         1.0771         0.3975       -76.5209      -19.67486      0.7870499
      3231.5000         1.0201         0.9978         0.3824         -91.65      -34.80743      0.6047297
      3232.0000         1.0224         0.9069         0.3672      -108.2046       -51.3655      0.4052349
      3232.5000         0.9814         0.8159         0.3521      -112.9652      -56.12958      0.3478364
      3233.0000         0.9362         0.7508         0.3369      -119.2572      -62.42505      0.2719873
      3233.5000         0.7745         0.6976         0.3218      -124.1638      -67.33512      0.2128299
      3234.0000         0.6917         0.6519         0.3066       -127.457      -70.63179       0.173111
      3234.5000         0.6413         0.6236         0.2915       -129.574      -72.75227      0.1475631
      3235.0000         0.6118         0.6094         0.2764      -127.4802      -70.66193      0.1727478
      3235.5000         0.6057         0.6251         0.2612      -125.3877      -68.57291      0.1979168
      3236.0000         0.6122         0.6408         0.2469      -123.2941      -66.48277      0.2230991
      3236.5000         0.6247         0.6566         0.2336       -123.397      -66.58914      0.2218176
      3237.0000         0.6371         0.6723         0.2203      -124.2844      -67.48001      0.2110842
      3237.5000         0.6496          0.688          0.207       -125.796      -68.99509      0.1928303
      3238.0000         0.6817         0.6905         0.1936      -127.8864      -71.08896      0.1676029
      3238.5000         0.7307         0.6715         0.1803      -129.9766      -73.18262      0.1423781
      3239.0000         0.7796         0.6525          0.167      -132.0669       -75.2764      0.1171518
      3239.5000         0.8404         0.6336         0.1537      -134.1572      -77.37016     0.09192575
      3240.0000         0.9085         0.6146         0.1403      -132.1787      -75.39514      0.1157212
      3240.5000         1.0427         0.5956         0.1326      -130.1658      -73.38571      0.1399312
      3241.0000         1.1092         0.5767         0.1298      -129.5063      -72.72969      0.1478351
      3241.5000          1.178         0.5577         0.1269      -129.0432      -72.27005      0.1533729
      3242.0000         1.2431         0.5383         0.1241      -128.5801      -71.81042      0.1589105
      3242.5000         1.2954         0.5187         0.1213      -128.1167      -71.35049      0.1644519
      3243.0000         1.3332         0.4992         0.1185      -128.5747      -71.81198      0.1588918
      3243.5000          1.288         0.4796         0.1156      -129.8428      -73.08354      0.1435718
      3244.0000         1.1672           0.46         0.1296      -131.1104      -74.35461      0.1282577
      3244.5000         1.0721         0.4404         0.1552      -132.3784      -75.62608      0.1129388
      3245.0000         1.0101         0.4208         0.1807      -133.6467      -76.89786     0.09761617
      3245.5000          0.948         0.4013         0.2063      -134.9519      -78.20653     0.08184906
      3246.0000         0.8886         0.3817         0.2318       -136.196       -79.4541     0.06681805
      3246.5000         0.8312         0.3621         0.2574      -135.6301      -78.89166     0.07359443
      3247.0000         0.7772         0.3425         0.2829      -134.0278      -77.29284     0.09285736
      3247.5000         0.7296         0.3451         0.3085      -129.5151      -72.78362      0.1471854
      3248.0000         0.6819         0.3487          0.334      -125.0048      -68.27678      0.2014846
      3248.5000           0.61         0.3524         0.3548      -120.4922      -63.76765      0.2558114
      3249.0000         0.5377          0.356         0.3642      -103.9819      -47.26083      0.4546888
      3249.5000         0.5319         0.3597         0.3736       -97.9089      -41.19129      0.5278158
