#------------------------------------------------------------------------------
# Created by    : vladimir.rabinovich
# Created on    : 09/19/2023 17:20:36
#------------------------------------------------------------------------------
~Version Information Section
VERS.           2.0     :   CWLS log ASCII Standard - VERSION 2.0
WRAP.           NO      :   One line per depth step
~Well Information Section
#MNEM       .UNIT                                         VALUE :DESCRIPTION
#------------------------------------------------------------------------------
STRT        .FT                                             510 :START DEPTH
STOP        .FT                                            7943 :STOP DEPTH
STEP        .FT                                             0.5 :STEP      
NULL        .                                           -999.25 :NULL      
COMP        .                       BLUE DOLPHIN EXPLORATION CO :COMPANY   
WELL        .                                OCS 00709 ST00BP00 :WELL      
FLD         .                                FEDERAL BLOCK 0288 :FIELD     
LOC         .                                                   :LOCATION  
CNTY        .                             GALVESTON LARGE BLOCK :LOCATION  
STAT        .                                             TEXAS :STATE     
CTRY        .                                     UNITED STATES :COUNTRY   
SRVC        .                                                   :SERVICE COMPANY
DATE        .                             9/13/2023 11:19:25 AM :LOG DATE  
API         .                                    42706000400000 :API NUMBER
UWI         .                                    42706000400000 :UNIQUE WELL ID
XCOORD      .                                   1098851.8122004 :SURFACE X 
YCOORD      .                                  10485233.3471489 :SURFACE Y 
LAT         .                                         28.881916 :LATITUDE  
LON         .                                        -94.692672 :LONGITUDE 
ELEV        .FT                                              93 :ELEVATION VALUE
ELEV_TYPE   .                                                KB :ELEVATION REFERENCE TYPE
~Curve Information Section
#MNEM       .UNIT                                      API CODE :CURVE DESCRIPTION
#------------------------------------------------------------------------------
DEPT        .FT                                                 :DEPTH     
ASN         .OHMM                                               :          
GR          .GAPI                                               :          
ILD         .OHMM                                               :          
NEUT        .NAPI                                               :          
SP          .MV                                                 :          
SP_NORM     .MV                                                 :SP Normalized
VSH_SP      .V/V                                                :Volume of Shale from SP
~A        DEPTH            ASN             GR            ILD           NEUT             SP        SP_NORM         VSH_SP
# ...
      6942.0000         1.1512        51.8224          1.037        549.334       -47.5543       5.235603              1
      6942.5000         1.1757        54.0734         1.0471       534.9766       -46.8993       5.894199              1
      6943.0000         1.2149        56.6933         1.0594        533.291         -46.55       6.247097              1
      6943.5000         1.2591        62.7322         1.0712       537.0723        -49.239       3.561695              1
      6944.0000         1.2672        64.7461         1.0795       542.7988       -53.2493     -0.4450073              1
      6944.5000         1.2356          59.77         1.0846       553.0449       -59.2354      -6.427509      0.8956248
      6945.0000         1.2106         56.332         1.0776       566.5732        -62.676       -9.86451      0.8295287
      6945.5000         1.2104        54.3723         1.0648       573.3975       -63.5939      -10.77881      0.8119459
      6946.0000         1.1978        54.9713         1.0414        573.917       -61.1208      -8.302116      0.8595747
      6946.5000         1.1616        60.4142         1.0092       562.3389       -56.3373      -3.515018      0.9516343
      6947.0000         1.1412        62.0473         0.9738       558.0039       -52.0196       0.806282              1
      6947.5000         1.1051        60.4623         0.9244       557.7471       -52.5485      0.2809792              1
      6948.0000         1.0626        61.0162         0.8731       557.4951       -52.7452     0.08787537              1
      6948.5000         1.0085        65.0623         0.8309       566.7783       -50.9594       1.877274              1
      6949.0000         0.9588        66.2589         0.8088       567.6914       -49.1961       3.644173              1
      6949.5000         0.9094        64.9448         0.7933        548.416       -47.4351       5.408768              1
      6950.0000         0.8902        62.1602         0.7778       543.9561       -46.7784       6.069069              1
      6950.5000          0.891        62.2445         0.7683       558.7715        -47.009       5.842068              1
      6951.0000         0.9086        67.2448         0.7588       555.7988       -48.0771       4.777565              1
      6951.5000         0.9491         68.329           0.75       543.9365       -49.7725       3.085762              1
      6952.0000         0.9859        67.2448         0.7419       554.2227       -53.2313      -0.369442              1
      6952.5000         0.9797        60.2095          0.734       551.1895       -58.9958      -6.130341      0.9013396
      6953.0000         0.9498        54.0147         0.7277       540.3418       -63.0446      -10.17554      0.8235472
      6953.5000         0.9051        54.3135         0.7217       537.3467       -60.0538      -7.181145      0.8811318
      6954.0000         0.8465        57.1177         0.7168       528.9307       -56.1293      -3.253048      0.9566721
      6954.5000         0.8109        58.4724         0.7126       530.9063       -54.4407      -1.560852      0.9892144
      6955.0000          0.788        58.5832          0.709       540.3145       -53.4313     -0.5478516              1
      6955.5000         0.7729        61.6966         0.7055       560.7676       -52.1914      0.6956482              1
      6956.0000         0.7647        63.9424         0.7029       548.8145       -51.0238       1.866844              1
      6956.5000         0.7688        65.6372         0.7007       555.9385       -50.2332       2.661041              1
      6957.0000         0.7755         65.626         0.7051        565.915       -49.8737       3.024139              1
      6957.5000         0.7872        65.1465         0.7213       570.3096       -49.5781       3.323338              1
      6958.0000         0.7998        65.8969         0.7309       576.9795       -49.1995       3.705536              1
      6958.5000         0.8141        66.9829         0.7392       574.3203       -48.8854       4.023235              1
      6959.0000         0.8146        71.3359         0.7474       572.7744       -48.8967        4.01553              1
      6959.5000         0.8054        73.6646         0.7502       564.8174       -49.3255       3.590328              1
      6960.0000         0.7945        69.7524         0.7529        571.043       -49.5849       3.334526              1
      6960.5000         0.7879        67.3246         0.7556       583.7959       -49.2605       3.662525              1
      6961.0000          0.797        68.0591         0.7566       585.4199       -49.2458       3.680824              1
      6961.5000         0.8218        66.2213         0.7573       578.3418       -49.7341       3.196121              1
      6962.0000         0.8431        65.6884         0.7579       568.6562       -50.2252       2.708618              1
      6962.5000         0.8467        67.0942         0.7588       577.3984       -50.7288       2.208614              1
      6963.0000         0.8425        66.5043         0.7597       572.8789       -50.9279       2.013115              1
      6963.5000         0.8283        64.3608         0.7546       550.1514       -50.5332       2.411415              1
      6964.0000         0.8063        65.2429         0.7479        547.917       -49.9025       3.045712              1
      6964.5000         0.7856        63.0392         0.7414       549.8428          -49.1        3.85181              1
      6965.0000         0.7664        66.3567         0.7352       552.2871       -48.2986       4.656807              1
      6965.5000         0.7589        67.6211          0.729       560.9893       -47.6837       5.275303              1
      6966.0000         0.7739        64.8816         0.7304        573.957       -47.3771       5.585503              1
      6966.5000         0.7808         68.455         0.7341       578.0068       -47.3286         5.6376              1
      6967.0000         0.7811        70.4305         0.7361        591.376       -47.3599       5.609898              1
      6967.5000         0.7903        70.4385         0.7337       600.0361       -47.6136       5.359795              1
      6968.0000         0.8193        68.3677         0.7297       609.0752       -48.5857       4.391293              1
      6968.5000         0.8781        60.6851         0.7173       621.1768       -50.7175       2.263096              1
      6969.0000         0.9419        61.3414         0.7048       618.0195        -57.861      -4.876808       0.925446
      6969.5000         0.9933        64.5775          0.689       611.3301       -65.7731      -12.78531      0.7733594
      6970.0000         1.0035        64.7161         0.6733       608.2412       -73.2919      -20.30051      0.6288363
      6970.5000          1.007        62.7249         0.6589       597.2979       -79.9425      -26.94751      0.5010093
      6971.0000         1.0141        64.8152         0.6447       594.1484        -82.007      -29.00842      0.4613765
      6971.5000         1.0237        69.2241          0.642       602.8223       -81.5588      -28.55662      0.4700651
      6972.0000         1.0391        67.2539         0.6405       614.3428       -82.3433      -29.33752      0.4550477
      6972.5000          1.046        67.1646         0.6467        615.542       -83.1311      -30.12173      0.4399668
      6973.0000          1.051        67.5757         0.6531       602.5234        -81.604      -28.59102      0.4694034
      6973.5000         1.0587          69.11         0.6769       595.7656       -76.2894      -23.27283      0.5716764
      6974.0000          1.056         73.681         0.7007       592.3369       -71.7727      -18.75253      0.6586053
      6974.5000         1.0418        75.8359         0.7319       596.8701       -72.1559      -19.13213      0.6513052
      6975.0000          1.064        74.0265         0.7669       596.1533       -73.3744      -20.34703      0.6279417
