#------------------------------------------------------------------------------
# Created by    : vladimir.rabinovich
# Created on    : 09/19/2023 17:22:39
#------------------------------------------------------------------------------
~Version Information Section
VERS.           2.0     :   CWLS log ASCII Standard - VERSION 2.0
WRAP.           NO      :   One line per depth step
~Well Information Section
#MNEM       .UNIT                                         VALUE :DESCRIPTION
#------------------------------------------------------------------------------
STRT        .FT                                            3493 :START DEPTH
STOP        .FT                                            8566 :STOP DEPTH
STEP        .FT                                             0.5 :STEP      
NULL        .                                           -999.25 :NULL      
COMP        .                          SEAGULL ENERGY E & P INC :COMPANY   
WELL        .                               OCS G09038 ST00BP00 :WELL      
FLD         .                                           WILDCAT :FIELD     
LOC         .                                                   :LOCATION  
CNTY        .                             GALVESTON LARGE BLOCK :LOCATION  
STAT        .                                             TEXAS :STATE     
CTRY        .                                     UNITED STATES :COUNTRY   
SRVC        .                                                   :SERVICE COMPANY
DATE        .                             9/13/2023 11:19:36 AM :LOG DATE  
API         .                                    42706402070000 :API NUMBER
UWI         .                                    42706402070000 :UNIQUE WELL ID
XCOORD      .                                  986976.405819811 :SURFACE X 
YCOORD      .                                  10491452.3738699 :SURFACE Y 
LAT         .                                         28.894171 :LATITUDE  
LON         .                                        -95.042508 :LONGITUDE 
ELEV        .FT                                              93 :ELEVATION VALUE
ELEV_TYPE   .                                                KB :ELEVATION REFERENCE TYPE
~Curve Information Section
#MNEM       .UNIT                                      API CODE :CURVE DESCRIPTION
#------------------------------------------------------------------------------
DEPT        .FT                                                 :DEPTH     
DCAL        .IN                                                 :          
DPHI        .%                                                  :          
DRHO        .G/C3                                               :          
GR          .GAPI                                               :          
GR_NORM     .GAPI                                               :GammaRay Normalized
ILD         .OHMM                                               :          
ILM         .OHMM                                               :          
NPHI        .%                                                  :          
SGRD        .OHMM                                               :          
SP          .MV                                                 :          
SP_NORM     .MV                                                 :SP Normalized
VSH_GR      .V/V                                                :Volume of Shale from GR
VSH_SP      .V/V                                                :Volume of Shale from SP
~A        DEPTH           DCAL           DPHI           DRHO             GR        GR_NORM            ILD            ILM           NPHI           SGRD             SP        SP_NORM         VSH_GR         VSH_SP
# ...
      8205.0000         0.2689        31.3238         0.0238        64.3158       56.35842         0.2755         0.3062        35.3658         0.8993       -97.0618      -56.18119      0.4969877      0.2977352
      8205.5000         0.3165        29.1946         0.0269        67.6895       60.10697         0.2957         0.3303        35.8388         0.8196       -86.1223      -45.24405      0.5767441      0.4344493
      8206.0000         0.3588        26.7036         0.0443         70.085       62.76864         0.3188         0.3514        36.1572         0.7527       -77.8577      -36.98182      0.6333753      0.5377273
      8206.5000         0.3668        23.0799         0.0566          70.03       62.70753         0.3444         0.3674        36.4471          0.794       -83.3923      -42.51878      0.6320751      0.4685152
      8207.0000         0.3449        21.5676         0.0628        64.4805       56.54142         0.3665         0.3797        36.7726         0.8427       -89.3263      -48.45515      0.5008812      0.3943107
      8207.5000         0.3093        21.7957         0.0602        60.1885       51.77253         0.3837         0.3911        37.1155         0.8274        -94.851      -53.98221      0.3994155      0.3252224
      8208.0000         0.2806        23.3192         0.0564        57.5859       48.88075         0.3784         0.3986        37.5351         0.8381      -100.3756      -59.50917      0.3378884      0.2561353
      8208.5000          0.255        24.7684         0.0531         58.624       50.03419         0.3534         0.3965        38.1571         0.9083      -103.9639      -63.09983      0.3624297      0.2112521
      8209.0000         0.2443        26.1878         0.0508        62.2297       54.04053         0.3247         0.3804        38.9166         0.8577       -98.6987        -57.837      0.4476708      0.2770375
      8209.5000         0.2565        26.6322          0.053        64.8547        56.9572         0.2964         0.3547        39.8113         0.8019       -87.1603      -46.30096      0.5097275      0.4212379
      8210.0000         0.3038        26.1989         0.0563        65.9153       58.13564         0.2714         0.3316        40.8131         0.7488       -93.4685      -52.61153      0.5348008      0.3423559
      8210.5000         0.3421         27.032         0.0584        65.6433       57.83342         0.2491         0.3106        40.3925         0.8309      -102.9209      -62.06629      0.5283706      0.2241714
      8211.0000         0.3352        28.0056         0.0586          63.41       55.35197         0.2305         0.2922        39.1975         0.9493      -125.2091      -84.35686      0.4755739              0
      8211.5000         0.3018        29.0579         0.0569        62.1249       53.92409         0.2164         0.2759        38.2344         1.1299      -135.9192      -95.06932      0.4451934              0
      8212.0000         0.2702        30.5576         0.0478        63.0507       54.95275         0.2106         0.2626        37.5752         1.1154      -135.8491      -95.00159      0.4670798              0
      8212.5000         0.2706        31.6738         0.0315        66.3669       58.63742         0.2262          0.252        37.1133         0.9562      -131.6372      -90.79205       0.545477              0
      8213.0000         0.3036        32.2886         0.0364        69.7506       62.39709         0.2515         0.2575        37.3054         0.8223      -121.5759      -80.73311      0.6254699              0
      8213.5000          0.361        31.8551         0.0471        73.1293        66.1512         0.2844         0.2901        38.3934         0.7264       -93.3887      -52.54828      0.7053447      0.3431465
      8214.0000         0.4375         30.024         0.0565        76.4181       69.80542         0.3182         0.3305        39.8797         0.6758        -64.882      -24.04394       0.783094      0.6994507
      8214.5000         0.5228        27.7499         0.0668         78.347       71.94864         0.3552         0.3674        41.4745         0.6799       -55.0604       -14.2247      0.8286945      0.8221912
      8215.0000         0.6079        25.8831         0.0769         77.196       70.66975         0.3891         0.4038        43.4008         0.7013       -52.9344      -12.10107      0.8014841      0.8487366
      8215.5000           0.69        24.2943         0.0837        77.8978       71.44952         0.4143         0.4312         44.714         0.7367       -57.6555      -16.82453       0.818075      0.7896934
      8216.0000         0.7806        23.2241         0.0838          76.75       70.17419         0.3952         0.4448        44.5178         0.7785       -64.0935      -23.26489      0.7909403      0.7091888
      8216.5000         0.6923        24.6183         0.0729        73.8529       66.95519         0.3579         0.4315        43.3785         0.8261       -71.3699      -30.54366      0.7224509      0.6182042
      8217.0000         0.6149        25.9827         0.0573        70.4893       63.21786         0.3235         0.3933        42.0141         0.8798       -84.4454      -43.62152      0.6429333       0.454731
      8217.5000         0.4944         27.148         0.0504        66.6814       58.98686         0.3018         0.3435        40.5991         0.8323      -100.6151      -59.79358      0.5529119      0.2525802
      8218.0000          0.379        28.4589         0.0518        64.3282        56.3722         0.2827         0.3006        39.0875         0.7534      -122.7139      -81.89474      0.4972808              0
      8218.5000         0.2342        29.3009         0.0525        61.9527       53.73275         0.2754         0.2772        37.1761         0.6792      -119.6395      -78.82272      0.4411224     0.01471605
      8219.0000          0.114        29.4608         0.0473        60.1651       51.74653         0.3011         0.2885        34.2332         0.6889      -110.3569      -69.54248      0.3988623       0.130719
      8219.5000         0.1783        26.4806         0.0322         62.599       54.45086         0.3384         0.3197        30.1518         1.0179       -93.4885      -52.67645      0.4564013      0.3415444
      8220.0000         0.2698        22.6578         0.0766         66.312       58.57642         0.3774          0.386        29.1173         1.2906       -72.2083       -31.3986      0.5441791      0.6075175
      8220.5000         0.3574         19.049         0.0983        69.3314        61.9313         0.4216         0.4907        30.5026         1.3764       -58.6636      -17.85627      0.6155597      0.7767966
      8221.0000           0.47        16.4034         0.1122        72.4656       65.41375         0.5063         0.6296        33.3325         1.2269       -53.0092      -12.20424      0.6896542       0.847447
      8221.5000         0.6284        16.3618         0.1211        73.7207       66.80831         0.6119         0.7618        36.3914         1.0601       -50.5875      -9.784897      0.7193258      0.8776888
      8222.0000         0.7828        17.0938         0.1256        74.4893       67.66231          0.829         0.8803        39.6746         0.9913       -50.3499       -9.54966      0.7374959      0.8806292
      8222.5000         0.9056        16.6167         0.1159        75.1792       68.42886         0.9303         0.9934        39.0934         1.0387       -50.9618      -10.16393      0.7538056      0.8729509
      8223.0000         0.8117        15.9575         0.0971        75.6995       69.00697         1.0077         1.0771         36.968         1.0883       -52.0086      -11.21309      0.7661058      0.8598364
      8223.5000          0.718        14.9736         0.0847        73.4985       66.56142         1.0636         1.1362        34.5543         1.1468       -53.5208      -12.72765      0.7140727      0.8409044
