#------------------------------------------------------------------------------
# Created by    : vladimir.rabinovich
# Created on    : 09/19/2023 17:20:18
#------------------------------------------------------------------------------
~Version Information Section
VERS.           2.0     :   CWLS log ASCII Standard - VERSION 2.0
WRAP.           NO      :   One line per depth step
~Well Information Section
#MNEM       .UNIT                                         VALUE :DESCRIPTION
#------------------------------------------------------------------------------
STRT        .FT                                             780 :START DEPTH
STOP        .FT                                            9803 :STOP DEPTH
STEP        .FT                                             0.5 :STEP      
NULL        .                                           -999.25 :NULL      
COMP        .                                  SAMEDAN OIL CORP :COMPANY   
WELL        .                               OCS G04076 ST00BP00 :WELL      
FLD         .                            HIGH ISLAND BLOCK 0105 :FIELD     
LOC         .                                                   :LOCATION  
CNTY        .                           HIGH ISLAND LARGE BLOCK :LOCATION  
STAT        .                                             TEXAS :STATE     
CTRY        .                                     UNITED STATES :COUNTRY   
SRVC        .                                                   :SERVICE COMPANY
DATE        .                             9/13/2023 11:19:59 AM :LOG DATE  
API         .                                    42708401630000 :API NUMBER
UWI         .                                    42708401630000 :UNIQUE WELL ID
XCOORD      .                                  1167393.84075462 :SURFACE X 
YCOORD      .                                  10652000.2522841 :SURFACE Y 
LAT         .                                        29.3430877 :LATITUDE  
LON         .                                       -94.4850788 :LONGITUDE 
ELEV        .FT                                              87 :ELEVATION VALUE
ELEV_TYPE   .                                                KB :ELEVATION REFERENCE TYPE
~Curve Information Section
#MNEM       .UNIT                                      API CODE :CURVE DESCRIPTION
#------------------------------------------------------------------------------
DEPT        .FT                                                 :DEPTH     
ASFL        .OHMM                                               :          
CILD        .MMHO                                               :          
DT          .US/F                                               :          
GR          .GAPI                                               :          
GR_1        .GAPI                                               :          
GR_NORM     .GAPI                                               :GammaRay Normalized
ILD         .OHMM                                               :          
SP          .MV                                                 :          
SP_NORM     .MV                                                 :SP Normalized
VSH_GR      .V/V                                                :Volume of Shale from GR
VSH_SP      .V/V                                                :Volume of Shale from SP
~A        DEPTH           ASFL           CILD             DT             GR           GR_1        GR_NORM            ILD             SP        SP_NORM         VSH_GR         VSH_SP
# ...
      2602.5000         0.4314       2627.285        -999.25        -999.25        69.7994       87.07071         0.4553      -120.4796      -5.242569              1      0.8092607
      2603.0000         0.4392       2418.223        -999.25        -999.25        71.2163       88.92757         0.4727      -119.5073      -4.283554              1      0.8656733
      2603.5000         0.4508       2227.617        -999.25        -999.25        72.0588       90.03275           0.49       -118.501      -3.290543              1      0.9240857
      2604.0000         0.4705       2140.316        -999.25        -999.25        70.7773       88.35842         0.5074      -117.6237      -2.426529              1      0.9749101
      2604.5000         0.4923        2079.02        -999.25        -999.25        66.4895       82.75001         0.5248      -116.8989      -1.715019              1              1
      2605.0000         0.5051       2022.176        -999.25        -999.25        63.4404       78.76255         0.5282      -116.5975       -1.42691      0.9736713              1
      2605.5000         0.5144        1959.09        -999.25        -999.25        61.6832       76.46572         0.5307      -116.6438      -1.486488      0.9248026              1
      2606.0000         0.5227       1924.291        -999.25        -999.25        59.8941       74.12714         0.5332      -116.8568      -1.712776      0.8750456              1
      2606.5000         0.5301       1893.529        -999.25        -999.25        58.6852       72.54782         0.5357      -117.5192      -2.388466       0.841443      0.9771491
      2607.0000         0.5327       1874.496        -999.25        -999.25        58.1923       71.90546         0.5356      -118.3378      -3.220352      0.8277758      0.9282146
      2607.5000         0.5352         1911.4        -999.25        -999.25        57.8078       71.40499         0.5323       -118.444      -3.339836      0.8171275      0.9211861
      2608.0000         0.5336       1971.061        -999.25        -999.25        56.9472       70.28146         0.5291      -118.5986      -3.507729      0.7932226      0.9113101
      2608.5000         0.5304       2019.924        -999.25        -999.25        56.0273       69.08033         0.5258      -118.9307      -3.853111      0.7676666      0.8909935
      2609.0000          0.526       2063.523        -999.25        -999.25        53.7493       66.10195         0.5225      -119.4485      -4.384201      0.7042968      0.8597529
      2609.5000         0.5187       2112.164        -999.25        -999.25        55.3792       68.23753         0.5193      -120.1097      -5.058685      0.7497348      0.8200774
      2610.0000         0.5115       2161.543        -999.25        -999.25        58.8569        72.7912          0.516      -120.6707      -5.632973      0.8466213      0.7862957
      2610.5000          0.507       2246.957        -999.25        -999.25        60.7917       75.32578         0.5128      -121.0623      -6.037857      0.9005484       0.762479
      2611.0000         0.5038       2320.152        -999.25        -999.25        61.6832       76.49508         0.5088      -121.2523      -6.241142      0.9254272      0.7505211
      2611.5000         0.5005       2376.457        -999.25        -999.25        62.3925       77.42596         0.5048        -120.49      -5.492126      0.9452331      0.7945808
      2612.0000         0.5012       2419.617        -999.25        -999.25        63.3253       78.64929         0.5008       -119.728      -4.743416      0.9712616      0.8386226
      2612.5000         0.5051       2379.348        -999.25        -999.25        64.3435        79.9844         0.4969      -119.0634       -4.09211      0.9996681      0.8769347
      2613.0000          0.509       2337.707        -999.25        -999.25        65.3647       81.32343         0.4929      -118.4297      -3.471695              1      0.9134297
      2613.5000         0.5132       2292.418        -999.25        -999.25         66.391       82.66914         0.4889      -117.8535      -2.908783              1      0.9465422
      2614.0000         0.5189       2247.129        -999.25        -999.25        66.0793       82.26392         0.4849      -117.5845      -2.653069              1      0.9615842
      2614.5000         0.5247        2201.84        -999.25        -999.25        61.6024       76.40802         0.4835      -117.3154      -2.397255      0.9235749      0.9766321
      2615.0000         0.5304       2103.426        -999.25        -999.25        58.6757       72.58076         0.4822      -117.0277      -2.122841       0.842144      0.9927741
      2615.5000         0.5356       2040.543        -999.25        -999.25        56.5315       69.77749         0.4809      -116.7095      -1.817932      0.7824997              1
      2616.0000         0.5393       2020.053        -999.25        -999.25        54.5612       67.20178         0.4797      -116.5742      -1.695915      0.7276975              1
      2616.5000          0.543       1999.563        -999.25        -999.25        51.9982       63.85047         0.4784      -116.5975      -1.732506       0.656393              1
      2617.0000         0.5467       1986.434        -999.25        -999.25        49.8338       61.02077         0.4772      -116.7349      -1.883186      0.5961866              1
      2617.5000         0.5492       1974.721        -999.25        -999.25        49.6293       60.75582         0.4759      -116.8881      -2.049385      0.5905493       0.997095
      2618.0000         0.5515           1963        -999.25        -999.25        51.1826       62.79116         0.4746      -117.0411      -2.202385      0.6338544       0.988095
      2618.5000         0.5538       1950.551        -999.25        -999.25        52.7366       64.82742         0.4734      -117.1942      -2.355484      0.6771792      0.9790892
      2619.0000         0.5565       1935.852        -999.25        -999.25        54.2905       66.86356         0.4721      -117.3712      -2.532486      0.7205014      0.9686773
      2619.5000         0.5552       1921.145        -999.25        -999.25        56.3637       69.57925         0.4754       -117.608      -2.769287      0.7782819      0.9547478
      2620.0000         0.5523       1913.516        -999.25        -999.25        58.5177       72.40067         0.4812      -117.6444      -2.805687      0.8383122      0.9526067
      2620.5000           0.55       1910.785        -999.25        -999.25         61.644       76.49449         0.4869      -117.5643      -2.725586      0.9254147      0.9573185
      2621.0000          0.548       1908.055        -999.25        -999.25        62.8483       78.07313         0.4926      -117.4843      -2.645584      0.9590027      0.9620245
      2621.5000         0.5463       1912.068        -999.25        -999.25         62.259       77.30461         0.4983      -117.4042      -2.565483      0.9426513      0.9667363
      2622.0000         0.5476       1918.018        -999.25        -999.25        57.7964       71.46746          0.504      -117.3435      -2.504784      0.8184566      0.9703069
      2622.5000         0.5489       1923.965        -999.25        -999.25        54.2272        66.7994         0.5097      -117.3573      -2.518585      0.7191362       0.969495
      2623.0000         0.5524       1930.055        -999.25        -999.25        55.1992       68.07404         0.5154      -117.3711      -2.532387      0.7462561      0.9686831
      2623.5000         0.5571       1938.551        -999.25        -999.25        57.0672       70.52122         0.5205        -117.48      -2.641289      0.7983238      0.9622771
      2624.0000         0.5618       1947.045        -999.25        -999.25        58.3203       72.16371         0.5252      -117.7072      -2.868484      0.8332704      0.9489127
      2624.5000         0.5639       1955.539        -999.25        -999.25        59.2585       73.39411         0.5299      -117.9343      -3.095589      0.8594492      0.9355536
