#------------------------------------------------------------------------------
# Created by    : vladimir.rabinovich
# Created on    : 09/19/2023 17:21:34
#------------------------------------------------------------------------------
~Version Information Section
VERS.           2.0     :   CWLS log ASCII Standard - VERSION 2.0
WRAP.           NO      :   One line per depth step
~Well Information Section
#MNEM       .UNIT                                         VALUE :DESCRIPTION
#------------------------------------------------------------------------------
STRT        .FT                                            4500 :START DEPTH
STOP        .FT                                            8225 :STOP DEPTH
STEP        .FT                                             0.5 :STEP      
NULL        .                                           -999.25 :NULL      
COMP        .                             WALTER OIL & GAS CORP :COMPANY   
WELL        .                               OCS G08132 ST00BP00 :WELL      
FLD         .                              GALVESTON BLOCK 0385 :FIELD     
LOC         .                                                   :LOCATION  
CNTY        .                             GALVESTON LARGE BLOCK :LOCATION  
STAT        .                                             TEXAS :STATE     
CTRY        .                                     UNITED STATES :COUNTRY   
SRVC        .                                                   :SERVICE COMPANY
DATE        .                             9/13/2023 11:19:34 AM :LOG DATE  
API         .                                    42706402490000 :API NUMBER
UWI         .                                    42706402490000 :UNIQUE WELL ID
XCOORD      .                                  1009947.10754335 :SURFACE X 
YCOORD      .                                  10405011.8756564 :SURFACE Y 
LAT         .                                         28.657556 :LATITUDE  
LON         .                                        -94.966279 :LONGITUDE 
ELEV        .FT                                             101 :ELEVATION VALUE
ELEV_TYPE   .                                                KB :ELEVATION REFERENCE TYPE
~Curve Information Section
#MNEM       .UNIT                                      API CODE :CURVE DESCRIPTION
#------------------------------------------------------------------------------
DEPT        .FT                                                 :DEPTH     
CALI        .IN                                                 :          
DPHI        .%                                                  :          
DRHO        .G/C3                                               :          
GR          .GAPI                                               :          
GR_NORM     .GAPI                                               :GammaRay Normalized
ILD         .OHMM                                               :          
ILM         .OHMM                                               :          
NPHI        .%                                                  :          
SFL         .OHMM                                               :          
SP          .MV                                                 :          
SP_NORM     .MV                                                 :SP Normalized
VSH_GR      .V/V                                                :Volume of Shale from GR
VSH_SP      .V/V                                                :Volume of Shale from SP
~A        DEPTH           CALI           DPHI           DRHO             GR        GR_NORM            ILD            ILM           NPHI            SFL             SP        SP_NORM         VSH_GR         VSH_SP
# ...
      8205.0000        11.3421        -999.25        -999.25        -999.25        -999.25         0.6392         0.6549        -999.25         0.6575       -39.1074       1.041368        -999.25              1
      8205.5000        11.3387        -999.25        -999.25        -999.25        -999.25         0.6438         0.6548        -999.25         0.6583        -39.294      0.8236682        -999.25              1
      8206.0000        11.3352        -999.25        -999.25        -999.25        -999.25         0.6483         0.6547        -999.25         0.6591       -39.9951    0.005718867        -999.25              1
      8206.5000        11.3378        -999.25        -999.25        -999.25        -999.25         0.6528         0.6567        -999.25         0.6608        -40.857     -0.9998315        -999.25      0.9833362
      8207.0000        11.3437        -999.25        -999.25        -999.25        -999.25         0.6561         0.6592        -999.25         0.6676       -41.9099      -2.228217        -999.25       0.962863
      8207.5000        11.3496        -999.25        -999.25        -999.25        -999.25         0.6591         0.6617        -999.25         0.6744       -42.7328      -3.188266        -999.25      0.9468622
      8208.0000        11.3547        -999.25        -999.25        -999.25        -999.25         0.6621         0.6633        -999.25         0.6934       -42.8039      -3.271219        -999.25      0.9454797
      8208.5000        11.3592        -999.25        -999.25        -999.25        -999.25         0.6621         0.6648        -999.25         0.7273        -42.773      -3.235165        -999.25      0.9460806
      8209.0000        11.3637        -999.25        -999.25        -999.25        -999.25         0.6594         0.6672        -999.25         0.7704       -43.1185       -3.63825        -999.25      0.9393625
      8209.5000        11.3687        -999.25        -999.25        -999.25        -999.25         0.6566         0.6697        -999.25         0.7883       -43.1866        -3.7177        -999.25      0.9380383
      8210.0000        11.3747        -999.25        -999.25        -999.25        -999.25         0.6509         0.6688        -999.25         0.7848       -42.8207      -3.290818        -999.25       0.945153
      8210.5000        11.3808        -999.25        -999.25        -999.25        -999.25         0.6403         0.6617        -999.25         0.7438       -42.1523      -2.511019        -999.25      0.9581497
      8211.0000        11.3856        -999.25        -999.25        -999.25        -999.25         0.6298          0.653        -999.25          0.698       -41.4965      -1.745914        -999.25      0.9709014
      8211.5000        11.3876        -999.25        -999.25        -999.25        -999.25         0.6195         0.6412        -999.25         0.6645       -40.9047      -1.055485        -999.25      0.9824086
      8212.0000        11.3896        -999.25        -999.25        -999.25        -999.25         0.6099         0.6296        -999.25         0.6562       -40.3714     -0.4332987        -999.25      0.9927784
      8212.5000        11.3912        -999.25        -999.25        -999.25        -999.25         0.6005         0.6178        -999.25         0.6394       -40.7244     -0.8451328        -999.25      0.9859145
      8213.0000        11.3914        -999.25        -999.25        -999.25        -999.25         0.5913         0.6058        -999.25         0.6188        -41.017      -1.186498        -999.25       0.980225
      8213.5000        11.3916        -999.25        -999.25        -999.25        -999.25         0.5823         0.5941        -999.25         0.5901       -40.8741      -1.019783        -999.25      0.9830036
      8214.0000        11.3902        -999.25        -999.25        -999.25        -999.25         0.5805         0.5887        -999.25         0.5746        -40.731     -0.8528321        -999.25      0.9857861
      8214.5000        11.3888        -999.25        -999.25        -999.25        -999.25         0.5789          0.584        -999.25         0.5703       -40.2878     -0.3357665        -999.25      0.9944039
      8215.0000        11.3874        -999.25        -999.25        -999.25        -999.25         0.5773         0.5872        -999.25         0.5738       -39.5541      0.5202166        -999.25              1
      8215.5000        11.3859        -999.25        -999.25        -999.25        -999.25         0.5809         0.5934        -999.25         0.5879       -38.9512       1.223602        -999.25              1
      8216.0000        11.3845        -999.25        -999.25        -999.25        -999.25         0.5885         0.6003        -999.25         0.6026       -38.8794       1.307369        -999.25              1
      8216.5000        11.3831        -999.25        -999.25        -999.25        -999.25         0.5961         0.6124        -999.25         0.6211       -38.8076       1.391136        -999.25              1
      8217.0000        11.3816        -999.25        -999.25        -999.25        -999.25          0.606         0.6247        -999.25         0.6401       -38.8914       1.293367        -999.25              1
      8217.5000        11.3802        -999.25        -999.25        -999.25        -999.25         0.6178         0.6379        -999.25         0.6484       -39.0002       1.166435        -999.25              1
      8218.0000        11.3788        -999.25        -999.25        -999.25        -999.25         0.6299         0.6518        -999.25         0.6555       -39.1089       1.039619        -999.25              1
      8218.5000        11.3773        -999.25        -999.25        -999.25        -999.25         0.6427         0.6648        -999.25         0.6669       -39.3031      0.8130493        -999.25              1
      8219.0000        11.3759        -999.25        -999.25        -999.25        -999.25         0.6559         0.6758        -999.25           0.68       -39.5274      0.5513656        -999.25              1
      8219.5000        11.3745        -999.25        -999.25        -999.25        -999.25         0.6693          0.687        -999.25         0.6939       -39.7516      0.2898019        -999.25              1
      8220.0000        11.3731        -999.25        -999.25        -999.25        -999.25         0.6794         0.6957        -999.25         0.7128       -40.0262     -0.0305659        -999.25      0.9994906
      8220.5000        11.3716        -999.25        -999.25        -999.25        -999.25         0.6864          0.703        -999.25         0.7322       -40.3315     -0.3867512        -999.25      0.9935542
      8221.0000        11.3702        -999.25        -999.25        -999.25        -999.25         0.6933         0.7104        -999.25         0.7355       -40.3783     -0.4413497        -999.25      0.9926442
      8221.5000        11.3688        -999.25        -999.25        -999.25        -999.25         0.6941         0.7108        -999.25         0.7369        -40.024    -0.02799797        -999.25      0.9995334
      8222.0000        11.3673        -999.25        -999.25        -999.25        -999.25          0.695         0.7099        -999.25         0.7261       -39.6931        0.35805        -999.25              1
      8222.5000        11.3659        -999.25        -999.25        -999.25        -999.25         0.6947         0.7091        -999.25         0.7155       -39.5596       0.513799        -999.25              1
      8223.0000        11.3645        -999.25        -999.25        -999.25        -999.25         0.6929         0.7062        -999.25         0.7071        -39.426      0.6696682        -999.25              1
      8223.5000         11.363        -999.25        -999.25        -999.25        -999.25         0.6911         0.7022        -999.25            0.7        -39.486      0.5996666        -999.25              1
