#------------------------------------------------------------------------------
# Created by    : vladimir.rabinovich
# Created on    : 09/19/2023 17:20:12
#------------------------------------------------------------------------------
~Version Information Section
VERS.           2.0     :   CWLS log ASCII Standard - VERSION 2.0
WRAP.           NO      :   One line per depth step
~Well Information Section
#MNEM       .UNIT                                         VALUE :DESCRIPTION
#------------------------------------------------------------------------------
STRT        .FT                                             309 :START DEPTH
STOP        .FT                                            9124 :STOP DEPTH
STEP        .FT                                             0.5 :STEP      
NULL        .                                           -999.25 :NULL      
COMP        .                         SONAT EXPLORATION GOM INC :COMPANY   
WELL        .                               OCS G03084 ST00BP00 :WELL      
FLD         .                                           WILDCAT :FIELD     
LOC         .                                                   :LOCATION  
CNTY        .                      MATAGORDA ISLAND LARGE BLOCK :LOCATION  
STAT        .                                             TEXAS :STATE     
CTRY        .                                     UNITED STATES :COUNTRY   
SRVC        .                                                   :SERVICE COMPANY
DATE        .                             9/13/2023 11:12:09 AM :LOG DATE  
API         .                                    42703400260000 :API NUMBER
UWI         .                                    42703400260000 :UNIQUE WELL ID
XCOORD      .                                  563826.313549269 :SURFACE X 
YCOORD      .                                  10238444.2560225 :SURFACE Y 
LAT         .                                         28.172716 :LATITUDE  
LON         .                                        -96.341662 :LONGITUDE 
ELEV        .FT                                              97 :ELEVATION VALUE
ELEV_TYPE   .                                                KB :ELEVATION REFERENCE TYPE
~Curve Information Section
#MNEM       .UNIT                                      API CODE :CURVE DESCRIPTION
#------------------------------------------------------------------------------
DEPT        .FT                                                 :DEPTH     
ASFL        .OHMM                                               :          
CILD        .MMHO                                               :          
DT          .US/F                                               :          
GR          .GAPI                                               :          
GR_NORM     .GAPI                                               :GammaRay Normalized
ILD         .OHMM                                               :          
SP          .MV                                                 :          
SP_NORM     .MV                                                 :SP Normalized
VSH_GR      .V/V                                                :Volume of Shale from GR
VSH_SP      .V/V                                                :Volume of Shale from SP
~A        DEPTH           ASFL           CILD             DT             GR        GR_NORM            ILD             SP        SP_NORM         VSH_GR         VSH_SP
# ...
      6164.5000         1.5447       798.4727        93.7368        -999.25        -999.25         1.0716       -86.0181      -16.49908        -999.25      0.7578269
      6165.0000          1.386       795.3301        94.5093        -999.25        -999.25         1.0205       -84.4277      -14.93119        -999.25      0.7823251
      6165.5000         1.3423       894.6172        95.3882        -999.25        -999.25         0.9725       -82.9102       -13.4362        -999.25      0.8056843
      6166.0000         1.2926       927.1523        95.4629        -999.25        -999.25          0.946       -81.7197      -12.26821        -999.25      0.8239342
      6166.5000         1.1979       959.6631        92.2231        -999.25        -999.25         0.9241       -80.9963      -11.56732        -999.25      0.8348856
      6167.0000         1.2918       992.1982        86.5391        -999.25        -999.25         0.9022       -80.2721      -10.86563        -999.25      0.8458495
      6167.5000         1.3802       1018.723        83.9536        -999.25        -999.25          0.886       -79.5916      -10.20764        -999.25      0.8561306
      6168.0000         1.4223       1030.957        82.7617        -999.25        -999.25         0.8779       -82.8505      -13.48905        -999.25      0.8048586
      6168.5000         1.5344        1043.18        82.3198        -999.25        -999.25         0.8699        -88.921      -19.58206        -999.25      0.7096553
      6169.0000          1.665       1055.402        88.5422        -999.25        -999.25         0.8618       -96.3562      -27.03977        -999.25      0.5931286
      6169.5000         1.7955       1067.625        92.5712        -999.25        -999.25         0.8537      -103.5826      -34.28869        -999.25      0.4798642
      6170.0000         1.9261       1079.848        94.7772        -999.25        -999.25         0.8464      -107.1287      -37.85729        -999.25      0.4241048
      6170.5000         2.0829       1092.082        95.3199        -999.25        -999.25         0.8396      -113.0537      -43.80481        -999.25      0.3311749
      6171.0000         2.1337       1112.408        94.8167        -999.25        -999.25         0.8328      -120.2056      -50.97921        -999.25      0.2190748
      6171.5000         2.1153       1143.102        94.2845        -999.25        -999.25         0.8236      -125.7168      -56.51292        -999.25      0.1326107
      6172.0000          2.097        1173.82        93.8625        -999.25        -999.25          0.804      -127.6268      -58.44543        -999.25      0.1024151
      6172.5000         2.0596       1207.227        93.9572        -999.25        -999.25         0.7844      -128.3706      -59.21175        -999.25     0.09044147
      6173.0000         1.9365        1241.33        94.9675        -999.25        -999.25         0.7485      -128.6616      -59.52526        -999.25      0.0855428
      6173.5000         1.7566       1291.166         96.853        -999.25        -999.25         0.7122      -128.1638      -59.04996        -999.25      0.0929693
      6174.0000         1.5594       1361.863        99.2769        -999.25        -999.25         0.6612      -127.6655      -58.57417        -999.25      0.1004035
      6174.5000         1.3552       1479.061       101.6156        -999.25        -999.25         0.5849      -127.1677      -58.09888        -999.25      0.1078299
      6175.0000         0.9139       1562.701       103.4661        -999.25        -999.25         0.5141      -126.6694       -57.6231        -999.25      0.1152641
      6175.5000         0.8709       1659.188       104.3544        -999.25        -999.25         0.4481      -126.8093      -57.78551        -999.25      0.1127264
      6176.0000          0.852       1763.143       104.7034        -999.25        -999.25         0.3914      -129.9004      -60.89912        -999.25     0.06407619
      6176.5000          0.833       1904.734       104.5338        -999.25        -999.25         0.3535      -132.4275      -63.44873        -999.25     0.02423859
      6177.0000         0.8103        2206.84       104.3643        -999.25        -999.25         0.3157      -133.2554      -64.29913        -999.25     0.01095104
      6177.5000         0.7861       2495.102       104.2596        -999.25        -999.25         0.2909      -133.6865      -64.75274        -999.25    0.003863454
      6178.0000         0.7525       2592.684       104.8326        -999.25        -999.25         0.2713      -133.5142      -64.60296        -999.25    0.006203771
      6178.5000         0.6898       2677.719       106.7062        -999.25        -999.25         0.2518      -133.3418      -64.45306        -999.25    0.008545876
      6179.0000         0.6377       2746.625       110.3671        -999.25        -999.25         0.2526      -132.6633      -63.79707        -999.25     0.01879573
      6179.5000         0.5961       2799.199       115.8458        -999.25        -999.25         0.2556      -129.9526      -61.10889        -999.25     0.06079853
      6180.0000         0.5884       2579.641       112.6006        -999.25        -999.25         0.2586      -105.1077      -36.28649        -999.25      0.4486486
      6180.5000         0.6072       2438.445       103.8391        -999.25        -999.25         0.2617      -100.5586      -31.75991        -999.25      0.5193764
      6181.0000         0.7405        2297.25        100.932        -999.25        -999.25         0.2737      -106.2301      -37.45392        -999.25      0.4304075
      6181.5000          0.989       2131.164        98.7385        -999.25        -999.25         0.2896      -126.0896      -57.33593        -999.25      0.1197511
      6182.0000         1.0848       2028.305         97.022        -999.25        -999.25         0.3055      -129.6057      -60.87453        -999.25      0.0644604
      6182.5000         1.1449       1996.367        98.2002        -999.25        -999.25         0.3215      -132.6438      -63.93514        -999.25      0.0166384
      6183.0000         1.2129       2005.342        99.1379        -999.25        -999.25         0.3374      -133.4531      -64.76695        -999.25    0.003641367
      6183.5000         1.1839       2014.314         99.879        -999.25        -999.25         0.3651      -132.6663      -64.00267        -999.25     0.01558328
      6184.0000         1.1157       2023.303       100.3981        -999.25        -999.25         0.3942      -130.3032      -61.66209        -999.25      0.0521549
      6184.5000         1.0401       2032.275       106.8715        -999.25        -999.25         0.4033      -120.0638      -51.44518        -999.25       0.211794
      6185.0000          0.843        2041.25       110.2294        -999.25        -999.25         0.4035      -115.4066       -46.8105        -999.25      0.2842109
      6185.5000         0.7655       2050.234       111.1477        -999.25        -999.25         0.4005      -110.7866      -42.21301        -999.25      0.3560468
      6186.0000         0.6847       2059.211       109.1752        -999.25        -999.25         0.3944      -105.4768      -36.92572        -999.25      0.4386606
      6186.5000         0.7176       2027.707       106.5222        -999.25        -999.25         0.3883      -101.5579      -33.02933        -999.25      0.4995418
      6187.0000         0.7505       1928.234       105.0398        -999.25        -999.25         0.3821       -96.0057      -27.49964        -999.25      0.5859431
      6187.5000         0.7834       1765.531        103.965        -999.25        -999.25          0.376       -88.2423      -19.75875        -999.25      0.7068945
      6188.0000         0.8173       1602.033       103.4185        -999.25        -999.25         0.3871       -86.0461      -17.58505        -999.25      0.7408586
      6188.5000         0.8739         1516.5       102.9978        -999.25        -999.25         0.4447       -84.7653      -16.32677        -999.25      0.7605193
