#------------------------------------------------------------------------------
# Created by    : vladimir.rabinovich
# Created on    : 09/19/2023 17:22:39
#------------------------------------------------------------------------------
~Version Information Section
VERS.           2.0     :   CWLS log ASCII Standard - VERSION 2.0
WRAP.           NO      :   One line per depth step
~Well Information Section
#MNEM       .UNIT                                         VALUE :DESCRIPTION
#------------------------------------------------------------------------------
STRT        .FT                                            2600 :START DEPTH
STOP        .FT                                            8208 :STOP DEPTH
STEP        .FT                                             0.5 :STEP      
NULL        .                                           -999.25 :NULL      
COMP        .                          SEAGULL ENERGY E & P INC :COMPANY   
WELL        .                               OCS G09039 ST00BP00 :WELL      
FLD         .                              GALVESTON BLOCK 0273 :FIELD     
LOC         .                                                   :LOCATION  
CNTY        .                             GALVESTON LARGE BLOCK :LOCATION  
STAT        .                                             TEXAS :STATE     
CTRY        .                                     UNITED STATES :COUNTRY   
SRVC        .                                                   :SERVICE COMPANY
DATE        .                             9/13/2023 11:19:54 AM :LOG DATE  
API         .                                    42706403220000 :API NUMBER
UWI         .                                    42706403220000 :UNIQUE WELL ID
XCOORD      .                                  1018306.80056624 :SURFACE X 
YCOORD      .                                  10490966.5196098 :SURFACE Y 
LAT         .                                         28.894284 :LATITUDE  
LON         .                                        -94.944599 :LONGITUDE 
ELEV        .FT                                             103 :ELEVATION VALUE
ELEV_TYPE   .                                                KB :ELEVATION REFERENCE TYPE
~Curve Information Section
#MNEM       .UNIT                                      API CODE :CURVE DESCRIPTION
#------------------------------------------------------------------------------
DEPT        .FT                                                 :DEPTH     
DCAL        .IN                                                 :          
DPHI        .%                                                  :          
DTL         .US/F                                               :          
GR          .GAPI                                               :          
GR_1        .GAPI                                               :          
GR_NORM     .GAPI                                               :GammaRay Normalized
ILD         .OHMM                                               :          
ILM         .OHMM                                               :          
NPHI        .%                                                  :          
SFL         .OHMM                                               :          
SP          .MV                                                 :          
SP_NORM     .MV                                                 :SP Normalized
VSH_GR      .V/V                                                :Volume of Shale from GR
VSH_SP      .V/V                                                :Volume of Shale from SP
~A        DEPTH           DCAL           DPHI            DTL             GR           GR_1        GR_NORM            ILD            ILM           NPHI            SFL             SP        SP_NORM         VSH_GR         VSH_SP
# ...
      5966.0000        -999.25        -999.25        -999.25        30.6074        -999.25       39.19172            0.2         0.2229        -999.25         0.4871       -92.6328      -57.20028      0.1317387     0.04666195
      5966.5000        -999.25        -999.25        -999.25        33.7041        -999.25        43.6166         0.1991         0.2202        -999.25         0.4457       -92.4985      -57.05523       0.225885     0.04907945
      5967.0000        -999.25        -999.25        -999.25        34.4827        -999.25       44.72913         0.2018         0.2194        -999.25         0.4064       -91.7452      -56.24357       0.249556     0.06260713
      5967.5000        -999.25        -999.25        -999.25        35.4343        -999.25       46.08887         0.2065          0.221        -999.25         0.3897       -90.2374      -54.61936      0.2784866      0.0896773
      5968.0000        -999.25        -999.25        -999.25         37.806        -999.25       49.47779         0.2144          0.226        -999.25         0.3866       -88.5256      -52.77547      0.3505914      0.1204089
      5968.5000        -999.25        -999.25        -999.25        42.6649        -999.25       56.42067         0.2264         0.2405        -999.25         0.4002       -85.8173      -49.85841       0.498312      0.1690264
      5969.0000        -999.25        -999.25        -999.25        51.7632        -999.25        69.4212         0.2561         0.2666        -999.25         0.4371       -79.5698      -43.12992      0.7749192       0.281168
      5969.5000        -999.25        -999.25        -999.25        55.8381        -999.25       75.24382         0.3254         0.3526        -999.25         0.5064       -72.2361      -35.23167      0.8988047      0.4128055
      5970.0000        -999.25        -999.25        -999.25        58.8045        -999.25        79.4825         0.4482         0.5011        -999.25         0.5727       -65.5659      -28.04796      0.9889893      0.5325339
      5970.5000        -999.25        -999.25        -999.25        59.8779        -999.25       81.01629         0.5646         0.6151        -999.25         0.6214       -59.4069      -21.41477              1      0.6430871
      5971.0000        -999.25        -999.25        -999.25        59.2358        -999.25       80.09879         0.5859         0.6701        -999.25         0.6278       -55.1846      -16.86726              1       0.718879
      5971.5000        -999.25        -999.25        -999.25         58.646        -999.25       79.25603         0.5735         0.6777        -999.25         0.5758       -53.0698      -14.58936       0.984171       0.756844
      5972.0000        -999.25        -999.25        -999.25        57.9222        -999.25       78.22179         0.5489         0.6392        -999.25         0.5457       -52.4958      -13.97079      0.9621657      0.7671536
      5972.5000        -999.25        -999.25        -999.25         53.926        -999.25       72.51163         0.5253         0.6134        -999.25         0.7055       -54.5087      -16.13811      0.8406729      0.7310315
      5973.0000        -999.25        -999.25        -999.25        47.0248        -999.25       62.65051         0.5503         0.6192        -999.25         1.2291       -59.1563       -21.1428       0.630862      0.6476201
      5973.5000        -999.25        -999.25        -999.25        42.5936        -999.25       56.31878         0.5788         0.6164        -999.25         1.5155       -66.8881      -29.46893      0.4961443      0.5088512
      5974.0000        -999.25        -999.25        -999.25         41.309        -999.25       54.48322         0.5419         0.5341        -999.25         1.2022       -72.7129      -35.74137      0.4570898      0.4043106
      5974.5000        -999.25        -999.25        -999.25        42.4904        -999.25       56.17132         0.4417         0.4378        -999.25         0.6902       -75.6866      -38.94339      0.4930068      0.3509434
      5975.0000        -999.25        -999.25        -999.25         45.501        -999.25       60.47316         0.3731         0.3886        -999.25         0.5266       -76.9106      -40.26113      0.5845353      0.3289812
      5975.5000        -999.25        -999.25        -999.25        51.3896        -999.25       68.88736         0.3651         0.4011        -999.25         0.5561       -74.0253      -37.15347      0.7635608      0.3807756
      5976.0000        -999.25        -999.25        -999.25        57.2586        -999.25       77.27357         0.3806         0.4514        -999.25         0.6591       -66.4604      -29.00624       0.941991      0.5165628
      5976.5000        -999.25        -999.25        -999.25        59.5468        -999.25       80.54318         0.4643         0.5226        -999.25         0.7292       -62.2701      -24.49318              1      0.5917804
      5977.0000        -999.25        -999.25        -999.25        60.9144        -999.25       82.49734         0.5106         0.5617        -999.25         0.7357       -59.7018       -21.7269              1       0.637885
      5977.5000        -999.25        -999.25        -999.25        62.2723        -999.25       84.43763         0.5258         0.5913        -999.25         0.6597       -57.4924      -19.34712              1      0.6775479
      5978.0000        -999.25        -999.25        -999.25         63.339        -999.25       85.96184         0.5209         0.5923        -999.25         0.6407       -55.7449      -17.46478              1      0.7089203
      5978.5000        -999.25        -999.25        -999.25        58.3499        -999.25       78.83293         0.4685         0.5201        -999.25         0.6283        -54.658      -16.29386      0.9751688      0.7284358
      5979.0000        -999.25        -999.25        -999.25        52.2744        -999.25       70.15166         0.3527         0.3885        -999.25         0.5509        -55.536      -17.23897      0.7904608      0.7126839
      5979.5000        -999.25        -999.25        -999.25        46.4595        -999.25       61.84275         0.3009         0.3129        -999.25         0.4422       -59.2988       -21.2908      0.6136755      0.6451533
      5980.0000        -999.25        -999.25        -999.25        43.2952        -999.25        57.3213         0.2768         0.2762        -999.25         0.4237       -68.8591      -31.58609      0.5174744      0.4735652
      5980.5000        -999.25        -999.25        -999.25        43.0826        -999.25       57.01751         0.2784          0.271        -999.25         0.5154       -71.6462      -34.58716      0.5110109      0.4235473
      5981.0000        -999.25        -999.25        -999.25          45.27        -999.25       60.14308         0.2953          0.293        -999.25         0.6346       -70.9434      -33.82988      0.5775123      0.4361687
      5981.5000        -999.25        -999.25        -999.25        51.4978        -999.25       69.04197         0.3806         0.3679        -999.25         0.7194       -62.9067      -25.17455      0.7668504      0.5804241
      5982.0000        -999.25        -999.25        -999.25        56.3001        -999.25       75.90398         0.4967         0.4678        -999.25         0.7677        -56.035      -17.77384      0.9128506      0.7037694
      5982.5000        -999.25        -999.25        -999.25        58.7849        -999.25        79.4545         0.6068          0.595        -999.25         0.7763       -50.0579      -11.33654      0.9883936      0.8110577
      5983.0000        -999.25        -999.25        -999.25        61.0189        -999.25       82.64665         0.7094         0.7056        -999.25         0.7761       -47.7747      -8.877291              1      0.8520452
      5983.5000        -999.25        -999.25        -999.25        63.5688        -999.25       86.29021         0.7566         0.7666        -999.25         0.7603       -46.2914      -7.279472              1      0.8786755
