#------------------------------------------------------------------------------
# Created by    : vladimir.rabinovich
# Created on    : 09/19/2023 17:21:26
#------------------------------------------------------------------------------
~Version Information Section
VERS.           2.0     :   CWLS log ASCII Standard - VERSION 2.0
WRAP.           NO      :   One line per depth step
~Well Information Section
#MNEM       .UNIT                                         VALUE :DESCRIPTION
#------------------------------------------------------------------------------
STRT        .FT                                            3102 :START DEPTH
STOP        .FT                                            8740 :STOP DEPTH
STEP        .FT                                             0.5 :STEP      
NULL        .                                           -999.25 :NULL      
COMP        .                          SEAGULL ENERGY E & P INC :COMPANY   
WELL        .                               OCS G13314 ST00BP00 :WELL      
FLD         .                              GALVESTON BLOCK 0330 :FIELD     
LOC         .                                                   :LOCATION  
CNTY        .                             GALVESTON LARGE BLOCK :LOCATION  
STAT        .                                             TEXAS :STATE     
CTRY        .                                     UNITED STATES :COUNTRY   
SRVC        .                                                   :SERVICE COMPANY
DATE        .                             9/13/2023 11:19:54 AM :LOG DATE  
API         .                                    42706403240000 :API NUMBER
UWI         .                                    42706403240000 :UNIQUE WELL ID
XCOORD      .                                  980373.867630971 :SURFACE X 
YCOORD      .                                  10452895.3513713 :SURFACE Y 
LAT         .                                         28.787844 :LATITUDE  
LON         .                                        -95.061044 :LONGITUDE 
ELEV        .FT                                              95 :ELEVATION VALUE
ELEV_TYPE   .                                                KB :ELEVATION REFERENCE TYPE
~Curve Information Section
#MNEM       .UNIT                                      API CODE :CURVE DESCRIPTION
#------------------------------------------------------------------------------
DEPT        .FT                                                 :DEPTH     
CALI        .IN                                                 :          
DRHO        .G/C3                                               :          
DT          .US/F                                               :          
GR          .GAPI                                               :          
GR_1        .GAPI                                               :          
GR_NORM     .GAPI                                               :GammaRay Normalized
ILD         .OHMM                                               :          
ILM         .OHMM                                               :          
NPHI        .%                                                  :          
RFOC        .OHMM                                               :          
RHOB        .G/C3                                               :          
SP          .MV                                                 :          
SP_NORM     .MV                                                 :SP Normalized
VSH_GR      .V/V                                                :Volume of Shale from GR
VSH_SP      .V/V                                                :Volume of Shale from SP
~A        DEPTH           CALI           DRHO             DT             GR           GR_1        GR_NORM            ILD            ILM           NPHI           RFOC           RHOB             SP        SP_NORM         VSH_GR         VSH_SP
# ...
      5771.0000        -999.25        -999.25        110.408        54.2849        -999.25       63.19107         0.4753          0.651        -999.25         1.3593        -999.25       -54.8329      -24.61481      0.6423632      0.6923149
      5771.5000        -999.25        -999.25        112.825        51.9324        -999.25       60.53392          0.473         0.6466        -999.25         1.3154        -999.25        -57.199      -26.98118      0.5858282      0.6627353
      5772.0000        -999.25        -999.25        115.282        49.8128        -999.25       58.13984         0.4728         0.6405        -999.25         1.3113        -999.25       -59.8528      -29.63524      0.5348903      0.6295595
      5772.5000        -999.25        -999.25       115.8243        48.5202        -999.25       56.67986         0.4756          0.638        -999.25         1.3805        -999.25       -61.9738      -31.75651      0.5038267      0.6030436
      5773.0000        -999.25        -999.25       114.9146        47.9958        -999.25       56.08755         0.4852         0.6456        -999.25         1.4245        -999.25       -60.9792      -30.76217      0.4912244      0.6154728
      5773.5000        -999.25        -999.25       114.0072        49.2507        -999.25       57.50496          0.497         0.6653        -999.25         1.3381        -999.25       -57.6057      -27.38894       0.521382      0.6576382
      5774.0000        -999.25        -999.25       114.4521        52.3386        -999.25       60.99274         0.5199          0.684        -999.25         1.2605        -999.25       -52.8884      -22.67191      0.5955902      0.7166011
      5774.5000        -999.25        -999.25       115.6669        55.3744        -999.25       64.42166         0.5512         0.7101        -999.25         1.2161        -999.25       -48.7396      -18.52338       0.668546      0.7684578
      5775.0000        -999.25        -999.25       116.6511        57.1845        -999.25       66.46617         0.5827         0.7486        -999.25         1.2016        -999.25       -46.4979      -16.28194      0.7120462      0.7964757
      5775.5000        -999.25        -999.25       116.3368        55.5056        -999.25       64.56985         0.6156         0.7972        -999.25         1.2052        -999.25       -45.1645      -14.94881      0.6716989      0.8131398
      5776.0000        -999.25        -999.25       114.2372        51.8334        -999.25       60.42211         0.6486         0.8317        -999.25         1.2613        -999.25       -44.1602      -13.94478      0.5834492      0.8256903
      5776.5000        -999.25        -999.25       110.9603        50.0109        -999.25        58.3636          0.679         0.8549        -999.25         1.3624        -999.25       -43.4833      -13.26815       0.539651      0.8341482
      5777.0000        -999.25        -999.25        108.241        49.7539        -999.25       58.07332         0.7011         0.8673        -999.25         1.5018        -999.25       -43.1727      -12.95782      0.5334749      0.8380273
      5777.5000        -999.25        -999.25       105.7014        50.1335        -999.25       58.50207         0.7106         0.8647        -999.25         1.5556        -999.25       -43.4777      -13.26308      0.5425972      0.8342115
      5778.0000        -999.25        -999.25       104.6716        51.0967        -999.25       59.59001         0.7087         0.8496        -999.25         1.4651        -999.25       -44.1533      -13.93895      0.5657448      0.8257631
      5778.5000        -999.25        -999.25       108.0935        52.1639        -999.25        60.7954         0.7023         0.8317        -999.25         1.3421        -999.25       -45.3521      -15.13802      0.5913916      0.8107748
      5779.0000        -999.25        -999.25       111.0078        53.2783        -999.25       62.05412          0.689         0.8132        -999.25         1.2819        -999.25       -47.5027      -17.28889      0.6181728      0.7838889
      5779.5000        -999.25        -999.25       113.4099        52.1776        -999.25       60.81088          0.669          0.792        -999.25         1.2783        -999.25       -49.5771      -19.36355      0.5917208      0.7579556
      5780.0000        -999.25        -999.25       112.9299        49.7484        -999.25        58.0671         0.6462         0.7725        -999.25          1.312        -999.25       -50.7945      -20.58122      0.5333427      0.7427348
      5780.5000        -999.25        -999.25       111.3297        47.9841        -999.25       56.07433         0.6241         0.7585        -999.25         1.3033        -999.25       -51.7175      -21.50449      0.4909433      0.7311939
      5781.0000        -999.25        -999.25       112.5851         50.152        -999.25       58.52297         0.6069         0.7482        -999.25         1.2469        -999.25       -51.7751      -21.56236      0.5430419      0.7304705
      5781.5000        -999.25        -999.25        115.522        51.8541        -999.25       60.44549          0.593         0.7425        -999.25         1.1559        -999.25       -51.2482      -21.03572      0.5839465      0.7370535
      5782.0000        -999.25        -999.25       118.1539        51.5204        -999.25       60.06858         0.5777         0.7367        -999.25         1.0756        -999.25       -51.1255      -20.91329      0.5759271      0.7385839
      5782.5000        -999.25        -999.25       114.3097        50.7339        -999.25       59.18022         0.5572         0.7253        -999.25         1.1606        -999.25       -52.1735      -21.96156      0.5570259      0.7254806
      5783.0000        -999.25        -999.25       109.5857        48.4013        -999.25       56.54555         0.5292         0.6933        -999.25         1.3425        -999.25       -57.1414      -26.92972      0.5009692      0.6633785
      5783.5000        -999.25        -999.25       106.3613        44.3106        -999.25       51.92512         0.5009         0.6488        -999.25         1.4991        -999.25       -65.2609      -35.04949      0.4026621      0.5618814
      5784.0000        -999.25        -999.25       104.0367        42.4361        -999.25       49.80787         0.4773         0.6076        -999.25         1.4744        -999.25       -73.5142      -43.30305      0.3576143      0.4587118
      5784.5000        -999.25        -999.25       109.7056        44.2264        -999.25       51.83001         0.4577         0.5862        -999.25         1.3822        -999.25       -78.9966      -48.78572      0.4006385      0.3901785
      5785.0000        -999.25        -999.25       115.3695        46.3411        -999.25       54.21857         0.4484         0.5778        -999.25           1.27        -999.25       -78.6028      -48.39219      0.4514589      0.3950976
      5785.5000        -999.25        -999.25       121.0383        46.7321        -999.25        54.6602          0.444         0.5813        -999.25         1.1642        -999.25       -71.9244      -41.71406      0.4608553      0.4785742
      5786.0000        -999.25        -999.25       125.8623        46.5912        -999.25       54.50105         0.4381         0.5858        -999.25         1.0903        -999.25       -63.5152      -33.30513      0.4574692      0.5836859
      5786.5000        -999.25        -999.25       128.8191        49.7187        -999.25       58.03356         0.4311         0.5866        -999.25         1.0052        -999.25       -61.3674       -31.1576      0.5326289        0.61053
      5787.0000        -999.25        -999.25       125.6423        52.6648        -999.25       61.36117         0.4205         0.5825        -999.25         1.0272        -999.25       -61.6487      -31.43916      0.6034292      0.6070105
      5787.5000        -999.25        -999.25       121.5082        51.1301        -999.25       59.62773         0.3986         0.5267        -999.25         1.2061        -999.25       -69.9038      -39.69453      0.5665475      0.5038184
