#------------------------------------------------------------------------------
# Created by    : vladimir.rabinovich
# Created on    : 09/19/2023 17:21:24
#------------------------------------------------------------------------------
~Version Information Section
VERS.           2.0     :   CWLS log ASCII Standard - VERSION 2.0
WRAP.           NO      :   One line per depth step
~Well Information Section
#MNEM       .UNIT                                         VALUE :DESCRIPTION
#------------------------------------------------------------------------------
STRT        .FT                                            4234 :START DEPTH
STOP        .FT                                            7516 :STOP DEPTH
STEP        .FT                                             0.5 :STEP      
NULL        .                                           -999.25 :NULL      
COMP        .                          SEAGULL ENERGY E & P INC :COMPANY   
WELL        .                               OCS G11311 ST00BP00 :WELL      
FLD         .                                           WILDCAT :FIELD     
LOC         .                                                   :LOCATION  
CNTY        .                             GALVESTON LARGE BLOCK :LOCATION  
STAT        .                                             TEXAS :STATE     
CTRY        .                                     UNITED STATES :COUNTRY   
SRVC        .                                                   :SERVICE COMPANY
DATE        .                             9/13/2023 11:19:54 AM :LOG DATE  
API         .                                    42706403550000 :API NUMBER
UWI         .                                    42706403550000 :UNIQUE WELL ID
XCOORD      .                                  972569.007613557 :SURFACE X 
YCOORD      .                                  10477919.1442114 :SURFACE Y 
LAT         .                                         28.856272 :LATITUDE  
LON         .                                        -95.086774 :LONGITUDE 
ELEV        .FT                                              94 :ELEVATION VALUE
ELEV_TYPE   .                                                KB :ELEVATION REFERENCE TYPE
~Curve Information Section
#MNEM       .UNIT                                      API CODE :CURVE DESCRIPTION
#------------------------------------------------------------------------------
DEPT        .FT                                                 :DEPTH     
CALI        .IN                                                 :          
DPHI        .%                                                  :          
DRHO        .G/C3                                               :          
DTLN        .US/F                                               :          
GR          .GAPI                                               :          
GR_NORM     .GAPI                                               :GammaRay Normalized
IDPH        .OHMM                                               :          
IMPH        .OHMM                                               :          
NPHI        .%                                                  :          
SFLU        .OHMM                                               :          
SP          .MV                                                 :          
SP_NORM     .MV                                                 :SP Normalized
VSH_GR      .V/V                                                :Volume of Shale from GR
VSH_SP      .V/V                                                :Volume of Shale from SP
~A        DEPTH           CALI           DPHI           DRHO           DTLN             GR        GR_NORM           IDPH           IMPH           NPHI           SFLU             SP        SP_NORM         VSH_GR         VSH_SP
# ...
      4504.0000        13.8953        61.1165        -0.1571       115.7786        33.5829        51.3395         1.3575         1.3545        68.4708         1.3333      -102.6196      -37.11162      0.3902021       0.469834
      4504.5000        14.9898        61.6796        -0.0951       104.5751        35.1522       52.56586         0.6768         1.0748        71.6964         1.1231      -100.4714      -35.10663       0.416295      0.4984767
      4505.0000        16.0842        60.1647        -0.0584        95.8546        37.3519       54.32745         0.3359         0.6509        73.3309         0.8914       -98.0205      -32.81913      0.4537754      0.5311553
      4505.5000        17.3227        54.1461        -0.0394       102.6028        39.0663       55.67699         0.3457          0.494        73.3909         0.8335       -96.3671      -31.27596      0.4824891      0.5532006
      4506.0000        18.0078        50.9736         -0.029       109.7313        38.7074       55.26628         0.3863         0.4433        72.4957         0.8486       -94.6553      -29.67827      0.4737507      0.5760247
      4506.5000        19.2769        52.6706         -0.027       116.7523        38.2951       54.81025         0.4471         0.4492        71.5271         0.9247       -92.3943      -27.56801      0.4640478      0.6061713
      4507.0000         19.176        53.4495        -0.0276       116.1541        39.1901       55.46412         0.6195         0.5193           69.9         1.0537       -91.1458      -26.40274        0.47796       0.622818
      4507.5000        19.1917        46.7717        -0.0283       111.2382         42.729       58.36269         0.6727         0.6371        59.9162         1.1933       -90.9218      -26.19367      0.5396316      0.6258047
      4508.0000         19.397        37.4462        -0.0216       105.3911        46.0903       61.11048         0.6903         0.8527         50.399         1.1858       -91.6512      -26.87445      0.5980954      0.6160793
      4508.5000        18.8703        27.4143         -0.008       102.9025        48.2387       62.82851         0.6967         0.9471        39.4214         1.1277       -92.8739      -28.01564      0.6346491      0.5997766
      4509.0000        18.1445        28.8089         0.0033       106.8229          45.24       60.17657         0.6806         0.9288        37.4162         1.0532       -94.2076      -29.26043      0.5782249      0.5819939
      4509.5000        17.9529        32.3674         0.0044        111.546        42.1876       57.47906         0.6421         0.8575        42.6836         0.9687       -95.6598      -30.61581       0.520831      0.5626313
      4510.0000        17.6526        35.0025         0.0002       116.4193        40.1142       55.61272         0.6061         0.7558        51.3986         0.9048       -97.0386      -31.90269      0.4811217      0.5442473
      4510.5000        17.2204        35.0706        -0.0059       120.1038        40.2618       55.63205         0.5661         0.6459        50.0878         0.8401       -97.7673      -32.58281      0.4815329      0.5345312
      4511.0000        16.9691        35.8876        -0.0109       119.9774        41.2615       56.37481         0.5341         0.6344        45.5627          0.792       -97.4633      -32.29908      0.4973363      0.5385846
      4511.5000          17.08        38.2318        -0.0139       119.3898        42.3563       57.19832          0.526         0.6667        47.2057         0.7733       -96.0604       -30.9897      0.5148578        0.55729
      4512.0000        17.4453        39.8924        -0.0105       119.5957        43.8232       58.33773         0.5391         0.6936        52.6257         0.7824        -93.916      -28.98826      0.5391007      0.5858819
      4512.5000        17.9881        39.2014        -0.0049       124.6743        45.1124       59.32629         0.5594         0.7173        58.7071         0.8126        -92.193      -27.38013      0.5601338      0.6088552
      4513.0000        18.5512         37.497         0.0019       127.7517        44.4359       58.64594         0.5837         0.7163        58.5335         0.8121       -91.0663      -26.32854      0.5456582      0.6238779
      4513.5000        19.0473        35.5203           0.01        127.472        43.1454       57.44429         0.6087         0.7093        53.5684         0.7958        -89.916      -25.25493      0.5200914      0.6392153
      4514.0000        18.4286        33.6183         0.0148       127.8199        42.5811        56.8592         0.6316         0.6986        53.5043         0.7814       -89.1049       -24.4979      0.5076426        0.65003
      4514.5000        18.0508        33.7051         0.0144       127.3988        43.3899       57.43989         0.6486         0.7007        52.5613         0.7743       -88.5048      -23.93781      0.5199977      0.6580313
      4515.0000        18.0503        34.4055         0.0116        123.608        44.9111       58.62541         0.6555         0.7244        49.8035          0.781       -88.7045       -24.1242      0.5452215      0.6553686
      4515.5000        17.7599        35.0123         0.0068       118.7872        46.6306        59.9793         0.6599         0.7718        49.4586         0.9096       -88.5646      -23.99362      0.5740276       0.657234
      4516.0000        17.7368        33.9146        -0.0008       110.8226        48.6801       61.61335         0.6631         0.8245        47.1039         1.0783       -87.6061      -23.09902      0.6087947       0.670014
      4516.5000        17.2927        33.4029        -0.0114        98.2175        50.2814       62.86688         0.6679          0.884        36.7279         1.2133       -87.1604      -22.68304      0.6354655      0.6759566
      4517.0000        17.0078        40.1457        -0.0295        97.9572        50.5571       62.99495         0.6753         0.9094        27.8707         1.2445        -88.493      -23.92679      0.6381905      0.6581887
      4517.5000        17.3852        49.3516        -0.0527       108.9805        49.1878       61.72642         0.6831         0.8811        30.5268         1.1496       -90.2537      -25.57012      0.6112004      0.6347126
      4518.0000        18.0397        56.2889        -0.0523       123.7782        47.0732        59.8251         0.6883         0.8427         41.684         1.0258       -92.0237      -27.22211      0.5707467      0.6111127
      4518.5000        18.0738        56.0928        -0.0443       129.7903        45.0775       58.02473         0.6907         0.8067        46.0325         0.9697       -93.1434      -28.26717      0.5324411      0.5961832
      4519.0000        18.2128        49.9321        -0.0326       131.9692        43.6916       56.74209         0.6872         0.7804        50.2524         0.9532       -93.6786      -28.76669      0.5051509      0.5890474
      4519.5000        17.6913        42.5758        -0.0204       131.0581        45.3325       58.02924         0.6764         0.7592        42.2825         0.9401       -93.4486      -28.55202      0.5325371       0.592114
      4520.0000        17.3296        35.2195        -0.0092       129.6528        47.7385       59.96597         0.6696         0.7466        41.5583         0.9149        -91.845      -27.05533      0.5737439      0.6134953
      4520.5000         17.528        29.1815        -0.0039        128.311        48.6057       60.59624         0.6638         0.7419        43.6383         0.8682       -88.3745      -23.81619      0.5871541      0.6597687
      4521.0000        17.8714        28.9379         -0.003        126.146        48.4335       60.34405         0.6584          0.748        44.6716         0.8298       -85.7599      -21.37591      0.5817882      0.6946299
      4521.5000        18.7063        28.9791         -0.003       119.5081        48.6782       60.44581         0.6548         0.7592        43.7348         0.8483       -84.7362      -20.42045      0.5839534      0.7082793
