#------------------------------------------------------------------------------
# Created by    : vladimir.rabinovich
# Created on    : 09/19/2023 17:20:01
#------------------------------------------------------------------------------
~Version Information Section
VERS.           2.0     :   CWLS log ASCII Standard - VERSION 2.0
WRAP.           NO      :   One line per depth step
~Well Information Section
#MNEM       .UNIT                                         VALUE :DESCRIPTION
#------------------------------------------------------------------------------
STRT        .FT                                            3496 :START DEPTH
STOP        .FT                                           13495 :STOP DEPTH
STEP        .FT                                             0.5 :STEP      
NULL        .                                           -999.25 :NULL      
COMP        .                      TEXAS EASTERN EXPLORATION CO :COMPANY   
WELL        .                                ST TR 00798-L NE/4 :WELL      
FLD         .                                           WILDCAT :FIELD     
LOC         .                                                   :LOCATION  
CNTY        .                        MUSTANG ISLAND LARGE BLOCK :LOCATION  
STAT        .                                             TEXAS :STATE     
CTRY        .                                     UNITED STATES :COUNTRY   
SRVC        .                                                   :SERVICE COMPANY
DATE        .                             9/13/2023 11:18:55 AM :LOG DATE  
API         .                                    42702302040000 :API NUMBER
UWI         .                                    42702302040000 :UNIQUE WELL ID
XCOORD      .                                  329124.923046376 :SURFACE X 
YCOORD      .                                  10022065.1107101 :SURFACE Y 
LAT         .                                        27.5591082 :LATITUDE  
LON         .                                       -97.0466418 :LONGITUDE 
ELEV        .FT                                              82 :ELEVATION VALUE
ELEV_TYPE   .                                                KB :ELEVATION REFERENCE TYPE
~Curve Information Section
#MNEM       .UNIT                                      API CODE :CURVE DESCRIPTION
#------------------------------------------------------------------------------
DEPT        .FT                                                 :DEPTH     
ASFL        .OHMM                                               :          
CILD        .MMHO                                               :          
GR          .GAPI                                               :          
GR_NORM     .GAPI                                               :GammaRay Normalized
ILD         .OHMM                                               :          
SFL         .OHMM                                               :          
SP          .MV                                                 :          
SP_NORM     .MV                                                 :SP Normalized
VSH_GR      .V/V                                                :Volume of Shale from GR
VSH_SP      .V/V                                                :Volume of Shale from SP
~A        DEPTH           ASFL           CILD             GR        GR_NORM            ILD            SFL             SP        SP_NORM         VSH_GR         VSH_SP
# ...
      8151.0000         0.5592       2398.156        71.3137        88.2012         0.4219          0.554       -41.3254     -0.2541695              1              1
      8151.5000         0.5469       2442.125        72.8755       90.20486         0.4238         0.5481       -41.4084     -0.3383865              1              1
      8152.0000         0.5422           2458        72.2968       89.46692         0.4256          0.548       -41.4812     -0.4123993              1              1
      8152.5000         0.5405       2456.551         71.718       88.72884         0.4275         0.5478        -41.554     -0.4864159              1              1
      8153.0000          0.542        2437.59         70.547       87.23225         0.4305         0.5477       -41.5109     -0.4445305              1              1
      8153.5000         0.5467       2387.254        69.2788       85.61118         0.4374         0.5475       -41.4494     -0.3842468              1              1
      8154.0000         0.5517        2309.43        68.1128       84.12099         0.4442         0.5474       -41.3287     -0.2647629              1              1
      8154.5000         0.5707       2229.031        66.9663       82.65581         0.4537         0.5473       -41.1244    -0.06167603              1              1
      8155.0000         0.5905       2151.707         65.681       81.01283          0.467         0.5482       -40.9106      0.1509094              1              1
      8155.5000         0.6109       2091.184         63.699        78.4775         0.4803         0.5645       -40.6771      0.3831902      0.9676064              1
      8156.0000         0.6234       2046.176        64.0024       78.86937         0.4896         0.5807       -41.0043     0.05477905       0.975944              1
      8156.5000         0.6332       2016.088        64.8848       80.00284         0.4976          0.597       -41.2037     -0.1458397              1              1
      8157.0000         0.6397       1990.461        65.4537       80.73475         0.5057         0.6133       -41.4027     -0.3460541              1              1
      8157.5000         0.6458       1976.285         65.998       81.43517         0.5096         0.6296       -41.5359     -0.4804688              1              1
      8158.0000         0.6481       1963.248        66.5215       82.10894         0.5063         0.6394       -41.6343     -0.5800858              1              1
      8158.5000         0.6488        1953.93        66.9651       82.68038         0.5029         0.6452        -41.446     -0.3930016              1              1
      8159.0000         0.6472        1952.74        66.6426       82.27058         0.4995          0.645       -41.0756    -0.02381516              1              1
      8159.5000         0.6451       1965.504        66.3206       81.86142          0.496         0.6449        -40.726      0.3245659              1              1
      8160.0000         0.6417       1978.293        65.7708       81.16047         0.4925         0.6438        -40.377      0.6723518              1              1
      8160.5000         0.6384       2005.977        65.1785       80.40511          0.489          0.642        -40.033       1.015137              1              1
      8161.0000         0.6342       2040.574        64.6844       79.77553         0.4854         0.6403       -39.6932       1.353722       0.995224              1
      8161.5000         0.6296       2070.613        64.5824       79.64814         0.4818         0.6385       -39.4695       1.576206      0.9925136              1
      8162.0000         0.6249       2099.758        64.5096       79.55816         0.4781         0.6368        -39.399       1.645493      0.9905991              1
      8162.5000         0.6203        2127.07        64.6952       79.79913         0.4757         0.6355       -39.4484       1.594875      0.9957262              1
      8163.0000         0.6151       2152.055        66.5387        82.1636         0.4733         0.6344       -39.6495       1.392559              1              1
      8163.5000         0.6089       2172.426         69.156       85.51915          0.471         0.6334       -39.8793       1.161545              1              1
      8164.0000         0.6039       2186.355        70.9327       87.79806         0.4688         0.6323       -40.0816      0.9580269              1              1
      8164.5000         0.5992       2199.563        72.1641       89.37852          0.467         0.6296       -40.1979      0.8405151              1              1
      8165.0000          0.599       2201.609        72.0977       89.29675         0.4652         0.6239        -40.314      0.7231979              1              1
      8165.5000         0.5996       2188.164        69.9719       86.57723         0.4633         0.6183       -40.3374      0.6985817              1              1
      8166.0000         0.6039       2168.684        68.0968       84.17883         0.4615         0.6126       -40.3401      0.6946678              1              1
      8166.5000          0.611       2150.145         66.374        81.9755          0.459         0.6122       -40.3429      0.6906509              1              1
      8167.0000         0.6167       2136.066        67.9419       83.98695         0.4562         0.6133       -40.3456      0.6867332              1              1
      8167.5000         0.6217       2124.234        69.4755       85.95448         0.4533         0.6144       -40.5002      0.5309219              1              1
      8168.0000         0.6267       2120.043        70.6674       87.48435         0.4504         0.6162       -40.8372      0.1927032              1              1
      8168.5000         0.6298       2125.453        71.8359       88.98426         0.4483         0.6186       -41.2881     -0.2594109              1              1
      8169.0000          0.628       2131.434        70.6453       87.46258         0.4482         0.6209       -41.7151     -0.6876259              1              1
      8169.5000         0.6183        2147.07        68.9213        85.2577         0.4481         0.6198        -42.037      -1.010742              1      0.9998443
      8170.0000         0.6048       2173.418        68.3899       84.58034         0.4479         0.6126       -42.3596      -1.334557              1      0.9951513
      8170.5000         0.5977       2194.035        67.9696       84.04527         0.4477          0.607       -42.6496      -1.625774              1      0.9909308
      8171.0000         0.5935       2221.945        68.1552       84.28626         0.4466         0.6022       -42.8705      -1.847889              1      0.9877117
      8171.5000         0.5939       2243.086        68.3251       84.50715         0.4455         0.5974       -42.7622      -1.740803              1      0.9892637
      8172.0000         0.5966       2257.445        68.2773       84.44917         0.4445         0.5927       -42.6537      -1.633522              1      0.9908185
      8172.5000         0.6003       2267.906        68.2296       84.39134         0.4434         0.5884       -42.4994      -1.480438              1      0.9930371
      8173.0000         0.5986       2278.375        67.9623       84.05225         0.4423         0.5841       -42.2324      -1.214649              1      0.9968891
      8173.5000         0.5951       2292.777         66.895       82.68848         0.4411         0.5797       -41.9655      -0.948967              1              1
      8174.0000         0.5909       2319.098        65.8666       81.37454         0.4399         0.5754       -41.7824     -0.7670822              1              1
      8174.5000         0.5866       2349.633        66.6641       82.39926         0.4387          0.571       -41.6193     -0.6051979              1              1
      8175.0000         0.5842       2397.215        67.5266       83.50723         0.4375         0.5693       -41.7098     -0.6969147              1              1
