#------------------------------------------------------------------------------
# Created by    : vladimir.rabinovich
# Created on    : 09/19/2023 17:20:24
#------------------------------------------------------------------------------
~Version Information Section
VERS.           2.0     :   CWLS log ASCII Standard - VERSION 2.0
WRAP.           NO      :   One line per depth step
~Well Information Section
#MNEM       .UNIT                                         VALUE :DESCRIPTION
#------------------------------------------------------------------------------
STRT        .FT                                            2124 :START DEPTH
STOP        .FT                                            8264 :STOP DEPTH
STEP        .FT                                             0.5 :STEP      
NULL        .                                           -999.25 :NULL      
COMP        .                               SUPERIOR OIL CO THE :COMPANY   
WELL        .                                     ST TR 00009-L :WELL      
FLD         .                                           WILDCAT :FIELD     
LOC         .                                                   :LOCATION  
CNTY        .                           HIGH ISLAND LARGE BLOCK :LOCATION  
STAT        .                                             TEXAS :STATE     
CTRY        .                                     UNITED STATES :COUNTRY   
SRVC        .                                                   :SERVICE COMPANY
DATE        .                             9/13/2023 11:19:15 AM :LOG DATE  
API         .                                    42708300270000 :API NUMBER
UWI         .                                    42708300270000 :UNIQUE WELL ID
XCOORD      .                                  1318170.30554107 :SURFACE X 
YCOORD      .                                  10738395.6931535 :SURFACE Y 
LAT         .                                        29.5851559 :LATITUDE  
LON         .                                       -94.0141459 :LONGITUDE 
ELEV        .FT                                              72 :ELEVATION VALUE
ELEV_TYPE   .                                                KB :ELEVATION REFERENCE TYPE
~Curve Information Section
#MNEM       .UNIT                                      API CODE :CURVE DESCRIPTION
#------------------------------------------------------------------------------
DEPT        .FT                                                 :DEPTH     
ASN         .OHMM                                               :          
CILD        .MMHO                                               :          
ILD         .OHMM                                               :          
SN          .OHMM                                               :          
SP          .MV                                                 :          
SP_NORM     .MV                                                 :SP Normalized
VSH_SP      .V/V                                                :Volume of Shale from SP
~A        DEPTH            ASN           CILD            ILD             SN             SP        SP_NORM         VSH_SP
# ...
      8221.0000         0.6906       2084.707         0.6002          0.656       -78.4409      -36.01666      0.5452382
      8221.5000         0.7141        2174.73          0.571         0.6956       -78.2432      -35.81896      0.5478057
      8222.0000         0.7858       2302.176         0.5476         0.7418       -83.4237      -40.99945      0.4805266
      8222.5000         0.8376       2463.855         0.5155         0.8067       -90.4102      -47.98596      0.3897927
      8223.0000         0.8865       2635.512         0.4856         0.8524       -93.2405      -50.81626      0.3530356
      8223.5000         0.8502       2828.727         0.4615         0.7684       -93.7811      -51.35685      0.3460149
      8224.0000         0.7452       3035.418         0.4457         0.6887       -96.3582      -53.93396       0.312546
      8224.5000         0.6468       3135.918          0.438         0.6265       -99.7203      -57.29605      0.2688824
      8225.0000         0.6076       3236.316         0.4325         0.5911      -102.2786      -59.85436      0.2356577
      8225.5000         0.5887       3329.234         0.4279          0.571      -103.5248      -61.10056      0.2194733
      8226.0000         0.5789       3288.715         0.3827         0.5575      -102.1248      -59.70056      0.2376551
      8226.5000         0.5748       2916.754         0.4332         0.5507       -98.7526      -56.32836      0.2814499
      8227.0000         0.5774       2593.598         0.4668         0.5519       -92.0332      -49.60896      0.3687148
      8227.5000         0.5889       2399.184         0.5123         0.5649       -83.0406      -40.61636      0.4855018
      8228.0000         0.6296       2087.004          0.581         0.5935       -70.0859      -27.66166      0.6537448
      8228.5000         0.6782       1842.912         0.6422          0.629       -64.7327      -22.30845      0.7232668
      8229.0000         0.7023       1690.016         0.6929         0.6621       -56.1333      -13.70906      0.8349473
      8229.5000         0.7172       1541.512         0.7365         0.6936       -49.8727      -7.448456      0.9162538
      8230.0000         0.7285       1494.355         0.7622         0.7197       -45.1093      -2.685055      0.9781162
      8230.5000         0.7369       1465.537         0.7668         0.7349       -43.9259      -1.501656       0.993485
      8231.0000         0.7408       1483.727         0.7666         0.7381       -43.2145     -0.7902565              1
      8231.5000         0.7411       1515.662         0.7619         0.7365       -42.7744     -0.3501549              1
      8232.0000          0.741        1545.08         0.7582         0.7343       -42.6564     -0.2321548              1
      8232.5000         0.7391       1567.709          0.756         0.7354       -42.6509     -0.2266579              1
      8233.0000          0.747       1588.318         0.7538         0.7405       -42.5558     -0.1315575              1
      8233.5000          0.757       1599.814         0.7516         0.7432       -42.4326   -0.008354187              1
      8234.0000         0.7678       1601.441          0.751         0.7455       -42.2455      0.1787453              1
      8234.5000         0.7733       1598.205         0.7512         0.7478        -41.957      0.4672432              1
      8235.0000         0.7801       1590.564          0.749         0.7502       -41.8102      0.6140442              1
      8235.5000         0.7901       1580.445         0.7532         0.7528       -41.6605      0.7637444              1
      8236.0000         0.7983       1567.734         0.7604         0.7574       -41.5504      0.8738441              1
      8236.5000         0.7951       1550.818         0.7669         0.7624       -41.4724      0.9518433              1
      8237.0000          0.802       1541.412         0.7679         0.7602       -41.4026       1.021645              1
      8237.5000         0.8115       1533.926         0.7615         0.7635       -41.2675       1.156742              1
      8238.0000         0.8219       1539.951         0.7558         0.7702       -41.4346      0.9896431              1
      8238.5000         0.8309       1553.014         0.7576         0.7803       -41.8907      0.5335426              1
      8239.0000         0.8282       1572.674         0.7514          0.781       -42.3734     0.05084229              1
      8239.5000          0.803       1593.582         0.7394         0.7427       -42.6873     -0.2630577              1
      8240.0000         0.7731       1614.541         0.7221         0.7147       -42.6021     -0.1778564              1
      8240.5000          0.761       1633.029         0.7074         0.7035       -42.1119      0.3123436              1
      8241.0000          0.763       1649.871          0.706         0.6947       -41.7222      0.7020454              1
      8241.5000         0.7657       1666.588         0.7045         0.6925       -41.5867      0.8375435              1
      8242.0000         0.7679       1677.479         0.6968         0.6929       -41.5367      0.8875427              1
      8242.5000         0.7593       1673.873         0.6921         0.6961       -41.4726      0.9516449              1
      8243.0000         0.7531       1661.248         0.6992         0.7004       -41.7093      0.7149429              1
      8243.5000         0.7526       1648.023         0.7103         0.7053       -42.2184      0.2058449              1
      8244.0000         0.7657       1636.484         0.7231         0.7148       -42.9304     -0.5061569              1
      8244.5000         0.7856       1633.871         0.7363         0.7258       -43.8881      -1.463856      0.9939759
      8245.0000         0.8065        1633.48         0.7339         0.7507       -44.9669      -2.542656      0.9799655
      8245.5000          0.826       1619.781         0.7302         0.7699       -46.0582      -3.633957      0.9657928
      8246.0000          0.825       1604.611         0.7383         0.7744        -46.939      -4.514755      0.9543538
      8246.5000         0.8106       1592.234         0.7451         0.7518       -47.8703      -5.446056       0.942259
      8247.0000          0.801       1586.572         0.7453         0.7365       -48.8444      -6.420155      0.9296084
      8247.5000         0.7998       1608.055         0.7368          0.746       -48.9628      -6.538555      0.9280707
      8248.0000         0.8005       1629.012         0.7303         0.7514       -45.1899      -2.765656      0.9770694
      8248.5000         0.7872        1644.98         0.7217         0.7417       -42.9216     -0.4973564              1
      8249.0000         0.7699       1650.492          0.717         0.7234       -41.5391      0.8851433              1
      8249.5000         0.7544       1652.674         0.7121         0.7133       -40.7792       1.645042              1
      8250.0000         0.7467        1654.58         0.7073          0.714       -40.8253       1.598946              1
      8250.5000         0.7537       1659.059         0.7111          0.718       -41.3533       1.070946              1
      8251.0000           0.77        1670.23         0.7084         0.7189       -41.8989      0.5253448              1
      8251.5000         0.7855       1675.938         0.7051         0.7269       -42.2653      0.1589432              1
      8252.0000         0.7895       1672.113         0.7011         0.7332       -42.2996      0.1246452              1
      8252.5000         0.7823       1663.381         0.6988         0.7392       -42.0618      0.3624458              1
      8253.0000         0.7795       1658.229         0.6991         0.7418       -41.8488      0.5754433              1
      8253.5000         0.7831       1673.174         0.6971         0.7432       -41.8783      0.5459442              1
      8254.0000         0.7884       1685.736         0.6959          0.743       -41.8539       0.570343              1
