#------------------------------------------------------------------------------
# Created by    : vladimir.rabinovich
# Created on    : 09/19/2023 17:21:34
#------------------------------------------------------------------------------
~Version Information Section
VERS.           2.0     :   CWLS log ASCII Standard - VERSION 2.0
WRAP.           NO      :   One line per depth step
~Well Information Section
#MNEM       .UNIT                                         VALUE :DESCRIPTION
#------------------------------------------------------------------------------
STRT        .FT                                            4495 :START DEPTH
STOP        .FT                                            9058 :STOP DEPTH
STEP        .FT                                             0.5 :STEP      
NULL        .                                           -999.25 :NULL      
COMP        .                          SEAGULL ENERGY E & P INC :COMPANY   
WELL        .                               OCS G11322 ST00BP00 :WELL      
FLD         .                                           WILDCAT :FIELD     
LOC         .                                                   :LOCATION  
CNTY        .                             GALVESTON LARGE BLOCK :LOCATION  
STAT        .                                             TEXAS :STATE     
CTRY        .                                     UNITED STATES :COUNTRY   
SRVC        .                                                   :SERVICE COMPANY
DATE        .                             9/13/2023 11:19:34 AM :LOG DATE  
API         .                                    42706402570000 :API NUMBER
UWI         .                                    42706402570000 :UNIQUE WELL ID
XCOORD      .                                  1032943.49501878 :SURFACE X 
YCOORD      .                                  10418025.6284813 :SURFACE Y 
LAT         .                                         28.694364 :LATITUDE  
LON         .                                        -94.895236 :LONGITUDE 
ELEV        .FT                                              97 :ELEVATION VALUE
ELEV_TYPE   .                                                KB :ELEVATION REFERENCE TYPE
~Curve Information Section
#MNEM       .UNIT                                      API CODE :CURVE DESCRIPTION
#------------------------------------------------------------------------------
DEPT        .FT                                                 :DEPTH     
CALI        .IN                                                 :          
DCAL        .IN                                                 :          
DPHI        .%                                                  :          
DRHO        .G/C3                                               :          
GR          .GAPI                                               :          
GR_1        .GAPI                                               :          
GR_NORM     .GAPI                                               :GammaRay Normalized
ILD         .OHMM                                               :          
ILM         .OHMM                                               :          
NPHI        .%                                                  :          
SGRD        .OHMM                                               :          
SP          .MV                                                 :          
SP_NORM     .MV                                                 :SP Normalized
VSH_GR      .V/V                                                :Volume of Shale from GR
VSH_SP      .V/V                                                :Volume of Shale from SP
~A        DEPTH           CALI           DCAL           DPHI           DRHO             GR           GR_1        GR_NORM            ILD            ILM           NPHI           SGRD             SP        SP_NORM         VSH_GR         VSH_SP
# ...
      9034.0000         12.026        -999.25        23.3366        -0.0878        68.1506        64.0148       68.28212         0.3221          0.348        34.7336         0.4659       -73.1053      -30.88308      0.7506834      0.4852821
      9034.5000        11.9845        -999.25        24.2203        -0.0917        66.6602        64.1711       68.47865         0.3223          0.344        34.2951         0.4658       -73.0647      -30.84247      0.7548649      0.4859588
      9035.0000        11.9365        -999.25        24.7273        -0.0969        66.2742        63.4824       67.61263         0.3198         0.3419        34.2902         0.4944       -71.4763      -29.25408       0.736439       0.512432
      9035.5000        11.8883        -999.25        26.4036        -0.1063        63.1139        64.4578       68.83919          0.312         0.3434        34.3338         0.5266       -70.2825      -28.06028      0.7625359      0.5323287
      9036.0000        11.8607        -999.25         27.088        -0.1504        64.8792        63.6447       67.81673         0.3067         0.3472        35.0538         0.5325       -71.1907      -28.96847      0.7407814      0.5171921
      9036.5000        11.8366        -999.25         26.581        -0.1943        67.5826        61.6678       65.33081         0.3085         0.3522        35.9034         0.4959       -72.4619      -30.23967      0.6878896      0.4960054
      9037.0000        11.8149        -999.25        26.8557         -0.216         62.084        62.3962       83.54308          0.322         0.3592        35.6864         0.4569       -73.4985      -31.27627              1      0.4787288
      9037.5000        11.8272        -999.25        25.6157        -0.2294         0.2565        61.4893       84.10922         0.3424         0.3681        34.7477         0.4601       -74.2456      -32.02337              1      0.4662771
      9038.0000         11.869        -999.25        24.4855        -0.2242         0.1457        61.7108       83.19912         0.3635         0.3773        34.0061         0.5389       -73.4055      -31.18328              1      0.4802787
      9038.5000        11.9267        -999.25         22.219        -0.1921         0.1407        68.4246       82.68542          0.386         0.3903        33.4913         0.5919       -71.2195      -28.99727              1      0.5167121
      9039.0000        11.9947        -999.25        23.4857        -0.1744         0.1782         70.056       81.90643         0.4093         0.4055         32.996         0.6093       -68.1266      -25.90438              1      0.5682604
      9039.5000        12.0871        -999.25        23.2926        -0.1608         0.1816         1.3992       79.68847         0.4335         0.4215        32.5236         0.6039       -61.9879      -19.76567      0.9933717      0.6705721
      9040.0000        12.2231        -999.25        23.9428        -0.1476          0.185         0.0173       78.78008          0.455          0.435        32.1644         0.5813       -57.5424      -15.32018      0.9740441      0.7446638
      9040.5000        12.3855        -999.25        22.0087        -0.1381         0.1884              0       85.68771         0.4605         0.4479        32.1324         0.5687       -53.1022      -10.87997              1      0.8186671
      9041.0000        12.3733        -999.25        20.3825        -0.1421         0.1918         0.0535        86.3731         0.4555         0.4574        32.2379         0.5719       -51.6127      -9.390476              1      0.8434921
      9041.5000        12.2173        -999.25        19.0672        -0.1411         0.1952         0.0451       79.48191         0.4343          0.459        32.3812          0.578        -54.722      -12.49977      0.9889768      0.7916704
      9042.0000        12.1102        -999.25        20.8157        -0.1474         0.1986         0.0454       79.11327         0.4121         0.4392         32.824         0.5767       -59.2986      -17.07637      0.9811333      0.7153938
      9042.5000        12.0347        -999.25        23.2863        -0.1548          0.202         0.0853       80.52109         0.3913          0.409        32.8536         0.5627       -63.0782      -20.85598              1      0.6524004
      9043.0000        11.9801        -999.25        23.5461        -0.1526         0.2054         0.1441       81.63984         0.3749         0.3833        33.0714         0.5505        -65.204      -22.98178              1      0.6169704
      9043.5000         11.979        -999.25         23.679        -0.1477         0.2088         0.1308       79.87038          0.362         0.3687         33.359         0.5413       -66.5328      -24.31057      0.9972422      0.5948238
      9044.0000        11.9583        -999.25        24.5938        -0.1407         0.2122         0.1174       83.10668          0.357         0.3649        33.5095         0.5425       -66.8052      -24.58297              1      0.5902838
      9044.5000        12.0128        -999.25         25.673        -0.1363         0.2156         0.1041       85.86825         0.3574         0.3752         33.124         0.5479       -66.9106      -24.68837              1      0.5885271
      9045.0000        12.2041        -999.25        24.1967        -0.1316          0.219         0.0908        85.2202         0.3605         0.4016        32.8501         0.5595       -66.9568      -24.73458              1      0.5877571
      9045.5000        12.4163        -999.25        22.9944        -0.1265         0.2224         0.0774       85.84637         0.3618         0.4258         32.608         0.5757       -66.9633      -24.74108              1      0.5876487
      9046.0000         12.568        -999.25        21.3683        -0.1151         0.2258         0.0641       86.32059         0.3626         0.4516        32.6136         0.5963       -66.9025      -24.68027              1      0.5886621
      9046.5000        12.6321        -999.25        18.2604        -0.1026         0.2292         0.0507         79.925         0.3618         0.4838        32.9433         0.6142       -66.7579      -24.53567      0.9984043      0.5910721
      9047.0000        12.6094        -999.25        17.1222        -0.0902         0.2326         0.0374        85.4435         0.3621         0.4969        32.7574          0.629       -66.7258      -24.50357              1      0.5916071
      9047.5000        12.5368        -999.25          17.35        -0.0815          0.236          0.024       83.24438         0.3606         0.5016        32.7053         0.6364       -66.6958      -24.47358              1      0.5921071
      9048.0000        12.4715        -999.25        17.3728         -0.076         0.2394         0.0107       80.75781          0.359         0.5046        34.0948         0.6454       -66.6675      -24.44528              1      0.5925787
      9048.5000        12.4511        -999.25        17.0894        -0.0743         0.2428              0       85.17269         0.3573         0.5033        45.5342         0.6489       -66.5956      -24.37337              1      0.5937771
      9049.0000        12.4467        -999.25        17.4297        -0.0758         0.2462              0       86.88095         0.3564         0.5018       100.0132         0.6371       -66.6509      -24.42868              1      0.5928554
      9049.5000        12.4058        -999.25        17.4481        -0.0788         0.2496              0       83.18783         0.3553         0.5024       100.0336         0.6309       -66.7185      -24.49627              1      0.5917288
      9050.0000        12.2562        -999.25        17.5007        -0.0867          0.253              0       85.84801         0.3539         0.5027       100.0297          0.636       -66.7048      -24.48258              1       0.591957
      9050.5000        12.1626        -999.25        17.9696        -0.0985         0.2564              0       80.01025         0.3528         0.5023       100.0282         0.6562       -66.7612      -24.53897              1      0.5910171
