#------------------------------------------------------------------------------
# Created by    : vladimir.rabinovich
# Created on    : 09/19/2023 17:20:11
#------------------------------------------------------------------------------
~Version Information Section
VERS.           2.0     :   CWLS log ASCII Standard - VERSION 2.0
WRAP.           NO      :   One line per depth step
~Well Information Section
#MNEM       .UNIT                                         VALUE :DESCRIPTION
#------------------------------------------------------------------------------
STRT        .FT                                             984 :START DEPTH
STOP        .FT                                            6595 :STOP DEPTH
STEP        .FT                                             0.5 :STEP      
NULL        .                                           -999.25 :NULL      
COMP        .                   MCMORAN OFFSHORE EXPLORATION CO :COMPANY   
WELL        .                               OCS G03106 ST00BP00 :WELL      
FLD         .                                           WILDCAT :FIELD     
LOC         .                                                   :LOCATION  
CNTY        .                      MATAGORDA ISLAND LARGE BLOCK :LOCATION  
STAT        .                                             TEXAS :STATE     
CTRY        .                                     UNITED STATES :COUNTRY   
SRVC        .                                                   :SERVICE COMPANY
DATE        .                             9/13/2023 11:12:09 AM :LOG DATE  
API         .                                    42703400570000 :API NUMBER
UWI         .                                    42703400570000 :UNIQUE WELL ID
XCOORD      .                                  467986.403229072 :SURFACE X 
YCOORD      .                                  10153243.7887249 :SURFACE Y 
LAT         .                                         27.931172 :LATITUDE  
LON         .                                        -96.630795 :LONGITUDE 
ELEV        .FT                                              95 :ELEVATION VALUE
ELEV_TYPE   .                                                KB :ELEVATION REFERENCE TYPE
~Curve Information Section
#MNEM       .UNIT                                      API CODE :CURVE DESCRIPTION
#------------------------------------------------------------------------------
DEPT        .FT                                                 :DEPTH     
ASFL        .OHMM                                               :          
CILD        .MMHO                                               :          
DT          .US/F                                               :          
GR          .GAPI                                               :          
GR_NORM     .GAPI                                               :GammaRay Normalized
ILD         .OHMM                                               :          
SFL         .OHMM                                               :          
SP          .MV                                                 :          
SP_NORM     .MV                                                 :SP Normalized
VSH_GR      .V/V                                                :Volume of Shale from GR
VSH_SP      .V/V                                                :Volume of Shale from SP
~A        DEPTH           ASFL           CILD             DT             GR        GR_NORM            ILD            SFL             SP        SP_NORM         VSH_GR         VSH_SP
# ...
      2491.5000         0.4839       2291.023       145.1123         31.897       46.27191         0.4197         0.4289        -999.25        -999.25       0.282381        -999.25
      2492.0000         0.4815       2328.492       142.6389        32.5029       47.34644         0.4129         0.4242        -999.25        -999.25      0.3052433        -999.25
      2492.5000         0.4784       2370.695       140.0037        33.0313       48.29366          0.407         0.4423        -999.25        -999.25       0.325397        -999.25
      2493.0000         0.4751       2419.313       138.0464        33.5596       49.24088         0.4086         0.4906        -999.25        -999.25      0.3455507        -999.25
      2493.5000         0.4711       2439.285         138.53        34.6514       51.11253         0.4205          0.525        -999.25        -999.25       0.385373        -999.25
      2494.0000         0.4671        2292.93       140.9734        35.7735        53.0339           0.44         0.5232        -999.25        -999.25      0.4262532        -999.25
      2494.5000         0.4632       2090.449       144.1602        37.1763       55.41573         0.4699         0.4943        -999.25        -999.25      0.4769305        -999.25
      2495.0000         0.4722       1990.564       142.9775        38.5646        57.7738         0.5082         0.4792        -999.25        -999.25      0.5271021        -999.25
      2495.5000         0.4877       1901.689       140.4709        39.6237        59.5918         0.5594         0.5168        -999.25        -999.25       0.565783        -999.25
      2496.0000         0.5016       1821.002       139.9785        40.6823       61.40899         0.6056         0.5617        -999.25        -999.25      0.6044466        -999.25
      2496.5000          0.511       1703.219       144.2615         41.996       63.64466         0.6471         0.6008        -999.25        -999.25       0.652014        -999.25
      2497.0000         0.5205       1562.711       146.5945         43.864        66.7897         0.6709          0.604        -999.25        -999.25      0.7189297        -999.25
      2497.5000         0.5299        1479.85         145.75        45.7876       70.02573         0.6936         0.5932        -999.25        -999.25      0.7877816        -999.25
      2498.0000         0.5389       1428.119       142.2644        47.7656        73.3512         0.7153         0.5886        -999.25        -999.25      0.8585361        -999.25
      2498.5000         0.5473       1405.188        138.491         49.592       76.42795         0.7257         0.5958        -999.25        -999.25      0.9239989        -999.25
      2499.0000         0.5557       1394.807       136.1628        51.1365       79.04227         0.7307         0.6065        -999.25        -999.25      0.9796227        -999.25
      2499.5000         0.5642       1389.516       135.9458        52.2238       80.90652         0.7315         0.6155        -999.25        -999.25              1        -999.25
      2500.0000         0.5764       1375.156       136.4482        53.3923       82.90402         0.7384         0.6235        -999.25        -999.25              1        -999.25
      2500.5000         0.5889       1353.451       137.2358          54.47       84.75253         0.7497         0.6314        -999.25        -999.25              1        -999.25
      2501.0000         0.6013       1336.561       138.1501        55.3198       86.22719          0.764         0.6276        -999.25        -999.25              1        -999.25
      2501.5000         0.6091       1331.939       139.1223        55.7922       87.08271         0.7674         0.6215        -999.25        -999.25              1        -999.25
      2502.0000         0.6167       1335.846        138.332        55.9922       87.49136         0.7597         0.6135        -999.25        -999.25              1        -999.25
      2502.5000         0.6242       1351.646        137.968        56.1116       87.76763          0.747         0.6059        -999.25        -999.25              1        -999.25
      2503.0000         0.6311       1365.977       139.9243        56.1644       87.93479         0.7415         0.5989        -999.25        -999.25              1        -999.25
      2503.5000         0.6355       1371.232       145.4248         56.066       87.85391         0.7451         0.5921        -999.25        -999.25              1        -999.25
      2504.0000         0.6397       1357.713        148.292        55.6705       87.28564          0.762         0.5857        -999.25        -999.25              1        -999.25
      2504.5000         0.6361       1340.549        147.688        54.4868       85.42433         0.7792         0.5821        -999.25        -999.25              1        -999.25
      2505.0000         0.6325       1327.303       142.9246        51.9888       81.40688         0.7898         0.5914        -999.25        -999.25              1        -999.25
      2505.5000         0.6289       1334.922        136.093        50.1219       78.42479         0.7723         0.6317        -999.25        -999.25      0.9664849        -999.25
      2506.0000         0.6253       1379.068        128.918        48.1404       75.25468         0.7479          0.684        -999.25        -999.25      0.8990357        -999.25
      2506.5000         0.6259        1421.84       126.9521        46.0251       71.86507         0.7263          0.711        -999.25        -999.25      0.8269163        -999.25
      2507.0000          0.627       1440.188       128.0515        44.7108        69.7895         0.7177         0.7047        -999.25        -999.25      0.7827553        -999.25
      2507.5000          0.628       1453.236       131.9883         43.655       68.13786         0.7095         0.6828        -999.25        -999.25      0.7476141        -999.25
      2508.0000         0.6301       1463.156       132.1025        42.8339       66.87137         0.7056         0.6512        -999.25        -999.25      0.7206674        -999.25
      2508.5000         0.6379       1474.561        128.929        42.0128       65.60489         0.7022         0.6335        -999.25        -999.25      0.6937211        -999.25
      2509.0000         0.6457       1486.166       126.2443        41.2723       64.47066         0.6992         0.6422        -999.25        -999.25      0.6695886        -999.25
      2509.5000         0.6535       1496.797       124.0654        40.5355       63.34249         0.6966         0.6622        -999.25        -999.25      0.6455849        -999.25
      2510.0000         0.6606       1508.703       122.9736        39.8035        62.2222         0.6946         0.6757        -999.25        -999.25      0.6217489        -999.25
      2510.5000         0.6646       1521.123       123.5341        39.0734       61.10502         0.6938          0.676        -999.25        -999.25      0.5979791        -999.25
      2511.0000         0.6659       1530.451       124.1946        38.2825        59.8881          0.693         0.6691        -999.25        -999.25      0.5720872        -999.25
      2511.5000         0.6655       1537.805       125.1736        37.2786       58.32172         0.6968         0.6622        -999.25        -999.25        0.53876        -999.25
      2512.0000         0.6651       1543.502       126.4719         36.275       56.75587         0.7007         0.6629        -999.25        -999.25       0.505444        -999.25
      2512.5000          0.665       1536.508       127.3756        35.5082       55.57831         0.7066         0.6645        -999.25        -999.25      0.4803895        -999.25
      2513.0000         0.6695       1521.932       127.9498         34.783       54.46917         0.7137         0.6744        -999.25        -999.25      0.4567909        -999.25
      2513.5000          0.674       1497.467       127.7841        34.1341        53.4852         0.7293         0.6897        -999.25        -999.25      0.4358552        -999.25
