#------------------------------------------------------------------------------
# Created by    : vladimir.rabinovich
# Created on    : 09/19/2023 17:22:48
#------------------------------------------------------------------------------
~Version Information Section
VERS.           2.0     :   CWLS log ASCII Standard - VERSION 2.0
WRAP.           NO      :   One line per depth step
~Well Information Section
#MNEM       .UNIT                                         VALUE :DESCRIPTION
#------------------------------------------------------------------------------
STRT        .FT                                             306 :START DEPTH
STOP        .FT                                           13139 :STOP DEPTH
STEP        .FT                                             0.5 :STEP      
NULL        .                                           -999.25 :NULL      
COMP        .                                    CITIES SERVICE :COMPANY   
WELL        .                                          SL 77337 :WELL      
FLD         .                                           WILDCAT :FIELD     
LOC         .                                                   :LOCATION  
CNTY        .                                BRAZOS LARGE BLOCK :LOCATION  
STAT        .                                             TEXAS :STATE     
CTRY        .                                     UNITED STATES :COUNTRY   
SRVC        .                                                   :SERVICE COMPANY
DATE        .                             9/13/2023 11:18:52 AM :LOG DATE  
API         .                                    42704301950000 :API NUMBER
UWI         .                                    42704301950000 :UNIQUE WELL ID
XCOORD      .                                   673900.18951543 :SURFACE X 
YCOORD      .                                   10333530.060148 :SURFACE Y 
LAT         .                                        28.4418955 :LATITUDE  
LON         .                                       -96.0077528 :LONGITUDE 
ELEV        .FT                                              82 :ELEVATION VALUE
ELEV_TYPE   .                                                KB :ELEVATION REFERENCE TYPE
~Curve Information Section
#MNEM       .UNIT                                      API CODE :CURVE DESCRIPTION
#------------------------------------------------------------------------------
DEPT        .FT                                                 :DEPTH     
DT          .US/F                                               :          
SP          .MV                                                 :          
SP_NORM     .MV                                                 :SP Normalized
VSH_SP      .V/V                                                :Volume of Shale from SP
~A        DEPTH             DT             SP        SP_NORM         VSH_SP
# ...
      6242.0000        140.375      -100.7395      -47.18102     0.05753015
      6242.5000       137.3179      -101.1271      -47.56445     0.04970504
      6243.0000       133.8521      -101.0304       -47.4636     0.05176334
      6243.5000       131.7681      -100.0847      -46.51373     0.07114839
      6244.0000        130.332       -99.0702      -45.49506     0.09193755
      6244.5000       124.7959       -98.1882       -44.6089      0.1100224
      6245.0000       119.1084       -97.4908      -43.90733      0.1243401
      6245.5000       118.4021       -97.0055      -43.41787      0.1343292
      6246.0000       120.5707       -97.0325      -43.44071      0.1338631
      6246.5000       132.1194        -97.259      -43.66304      0.1293256
      6247.0000       170.2512       -97.3229      -43.72277      0.1281066
      6247.5000       212.3748       -97.0818      -43.47752      0.1331119
      6248.0000       229.2959       -96.5801      -42.97165      0.1434357
      6248.5000       231.8752       -95.9753      -42.36269      0.1558636
      6249.0000       232.2363       -95.2754      -41.65862      0.1702323
      6249.5000       229.5044       -94.5686      -40.94766      0.1847417
      6250.0000       224.7131       -94.0913      -40.46619      0.1945675
      6250.5000       223.1304       -93.8668      -40.23753      0.1992342
      6251.0000       221.5403       -94.2314      -40.59796      0.1918783
      6251.5000       191.2336       -94.7112      -41.07359      0.1821716
      6252.0000       165.6238        -95.301      -41.65924      0.1702197
      6252.5000       140.4905       -96.4795      -42.83357      0.1462537
      6253.0000       130.7688       -98.4709       -44.8208      0.1056979
      6253.5000       125.5953       -101.203      -47.54874     0.05002563
      6254.0000       124.0461      -104.1403      -50.48187              0
      6254.5000       119.6471      -106.6947      -53.03211              0
      6255.0000       108.2821      -108.7137      -55.04695              0
      6255.5000       105.7722      -109.9572      -56.28628              0
      6256.0000       105.5947      -110.9092      -57.23412              0
      6256.5000       106.3612      -111.2966      -57.61736              0
      6257.0000       107.0203      -111.3721      -57.68869              0
      6257.5000       107.4889      -110.5814      -56.89382              0
      6258.0000       107.8638      -109.7045      -56.01276              0
      6258.5000       108.2383      -108.8163       -55.1204              0
      6259.0000       107.9286      -107.9757      -54.27563              0
      6259.5000       107.1935      -107.1476      -53.44337              0
      6260.0000        106.296      -106.3657       -52.6573              0
      6260.5000       105.1951      -105.9449      -52.23234              0
      6261.0000       104.2324      -105.9115      -52.19477              0
      6261.5000       104.0308      -105.8575      -52.13661              0
      6262.0000       104.9667      -105.3494      -51.62435              0
      6262.5000       106.0688      -104.5155      -50.78629              0
      6263.0000       107.1563      -103.6149      -49.88152    0.002418051
      6263.5000       108.1567      -102.7355      -48.99795     0.02045005
      6264.0000       108.3553      -101.6259      -47.88419      0.0431798
      6264.5000       106.7727       -97.0049      -43.25902       0.137571
      6265.0000       104.4813       -92.9618      -39.21176      0.2201682
      6265.5000       101.1671       -89.2489       -35.4947      0.2960266
      6266.0000        97.5699       -84.9657      -31.20733      0.3835239
      6266.5000        95.5579        -78.806      -25.04346       0.509317
      6267.0000        94.6479       -75.0831       -21.3164      0.5853795
      6267.5000        95.0979       -72.6412      -18.87033      0.6352993
      6268.0000        96.3163       -70.8024      -17.02737      0.6729108
      6268.5000        98.1682        -70.099      -16.31981      0.6873508
      6269.0000          99.34       -70.4672      -16.68385      0.6799215
      6269.5000        97.0015        -72.311      -18.52348       0.642378
      6270.0000        92.9003       -74.7203      -20.92862      0.5932935
      6270.5000         88.948       -77.3424      -23.54655      0.5398663
      6271.0000         83.551       -80.8125      -27.01249       0.469133
      6271.5000        81.2329       -84.2626      -30.45843      0.3988076
      6272.0000        81.7078       -86.6558      -32.84746      0.3500519
      6272.5000        85.0703       -87.9392      -34.12669       0.323945
      6273.0000        87.8718       -88.6873      -34.87063      0.3087626
      6273.5000        88.2397       -88.1281      -34.30726        0.32026
      6274.0000        87.5963       -87.0873       -33.2623      0.3415857
      6274.5000        86.0435       -85.2985      -31.46934      0.3781768
      6275.0000        83.8923       -83.0292      -29.19587      0.4245741
      6275.5000        82.9025        -80.182      -26.34451      0.4827652
      6276.0000        85.3285       -77.6351      -23.79345      0.5348276
      6276.5000        91.4753       -75.6348      -21.78898       0.575735
      6277.0000        97.0361       -75.1302      -21.28022       0.586118
      6277.5000        98.7119       -75.9288      -22.07465       0.569905
      6278.0000        97.7933       -77.0509      -23.19259      0.5470901
      6278.5000        95.8793       -77.8953      -24.03282      0.5299424
      6279.0000        93.3918       -75.8988      -22.03216      0.5707722
      6279.5000         90.373       -73.8497      -19.97889      0.6126757
      6280.0000        90.1918       -72.0784      -18.20343      0.6489097
      6280.5000        95.6559       -70.0068      -16.12766      0.6912722
      6281.0000       106.2712       -66.9369       -13.0536      0.7540082
      6281.5000       112.5272       -63.7145      -9.827034      0.8198565
      6282.0000       113.4969        -60.467      -6.575371      0.8862169
      6282.5000       113.2794       -59.2083      -5.312508      0.9119896
      6283.0000       112.7184       -59.3297      -5.429741      0.9095971
      6283.5000        111.991       -59.7678      -5.863678      0.9007413
      6284.0000       111.1221       -60.5684      -6.660114      0.8844875
      6284.5000       110.7075       -61.4403      -7.527847      0.8667786
      6285.0000       111.3915       -62.8439      -8.927284      0.8382187
      6285.5000       112.0518       -63.2399      -9.319118      0.8302221
      6286.0000       111.6757       -62.7882      -8.863255      0.8395254
      6286.5000       110.7025       -62.0739      -8.144791       0.854188
      6287.0000       108.9592       -61.6092      -7.675926      0.8637566
      6287.5000       108.7516       -61.3289       -7.39146       0.869562
      6288.0000       109.3334       -61.7167      -7.775101      0.8617327
      6288.5000       110.4741       -63.0215      -9.075733      0.8351891
      6289.0000       111.2227       -66.5316      -12.58167      0.7636394
      6289.5000       109.4688        -74.968      -21.01391      0.5915529
      6290.0000       102.8254       -78.6759      -24.71764      0.5159665
      6290.5000        97.6195        -80.775      -26.81258      0.4732127
      6291.0000        96.8097       -81.7101      -27.74351      0.4542141
      6291.5000        97.4855       -81.9421      -27.97135      0.4495643
      6292.0000       100.6558       -81.0802      -27.10528      0.4672391
      6292.5000       104.3125       -79.1162      -25.13712      0.5074056
      6293.0000       105.0945       -76.9996      -23.01636      0.5506866
      6293.5000       102.4779        -74.798      -20.81059      0.5957024
      6294.0000        99.3301       -72.1859      -18.19432      0.6490955
      6294.5000        97.3375       -65.4308      -11.43506      0.7870395
