#------------------------------------------------------------------------------
# Created by    : vladimir.rabinovich
# Created on    : 09/19/2023 17:19:49
#------------------------------------------------------------------------------
~Version Information Section
VERS.           2.0     :   CWLS log ASCII Standard - VERSION 2.0
WRAP.           NO      :   One line per depth step
~Well Information Section
#MNEM       .UNIT                                         VALUE :DESCRIPTION
#------------------------------------------------------------------------------
STRT        .FT                                             790 :START DEPTH
STOP        .FT                                           12500 :STOP DEPTH
STEP        .FT                                             0.5 :STEP      
NULL        .                                           -999.25 :NULL      
COMP        .                                 CHEVRON U S A INC :COMPANY   
WELL        .                               OCS G04596 ST00BP00 :WELL      
FLD         .                                           WILDCAT :FIELD     
LOC         .                                                   :LOCATION  
CNTY        .                        MUSTANG ISLAND LARGE BLOCK :LOCATION  
STAT        .                                             TEXAS :STATE     
CTRY        .                                     UNITED STATES :COUNTRY   
SRVC        .                                                   :SERVICE COMPANY
DATE        .                             9/13/2023 11:19:13 AM :LOG DATE  
API         .                                    42702401310000 :API NUMBER
UWI         .                                    42702401310000 :UNIQUE WELL ID
XCOORD      .                                  486632.184756912 :SURFACE X 
YCOORD      .                                  10088502.2555927 :SURFACE Y 
LAT         .                                          27.75488 :LATITUDE  
LON         .                                        -96.567316 :LONGITUDE 
ELEV        .FT                                              90 :ELEVATION VALUE
ELEV_TYPE   .                                                KB :ELEVATION REFERENCE TYPE
~Curve Information Section
#MNEM       .UNIT                                      API CODE :CURVE DESCRIPTION
#------------------------------------------------------------------------------
DEPT        .FT                                                 :DEPTH     
ASFL        .OHMM                                               :          
CILD        .MMHO                                               :          
GR          .GAPI                                               :          
GR_NORM     .GAPI                                               :GammaRay Normalized
ILD         .OHMM                                               :          
SP          .MV                                                 :          
SP_NORM     .MV                                                 :SP Normalized
VSH_GR      .V/V                                                :Volume of Shale from GR
VSH_SP      .V/V                                                :Volume of Shale from SP
~A        DEPTH           ASFL           CILD             GR        GR_NORM            ILD             SP        SP_NORM         VSH_GR         VSH_SP
# ...
      3307.5000         0.7806       1971.252        56.7339       71.80995         0.5136       -91.6724       -6.18692      0.8257437      0.8005031
      3308.0000         0.7812       1921.717        62.4788       79.16595            0.5       -91.2501      -5.770493      0.9822542      0.8165195
      3308.5000         0.7594       1865.309        67.4878       85.57941         0.4929       -89.1207      -3.646973              1      0.8981934
      3309.0000         0.7382       1813.406        69.2142       87.78843         0.5117        -87.656      -2.188148              1       0.954302
      3309.5000         0.7191       1761.209         70.918       89.96849         0.5304       -86.5717      -1.109726              1      0.9957798
      3310.0000         0.6955       1708.342        72.4105       91.87793         0.5492       -85.4873    -0.03119659              1              1
      3310.5000         0.6674        1659.09        73.9031        93.7875         0.5679       -84.4031       1.047119              1              1
      3311.0000         0.6444       1615.334        74.8174       94.95635         0.5867        -83.829       1.615341              1              1
      3311.5000         0.6467       1581.781        75.4813       95.80451         0.6054       -83.2834       2.155067              1              1
      3312.0000         0.6541        1560.92        76.1453       96.65279         0.6242       -82.7375       2.695091              1              1
      3312.5000         0.6615       1540.045        76.6888       97.34671         0.6429        -82.192       3.234718              1              1
      3313.0000         0.6689       1520.471        77.1569       97.94408         0.6558       -81.8877       3.533134              1              1
      3313.5000         0.6762       1502.209        77.6252        98.5417         0.6581       -81.5833       3.831665              1              1
      3314.0000          0.683       1483.947        78.2894       99.39024         0.6604       -81.2791        4.12999              1              1
      3314.5000         0.6884       1465.686         79.149        100.489         0.6627       -80.8082       4.595016              1              1
      3315.0000         0.6938       1455.676        80.3527       102.0286          0.665       -80.3008       5.096542              1              1
      3315.5000         0.6992       1451.221         78.369       99.48563         0.6673       -81.2163       4.175156              1              1
      3316.0000         0.7029       1446.975        74.9786       95.14092         0.6694       -81.9469       3.438683              1              1
      3316.5000         0.7064       1454.777        73.1825       92.83825         0.6711       -82.3943       2.985275              1              1
      3317.0000         0.7098       1481.557        71.8491       91.12821         0.6728       -82.8416        2.53022              1              1
      3317.5000          0.713       1492.697        73.9943       93.87364         0.6746       -82.8818       2.482254              1              1
      3318.0000         0.7121       1479.936        76.6671       97.29482         0.6763       -82.0184       3.337891              1              1
      3318.5000         0.7112        1437.32        79.9375       101.4814         0.6781        -81.155       4.193535              1              1
      3319.0000         0.7113        1394.68        76.0966       96.55974         0.6798       -81.3041       4.036674              1              1
      3319.5000         0.7143       1352.064        70.8047       89.77957         0.6816       -82.1945       3.138504              1              1
      3320.0000         0.7174        1306.75        65.4174       82.87722         0.7022       -83.0554       2.269852              1              1
      3320.5000         0.7352       1260.221         62.458       79.08456          0.727       -82.9701       2.347389      0.9805226              1
      3321.0000         0.7697       1213.719        60.5002       76.57478         0.7519       -82.5577       2.752029      0.9271229              1
      3321.5000         0.8134       1160.504        56.8135       71.85058         0.7864       -82.2932       3.008766      0.8266081              1
      3322.0000         0.8673        1105.16        54.6683       69.10078         0.8362       -82.4167       2.877502      0.7681018              1
      3322.5000         0.9138       1044.221        53.2921       67.33592         0.8861       -82.5403       2.746147      0.7305515              1
      3323.0000         0.9574       983.7031        53.2462       67.27495         0.9359       -82.6638       2.614883      0.7292542              1
      3323.5000         0.9963       927.9141        54.0133       68.25528         0.9844       -82.7874       2.483521      0.7501124              1
      3324.0000         1.0352       907.7578        55.8107       70.55523         1.0175       -82.9109       2.352264      0.7990474              1
      3324.5000         1.0378       939.2803        58.4187       73.89342         1.0505       -82.8849       2.370499      0.8700727              1
      3325.0000         0.9941       989.7705        60.6495       76.74847         1.0098       -82.0546       3.193039      0.9308186              1
      3325.5000         0.9585        1040.26        62.5082       79.12695         0.9562       -81.2244       4.015472      0.9814245              1
      3326.0000         0.9347        1090.75        64.4121       81.56333         0.8997       -80.3947       4.837418              1              1
      3326.5000         0.9181        1149.98        66.1654        83.8068         0.8379       -79.8341       5.390259              1              1
      3327.0000         0.9043       1231.646        62.7383        79.4151         0.7762       -81.7466       3.470001      0.9875553              1
      3327.5000         0.8905       1307.963        61.6119        77.9702         0.7229       -83.0769       2.131935      0.9568127              1
      3328.0000         0.8813       1382.695        60.4855       76.52529         0.6711       -84.2429      0.9581757        0.92607              1
      3328.5000         0.8729       1461.586         59.359       75.08026         0.6192       -85.3094     -0.1160889      0.8953247              1
      3329.0000         0.8645       1616.895        58.4016       73.85181         0.5712       -86.3759      -1.190353      0.8691874      0.9926787
      3329.5000         0.8531       1723.025        57.7104       72.96432         0.5259       -87.4431      -2.265312      0.8503046      0.9513341
      3330.0000         0.8394       1868.082        57.0189       72.07644         0.4807       -88.5973      -3.427269      0.8314136      0.9066435
      3330.5000         0.8085       2029.135        56.6385       71.58703         0.4648       -89.7804      -4.618134      0.8210006       0.860841
      3331.0000          0.761       2107.875        56.4053       71.28753          0.455       -90.9268      -5.772301      0.8146283        0.81645
      3331.5000         0.7024       2183.004        57.5475       72.75048         0.4621       -92.0448      -6.898056      0.8457549      0.7731517
      3332.0000         0.6632       2092.324        58.8484       74.41671         0.4691       -93.0126      -7.873619      0.8812066        0.73563
      3332.5000         0.6333       1948.707        60.0196        75.9168         0.4762       -92.4174      -7.286171      0.9131234      0.7582242
      3333.0000         0.6034       1851.145        61.1809       77.40422         0.4983       -91.4127      -6.289238      0.9447706      0.7965678
      3333.5000         0.5883       1741.795        62.2774       78.80865         0.5224       -90.4082      -5.292503      0.9746521      0.8349037
