#------------------------------------------------------------------------------
# Created by    : vladimir.rabinovich
# Created on    : 09/19/2023 17:20:10
#------------------------------------------------------------------------------
~Version Information Section
VERS.           2.0     :   CWLS log ASCII Standard - VERSION 2.0
WRAP.           NO      :   One line per depth step
~Well Information Section
#MNEM       .UNIT                                         VALUE :DESCRIPTION
#------------------------------------------------------------------------------
STRT        .FT                                             409 :START DEPTH
STOP        .FT                                           13135 :STOP DEPTH
STEP        .FT                                             0.5 :STEP      
NULL        .                                           -999.25 :NULL      
COMP        .                         ATLANTIC RICHFIELD CO THE :COMPANY   
WELL        .                               OCS G04547 ST00BP00 :WELL      
FLD         .                                           WILDCAT :FIELD     
LOC         .                                                   :LOCATION  
CNTY        .                      MATAGORDA ISLAND LARGE BLOCK :LOCATION  
STAT        .                                             TEXAS :STATE     
CTRY        .                                     UNITED STATES :COUNTRY   
SRVC        .                                                   :SERVICE COMPANY
DATE        .                             9/13/2023 11:12:03 AM :LOG DATE  
API         .                                    42703401300000 :API NUMBER
UWI         .                                    42703401300000 :UNIQUE WELL ID
XCOORD      .                                  517134.995430583 :SURFACE X 
YCOORD      .                                  10172294.5320476 :SURFACE Y 
LAT         .                                         27.987424 :LATITUDE  
LON         .                                        -96.480505 :LONGITUDE 
ELEV        .FT                                              99 :ELEVATION VALUE
ELEV_TYPE   .                                                KB :ELEVATION REFERENCE TYPE
~Curve Information Section
#MNEM       .UNIT                                      API CODE :CURVE DESCRIPTION
#------------------------------------------------------------------------------
DEPT        .FT                                                 :DEPTH     
ASFL        .OHMM                                               :          
CILD        .MMHO                                               :          
GR          .GAPI                                               :          
GR_NORM     .GAPI                                               :GammaRay Normalized
ILD         .OHMM                                               :          
SP          .MV                                                 :          
SP_NORM     .MV                                                 :SP Normalized
VSH_GR      .V/V                                                :Volume of Shale from GR
VSH_SP      .V/V                                                :Volume of Shale from SP
~A        DEPTH           ASFL           CILD             GR        GR_NORM            ILD             SP        SP_NORM         VSH_GR         VSH_SP
# ...
      6345.0000         1.7043       606.7959        -999.25        -999.25         1.5876       -49.4791      -2.772511        -999.25      0.9638263
      6345.5000         1.6552       629.8613        -999.25        -999.25         1.6381       -49.6315      -2.924911        -999.25      0.9607161
      6346.0000         1.5931       652.8057        -999.25        -999.25         1.6297       -49.6319      -2.925312        -999.25      0.9607079
      6346.5000         1.5429       667.2822        -999.25        -999.25         1.5955       -49.6323      -2.925713        -999.25      0.9606997
      6347.0000         1.5046       681.7598        -999.25        -999.25         1.5614       -49.0634      -2.356812        -999.25      0.9723099
      6347.5000         1.4659        696.249        -999.25        -999.25         1.5273       -48.3849       -1.67831        -999.25      0.9861569
      6348.0000          1.426       711.4434        -999.25        -999.25         1.4836       -47.9604      -1.253811        -999.25      0.9948202
      6348.5000         1.3993       728.9619        -999.25        -999.25         1.3313       -47.5358     -0.8292122        -999.25              1
      6349.0000         1.3774       736.3584        -999.25        -999.25         1.2857       -47.6175     -0.9109116        -999.25              1
      6349.5000         1.3503       722.7568        -999.25        -999.25         1.2561       -47.7393      -1.032711        -999.25      0.9993324
      6350.0000         1.3333       703.6328        -999.25        -999.25         1.2843       -48.1309      -1.424313        -999.25      0.9913406
      6350.5000         1.3207       684.4844        -999.25        -999.25         1.3323       -48.5222      -1.815613        -999.25      0.9833549
      6351.0000         1.3422       665.5186        -999.25        -999.25         1.3803       -48.9137      -2.207111        -999.25      0.9753651
      6351.5000         1.4375       656.1631        -999.25        -999.25         1.4433       -49.2366       -2.53001        -999.25      0.9687753
      6352.0000         1.6128       646.7959        -999.25        -999.25         1.5096       -49.5215      -2.814911        -999.25       0.962961
      6352.5000         1.7327       637.4404        -999.25        -999.25         1.5755        -49.806      -3.099411        -999.25      0.9571549
      6353.0000         1.7867       622.8545        -999.25        -999.25         1.6369       -50.0767       -3.37011        -999.25      0.9516304
      6353.5000         1.8279       599.8613        -999.25        -999.25         1.6983       -50.2986       -3.59201        -999.25      0.9471018
      6354.0000         1.8422       570.6885        -999.25        -999.25         1.7691       -50.5208      -3.814213        -999.25      0.9425671
      6354.5000         1.7962       608.2559        -999.25        -999.25         1.7957       -50.7427       -4.03611        -999.25      0.9380386
      6355.0000         1.7516       696.1387        -999.25        -999.25         1.7103       -50.9671      -4.260509        -999.25       0.933459
      6355.5000         1.6855       797.0645        -999.25        -999.25         1.6038       -51.2489      -4.542313        -999.25      0.9277079
      6356.0000         1.5733       845.8477        -999.25        -999.25         1.4971       -50.9641      -4.257511        -999.25      0.9335202
      6356.5000          1.371       869.7168        -999.25        -999.25         1.3117         -49.91      -3.203411        -999.25      0.9550324
      6357.0000         1.2021       894.3154        -999.25        -999.25         1.1466       -48.8856      -2.179012        -999.25      0.9759385
      6357.5000          1.153       920.9824        -999.25        -999.25          1.099       -48.1273      -1.420712        -999.25      0.9914141
      6358.0000         1.1166       936.3467        -999.25        -999.25         1.0649       -47.5219     -0.8153114        -999.25              1
      6358.5000         1.1024       948.6953        -999.25        -999.25         1.0394       -47.0145     -0.3079109        -999.25              1
      6359.0000         1.0859       930.9336        -999.25        -999.25          1.014       -46.7823     -0.0757103        -999.25              1
      6359.5000         1.0674       883.8281        -999.25        -999.25         1.0197       -46.6816     0.02499008        -999.25              1
      6360.0000         1.0518       821.7354        -999.25        -999.25          1.056       -46.7935    -0.08691025        -999.25              1
      6360.5000         1.0784       758.3779        -999.25        -999.25         1.0922       -46.9354     -0.2288094        -999.25              1
      6361.0000          1.105       701.2002        -999.25        -999.25         1.1656       -47.1148     -0.4082108        -999.25              1
      6361.5000         1.1664       641.3457        -999.25        -999.25         1.2465       -47.2941      -0.587513        -999.25              1
      6362.0000         1.2369       610.7861        -999.25        -999.25         1.3249       -47.4736     -0.7670097        -999.25              1
      6362.5000         1.3197       596.1631        -999.25        -999.25         1.4155       -47.6528     -0.9462128        -999.25              1
      6363.0000         1.4768         581.54        -999.25        -999.25          1.486       -47.8309       -1.12431        -999.25       0.997463
      6363.5000          1.719       572.8047        -999.25        -999.25         1.5451       -48.0071       -1.30051        -999.25      0.9938672
      6364.0000         1.9086       574.3379        -999.25        -999.25         1.6061       -48.1833      -1.476711        -999.25      0.9902712
      6364.5000         1.8757       602.5615        -999.25        -999.25         1.6765       -48.3596      -1.653011        -999.25      0.9866732
      6365.0000         1.3711       630.7617        -999.25        -999.25         1.7639       -48.5268       -1.82021        -999.25       0.983261
      6365.5000         1.3029       661.3945        -999.25        -999.25         1.8594        -48.567      -1.860413        -999.25      0.9824405
      6366.0000         1.2531       718.1826        -999.25        -999.25          1.748       -48.5482       -1.84161        -999.25      0.9828243
      6366.5000         1.2162       774.5332        -999.25        -999.25         1.4682       -48.1085      -1.401913        -999.25      0.9917977
      6367.0000         1.1875        829.376        -999.25        -999.25         1.3526       -47.5437     -0.8371124        -999.25              1
      6367.5000         1.1572       879.0596        -999.25        -999.25         1.2292       -46.9891     -0.2825127        -999.25              1
      6368.0000           1.13       909.1328        -999.25        -999.25         1.1701       -46.5193      0.1872902        -999.25              1
      6368.5000         1.1029       928.4033        -999.25        -999.25         1.1267       -46.3576      0.3489876        -999.25              1
      6369.0000         1.0839       924.3398        -999.25        -999.25          1.122       -46.4218        0.28479        -999.25              1
      6369.5000         1.1147       913.6465        -999.25        -999.25         1.1218       -46.4861      0.2204895        -999.25              1
      6370.0000         1.1498       902.9531        -999.25        -999.25         1.1215       -46.5505      0.1560898        -999.25              1
      6370.5000         1.2039       893.7559        -999.25        -999.25         1.1229       -46.6148     0.09178925        -999.25              1
      6371.0000         1.1554       932.2471        -999.25        -999.25         1.1248       -46.6722      0.0343895        -999.25              1
