#------------------------------------------------------------------------------
# Created by    : vladimir.rabinovich
# Created on    : 09/19/2023 17:20:28
#------------------------------------------------------------------------------
~Version Information Section
VERS.           2.0     :   CWLS log ASCII Standard - VERSION 2.0
WRAP.           NO      :   One line per depth step
~Well Information Section
#MNEM       .UNIT                                         VALUE :DESCRIPTION
#------------------------------------------------------------------------------
STRT        .FT                                            2653 :START DEPTH
STOP        .FT                                           10423 :STOP DEPTH
STEP        .FT                                             0.5 :STEP      
NULL        .                                           -999.25 :NULL      
COMP        .                                       MONSANTO CO :COMPANY   
WELL        .                                     ST TR 00150-L :WELL      
FLD         .                                           WILDCAT :FIELD     
LOC         .                                                   :LOCATION  
CNTY        .                             GALVESTON LARGE BLOCK :LOCATION  
STAT        .                                             TEXAS :STATE     
CTRY        .                                     UNITED STATES :COUNTRY   
SRVC        .                                                   :SERVICE COMPANY
DATE        .                             9/13/2023 11:19:24 AM :LOG DATE  
API         .                                    42706300340000 :API NUMBER
UWI         .                                    42706300340000 :UNIQUE WELL ID
XCOORD      .                                  1113316.22146511 :SURFACE X 
YCOORD      .                                  10612518.3672968 :SURFACE Y 
LAT         .                                         29.232517 :LATITUDE  
LON         .                                       -94.6530532 :LONGITUDE 
ELEV        .FT                                              81 :ELEVATION VALUE
ELEV_TYPE   .                                                KB :ELEVATION REFERENCE TYPE
~Curve Information Section
#MNEM       .UNIT                                      API CODE :CURVE DESCRIPTION
#------------------------------------------------------------------------------
DEPT        .FT                                                 :DEPTH     
ASN         .OHMM                                               :          
CILD        .MMHO                                               :          
ILD         .OHMM                                               :          
SP          .MV                                                 :          
SP_NORM     .MV                                                 :SP Normalized
VSH_SP      .V/V                                                :Volume of Shale from SP
~A        DEPTH            ASN           CILD            ILD             SP        SP_NORM         VSH_SP
# ...
      6263.0000         0.8701       1537.463         0.6549       -52.1804     -0.8704147              1
      6263.5000         0.8576       1576.334         0.6295       -52.1802     -0.8718185              1
      6264.0000          0.845       1609.514         0.6059       -52.2503     -0.9435234              1
      6264.5000         0.8324       1642.643         0.5822       -52.5531      -1.247929      0.9942342
      6265.0000          0.822       1669.957         0.5719       -53.1716      -1.868031      0.9798132
      6265.5000         0.8122       1696.092         0.5656       -53.8107      -2.508736      0.9649131
      6266.0000         0.8118       1722.252         0.5593         -54.52      -3.219643      0.9483804
      6266.5000         0.8226       1743.908          0.553       -55.2902      -3.991444      0.9304315
      6267.0000         0.8305       1754.596         0.5467       -56.0493      -4.752151      0.9127406
      6267.5000         0.8299       1765.283         0.5575       -56.7375      -5.441952      0.8966988
      6268.0000         0.8222       1772.352         0.5733       -57.2087      -5.914757      0.8857033
      6268.5000         0.8134       1764.197          0.589       -56.2467      -4.954361      0.9080381
      6269.0000         0.8046       1743.111         0.6056       -55.3467      -4.055965      0.9289311
      6269.5000         0.7957        1699.92         0.6141       -54.5717      -3.282574      0.9469169
      6270.0000         0.8039       1656.729         0.6092       -53.7966      -2.509075      0.9649052
      6270.5000         0.8329       1620.066         0.6013       -53.0332       -1.74728      0.9826214
      6271.0000         0.8702       1601.758         0.5927       -52.3442      -1.059883      0.9986074
      6271.5000          0.918       1613.096         0.5841       -62.8077      -11.52499      0.7552328
      6272.0000         0.9657       1631.525         0.5754       -65.5586      -14.27749      0.6912211
      6272.5000         1.0111       1660.656         0.5668        -69.808       -18.5285      0.5923606
      6273.0000         1.0503       1693.932         0.5582       -73.8286       -22.5507       0.498821
      6273.5000         1.0786       1727.209         0.5559       -76.7764       -25.5001      0.4302302
      6274.0000         1.0511       1760.535         0.5631       -76.6238      -25.34911      0.4337415
      6274.5000         0.9746       1783.309         0.5704       -72.1505      -20.87741      0.5377346
      6275.0000         0.8633       1795.174         0.5776       -67.3278      -16.05632      0.6498531
      6275.5000         0.8241       1773.836         0.5923        -63.199      -11.92912      0.7458344
      6276.0000         0.8394       1681.367          0.612       -57.9974      -6.729126      0.8667645
      6276.5000         0.8548       1567.402         0.6317       -55.9994      -4.732731      0.9131923
      6277.0000         0.8724       1504.529         0.6513       -54.9193      -3.654236      0.9382736
      6277.5000         0.8899       1459.916         0.6706       -53.8796      -2.616138      0.9624154
      6278.0000          0.907       1417.473         0.6885       -53.1655      -1.903645       0.978985
      6278.5000         0.9164       1407.742         0.7062        -52.575      -1.314751      0.9926802
      6279.0000         0.9103       1398.012         0.6946        -52.196     -0.9373512              1
      6279.5000         0.9043       1388.283         0.6831       -51.8352     -0.5781593              1
      6280.0000         0.8982       1389.332         0.6715        -52.124     -0.8685608              1
      6280.5000         0.8922       1397.424         0.6599       -53.0148      -1.760967      0.9823031
      6281.0000         0.8861       1427.768         0.6484       -53.9055      -2.653267      0.9615519
      6281.5000         0.8797       1484.162         0.6373        -54.795      -3.544373      0.9408286
      6282.0000         0.8678       1540.506         0.6281       -55.7853      -4.536282      0.9177609
      6282.5000          0.856       1576.984         0.6189       -56.8114      -5.563984      0.8938608
      6283.0000          0.843       1592.912         0.6133       -56.1754      -4.929588      0.9086142
      6283.5000         0.8269       1608.826         0.6198       -55.2994      -4.055191      0.9289491
      6284.0000         0.8107       1602.691         0.6236       -54.2327      -2.990097      0.9537187
      6284.5000          0.811        1583.23           0.61       -53.1673        -1.9263      0.9784582
      6285.0000         0.8186        1563.77          0.607       -52.5374      -1.298004      0.9930696
      6285.5000         0.8261       1544.334         0.6119       -51.9468     -0.7090073              1
      6286.0000         0.8333       1524.873         0.6173        -51.639      -0.402813              1
      6286.5000         0.8406        1510.48         0.6243       -51.4918     -0.2572174              1
      6287.0000         0.8478       1497.119         0.6313       -51.4719     -0.2389221              1
      6287.5000         0.8465        1483.77         0.6299       -51.4521      -0.220726              1
      6288.0000         0.8244       1489.217         0.6176       -51.4322     -0.2024307              1
      6288.5000         0.8027        1510.42         0.6053         -51.54     -0.3118362              1
      6289.0000         0.7809       1551.354         0.5886       -51.7694     -0.5428391              1
      6289.5000         0.7592        1615.01         0.5582       -51.9985     -0.7735443              1
      6290.0000         0.7398       1678.668         0.5279        -52.228      -1.004646      0.9998919
      6290.5000         0.7214       1805.051         0.5033       -52.4572      -1.235451      0.9945244
      6291.0000          0.724         1928.5         0.4818       -53.1895      -1.969357      0.9774568
      6291.5000          0.769       2056.797         0.4628       -54.1294      -2.910858      0.9555615
      6292.0000          0.823       2128.012         0.4468       -66.5305      -15.31357      0.6671263
      6292.5000         0.8852       2188.922         0.4307       -72.9034      -21.68806      0.5188822
      6293.0000         0.9862         2307.5         0.4161       -80.9248      -29.71107      0.3323007
      6293.5000         1.0639       2434.031         0.4053       -84.2786      -33.06648      0.2542679
      6294.0000         1.0586       2609.488         0.3962       -85.0026      -33.79208      0.2373934
      6294.5000         1.0261       2601.766         0.4087        -85.478      -34.26908      0.2263003
      6295.0000         1.0049       2542.402         0.4213       -85.7484      -34.54109      0.2199747
      6295.5000         0.9891       2460.238         0.4339       -86.0188       -34.8131      0.2136489
      6296.0000         0.9742        2377.98         0.4465        -85.932       -34.7279      0.2156303
      6296.5000         0.9596       2311.625         0.4598       -79.3845        -28.182      0.3678604
      6297.0000         0.9445       2245.953         0.4822       -76.8256      -25.62471      0.4273324
      6297.5000         0.9243       2186.516         0.5047       -74.2666      -23.06731      0.4868067
      6298.0000         0.9067           2078         0.5304       -70.6692      -19.47151        0.57043
      6298.5000           0.91         1786.4         0.5648       -68.1497      -16.95362      0.6289856
      6299.0000         0.9132        1602.25         0.5937       -66.1639      -14.96943      0.6751295
      6299.5000           0.93       1527.623           0.62       -64.4268      -13.23393      0.7154899
      6300.0000          0.948       1516.322         0.6405       -63.2396      -12.04834       0.743062
      6300.5000         0.9726       1505.008         0.6482       -62.2344      -11.04474      0.7664014
