#------------------------------------------------------------------------------
# Created by    : vladimir.rabinovich
# Created on    : 09/19/2023 17:20:38
#------------------------------------------------------------------------------
~Version Information Section
VERS.           2.0     :   CWLS log ASCII Standard - VERSION 2.0
WRAP.           NO      :   One line per depth step
~Well Information Section
#MNEM       .UNIT                                         VALUE :DESCRIPTION
#------------------------------------------------------------------------------
STRT        .FT                                             540 :START DEPTH
STOP        .FT                                            8409 :STOP DEPTH
STEP        .FT                                             0.5 :STEP      
NULL        .                                           -999.25 :NULL      
COMP        .                                      SHELL OIL CO :COMPANY   
WELL        .                                OCS 00706 ST00BP00 :WELL      
FLD         .                                           WILDCAT :FIELD     
LOC         .                                                   :LOCATION  
CNTY        .                             GALVESTON LARGE BLOCK :LOCATION  
STAT        .                                             TEXAS :STATE     
CTRY        .                                     UNITED STATES :COUNTRY   
SRVC        .                                                   :SERVICE COMPANY
DATE        .                             9/13/2023 11:19:25 AM :LOG DATE  
API         .                                    42706000280000 :API NUMBER
UWI         .                                    42706000280000 :UNIQUE WELL ID
XCOORD      .                                  1100625.96198943 :SURFACE X 
YCOORD      .                                  10499283.7203345 :SURFACE Y 
LAT         .                                         28.920625 :LATITUDE  
LON         .                                        -94.687754 :LONGITUDE 
ELEV        .FT                                              78 :ELEVATION VALUE
ELEV_TYPE   .                                                KB :ELEVATION REFERENCE TYPE
~Curve Information Section
#MNEM       .UNIT                                      API CODE :CURVE DESCRIPTION
#------------------------------------------------------------------------------
DEPT        .FT                                                 :DEPTH     
ASN         .OHMM                                               :          
DT          .US/F                                               :          
ILD         .OHMM                                               :          
LAT         .OHMM                                               :          
LN          .OHMM                                               :          
SP          .MV                                                 :          
SP_NORM     .MV                                                 :SP Normalized
VSH_SP      .V/V                                                :Volume of Shale from SP
~A        DEPTH            ASN             DT            ILD            LAT             LN             SP        SP_NORM         VSH_SP
       540.0000         1.3202        -999.25        -999.25        -999.25         1.4442       -53.1104      0.5481377              1
       540.5000         1.3455        -999.25        -999.25        -999.25         1.5333       -55.1682      -1.509663              1
       541.0000         1.3705        -999.25        -999.25        -999.25         1.6075       -56.9141      -3.255562              1
       541.5000         1.3952        -999.25        -999.25        -999.25         1.6633       -57.6901      -4.031563      0.9985653
       542.0000         1.4194        -999.25        -999.25        -999.25         1.7191       -58.4659      -4.807362      0.9633017
       542.5000         1.4547        -999.25        -999.25        -999.25         1.7758       -58.2589      -4.600361      0.9727108
       543.0000          1.528        -999.25        -999.25        -999.25         1.8715       -58.0367      -4.378162      0.9828108
       543.5000         1.5819        -999.25        -999.25        -999.25         1.9672       -57.7911      -4.132561      0.9939745
       544.0000         1.6108        -999.25        -999.25        -999.25         2.0464       -56.9008       -3.24226              1
       544.5000         1.6264        -999.25        -999.25        -999.25         2.1216       -56.0106      -2.352062              1
       545.0000          1.638        -999.25        -999.25        -999.25         2.1865       -55.1204      -1.461861              1
       545.5000         1.6463        -999.25        -999.25        -999.25         2.2337       -54.4711      -0.812561              1
       546.0000         1.6372        -999.25        -999.25        -999.25         2.2808       -53.9415     -0.2829628              1
       546.5000         1.6281        -999.25        -999.25        -999.25         2.3279       -53.4119      0.2466393              1
       547.0000          1.619        -999.25        -999.25        -999.25         2.4607       -53.1071      0.5514374              1
       547.5000         1.6024        -999.25        -999.25        -999.25         2.5891       -52.9556      0.7029381              1
       548.0000         1.5848        -999.25        -999.25         0.6715         2.6824       -52.8931      0.7654381              1
       548.5000          1.571        -999.25        -999.25         0.6741         2.7947       -52.9534      0.7051392              1
       549.0000         1.5569        -999.25        -999.25         0.6767         2.9101       -53.0137      0.6448402              1
       549.5000         1.5396        -999.25        -999.25         0.6793         3.0223        -53.074      0.5845375              1
       550.0000         1.5786        -999.25        -999.25         0.6784         3.1298       -52.8776      0.7809372              1
       550.5000         1.6313        -999.25        -999.25         0.6767         3.2295       -52.2972        1.36134              1
       551.0000         1.6755        -999.25        -999.25         0.6751         3.3427       -51.7169       1.941639              1
       551.5000         1.7073        -999.25        -999.25         0.6735         3.4263       -51.8062       1.852341              1
       552.0000         1.7478        -999.25        -999.25         0.6718         3.4591       -52.1578        1.50074              1
       552.5000         1.8013        -999.25        -999.25         0.6711         3.4219       -52.5529        1.10564              1
       553.0000         1.9525        -999.25        -999.25         0.6714         3.1556       -52.9481      0.7104378              1
       553.5000         2.1303        -999.25        -999.25         0.6718         2.9184       -53.3432      0.3153381              1
       554.0000         2.1438        -999.25        -999.25         0.6722         2.7675       -53.5577      0.1008377              1
       554.5000         2.1434        -999.25        -999.25         0.6737         2.5768       -53.4544      0.2041397              1
       555.0000         2.1112        -999.25        -999.25         0.6947         2.2451       -53.3512      0.3073387              1
       555.5000         2.0758        -999.25        -999.25         0.7158         2.0793        -53.248      0.4105377              1
       556.0000         2.0417        -999.25        -999.25         0.7422         1.9613       -53.3232      0.3353386              1
       556.5000         2.0237        -999.25        -999.25         0.8089         1.8783       -53.4456      0.2251511              1
       557.0000          2.013        -999.25        -999.25         0.9133         1.8493       -54.3258     -0.5913315              1
       557.5000         2.0022        -999.25        -999.25         1.1356         1.8475       -55.4304       -1.63221              1
       558.0000         1.9167        -999.25        -999.25         1.2987         1.8716       -56.4777      -2.615788              1
       558.5000         1.7042        -999.25        -999.25         1.3874         1.8957       -57.4249      -3.499268              1
       559.0000         1.5621        -999.25        -999.25         1.4752         1.9198        -58.372      -4.382648      0.9826069
       559.5000         1.5679        -999.25        -999.25         1.5571          1.944       -59.3221      -5.269028      0.9423169
       560.0000         1.5751        -999.25        -999.25         1.6409         1.9714       -60.2744      -6.157604      0.9019271
       560.5000         1.5672        -999.25        -999.25         1.6698         1.9994       -61.8044      -7.623882      0.8352781
       561.0000         1.5768        -999.25        -999.25         1.5936         2.0246       -64.0588       -9.81456      0.7357018
       561.5000         1.5856        -999.25        -999.25         1.5273         2.0284        -65.002      -10.69404      0.6957255
       562.0000         1.5601        -999.25        -999.25         1.4738         2.0322       -65.9448      -11.57312      0.6557673
       562.5000         1.4676        -999.25        -999.25         1.4203         2.0361       -66.2242       -11.7888      0.6459638
       563.0000         1.4433        -999.25        -999.25         1.3775         2.0399       -66.5037      -12.00458      0.6361555
       563.5000         1.4188        -999.25        -999.25          1.345         2.0636       -66.6436      -12.08076      0.6326929
       564.0000         1.3915        -999.25        -999.25         1.3125          2.088       -66.7769      -12.15033      0.6295303
       564.5000         1.3652        -999.25        -999.25         1.2805         2.1124       -66.9103      -12.22001       0.626363
       565.0000         1.3391        -999.25        -999.25          1.265         2.1369       -67.0436      -12.28959      0.6232004
       565.5000         1.3243        -999.25        -999.25         1.2494         2.1613       -67.8777      -13.05997      0.5881832
       566.0000         1.3365        -999.25        -999.25         1.2339         2.1717       -68.9962      -14.11475      0.5402386
       566.5000         1.3479        -999.25        -999.25         1.2184         2.1805       -69.8976      -14.95243      0.5021624
       567.0000         1.3578        -999.25        -999.25         1.2029         2.1894       -70.2965      -15.28761      0.4869269
       567.5000         1.3656        -999.25        -999.25         1.1894         2.1641       -70.2739      -15.20129      0.4908506
       568.0000         1.3696        -999.25        -999.25          1.186         2.1369       -68.8958      -13.75946      0.5563881
       568.5000         1.3697        -999.25        -999.25         1.1827         2.1097       -67.5448      -12.34474      0.6206936
       569.0000         1.3682        -999.25        -999.25         1.1793         2.0782       -66.2296      -10.96582      0.6833718
