#------------------------------------------------------------------------------
# Created by    : vladimir.rabinovich
# Created on    : 09/19/2023 17:20:05
#------------------------------------------------------------------------------
~Version Information Section
VERS.           2.0     :   CWLS log ASCII Standard - VERSION 2.0
WRAP.           NO      :   One line per depth step
~Well Information Section
#MNEM       .UNIT                                         VALUE :DESCRIPTION
#------------------------------------------------------------------------------
STRT        .FT                                             712 :START DEPTH
STOP        .FT                                            9469 :STOP DEPTH
STEP        .FT                                             0.5 :STEP      
NULL        .                                           -999.25 :NULL      
COMP        .                                 MESA PETROLEUM CO :COMPANY   
WELL        .                                ST TR 00279-L SW/4 :WELL      
FLD         .                                           WILDCAT :FIELD     
LOC         .                                                   :LOCATION  
CNTY        .                             GALVESTON LARGE BLOCK :LOCATION  
STAT        .                                             TEXAS :STATE     
CTRY        .                                     UNITED STATES :COUNTRY   
SRVC        .                                                   :SERVICE COMPANY
DATE        .                             9/13/2023 11:18:53 AM :LOG DATE  
API         .                                    42706300950000 :API NUMBER
UWI         .                                    42706300950000 :UNIQUE WELL ID
XCOORD      .                                  947289.050530544 :SURFACE X 
YCOORD      .                                  10490529.0152507 :SURFACE Y 
LAT         .                                         28.889695 :LATITUDE  
LON         .                                        -95.166438 :LONGITUDE 
ELEV        .FT                                              84 :ELEVATION VALUE
ELEV_TYPE   .                                                KB :ELEVATION REFERENCE TYPE
~Curve Information Section
#MNEM       .UNIT                                      API CODE :CURVE DESCRIPTION
#------------------------------------------------------------------------------
DEPT        .FT                                                 :DEPTH     
ASFL        .OHMM                                               :          
CILD        .MMHO                                               :          
GR          .GAPI                                               :          
GR_NORM     .GAPI                                               :GammaRay Normalized
ILD         .OHMM                                               :          
SP          .MV                                                 :          
SP_NORM     .MV                                                 :SP Normalized
VSH_GR      .V/V                                                :Volume of Shale from GR
VSH_SP      .V/V                                                :Volume of Shale from SP
~A        DEPTH           ASFL           CILD             GR        GR_NORM            ILD             SP        SP_NORM         VSH_GR         VSH_SP
# ...
      5349.5000         0.3523       3978.789        36.2431       35.18148          0.255      -112.9163      -78.73006     0.04641439              0
      5350.0000         0.3587       4163.234        35.8475       34.84057         0.2429      -109.4543      -75.26886     0.03916103              0
      5350.5000         0.3845       4456.063        35.4517       34.49943         0.2308      -104.2374      -70.05275      0.0319028     0.06596334
      5351.0000         0.4199       4586.078         35.609       34.78693         0.2187       -91.7338      -57.54996     0.03801987      0.2326672
      5351.5000         0.4604       4655.328        38.1959       37.83523          0.212       -88.6681      -54.48505      0.1028772      0.2735327
      5352.0000         0.4849       4695.789        40.7531       40.84977         0.2238        -84.099      -49.91674      0.1670164      0.3344434
      5352.5000         0.4228       4736.195        43.3079       43.86159         0.2355       -80.8037      -46.62225      0.2310977        0.37837
      5353.0000         0.4518       4450.922        47.3931       48.61261         0.2473       -78.3971      -44.21644      0.3321833      0.4104474
      5353.5000         0.4721       4042.711        53.6727       55.76102          0.259       -75.3906      -41.21074      0.4842771      0.4505235
      5354.0000         0.4433       3356.586        55.3784       57.69546         0.2716       -71.7139      -37.53483      0.5254353      0.4995356
      5354.5000         0.4145       3230.426        56.6348       59.11921         0.2848       -63.1461      -28.96783      0.5557278      0.6137623
      5355.0000         0.3965       3184.859         55.292       57.58932         0.2979       -57.9033      -23.72582       0.523177      0.6836557
      5355.5000         0.4168       3146.453        53.5444       55.59943         0.3111       -51.9495      -17.77282       0.480839      0.7630291
      5356.0000          0.428        3108.07         51.303       53.04852         0.3206       -56.2593      -22.08342      0.4265643      0.7055544
      5356.5000         0.4274        3061.34        49.0642       50.50046         0.3027         -61.48      -27.30491      0.3723502      0.6359345
      5357.0000         0.4155        3014.66        47.2672       48.45443         0.2847       -71.6472      -37.47291      0.3288177      0.5003612
      5357.5000         0.4035       3444.809        45.6751       46.64125         0.2668       -91.5894       -57.4159      0.2902393      0.2344546
      5358.0000         0.4001       3847.891        44.0818       44.82682         0.2488       -93.0759      -58.90319      0.2516344      0.2146241
      5358.5000         0.4579       3986.102        42.1577       42.63636         0.2309       -94.6107       -60.4388       0.205029      0.1941494
      5359.0000         0.5454        4111.57        40.0941       40.28738         0.2129       -96.4786      -62.30749      0.1550507      0.1692335
      5359.5000         0.6448       4267.367        38.0355       37.94409         0.2002       -98.3485      -64.17819      0.1051934      0.1442908
      5360.0000          0.703       4398.563        36.2792       35.94443         0.1881      -101.6975      -67.52798     0.06264748     0.09962687
      5360.5000         0.7407       4497.258        35.1178       34.62068          0.176      -104.8632      -70.69447     0.03448259     0.05740702
      5361.0000         0.4186       4638.234         33.986       33.33057          0.164      -105.1964      -71.02847    0.007033409     0.05295369
      5361.5000         0.3446       5013.656        32.7593       31.93261         0.1519      -100.7163      -66.54917              0      0.1126777
      5362.0000         0.2893       4709.367        33.5732       32.85364         0.1398       -75.1425      -40.97617              0      0.4536511
      5362.5000         0.2409         4420.5        34.4772       33.87693         0.1421       -71.7435      -37.57796     0.01865817      0.4989605
      5363.0000         0.2383       3757.395        35.3369       34.84988         0.1887       -68.0891      -33.92436     0.03935923      0.5476752
      5363.5000         0.4649       3143.883        36.1119       35.72659         0.2354       -63.8163      -29.65236     0.05801254      0.6046352
      5364.0000         0.9056       3065.242         36.887       36.60352          0.282       -61.1838      -27.02065     0.07667071      0.6397247
      5364.5000         1.1146       2967.535        37.6621       37.48034         0.3641       -60.4136      -26.25125     0.09532636      0.6499833
      5365.0000         1.3238       2103.188        38.4372       38.35716         0.4561       -68.3575      -34.19594      0.1139822      0.5440541
      5365.5000         0.6017        1682.92        38.4268       38.34137         0.5482       -69.1368      -34.97604      0.1136461      0.5336528
      5366.0000         0.6821       1593.611        38.3366       38.23489         0.6396       -69.9163      -35.75633      0.1113806      0.5232489
      5366.5000         0.7218       1543.818        37.8787       37.71068         0.7263       -70.6957      -36.53653      0.1002273      0.5128463
      5367.0000         0.7292         1488.1        37.2665       37.01102         0.7034       -72.9913      -38.83293     0.08534095      0.4822276
      5367.5000         0.6069       1576.816        38.6698        38.6017         0.6805        -77.364      -43.20642      0.1191852      0.4239144
      5368.0000         0.4764       2445.805        41.8713        42.2358         0.6341       -78.8525      -44.69572      0.1965063      0.4040571
      5368.5000          0.425       2683.012        44.7174       45.46614         0.5565       -80.1771      -46.02111      0.2652369      0.3863851
      5369.0000         0.5075       2818.949        53.7319       55.70591         0.4788       -77.8528      -43.69761      0.4831045      0.4173652
      5369.5000         0.5193       3257.301        63.0477       66.28807         0.4048       -63.9755       -29.8211      0.7082568      0.6023853
      5370.0000         0.5106       3131.438        65.7432       69.34716          0.391       -56.4333       -22.2797      0.7733439      0.7029373
      5370.5000         0.4909       2809.168        67.9474       71.84807         0.3772       -52.9011       -18.7483      0.8265547      0.7500227
      5371.0000         0.4703       2537.684          70.67       74.93796         0.4118       -49.8909      -15.73889       0.892297      0.7901481
      5371.5000          0.655        2162.07        74.4677       79.24954         0.5076       -46.8177      -12.66649      0.9840328      0.8311135
      5372.0000         0.7389        1812.34         76.056       81.05045         0.6035       -43.0374      -8.886986              1      0.8815069
      5372.5000         0.8309       1597.611        77.3767       82.54739         0.6993       -38.8164      -4.666779              1      0.9377763
      5373.0000         0.8524       1556.662        79.2551       84.67796         0.7952       -37.0151      -2.866276              1       0.961783
      5373.5000         0.7281       1515.662        81.5421       87.27284         0.8293       -35.9525      -1.804474              1      0.9759403
      5374.0000          0.818        1307.75        82.6775       88.55909          0.857       -35.3596      -1.212368              1      0.9838351
      5374.5000         0.7987       1268.629        83.8118       89.84421         0.8808       -34.8968     -0.7503662              1      0.9899951
      5375.0000         0.6935        1280.73        86.0826       92.42068         0.8443       -34.9755     -0.8298607              1      0.9889352
      5375.5000         0.6054       1324.053        87.3367       93.84182         0.8077       -34.8922     -0.7473564              1      0.9900352
