#------------------------------------------------------------------------------
# Created by    : vladimir.rabinovich
# Created on    : 09/19/2023 17:22:41
#------------------------------------------------------------------------------
~Version Information Section
VERS.           2.0     :   CWLS log ASCII Standard - VERSION 2.0
WRAP.           NO      :   One line per depth step
~Well Information Section
#MNEM       .UNIT                                         VALUE :DESCRIPTION
#------------------------------------------------------------------------------
STRT        .FT                                            4470 :START DEPTH
STOP        .FT                                            9513 :STOP DEPTH
STEP        .FT                                             0.5 :STEP      
NULL        .                                           -999.25 :NULL      
COMP        .                 FAIRWAYS SPEC SALES & SERVICE INC :COMPANY   
WELL        .                               OCS G11315 ST00BP00 :WELL      
FLD         .                              GALVESTON BLOCK 0319 :FIELD     
LOC         .                                                   :LOCATION  
CNTY        .                             GALVESTON LARGE BLOCK :LOCATION  
STAT        .                                             TEXAS :STATE     
CTRY        .                                     UNITED STATES :COUNTRY   
SRVC        .                                                   :SERVICE COMPANY
DATE        .                             9/13/2023 11:19:34 AM :LOG DATE  
API         .                                    42706402650000 :API NUMBER
UWI         .                                    42706402650000 :UNIQUE WELL ID
XCOORD      .                                  1065572.18570413 :SURFACE X 
YCOORD      .                                  10465680.9820926 :SURFACE Y 
LAT         .                                         28.826802 :LATITUDE  
LON         .                                        -94.795723 :LONGITUDE 
ELEV        .FT                                              86 :ELEVATION VALUE
ELEV_TYPE   .                                                KB :ELEVATION REFERENCE TYPE
~Curve Information Section
#MNEM       .UNIT                                      API CODE :CURVE DESCRIPTION
#------------------------------------------------------------------------------
DEPT        .FT                                                 :DEPTH     
DCAL        .IN                                                 :          
DPHI        .%                                                  :          
DRHO        .G/C3                                               :          
GR          .GAPI                                               :          
GR_NORM     .GAPI                                               :GammaRay Normalized
ILD         .OHMM                                               :          
ILM         .OHMM                                               :          
NPHI        .%                                                  :          
SFL         .OHMM                                               :          
SP          .MV                                                 :          
SP_NORM     .MV                                                 :SP Normalized
VSH_GR      .V/V                                                :Volume of Shale from GR
VSH_SP      .V/V                                                :Volume of Shale from SP
~A        DEPTH           DCAL           DPHI           DRHO             GR        GR_NORM            ILD            ILM           NPHI            SFL             SP        SP_NORM         VSH_GR         VSH_SP
# ...
      8175.0000         1.2562        14.4272         0.0022        83.5049       75.85842         1.1227         1.0895        29.2215         1.1036       -40.1737      -5.597134      0.9118813      0.9138902
      8175.5000         1.2699        14.5826          0.002        84.2599       76.66341         1.1306         1.0958        28.0342         1.1179       -40.6454      -6.067684      0.9290087       0.906651
      8176.0000         1.3604        14.5972         0.0018        85.5978       78.09016         1.1372         1.1022        27.8015         1.1346        -40.914      -6.335129       0.959365      0.9025365
      8176.5000         1.4632        14.0019         0.0014        87.7076       80.34028         1.1439         1.1085        28.8199         1.1496       -41.1274      -6.547371              1      0.8992712
      8177.0000         1.5907        13.1318         0.0007        88.3661       81.04232          1.147         1.1101         29.851         1.1547       -40.6025      -6.021317              1      0.9073644
      8177.5000         1.5627        12.2664         0.0001        88.3773       81.05392         1.1421         1.1111        30.7757         1.1597       -39.9979      -5.415562              1      0.9166837
      8178.0000         1.5444        11.5038        -0.0004        87.9125        80.5578         1.1372         1.1121         30.588         1.1492       -39.4435      -4.860008              1      0.9252306
      8178.5000         1.4879        11.3234        -0.0003        87.7008       80.33164         1.1323         1.1192        30.1502         1.1312       -38.8901       -4.30545              1      0.9337623
      8179.0000         1.3951        11.5309        -0.0003        87.8331       80.47242         1.1308          1.133         30.107         1.0913       -38.2993      -3.713497              1      0.9428692
      8179.5000         1.3346        11.8198        -0.0003        88.8632       81.57085         1.1298          1.131        30.4804         1.0425       -37.7025      -3.115543              1      0.9520686
      8180.0000         1.3184        12.0551        -0.0009        89.8308       82.60261         1.1288         1.1239        31.1833         1.0156       -37.3364      -2.748287              1      0.9577187
      8180.5000         1.3159        12.2383        -0.0014        90.5634       83.38371         1.1279         1.1164         31.698         1.0164       -37.2073      -2.618031              1      0.9597226
      8181.0000         1.2973        12.3697        -0.0017        91.7201       84.61718         1.1282         1.1119        31.2908         1.0394       -37.2579      -2.667477              1      0.9589619
      8181.5000         1.2813        12.3212        -0.0014        93.1487       86.14068         1.1285         1.1083        30.7482         1.0766       -37.7341      -3.142525              1      0.9516535
      8182.0000         1.2972        12.2726         -0.001        94.8976       88.00583         1.1287         1.1049         30.316         1.1198       -38.2106       -3.61787              1      0.9443405
      8182.5000         1.3264        12.1124        -0.0008        93.2379       86.23514          1.129         1.1045        30.3864         1.1181       -38.2704      -3.676514              1      0.9434382
      8183.0000         1.4401        11.9268        -0.0007        89.6456         82.403         1.1292         1.1041        30.6087         1.0954        -38.122      -3.526962              1       0.945739
      8183.5000         1.5246        11.8544        -0.0006        87.0958       79.68288         1.1294         1.1038        30.7916         1.0707       -37.1905      -2.594303      0.9932527      0.9600877
      8184.0000          1.445        11.9533        -0.0028        86.6494       79.20637         1.1295         1.1038        31.1976         1.0564       -37.2239      -2.626549      0.9831142      0.9595916
      8184.5000         1.3692        12.1915        -0.0051        88.7266       81.42171         1.1291          1.104        32.1546         1.0437       -37.4977      -2.899193              1       0.955397
      8185.0000         1.3328        12.8688        -0.0073        91.5941       84.48003         1.1287         1.1042         32.755         1.0337       -37.8325      -3.232841              1       0.950264
      8185.5000         1.3157        13.5461        -0.0094        92.4738       85.41803         1.1283         1.1046        32.3227         1.0282       -37.9689      -3.368084              1      0.9481833
      8186.0000          1.405        13.4615        -0.0098        91.0321       83.87988         1.1269         1.1059        30.9378         1.0297        -37.645       -3.04303              1      0.9531841
      8186.5000         1.4856        13.1931        -0.0073        88.8815       81.58556         1.1253         1.1072        29.9498         1.0394       -37.3209      -2.717773              1      0.9581881
      8187.0000         1.5524        12.7031        -0.0048        86.8438       79.41167         1.1237         1.1085        30.4741         1.0833       -37.0561       -2.45182      0.9874824      0.9622797
      8187.5000         1.5785        12.6808        -0.0023         85.192       77.64941         1.1213           1.11        31.6311         1.0974        -36.848      -2.242565      0.9499875       0.965499
      8188.0000         1.5434        12.6569        -0.0005        83.7911       76.15478         1.1162         1.1118        32.6893         1.1002         -36.64      -2.033409      0.9181868      0.9687168
      8188.5000         1.5271        12.4413        -0.0028        82.6226       74.90803          1.111         1.1136        33.6725         1.0728       -36.4788      -1.871056      0.8916602      0.9712145
      8189.0000         1.5217        12.2533        -0.0051        81.9622       74.20325         1.1059         1.1134        34.0251          1.046       -36.3404      -1.731503       0.876665      0.9733615
      8189.5000         1.5511        12.0999        -0.0074        81.3444       73.54393         1.1044         1.1095         33.906         1.0327        -36.202      -1.591946      0.8626368      0.9755085
      8190.0000         1.6179        12.3899        -0.0099        81.9437       74.18284         1.1057         1.1057        33.1817         1.0212       -36.1446       -1.53339      0.8762306      0.9764094
      8190.5000         1.6485        12.9031        -0.0124        82.5911       74.87306         1.1071         1.1022        32.6319          1.023       -36.2204      -1.608036      0.8909162       0.975261
      8191.0000         1.6429         13.368        -0.0135        82.9928       75.30119         1.1085            1.1        32.1251         1.0283       -36.2962      -1.682682      0.9000254      0.9741126
      8191.5000         1.6055        13.7262         -0.014        83.8292       76.19301         1.1148         1.0977        31.7339          1.048       -36.4089      -1.794228      0.9190002      0.9723965
      8192.0000          1.527        13.7973        -0.0111        86.2634       78.78915         1.1218         1.0955        31.4538         1.0681       -36.6097       -1.99387      0.9742371      0.9693251
      8192.5000         1.4441        13.5991        -0.0082        88.2986       80.95969         1.1288         1.1026        31.1649         1.0881       -36.8106      -2.193615              1      0.9662521
      8193.0000         1.3295        13.4017        -0.0053         88.766        81.4579         1.1358         1.1124        30.8354         1.1085       -36.9254      -2.307262              1      0.9645036
      8193.5000         1.2657        13.2188        -0.0024        86.3344       78.86385         1.1424         1.1223        30.1091         1.0963       -36.9802      -2.360909      0.9758267      0.9636784
