#------------------------------------------------------------------------------
# Created by    : vladimir.rabinovich
# Created on    : 09/19/2023 17:22:28
#------------------------------------------------------------------------------
~Version Information Section
VERS.           2.0     :   CWLS log ASCII Standard - VERSION 2.0
WRAP.           NO      :   One line per depth step
~Well Information Section
#MNEM       .UNIT                                         VALUE :DESCRIPTION
#------------------------------------------------------------------------------
STRT        .FT                                            2981 :START DEPTH
STOP        .FT                                           10477 :STOP DEPTH
STEP        .FT                                             0.5 :STEP      
NULL        .                                           -999.25 :NULL      
COMP        .                          SEAGULL ENERGY E & P INC :COMPANY   
WELL        .                               OCS G13783 ST00BP00 :WELL      
FLD         .                                           WILDCAT :FIELD     
LOC         .                                                   :LOCATION  
CNTY        .                             GALVESTON LARGE BLOCK :LOCATION  
STAT        .                                             TEXAS :STATE     
CTRY        .                                     UNITED STATES :COUNTRY   
SRVC        .                                                   :SERVICE COMPANY
DATE        .                             9/13/2023 11:19:39 AM :LOG DATE  
API         .                                    42706403890000 :API NUMBER
UWI         .                                    42706403890000 :UNIQUE WELL ID
XCOORD      .                                  1047250.65699841 :SURFACE X 
YCOORD      .                                  10470150.2239286 :SURFACE Y 
LAT         .                                         28.838318 :LATITUDE  
LON         .                                         -94.85315 :LONGITUDE 
ELEV        .FT                                              94 :ELEVATION VALUE
ELEV_TYPE   .                                                KB :ELEVATION REFERENCE TYPE
~Curve Information Section
#MNEM       .UNIT                                      API CODE :CURVE DESCRIPTION
#------------------------------------------------------------------------------
DEPT        .FT                                                 :DEPTH     
CILD        .MMHO                                               :          
CNC         .%                                                  :          
DT24        .US/F                                               :          
GR          .GAPI                                               :          
GR_NORM     .GAPI                                               :GammaRay Normalized
PORZ        .%                                                  :          
RFOC        .OHMM                                               :          
RILD        .OHMM                                               :          
RILM        .OHMM                                               :          
RWAZ        .OHMM                                               :          
SP          .MV                                                 :          
SP_NORM     .MV                                                 :SP Normalized
TEN         .LBF                                                :          
VSH_GR      .V/V                                                :Volume of Shale from GR
VSH_SP      .V/V                                                :Volume of Shale from SP
ZCOR        .G/C3                                               :          
ZDEN        .G/C3                                               :          
~A        DEPTH           CILD            CNC           DT24             GR        GR_NORM           PORZ           RFOC           RILD           RILM           RWAZ             SP        SP_NORM            TEN         VSH_GR         VSH_SP           ZCOR           ZDEN
# ...
      8441.0000       1357.895         34.172        104.927        73.9209       64.22173          21.06           1.01          0.736          0.761          0.042        -34.447      -33.24939         15.245      0.6642922      0.5250087          0.077          2.303
      8441.5000       1323.715        35.5909        107.193        72.6689       62.71813         22.014          0.993          0.755          0.776          0.047        -35.666       -34.4684         14.826      0.6323007      0.5075943          0.077          2.287
      8442.0000       1304.896           36.9         107.08         70.824       60.50305         22.431          1.051          0.766          0.789           0.05        -38.074       -36.8764          4.868      0.5851712      0.4731943          0.071           2.28
      8442.5000        1311.15         35.475        104.158          69.21       58.56504         21.928          1.139          0.763          0.794          0.047        -40.451       -39.2534         -0.832      0.5439371      0.4392372          0.065          2.288
      8443.0000       1341.152         32.553        99.6919         68.266       57.43104         21.082          1.181          0.746          0.789          0.042        -42.938      -41.74039         -5.179      0.5198094      0.4037086          0.062          2.302
      8443.5000        1391.49         30.991        97.4889         68.288       57.45624         20.653          1.174          0.719          0.771          0.039        -45.849      -44.65139        -16.177      0.5203455       0.362123          0.058          2.309
      8444.0000       1470.238          32.09         97.835          68.58       57.80544         20.705          1.157           0.68          0.737          0.037        -48.686       -47.4884        -26.034      0.5277753      0.3215944          0.055          2.308
      8444.5000       1594.244         34.818         96.168         68.205       57.35423         21.269          1.164          0.627          0.688          0.036        -52.608       -51.4104        -18.797      0.5181751      0.2655658          0.052          2.299
      8445.0000       1793.566         36.384        96.8169         67.163       56.10262         22.657          1.163          0.558           0.63          0.037        -58.269       -57.0714          2.514      0.4915451      0.1846943          0.051          2.276
      8445.5000        2101.27         35.935       100.5559        65.7959        54.4609         24.807          1.097          0.476          0.562          0.038        -62.938      -61.74039         22.422      0.4566148      0.1179944          0.057          2.241
      8446.0000       2512.359        35.2209       101.1229        64.7319       53.18289         27.226          1.046          0.398          0.488          0.039       -66.1069       -64.9093         30.594      0.4294232     0.07272426          0.062          2.201
      8446.5000       2972.098         34.428       101.5979         62.709       50.75421         29.232          1.123          0.336          0.421          0.039        -71.256       -70.0584          25.68      0.3777492              0          0.056          2.168
      8447.0000       3402.387         32.863       100.4719        58.0959       45.21729         30.254           1.29          0.294           0.37          0.036       -78.7539       -77.5563         11.541      0.2599422              0          0.051          2.151
      8447.5000       3734.195         31.513         96.579         53.528        39.7346         30.335          1.321          0.268          0.338          0.033       -84.8269       -83.6293         -3.984      0.1432894              0          0.054          2.149
      8448.0000       3931.891          31.83        96.9449         52.404       38.38459         30.153          1.174          0.254          0.321          0.031       -88.4159       -87.2183        -17.047      0.1145658              0          0.059          2.152
      8448.5000       3991.867         33.814       100.2219         53.217       39.35899         30.126           1.03           0.25          0.317          0.031       -90.7289       -89.5313        -28.961      0.1352977              0          0.069          2.153
      8449.0000       3911.578         35.164       101.3199         53.008       39.10699         30.308          0.901          0.256           0.33          0.032        -91.132       -89.9344       -35.3929      0.1299359              0          0.082           2.15
      8449.5000       3698.121        34.2419       100.9939          51.84       37.70419         30.534          0.753           0.27          0.364          0.034       -87.9399       -86.7423        -29.544      0.1000891              0          0.084          2.146
      8450.0000       3381.754        33.0179        98.3689         51.618       37.43658         29.976          0.655          0.296           0.42          0.036        -81.703       -80.5054        -15.408     0.09439533              0          0.079          2.155
      8450.5000       2990.582        32.2289         93.699        51.8329       37.69326         27.293          0.689          0.334          0.491          0.033       -74.7689       -73.5713         -7.468      0.0998566              0          0.081            2.2
      8451.0000        2560.27         30.324         91.776         51.699       37.53138          22.41          0.923          0.391          0.563          0.025       -68.2899       -67.0923        -11.199     0.09641226     0.04153857          0.086           2.28
      8451.5000       2167.613         26.834        87.3209         53.084       39.19216         17.361          1.379          0.461          0.623          0.017        -61.319       -60.1214        -15.367      0.1317481      0.1411229          0.085          2.364
      8452.0000       1884.666         24.263        84.2539         56.889       43.75697         14.446          1.652          0.531          0.667          0.013        -53.211      -52.01339        -13.476      0.2288716      0.2569515          0.081          2.412
      8452.5000        1717.99         24.144        88.7319         60.938       48.61456         14.334          1.492          0.582          0.688          0.014        -46.141      -44.94339          -10.9      0.3322246      0.3579515          0.079          2.414
      8453.0000       1639.254         26.292        93.4109         63.998       52.28536         16.527          1.273           0.61          0.687          0.021        -43.431      -42.23339         -7.683      0.4103268      0.3966658          0.072          2.377
      8453.5000       1623.822         28.569        100.006         65.953       54.63015         20.116          1.172          0.616           0.67          0.032        -46.006       -44.8084         -2.299       0.460216      0.3598801          0.064          2.318
      8454.0000       1641.861         28.929       105.5299         64.553       52.94895         23.873          1.213          0.609          0.649          0.045         -51.68       -50.4824         -0.059      0.4244458      0.2788229           0.06          2.256
      8454.5000        1657.27         28.428       103.8379          60.42       47.98814         26.405          1.334          0.603          0.641          0.056       -56.5309      -55.33329         -5.212      0.3188966      0.2095244          0.062          2.214
      8455.0000       1651.805         27.803       101.2809         57.451       44.42414         26.539          1.347          0.605          0.658          0.056        -56.973      -55.77539         -14.95      0.2430668      0.2032087          0.065          2.212
      8455.5000       1630.877         26.532        99.8569        57.2079       44.13121         23.906          1.248          0.613          0.695          0.046       -52.9319      -51.73429        -24.177      0.2368343      0.2609386          0.064          2.256
