#------------------------------------------------------------------------------
# Created by    : vladimir.rabinovich
# Created on    : 09/19/2023 17:22:53
#------------------------------------------------------------------------------
~Version Information Section
VERS.           2.0     :   CWLS log ASCII Standard - VERSION 2.0
WRAP.           NO      :   One line per depth step
~Well Information Section
#MNEM       .UNIT                                         VALUE :DESCRIPTION
#------------------------------------------------------------------------------
STRT        .FT                                             411 :START DEPTH
STOP        .FT                                           10036 :STOP DEPTH
STEP        .FT                                             0.5 :STEP      
NULL        .                                           -999.25 :NULL      
COMP        .                          HUMBLE OIL & REFINING CO :COMPANY   
WELL        .                                     ST TR 00278-L :WELL      
FLD         .                                           WILDCAT :FIELD     
LOC         .                                                   :LOCATION  
CNTY        .                             GALVESTON LARGE BLOCK :LOCATION  
STAT        .                                             TEXAS :STATE     
CTRY        .                                     UNITED STATES :COUNTRY   
SRVC        .                                                   :SERVICE COMPANY
DATE        .                             9/13/2023 11:19:42 AM :LOG DATE  
API         .                                    42706000220000 :API NUMBER
UWI         .                                    42706000220000 :UNIQUE WELL ID
XCOORD      .                                  941560.719964966 :SURFACE X 
YCOORD      .                                  10497824.1170516 :SURFACE Y 
LAT         .                                        28.9094621 :LATITUDE  
LON         .                                       -95.1847519 :LONGITUDE 
ELEV        .FT                                              10 :ELEVATION VALUE
ELEV_TYPE   .                                                KB :ELEVATION REFERENCE TYPE
~Curve Information Section
#MNEM       .UNIT                                      API CODE :CURVE DESCRIPTION
#------------------------------------------------------------------------------
DEPT        .FT                                                 :DEPTH     
LAT         .OHMM                                               :          
LN          .OHMM                                               :          
SN          .OHMM                                               :          
SP          .MV                                                 :          
SP_NORM     .MV                                                 :SP Normalized
VSH_SP      .V/V                                                :Volume of Shale from SP
~A        DEPTH            LAT             LN             SN             SP        SP_NORM         VSH_SP
# ...
      1703.0000         1.0651         0.7465          1.446        89.9377      -23.57688     0.05929661
      1703.5000         1.0408         0.7424         1.3981        89.5555      -23.19971     0.07501189
      1704.0000         1.0166         0.7347         1.3501        89.1735      -22.82276     0.09071827
      1704.5000         0.9929          0.727         1.3144        89.0956       -22.7499     0.09375414
      1705.0000         0.9699         0.7193          1.301        89.3633      -23.02264     0.08238983
      1705.5000          0.947         0.7115         1.2876        89.6311      -23.29549      0.0710214
      1706.0000          0.924         0.7031         1.2743        89.7992      -23.46863     0.06380717
      1706.5000         0.9393         0.6948         1.2609        89.8641      -23.53857     0.06089306
      1707.0000          0.978         0.6864         1.2475        89.1805      -22.86001     0.08916632
      1707.5000         1.0168          0.678         1.2341        86.7649      -20.44946       0.189606
      1708.0000         1.0555          0.687         1.2207        84.2153      -17.90489      0.2956295
      1708.5000         1.0916         0.7052         1.2083        81.6658      -15.36044      0.4016485
      1709.0000         1.0586         0.7235         1.1991        79.3892      -13.08887      0.4962969
      1709.5000         1.0256         0.7417         1.1898        77.3451      -11.04982      0.5812575
      1710.0000         1.0356           0.76         1.1803        75.3009      -9.010658      0.6662226
      1710.5000         1.0526         0.7782         1.1644        73.2568      -6.971596      0.7511835
      1711.0000         1.0696         0.7965         1.1484        71.9447      -5.664543       0.805644
      1711.5000         1.0866         0.8052         1.1324        70.6563      -4.381187      0.8591172
      1712.0000         1.1036         0.8096         1.1615        69.3892      -3.119118      0.9117034
      1712.5000         1.1306          0.814         1.1971        70.9951      -4.730064      0.8445807
      1713.0000         1.1588         0.8184         1.2327        72.4437      -6.183708      0.7840121
      1713.5000         1.1871         0.8229         1.2684        73.8905      -7.635551      0.7235187
      1714.0000         1.2153         0.8273         1.3039         75.338      -9.088081      0.6629966
      1714.5000         1.2435         0.8292         1.3386        76.1169      -9.872025      0.6303323
      1715.0000         1.2701          0.829         1.3733        73.5366      -7.296768      0.7376347
      1715.5000         1.2837         0.8288          1.408        72.0214      -5.786613      0.8005578
      1716.0000         1.2973         0.8286         1.4427        70.5056      -4.275856       0.863506
      1716.5000         1.2885         0.8284         1.4774        69.1536      -2.928894      0.9196294
      1717.0000         1.2599         0.8282         1.5121        70.2283      -4.008636      0.8746402
      1717.5000         1.2312         0.8285         1.5468        71.3033      -5.088676      0.8296385
      1718.0000         1.2025         0.8314         1.5674        72.2964      -6.086823       0.788049
      1718.5000         1.1585         0.8342         1.5752        73.0847      -6.880157      0.7549934
      1719.0000         1.1097         0.8371         1.5829        73.8734      -7.673897       0.721921
      1719.5000         1.0609           0.84         1.5907        74.6619      -8.467445      0.6888564
      1720.0000         1.0121         0.8428          1.581        74.5009      -8.311485      0.6953548
      1720.5000         0.9633         0.8457         1.5704        72.4824      -6.298019      0.7792492
      1721.0000         0.9491         0.8476         1.5597        70.8566      -4.677261      0.8467808
      1721.5000         0.9561          0.846          1.549        69.2308      -3.056503      0.9143124
      1722.0000          0.963         0.8444         1.5384        69.4854      -3.316147      0.9034939
      1722.5000           0.97         0.8428         1.5277        70.2767      -4.112488       0.870313
      1723.0000          0.977         0.8412         1.5135         71.207      -5.047829      0.8313405
      1723.5000          0.984         0.8394         1.4983        72.1373       -5.98317      0.7923679
      1724.0000         0.9909         0.8351         1.4832         73.068      -6.918915      0.7533786
      1724.5000         0.9979         0.8308          1.468        73.9983      -7.854256       0.714406
      1725.0000         1.0049         0.8264         1.4529        74.9038      -8.764793      0.6764669
      1725.5000         1.0118         0.8221         1.4377        75.7087      -9.574738      0.6427193
      1726.0000         1.0145         0.8178         1.4226        76.5139      -10.38498      0.6089592
      1726.5000         1.0152         0.8135         1.4074        77.3191      -11.19522      0.5751991
      1727.0000         1.0159         0.8092         1.3922         78.124      -12.00516      0.5414518
      1727.5000         1.0167         0.8054         1.3771        78.9293       -12.8155      0.5076876
      1728.0000         1.0174         0.8016         1.3644        79.7345      -13.62574      0.4739275
      1728.5000         1.0181         0.7978         1.3579        80.5394      -14.43568      0.4401798
      1729.0000         1.0188          0.794         1.3514        81.2787      -15.18002      0.4091657
      1729.5000         1.0195         0.7901          1.345        81.0319      -14.93826       0.419239
      1730.0000         1.0296         0.7863         1.3385        80.6409      -14.55231      0.4353205
      1730.5000         1.0404         0.7821          1.332        79.8744      -13.79085       0.467048
      1731.0000         1.0511         0.7779         1.3256        79.1079       -13.0294      0.4987752
      1731.5000         1.0619         0.7736         1.3191        78.3414      -12.26793       0.530503
      1732.0000         1.0727         0.7694         1.3126         77.575      -11.50657      0.5622263
      1732.5000         1.0834         0.7652         1.3053        76.8954      -10.83202      0.5903327
      1733.0000         1.0942         0.7506         1.2931        76.4034      -10.34505      0.6106227
      1733.5000         1.0956         0.7334         1.2809        75.9116      -9.858292      0.6309045
      1734.0000         1.0944         0.7161         1.2687        75.4197      -9.371437      0.6511901
      1734.5000         1.0932          0.699         1.2565        74.9277      -8.884476      0.6714802
      1735.0000         1.0921          0.688         1.2442        74.9113      -8.873123      0.6719532
      1735.5000         1.0909         0.6785         1.2428        75.2772      -9.244057      0.6564977
      1736.0000         1.0897         0.7041         1.2442        75.5746      -9.546501      0.6438958
      1736.5000         1.0885         0.7297         1.2457        75.7566      -9.733543      0.6361024
      1737.0000         1.0827         0.7554         1.2471        75.0015       -8.98349      0.6673546
      1737.5000         1.0708          0.781         1.2651        73.9885      -7.975525      0.7093531
      1738.0000          1.059         0.8062         1.3058         72.976      -6.968063      0.7513307
      1738.5000         1.0471         0.8263         1.3466         71.786      -5.783112      0.8007037
      1739.0000         1.0353         0.8464         1.3873        70.4833      -4.485451      0.8547729
      1739.5000         1.0234         0.8665         1.4183        69.2729      -3.280098      0.9049959
      1740.0000         1.0115         0.8865         1.4181        71.2008      -5.213028      0.8244572
      1740.5000         1.0124         0.8966         1.4179        73.4044      -7.421677      0.7324302
