#------------------------------------------------------------------------------
# Created by    : vladimir.rabinovich
# Created on    : 09/19/2023 17:22:50
#------------------------------------------------------------------------------
~Version Information Section
VERS.           2.0     :   CWLS log ASCII Standard - VERSION 2.0
WRAP.           NO      :   One line per depth step
~Well Information Section
#MNEM       .UNIT                                         VALUE :DESCRIPTION
#------------------------------------------------------------------------------
STRT        .FT                                            1142 :START DEPTH
STOP        .FT                                           15630 :STOP DEPTH
STEP        .FT                                             0.5 :STEP      
NULL        .                                           -999.25 :NULL      
COMP        .                                     PRIMARY FUELS :COMPANY   
WELL        .                                ST TR 00520-L SE/4 :WELL      
FLD         .                                          EL GORDO :FIELD     
LOC         .                                                   :LOCATION  
CNTY        .                      MATAGORDA ISLAND LARGE BLOCK :LOCATION  
STAT        .                                             TEXAS :STATE     
CTRY        .                                     UNITED STATES :COUNTRY   
SRVC        .                                                   :SERVICE COMPANY
DATE        .                             9/13/2023 11:19:05 AM :LOG DATE  
API         .                                    42703303520000 :API NUMBER
UWI         .                                    42703303520000 :UNIQUE WELL ID
XCOORD      .                                  629148.716839967 :SURFACE X 
YCOORD      .                                   10306131.761235 :SURFACE Y 
LAT         .                                        28.3634759 :LATITUDE  
LON         .                                       -96.1446235 :LONGITUDE 
ELEV        .FT                                             101 :ELEVATION VALUE
ELEV_TYPE   .                                                KB :ELEVATION REFERENCE TYPE
~Curve Information Section
#MNEM       .UNIT                                      API CODE :CURVE DESCRIPTION
#------------------------------------------------------------------------------
DEPT        .FT                                                 :DEPTH     
DT          .US/F                                               :          
ILD         .OHMM                                               :          
SP          .MV                                                 :          
SP_NORM     .MV                                                 :SP Normalized
VSH_SP      .V/V                                                :Volume of Shale from SP
~A        DEPTH             DT            ILD             SP        SP_NORM         VSH_SP
# ...
      6906.0000        111.949         1.1093        94.3185      -5.082703      0.9408304
      6906.5000        111.553         1.1247         90.045      -9.356201      0.8788956
      6907.0000       115.1492         1.1327        86.2621       -13.1391       0.824071
      6907.5000       118.9934         1.1313        83.9802        -15.421          0.791
      6908.0000       123.7047         1.1299        81.8986       -17.5026      0.7608318
      6908.5000       126.6617         1.1119         83.376       -16.0252      0.7822435
      6909.0000       121.4794         1.0895         84.911       -14.4902      0.8044899
      6909.5000       116.4323         1.0592        86.5498       -12.8514      0.8282406
      6910.0000       110.7235         1.0221         86.968       -12.4332      0.8343015
      6910.5000       107.3529         0.9794        85.3889       -14.0123       0.811416
      6911.0000       106.9921         0.9234        83.0945       -16.3067      0.7781637
      6911.5000       108.5808         0.8704        79.2164       -20.1848      0.7219594
      6912.0000       109.9467          0.808        71.7255       -27.6757      0.6133957
      6912.5000       110.9553         0.7464         62.498       -36.9032      0.4796638
      6913.0000       111.6661         0.6744        52.0697       -47.3315       0.328529
      6913.5000       112.0066         0.5975         44.924       -54.4772      0.2249681
      6914.0000       113.7583         0.5243        38.5338       -60.8674      0.1323565
      6914.5000       116.0062         0.4718        34.2817       -65.1195     0.07073189
      6915.0000       117.6351         0.4571        34.6157       -64.7855     0.07557247
      6915.5000       118.9445         0.4578        39.5997       -59.8015      0.1478044
      6916.0000       118.2942         0.4679        46.8255       -52.5757      0.2525261
      6916.5000        115.906         0.4836        54.4916       -44.9096       0.363629
      6917.0000       113.4877         0.5191        61.2471       -38.1541      0.4615348
      6917.5000       111.5392         0.5701        67.4871       -31.9141      0.5519695
      6918.0000       110.6471         0.6363        71.3176       -28.0836       0.607484
      6918.5000       112.2722         0.7172        72.4308       -26.9704      0.6236174
      6919.0000       114.2169          0.807        71.9918       -27.4094       0.617255
      6919.5000       116.4999         0.9072        71.2664       -28.1348      0.6067421
      6920.0000       119.3292          0.998        70.4919       -28.9093      0.5955173
      6920.5000       138.0991         1.0879        70.3444       -29.0568      0.5933797
      6921.0000       160.6833         1.1553        74.2374       -25.1638      0.6497999
      6921.5000        183.022         1.2156        78.2106       -21.1906      0.7073826
      6922.0000       186.5505         1.2638        82.1838       -17.2174      0.7649652
      6922.5000       183.7788         1.2789        86.0719       -13.3293      0.8213145
      6923.0000       174.2258         1.2097        89.7423      -9.658897      0.8745087
      6923.5000       152.8545         1.1262        92.0217      -7.379501      0.9075435
      6924.0000        135.573         1.0484        93.4241      -5.977097      0.9278682
      6924.5000       130.4971         0.9947        94.1046        -5.2966      0.9377304
      6925.0000       131.1443         0.9438        93.4979      -5.903297      0.9289377
      6925.5000       131.9382         0.8954        91.4337      -7.967499      0.8990217
      6926.0000       131.8367         0.8611        88.6715       -10.7297      0.8589899
      6926.5000       128.4509         0.8346        84.0153       -15.3859      0.7915087
      6927.0000         124.88          0.809         78.691       -20.7102       0.714345
      6927.5000       122.2562          0.796        72.7162        -26.685      0.6277537
      6928.0000        119.467         0.7835        67.9174       -31.4838      0.5582058
      6928.5000       116.3921         0.7729        64.4546       -34.9466      0.5080203
      6929.0000       114.2921         0.7694        62.7733       -36.6279      0.4836536
      6929.5000       114.6298         0.7659        63.4688       -35.9324      0.4937333
      6930.0000       116.1891         0.7624        67.9224       -31.4788      0.5582783
      6930.5000       119.7001         0.7609        73.2015       -26.1997       0.634787
      6931.0000        124.687          0.765         77.335       -22.0662      0.6946927
      6931.5000       128.7368         0.7692        82.7192        -16.682      0.7727246
      6932.0000       132.2502         0.7733         88.569       -10.8322      0.8575044
      6932.5000       133.9768         0.7775        91.5663        -7.8349      0.9009435
      6933.0000       131.6335         0.7831        93.1038      -6.297401      0.9232261
      6933.5000       129.2605         0.7888        94.3761      -5.025101      0.9416652
      6934.0000       127.3362         0.7908        95.3844        -4.0168      0.9562783
      6934.5000       127.3447         0.7869        96.0199      -3.381302      0.9654884
      6935.0000       128.0913         0.7853        96.5422      -2.859001      0.9730579
      6935.5000       128.8381         0.7854        96.8865      -2.514702      0.9780478
      6936.0000       129.5486         0.7894        97.2306      -2.170601      0.9830348
      6936.5000       129.8081          0.798        97.5157      -1.885498      0.9871667
      6937.0000       128.4609         0.8068        97.7284      -1.672798      0.9902493
      6937.5000       127.1154         0.8208        97.9414      -1.459801      0.9933362
      6938.0000       125.9169         0.8358        98.1069      -1.294296      0.9957348
      6938.5000        127.549         0.8513         98.072      -1.329201      0.9952289
      6939.0000       129.9646          0.869        98.0115      -1.389702      0.9943522
      6939.5000       132.7715         0.8872         97.772      -1.629196      0.9908812
      6940.0000       131.0198          0.894        97.5327        -1.8685       0.987413
      6940.5000       128.8369          0.882        97.5275      -1.873703      0.9873376
      6941.0000       125.6694         0.8432        97.5732      -1.828003          0.988
      6941.5000       123.0507          0.798        97.8419      -1.559296      0.9918942
      6942.0000         121.23         0.7552        98.1316        -1.2696      0.9960927
      6942.5000       124.2961         0.7152        98.3658        -1.0354      0.9994869
      6943.0000       130.7615         0.6772        98.4326     -0.9685974              1
      6943.5000       136.9114          0.644        98.4364      -0.964798              1
      6944.0000       140.9109         0.6168        98.4259      -0.975296              1
      6944.5000       142.9946         0.5914        98.2367      -1.164497       0.997616
      6945.0000       144.3191         0.5708        98.0165      -1.384697      0.9944247
      6945.5000       145.6899         0.5542        97.6787      -1.722496       0.989529
      6946.0000       146.9329         0.5493        97.3413      -2.059898      0.9846392
      6946.5000        148.905         0.5516        97.2826      -2.118599      0.9837884
      6947.0000       150.9475         0.5679        97.3188      -2.082397      0.9843131
      6947.5000       150.1382         0.5914        97.3459      -2.055298      0.9847058
      6948.0000       143.2917         0.6217        97.3497      -2.051498      0.9847609
      6948.5000       133.2075         0.6535        97.3198      -2.081398      0.9843276
      6949.0000       126.3259         0.6719        97.2103      -2.190903      0.9827405
      6949.5000         121.74          0.685        97.1007      -2.300499      0.9811522
