#------------------------------------------------------------------------------
# Created by    : vladimir.rabinovich
# Created on    : 09/19/2023 17:22:29
#------------------------------------------------------------------------------
~Version Information Section
VERS.           2.0     :   CWLS log ASCII Standard - VERSION 2.0
WRAP.           NO      :   One line per depth step
~Well Information Section
#MNEM       .UNIT                                         VALUE :DESCRIPTION
#------------------------------------------------------------------------------
STRT        .FT                                             272 :START DEPTH
STOP        .FT                                            9222 :STOP DEPTH
STEP        .FT                                             0.5 :STEP      
NULL        .                                           -999.25 :NULL      
COMP        .                   MCMORAN OFFSHORE EXPLORATION CO :COMPANY   
WELL        .                               OCS G03108 ST00BP00 :WELL      
FLD         .                       MATAGORDA ISLAND BLOCK 0700 :FIELD     
LOC         .                                                   :LOCATION  
CNTY        .                      MATAGORDA ISLAND LARGE BLOCK :LOCATION  
STAT        .                                             TEXAS :STATE     
CTRY        .                                     UNITED STATES :COUNTRY   
SRVC        .                                                   :SERVICE COMPANY
DATE        .                             9/13/2023 11:12:09 AM :LOG DATE  
API         .                                    42703400850000 :API NUMBER
UWI         .                                    42703400850000 :UNIQUE WELL ID
XCOORD      .                                  483045.974763742 :SURFACE X 
YCOORD      .                                  10146137.6323278 :SURFACE Y 
LAT         .                                         27.912878 :LATITUDE  
LON         .                                       -96.5835889 :LONGITUDE 
ELEV        .FT                                              85 :ELEVATION VALUE
ELEV_TYPE   .                                                KB :ELEVATION REFERENCE TYPE
~Curve Information Section
#MNEM       .UNIT                                      API CODE :CURVE DESCRIPTION
#------------------------------------------------------------------------------
DEPT        .FT                                                 :DEPTH     
CILD        .MMHO                                               :          
DT          .US/F                                               :          
GR          .GAPI                                               :          
GR_NORM     .GAPI                                               :GammaRay Normalized
ILD         .OHMM                                               :          
ILM         .OHMM                                               :          
SFL         .OHMM                                               :          
SP          .MV                                                 :          
SP_NORM     .MV                                                 :SP Normalized
VSH_GR      .V/V                                                :Volume of Shale from GR
VSH_SP      .V/V                                                :Volume of Shale from SP
~A        DEPTH           CILD             DT             GR        GR_NORM            ILD            ILM            SFL             SP        SP_NORM         VSH_GR         VSH_SP
# ...
      9204.5000       828.0879        -999.25        -999.25        -999.25         1.1925         1.2151         1.0118       -45.0026        -3.4932        -999.25      0.9762984
      9205.0000       802.9043        -999.25        -999.25        -999.25         1.2073         1.2287         1.0386       -43.4813        -1.9719        -999.25              1
      9205.5000       791.4834        -999.25        -999.25        -999.25         1.2125         1.2461         1.1459       -43.1829        -1.6735        -999.25              1
      9206.0000        799.043        -999.25        -999.25        -999.25         1.2201          1.255         1.2286       -43.8669        -2.3575        -999.25      0.9943254
      9206.5000       797.8975        -999.25        -999.25        -999.25         1.2345          1.253         1.2703       -43.9492        -2.4398        -999.25       0.993019
      9207.0000        787.834        -999.25        -999.25        -999.25         1.2194         1.2361         1.2439       -43.4091        -1.8997        -999.25              1
      9207.5000       784.4248        -999.25        -999.25        -999.25         1.2071         1.2418         1.1549         -43.35        -1.8406        -999.25              1
      9208.0000       780.8096        -999.25        -999.25        -999.25         1.2019         1.2525         1.1199       -43.2273        -1.7179        -999.25              1
      9208.5000        758.291        -999.25        -999.25        -999.25         1.2217         1.2519          1.095       -41.8144         -0.305        -999.25              1
      9209.0000       789.9766        -999.25        -999.25        -999.25         1.2414         1.2435         1.0957       -40.9563         0.5531        -999.25              1
      9209.5000       828.2373        -999.25        -999.25        -999.25         1.2452         1.2403         1.1171       -40.9178         0.5916        -999.25              1
      9210.0000       866.2988        -999.25        -999.25        -999.25         1.1551         1.2253         1.3118       -41.0106         0.4988        -999.25              1
      9210.5000       904.8584        -999.25        -999.25        -999.25         1.1163         1.1262         1.3266       -41.5505        -0.0411        -999.25              1
      9211.0000       962.1494        -999.25        -999.25        -999.25         1.0872         1.0479          1.279       -42.2878        -0.7784        -999.25              1
      9211.5000       1032.893        -999.25        -999.25        -999.25         1.0418         1.0201         0.9816       -43.3925        -1.8831        -999.25              1
      9212.0000       1117.285        -999.25        -999.25        -999.25          0.991         0.9229         0.8352       -43.4468        -1.9374        -999.25              1
      9212.5000       1160.354        -999.25        -999.25        -999.25         0.9115         0.9141         0.8184       -43.5023        -1.9929        -999.25              1
      9213.0000       1175.025        -999.25        -999.25        -999.25         0.8719         0.9037         0.8644       -43.4048        -1.8954        -999.25              1
      9213.5000       1179.818        -999.25        -999.25        -999.25         0.8526         0.8999         0.8817       -43.0331        -1.5237        -999.25              1
      9214.0000       1171.836        -999.25        -999.25        -999.25         0.8578         0.9026         0.8971       -43.3297        -1.8203        -999.25              1
      9214.5000       1158.934        -999.25        -999.25        -999.25         0.8735         0.9032         0.8938       -44.2444         -2.735        -999.25      0.9883333
      9215.0000       1153.168        -999.25        -999.25        -999.25          0.892         0.8985         0.8301       -44.5736        -3.0642        -999.25      0.9831079
      9215.5000       1139.729        -999.25        -999.25        -999.25          0.897         0.8903         0.7957       -44.6233        -3.1139        -999.25      0.9823191
      9216.0000        1127.66        -999.25        -999.25        -999.25         0.8944         0.9018         0.8281       -44.5983        -3.0889        -999.25      0.9827158
      9216.5000       1120.572        -999.25        -999.25        -999.25         0.8926         0.9827         0.9582       -43.7007        -2.1913        -999.25      0.9969635
      9217.0000       1112.018        -999.25        -999.25        -999.25         0.8944         1.0637          1.105        -43.444        -1.9346        -999.25              1
      9217.5000       1102.477        -999.25        -999.25        -999.25         0.8937          1.071         1.1629       -42.9018        -1.3924        -999.25              1
      9218.0000       1105.715        -999.25        -999.25        -999.25         0.8893         1.0907         1.1725       -41.4445         0.0649        -999.25              1
      9218.5000       1110.105        -999.25        -999.25        -999.25         0.8893         1.1135         1.1554       -40.2716         1.2378        -999.25              1
      9219.0000       1110.443        -999.25        -999.25        -999.25         0.8938         1.1179         1.1346       -41.2103         0.2991        -999.25              1
      9219.5000        1108.57        -999.25        -999.25        -999.25         0.8961         1.1189         1.1177       -43.4492        -1.9398        -999.25              1
      9220.0000       1106.002        -999.25        -999.25        -999.25         0.8951         1.1163         1.1178       -43.8308        -2.3214        -999.25      0.9948984
      9220.5000       1102.016        -999.25        -999.25        -999.25         0.8945         1.1162         1.1183       -43.9807        -2.4713        -999.25       0.992519
      9221.0000       1105.777        -999.25        -999.25        -999.25         0.8949         1.1162          1.119       -44.0493        -2.5399        -999.25      0.9914302
      9221.5000       1113.076        -999.25        -999.25        -999.25         0.8954          1.116         1.1197       -45.0606        -3.5512        -999.25      0.9753778
      9222.0000       1110.684        -999.25        -999.25        -999.25         0.8924         1.1152         1.1174       -45.0717        -3.5623        -999.25      0.9752016
