#------------------------------------------------------------------------------
# Created by    : vladimir.rabinovich
# Created on    : 09/19/2023 17:22:41
#------------------------------------------------------------------------------
~Version Information Section
VERS.           2.0     :   CWLS log ASCII Standard - VERSION 2.0
WRAP.           NO      :   One line per depth step
~Well Information Section
#MNEM       .UNIT                                         VALUE :DESCRIPTION
#------------------------------------------------------------------------------
STRT        .FT                                            2948 :START DEPTH
STOP        .FT                                            8770 :STOP DEPTH
STEP        .FT                                             0.5 :STEP      
NULL        .                                           -999.25 :NULL      
COMP        .                 BROOKLYN UNION EXPLORATION CO INC :COMPANY   
WELL        .                               OCS G07238 ST00BP00 :WELL      
FLD         .                                           WILDCAT :FIELD     
LOC         .                                                   :LOCATION  
CNTY        .                             GALVESTON LARGE BLOCK :LOCATION  
STAT        .                                             TEXAS :STATE     
CTRY        .                                     UNITED STATES :COUNTRY   
SRVC        .                                                   :SERVICE COMPANY
DATE        .                             9/13/2023 11:19:34 AM :LOG DATE  
API         .                                    42706402470000 :API NUMBER
UWI         .                                    42706402470000 :UNIQUE WELL ID
XCOORD      .                                  1057740.92261072 :SURFACE X 
YCOORD      .                                   10547901.298013 :SURFACE Y 
LAT         .                                         29.052568 :LATITUDE  
LON         .                                        -94.824133 :LONGITUDE 
ELEV        .FT                                              85 :ELEVATION VALUE
ELEV_TYPE   .                                                KB :ELEVATION REFERENCE TYPE
~Curve Information Section
#MNEM       .UNIT                                      API CODE :CURVE DESCRIPTION
#------------------------------------------------------------------------------
DEPT        .FT                                                 :DEPTH     
DCAL        .IN                                                 :          
DT          .US/F                                               :          
GR          .GAPI                                               :          
GR_NORM     .GAPI                                               :GammaRay Normalized
ILD         .OHMM                                               :          
ILM         .OHMM                                               :          
SFL         .OHMM                                               :          
SP          .MV                                                 :          
SP_NORM     .MV                                                 :SP Normalized
VSH_GR      .V/V                                                :Volume of Shale from GR
VSH_SP      .V/V                                                :Volume of Shale from SP
~A        DEPTH           DCAL             DT             GR        GR_NORM            ILD            ILM            SFL             SP        SP_NORM         VSH_GR         VSH_SP
# ...
      8370.5000         1.9502       104.1222        73.3201       79.35926         0.9089          0.898         0.9172       -46.8845     -0.5568161      0.9863672      0.9898761
      8371.0000         1.8101       104.3834        74.1514       80.70001         0.9114         0.8948         0.9201       -47.0107     -0.6830177              1      0.9875815
      8371.5000         1.6281       104.6222        69.9214       73.87775         0.9152         0.8966         0.9456       -47.0166     -0.6889191      0.8697393      0.9874742
      8372.0000         1.4728       104.8611        66.4042       68.20509         0.9197         0.8999         0.9551       -46.9326     -0.6049156      0.7490445      0.9890015
      8372.5000         1.3702        105.094        65.6296       66.95579           0.92         0.9032         0.9366       -46.8056     -0.4779167      0.7224635      0.9913106
      8373.0000         1.3086       105.2871        67.7089       70.30936         0.9188         0.9047          0.929       -46.6646     -0.3369179      0.7938161      0.9938742
      8373.5000         1.2958       105.5076        69.7042       73.52744         0.9175         0.9069         0.9331        -46.482     -0.1543159       0.862286      0.9971942
      8374.0000         1.2949       105.7457        71.4296       76.31022         0.9159         0.9109         0.9311       -46.2899     0.03778076       0.921494              1
      8374.5000         1.3016        105.968        72.2528        77.6379         0.9145         0.9154         0.9263       -46.1115      0.2161827      0.9497426              1
      8375.0000         1.3247       106.1381        72.7072       78.37076         0.9175         0.9168         0.9267       -46.1246       0.203083      0.9653352              1
      8375.5000         1.3495       106.1208        71.2606       76.03764           0.92          0.917         0.9262       -46.2761     0.05158234      0.9156945              1
      8376.0000         1.3659       105.8077         68.873       72.18686         0.9223         0.9163         0.9253       -46.5804     -0.2527161      0.8337629      0.9954051
      8376.5000          1.383       105.3568        66.5941       68.51138         0.9203          0.917         0.9237       -46.9522     -0.6245193      0.7555612      0.9886451
      8377.0000         1.3988       104.9751        64.8397       65.68181         0.9153         0.9137         0.9189       -47.2993     -0.9716187      0.6953576      0.9823342
      8377.5000         1.4055       104.6992        66.3696       68.14927         0.9063         0.9036           0.91       -47.5993      -1.271618      0.7478568      0.9768797
      8378.0000         1.4085       104.7361        69.0876       72.53296         0.8948         0.8862         0.8988       -47.6625      -1.334816      0.8411268      0.9757306
      8378.5000         1.4071       105.0081         71.379       76.22861          0.881         0.8691         0.8879       -47.6558      -1.328117      0.9197576      0.9758524
      8379.0000         1.4028       105.4689        72.7701       78.47221         0.8655         0.8526         0.8786       -47.5261      -1.198418      0.9674939      0.9782106
      8379.5000         1.3957       106.0706        73.6149       79.83473         0.8491         0.8365         0.8668       -47.3776      -1.049919      0.9964837      0.9809105
      8380.0000         1.3912       106.7338        74.7186       81.61481          0.834         0.8202         0.8506        -47.213     -0.8853188              1      0.9839033
      8380.5000         1.3979       107.4686        76.3243       84.20454           0.82         0.8034         0.8354       -47.3271     -0.9994164              1      0.9818288
      8381.0000         1.4046        108.505        77.1962       85.61076         0.8063         0.7889         0.8198        -47.509      -1.181316              1      0.9785215
      8381.5000         1.4112       109.6161        76.7584       84.90467         0.7929         0.7774         0.8063       -47.8543      -1.526619              1      0.9722433
      8382.0000         1.4179        110.889        76.4525        84.4113         0.7822         0.7742         0.7938       -48.0925      -1.764816              1      0.9679124
      8382.5000         1.4305       112.2915        77.7622       86.52363         0.7748         0.7747         0.7806       -48.1378      -1.810116              1      0.9670888
      8383.0000         1.4549       113.6841        78.6649       87.97954         0.7779         0.7804         0.7708       -48.0649      -1.737217              1      0.9684142
      8383.5000         1.4793       115.0941        78.2136       87.25166         0.7864         0.7902         0.7607       -47.8839      -1.556217              1      0.9717051
      8384.0000         1.5049        114.688        78.1376       87.12909         0.8037         0.8025         0.7512       -47.8527      -1.525017              1      0.9722724
      8384.5000         1.5313        110.924        78.5583       87.80759         0.8325         0.8245         0.7439       -47.8641      -1.536419              1      0.9720651
      8385.0000           1.56       106.9381        78.5293       87.76083          0.861         0.8522          0.746       -47.9995      -1.671818              1      0.9696033
      8385.5000         1.5981       101.9408        75.2784       82.51767         0.8913         0.8842          0.792        -48.215      -1.887318              1      0.9656851
      8386.0000         1.6396        96.4902        70.0101       74.02081         0.9247         0.9168         0.9688       -48.4518      -2.124119      0.8727831      0.9613796
      8386.5000         1.6964        93.5681        66.9023       69.00843         0.9591         0.9447         1.1221       -48.7157      -2.388016      0.7661368      0.9565815
      8387.0000         1.7884        93.0961         64.944       65.85004         0.9817         0.9636         1.2156       -49.0511      -2.723419      0.6989371      0.9504833
      8387.5000         1.8815        93.9331         65.166       66.20808         0.9963         0.9774         1.1279       -49.4402      -3.112518       0.706555      0.9434088
      8388.0000         1.9766        94.5662        69.2455       72.78764         1.0055         0.9886         1.0287       -49.4518      -3.124119      0.8465455      0.9431978
      8388.5000         2.0427        94.6302        72.8268       78.56365         1.0075         0.9994         0.9983       -49.1202      -2.792519      0.9694394      0.9492269
      8389.0000          2.057         94.725         74.054       80.54294         1.0063         1.0032         1.0041       -48.6084      -2.280716              1      0.9585325
      8389.5000           1.91         95.196        73.2388       79.22814         0.9955         0.9983         1.0183       -47.9326      -1.604916      0.9835775      0.9708197
      8390.0000         1.7907        96.0953        72.2065        77.5632         0.9785         0.9866         1.0298       -47.5632      -1.235519      0.9481533       0.977536
      8390.5000         1.6886        96.5154        72.5851       78.17384         0.9552         0.9672         1.0042       -47.6829      -1.355217      0.9611455      0.9753597
      8391.0000         1.6339        94.9731        73.6581        79.9044         0.9285         0.9408         0.9689       -47.9033      -1.575619      0.9979659      0.9713524
      8391.5000          1.647         93.684        73.9801       80.42373         0.9013         0.9105         0.9332       -48.1573      -1.829617              1      0.9667342
      8392.0000         1.8663        95.8774        72.1954       77.54532         0.8724         0.8776         0.8898       -48.1573      -1.829617      0.9477727      0.9667342
      8392.5000         2.1333       100.1771        71.7268       76.78954         0.8454         0.8506         0.8594        -48.015      -1.687317      0.9316924      0.9693215
