#------------------------------------------------------------------------------
# Created by    : vladimir.rabinovich
# Created on    : 09/19/2023 17:20:35
#------------------------------------------------------------------------------
~Version Information Section
VERS.           2.0     :   CWLS log ASCII Standard - VERSION 2.0
WRAP.           NO      :   One line per depth step
~Well Information Section
#MNEM       .UNIT                                         VALUE :DESCRIPTION
#------------------------------------------------------------------------------
STRT        .FT                                             504 :START DEPTH
STOP        .FT                                            9361 :STOP DEPTH
STEP        .FT                                             0.5 :STEP      
NULL        .                                           -999.25 :NULL      
COMP        .                                      SHELL OIL CO :COMPANY   
WELL        .                                OCS 00704 ST00BP00 :WELL      
FLD         .                                           WILDCAT :FIELD     
LOC         .                                                   :LOCATION  
CNTY        .                             GALVESTON LARGE BLOCK :LOCATION  
STAT        .                                             TEXAS :STATE     
CTRY        .                                     UNITED STATES :COUNTRY   
SRVC        .                                                   :SERVICE COMPANY
DATE        .                             9/13/2023 11:19:25 AM :LOG DATE  
API         .                                    42706000430000 :API NUMBER
UWI         .                                    42706000430000 :UNIQUE WELL ID
XCOORD      .                                  1136254.96267488 :SURFACE X 
YCOORD      .                                  10526383.5552877 :SURFACE Y 
LAT         .                                         28.996505 :LATITUDE  
LON         .                                        -94.577519 :LONGITUDE 
ELEV        .FT                                              42 :ELEVATION VALUE
ELEV_TYPE   .                                                KB :ELEVATION REFERENCE TYPE
~Curve Information Section
#MNEM       .UNIT                                      API CODE :CURVE DESCRIPTION
#------------------------------------------------------------------------------
DEPT        .FT                                                 :DEPTH     
ASN         .OHMM                                               :          
DT          .US/F                                               :          
LN          .OHMM                                               :          
SP          .MV                                                 :          
SP_NORM     .MV                                                 :SP Normalized
VSH_SP      .V/V                                                :Volume of Shale from SP
~A        DEPTH            ASN             DT             LN             SP        SP_NORM         VSH_SP
# ...
      1682.0000         0.5249        -999.25          1.436       -77.4967      -7.873184      0.4458101
      1682.5000         0.5318        -999.25          1.433       -77.4574      -7.838135      0.4488578
      1683.0000         0.5386        -999.25         1.4299        -77.418      -7.802986      0.4519143
      1683.5000         0.5455        -999.25         1.4268       -77.3937      -7.782944      0.4536571
      1684.0000         0.5524        -999.25         1.4237       -77.5353      -7.928795      0.4409744
      1684.5000         0.5541        -999.25         1.4206       -77.6768      -8.074547      0.4283003
      1685.0000         0.5514        -999.25         1.4175       -77.8182        -8.2202      0.4156348
      1685.5000         0.5454        -999.25         1.4144       -77.9481      -8.354347      0.4039698
      1686.0000         0.5379        -999.25         1.4113       -78.0609      -8.471397      0.3937915
      1686.5000         0.5304        -999.25         1.4116       -78.1737      -8.588455      0.3836126
      1687.0000         0.5229        -999.25         1.4124       -78.0652      -8.484207      0.3926776
      1687.5000         0.5164        -999.25         1.4131       -77.9503      -8.373558      0.4022993
      1688.0000           0.51        -999.25         1.4139       -77.8356      -8.263107      0.4119037
      1688.5000         0.5036        -999.25         1.4146       -77.7207      -8.152466      0.4215247
      1689.0000         0.4972        -999.25         1.4154       -77.6058      -8.041809       0.431147
      1689.5000         0.4908        -999.25         1.4162       -77.4739      -7.914162      0.4422468
      1690.0000         0.4883        -999.25         1.4169       -77.1981      -7.642616      0.4658594
      1690.5000         0.4949        -999.25         1.4177       -76.9224       -7.37117      0.4894635
      1691.0000         0.5015        -999.25         1.4184       -76.6465      -7.099518      0.5130854
      1691.5000         0.5082        -999.25         1.4192       -76.3707      -6.827972       0.536698
      1692.0000         0.5148        -999.25         1.4199       -76.1244      -6.585922      0.5577459
      1692.5000         0.5214        -999.25         1.4207       -75.9913      -6.457077      0.5689498
      1693.0000          0.528        -999.25         1.4215       -76.1113      -6.581322      0.5581459
      1693.5000         0.5346        -999.25         1.4222       -76.2313      -6.705582      0.5473408
      1694.0000         0.5441        -999.25          1.423       -76.3513      -6.829834      0.5365362
      1694.5000         0.5543        -999.25         1.4261       -76.4714      -6.954178      0.5257236
      1695.0000         0.5646        -999.25          1.432       -76.6296      -7.116638      0.5115967
      1695.5000         0.5748        -999.25          1.438       -76.8749      -7.366188      0.4898967
      1696.0000          0.585        -999.25         1.4439       -77.1202      -7.615738      0.4681967
      1696.5000         0.5953        -999.25         1.4498       -77.3655      -7.865295       0.446496
      1697.0000         0.6055        -999.25         1.4557       -77.5699      -8.073944      0.4283527
      1697.5000         0.6158        -999.25         1.4617        -77.541      -8.049294      0.4304962
      1698.0000         0.6261        -999.25         1.4676       -77.5121      -8.024643      0.4326397
      1698.5000         0.6363        -999.25         1.4735       -77.4089      -7.925697      0.4412437
      1699.0000         0.6416        -999.25         1.4794       -76.9548      -7.475853      0.4803606
      1699.5000         0.6456        -999.25         1.4854       -76.5007      -7.026001      0.5194782
      1700.0000         0.6497        -999.25         1.4916       -76.0466      -6.576157      0.5585951
      1700.5000         0.6537        -999.25         1.5002       -75.5867      -6.120506      0.5982168
      1701.0000         0.6577        -999.25         1.5087       -75.1257      -5.663757      0.6379341
      1701.5000         0.6632        -999.25         1.5172       -74.8817      -5.424011      0.6587816
      1702.0000           0.67        -999.25         1.5257       -74.8188      -5.365364      0.6638814
      1702.5000         0.6768        -999.25         1.5343        -74.756      -5.306808      0.6689731
      1703.0000         0.6836        -999.25         1.5428       -74.6931      -5.248161      0.6740729
      1703.5000         0.6877        -999.25         1.5513       -74.6302      -5.189522       0.679172
      1704.0000         0.6831        -999.25         1.5599       -74.5674      -5.130966      0.6842638
      1704.5000         0.6786        -999.25         1.5684       -74.5345      -5.102318       0.686755
      1705.0000          0.674        -999.25         1.5769       -74.5037      -5.075775       0.689063
      1705.5000         0.6695        -999.25         1.5799       -74.4729      -5.049225      0.6913717
      1706.0000         0.6649        -999.25         1.5825        -74.442      -5.022575      0.6936891
      1706.5000         0.6604        -999.25         1.5852       -74.5355      -5.120331      0.6851887
      1707.0000          0.656        -999.25         1.5879       -74.6802      -5.269279      0.6722366
      1707.5000         0.6527        -999.25         1.5906        -74.825      -5.418327      0.6592759
      1708.0000         0.6589        -999.25         1.5933       -74.9696      -5.567177      0.6463324
      1708.5000         0.6656        -999.25         1.5889        -75.135      -5.736839      0.6315792
      1709.0000         0.6723        -999.25         1.5813       -75.4015      -6.007584      0.6080362
      1709.5000         0.6791        -999.25         1.5737        -75.668      -6.278336      0.5844926
      1710.0000         0.6858        -999.25         1.5661       -75.9344      -6.548996      0.5609569
      1710.5000         0.6923        -999.25         1.5617       -76.2008      -6.819641      0.5374225
      1711.0000         0.6964        -999.25         1.5704       -76.2372      -6.860291      0.5338878
      1711.5000         0.7004        -999.25         1.5792       -76.0897      -6.717049      0.5463436
      1712.0000         0.7045        -999.25         1.5879       -75.9421        -6.5737      0.5588087
      1712.5000         0.7086        -999.25         1.5967       -75.4475      -6.083351      0.6014477
      1713.0000         0.7126        -999.25         1.6054       -74.8563      -5.496399       0.652487
      1713.5000         0.7167        -999.25         1.6167       -74.2651      -4.909454      0.7035257
      1714.0000          0.717        -999.25         1.6399       -73.8296      -4.478203      0.7410259
      1714.5000         0.7171        -999.25         1.6631       -73.6112      -4.264053      0.7596475
      1715.0000         0.7141        -999.25         1.6862       -73.4286      -4.085709      0.7751558
      1715.5000         0.7099        -999.25         1.7094       -73.7817      -4.443062      0.7440816
      1716.0000         0.7057        -999.25         1.7326       -74.1348      -4.800415      0.7130074
      1716.5000         0.7014        -999.25         1.7474       -74.4879      -5.157768      0.6819332
      1717.0000         0.6982        -999.25         1.7577       -74.8468       -5.52092      0.6503548
      1717.5000         0.6968        -999.25         1.7681       -75.2081      -5.886467      0.6185681
      1718.0000         0.7046        -999.25         1.7766       -75.5695      -6.252121      0.5867721
      1718.5000         0.7123        -999.25         1.7521       -75.8931      -6.579971      0.5582634
      1719.0000           0.72        -999.25         1.7277       -75.4752      -6.166321       0.594233
      1719.5000         0.7277        -999.25         1.7033       -75.0477      -5.743073      0.6310372
