#------------------------------------------------------------------------------
# Created by    : vladimir.rabinovich
# Created on    : 09/19/2023 17:20:39
#------------------------------------------------------------------------------
~Version Information Section
VERS.           2.0     :   CWLS log ASCII Standard - VERSION 2.0
WRAP.           NO      :   One line per depth step
~Well Information Section
#MNEM       .UNIT                                         VALUE :DESCRIPTION
#------------------------------------------------------------------------------
STRT        .FT                                             520 :START DEPTH
STOP        .FT                                           11478 :STOP DEPTH
STEP        .FT                                             0.5 :STEP      
NULL        .                                           -999.25 :NULL      
COMP        .                                      SHELL OIL CO :COMPANY   
WELL        .                                OCS 00730 ST00BP00 :WELL      
FLD         .                                           WILDCAT :FIELD     
LOC         .                                                   :LOCATION  
CNTY        .                             GALVESTON LARGE BLOCK :LOCATION  
STAT        .                                             TEXAS :STATE     
CTRY        .                                     UNITED STATES :COUNTRY   
SRVC        .                                                   :SERVICE COMPANY
DATE        .                             9/13/2023 11:19:42 AM :LOG DATE  
API         .                                    42706000260000 :API NUMBER
UWI         .                                    42706000260000 :UNIQUE WELL ID
XCOORD      .                                  961416.888637646 :SURFACE X 
YCOORD      .                                  10353223.2377546 :SURFACE Y 
LAT         .                                         28.512881 :LATITUDE  
LON         .                                        -95.114699 :LONGITUDE 
ELEV        .FT                                              72 :ELEVATION VALUE
ELEV_TYPE   .                                                KB :ELEVATION REFERENCE TYPE
~Curve Information Section
#MNEM       .UNIT                                      API CODE :CURVE DESCRIPTION
#------------------------------------------------------------------------------
DEPT        .FT                                                 :DEPTH     
ASN         .OHMM                                               :          
CILD        .MMHO                                               :          
ILD         .OHMM                                               :          
LAT         .OHMM                                               :          
LN          .OHMM                                               :          
SP          .MV                                                 :          
SP_NORM     .MV                                                 :SP Normalized
VSH_SP      .V/V                                                :Volume of Shale from SP
~A        DEPTH            ASN           CILD            ILD            LAT             LN             SP        SP_NORM         VSH_SP
# ...
      3440.5000         0.7686       1432.908         0.6193        -999.25        -999.25       -44.3412     -0.4387627              1
      3441.0000         0.7843       1389.094         0.6351        -999.25        -999.25       -44.5905     -0.6880608              1
      3441.5000         0.7954       1367.652         0.6509        -999.25        -999.25       -44.8397     -0.9372597              1
      3442.0000         0.8051       1367.107         0.6668        -999.25        -999.25        -45.083      -1.180561              1
      3442.5000          0.802        1380.08         0.6746        -999.25        -999.25       -45.2727      -1.370262              1
      3443.0000         0.7934       1393.053         0.6812        -999.25        -999.25       -45.4623       -1.55986              1
      3443.5000         0.7849       1406.025         0.6877        -999.25        -999.25        -45.652      -1.749561              1
      3444.0000         0.7764       1418.658         0.6839        -999.25        -999.25       -45.8417      -1.939262              1
      3444.5000         0.7678       1429.572         0.6743        -999.25        -999.25       -46.0314       -2.12896        0.99504
      3445.0000         0.7605        1440.48         0.6648        -999.25        -999.25       -45.9465       -2.04406      0.9983054
      3445.5000         0.7647       1451.389         0.6553        -999.25        -999.25       -45.8566      -1.954163              1
      3446.0000         0.7688       1462.303         0.6457        -999.25        -999.25       -45.7665      -1.864059              1
      3446.5000         0.7729       1473.211         0.6362        -999.25        -999.25       -45.6765      -1.774059              1
      3447.0000         0.7771       1484.119         0.6267        -999.25        -999.25       -45.5864       -1.68396              1
      3447.5000         0.7827       1495.033         0.6171        -999.25        -999.25       -45.4268      -1.524361              1
      3448.0000         0.7904       1505.107          0.613        -999.25        -999.25       -45.2061      -1.303661              1
      3448.5000         0.7893       1514.791         0.6094        -999.25        -999.25       -44.9854      -1.082962              1
      3449.0000         0.7734       1524.479         0.6058        -999.25        -999.25       -44.7647     -0.8622627              1
      3449.5000         0.7576       1534.162         0.6022        -999.25        -999.25       -44.5757     -0.6732597              1
      3450.0000         0.7439       1543.852         0.5986        -999.25        -999.25       -45.1384      -1.235962              1
      3450.5000         0.7339       1547.734          0.595        -999.25        -999.25       -45.7009      -1.798462              1
      3451.0000         0.7239       1550.777         0.5914        -999.25        -999.25        -46.075      -2.172562       0.993363
      3451.5000         0.7152        1546.85         0.5878        -999.25        -999.25       -46.4377      -2.535259      0.9794131
      3452.0000         0.7192       1539.973         0.5842        -999.25        -999.25       -46.8005       -2.89806      0.9654592
      3452.5000         0.7232       1533.096         0.5804        -999.25        -999.25       -47.1635      -3.261063      0.9514976
      3453.0000         0.7272       1526.221         0.5761        -999.25        -999.25       -47.5262       -3.62376      0.9375477
      3453.5000         0.7313       1531.195         0.5718        -999.25        -999.25       -47.7967       -3.89426      0.9271438
      3454.0000         0.7299       1545.633         0.5676        -999.25        -999.25       -47.9793      -4.076862      0.9201207
      3454.5000         0.7253       1562.037         0.5633        -999.25        -999.25       -48.1619       -4.25946      0.9130977
      3455.0000         0.7208       1578.441          0.559        -999.25        -999.25       -48.1638       -4.26136      0.9130246
      3455.5000         0.7162       1594.846         0.5547        -999.25        -999.25       -48.1063      -4.203861      0.9152361
      3456.0000         0.7115       1607.105         0.5504        -999.25        -999.25       -48.0489      -4.146461      0.9174438
      3456.5000         0.7067       1615.443         0.5538        -999.25        -999.25       -47.8961       -3.99366      0.9233208
      3457.0000          0.702       1623.781         0.5684        -999.25        -999.25       -47.7092      -3.806763      0.9305092
      3457.5000         0.6972       1610.662          0.583        -999.25        -999.25       -47.5222      -3.619762      0.9377015
      3458.0000         0.6975       1592.352         0.5976        -999.25        -999.25       -47.3351      -3.432659      0.9448977
      3458.5000         0.7183       1561.764         0.6122        -999.25        -999.25        -47.148       -3.24556      0.9520938
      3459.0000         0.7376       1490.563         0.6268        -999.25        -999.25       -46.9611      -3.058662      0.9592822
      3459.5000         0.7551       1403.752         0.6436        -999.25        -999.25        -46.774      -2.871559      0.9664785
      3460.0000         0.7726       1321.887         0.6622        -999.25        -999.25       -46.5869       -2.68446      0.9736747
      3460.5000         0.7901       1276.529         0.6808        -999.25        -999.25       -46.3831      -2.480659      0.9815131
      3461.0000         0.8076       1260.396         0.6994        -999.25        -999.25       -46.1749      -2.272461      0.9895207
      3461.5000         0.8251       1244.252         0.7181        -999.25        -999.25       -45.9668      -2.064362      0.9975246
      3462.0000         0.8426       1230.541         0.7367        -999.25        -999.25       -45.7585       -1.85606              1
      3462.5000         0.8601       1221.539         0.7553        -999.25        -999.25       -45.5504      -1.647961              1
      3463.0000         0.8776       1212.531         0.7687        -999.25        -999.25       -45.5504      -1.647961              1
      3463.5000         0.8951       1201.447         0.7673        -999.25        -999.25       -45.6418      -1.739361              1
      3464.0000         0.8942       1237.773         0.7659        -999.25        -999.25       -45.8207      -1.918262              1
      3464.5000         0.8825        1257.99         0.7617        -999.25        -999.25       -46.0355       -2.13306      0.9948823
      3465.0000         0.8708       1278.207         0.7502        -999.25        -999.25       -46.2501       -2.34766      0.9866285
      3465.5000         0.8591       1298.424         0.7386        -999.25        -999.25       -46.4648      -2.562363      0.9783707
      3466.0000         0.8474       1318.629         0.7271        -999.25        -999.25       -46.5746      -2.672161      0.9741477
      3466.5000         0.8358       1331.199         0.7155        -999.25        -999.25       -46.2408       -2.33836      0.9869862
      3467.0000         0.8241        1340.52          0.704        -999.25        -999.25       -45.9069      -2.004459      0.9998285
      3467.5000         0.8124       1349.846         0.6924        -999.25        -999.25        -45.573      -1.670563              1
      3468.0000         0.8007       1359.166         0.6809        -999.25        -999.25       -45.2563      -1.353863              1
      3468.5000         0.7936       1368.486         0.6694        -999.25        -999.25       -44.9476      -1.045162              1
      3469.0000         0.7918       1377.811         0.6627        -999.25        -999.25       -44.6388     -0.7363625              1
      3469.5000           0.79       1382.898         0.6645        -999.25        -999.25         -44.33     -0.4275627              1
