#------------------------------------------------------------------------------
# Created by    : vladimir.rabinovich
# Created on    : 09/19/2023 17:20:35
#------------------------------------------------------------------------------
~Version Information Section
VERS.           2.0     :   CWLS log ASCII Standard - VERSION 2.0
WRAP.           NO      :   One line per depth step
~Well Information Section
#MNEM       .UNIT                                         VALUE :DESCRIPTION
#------------------------------------------------------------------------------
STRT        .FT                                             504 :START DEPTH
STOP        .FT                                            9361 :STOP DEPTH
STEP        .FT                                             0.5 :STEP      
NULL        .                                           -999.25 :NULL      
COMP        .                                      SHELL OIL CO :COMPANY   
WELL        .                                OCS 00704 ST00BP00 :WELL      
FLD         .                                           WILDCAT :FIELD     
LOC         .                                                   :LOCATION  
CNTY        .                             GALVESTON LARGE BLOCK :LOCATION  
STAT        .                                             TEXAS :STATE     
CTRY        .                                     UNITED STATES :COUNTRY   
SRVC        .                                                   :SERVICE COMPANY
DATE        .                             9/13/2023 11:19:25 AM :LOG DATE  
API         .                                    42706000430000 :API NUMBER
UWI         .                                    42706000430000 :UNIQUE WELL ID
XCOORD      .                                  1136254.96267488 :SURFACE X 
YCOORD      .                                  10526383.5552877 :SURFACE Y 
LAT         .                                         28.996505 :LATITUDE  
LON         .                                        -94.577519 :LONGITUDE 
ELEV        .FT                                              42 :ELEVATION VALUE
ELEV_TYPE   .                                                KB :ELEVATION REFERENCE TYPE
~Curve Information Section
#MNEM       .UNIT                                      API CODE :CURVE DESCRIPTION
#------------------------------------------------------------------------------
DEPT        .FT                                                 :DEPTH     
ASN         .OHMM                                               :          
DT          .US/F                                               :          
LN          .OHMM                                               :          
SP          .MV                                                 :          
SP_NORM     .MV                                                 :SP Normalized
VSH_SP      .V/V                                                :Volume of Shale from SP
~A        DEPTH            ASN             DT             LN             SP        SP_NORM         VSH_SP
# ...
      8750.0000         0.9981       109.1204        -999.25       -42.7831      -2.558113      0.9567191
      8750.5000         1.0128       118.0084        -999.25       -45.0257      -4.792046      0.8946654
      8751.0000         1.0297       120.8902        -999.25       -59.7022      -19.45988      0.4872255
      8751.5000         1.0465       116.4702        -999.25       -68.5109      -28.25992        0.24278
      8752.0000         1.0565       106.3875        -999.25       -70.6838      -30.42415      0.1826625
      8752.5000         0.9625        95.8519        -999.25       -71.7635      -31.49518      0.1529117
      8753.0000         0.8891       100.4478        -999.25       -72.2922      -32.01522      0.1384662
      8753.5000         0.8635       105.3821        -999.25       -72.7659      -32.48025      0.1255486
      8754.0000         0.8377        95.4448        -999.25       -73.2389      -32.94458      0.1126504
      8754.5000          0.812        85.2486        -999.25       -73.6332      -33.33022      0.1019382
      8755.0000         0.7917        81.5001        -999.25        -73.889      -33.57735     0.09507349
      8755.5000         0.7813        84.7336        -999.25       -74.1447      -33.82439     0.08821148
      8756.0000         0.7709        80.6696        -999.25       -74.4004      -34.07142     0.08134948
      8756.5000         0.7683        77.9729        -999.25       -74.4939      -34.15625     0.07899295
      8757.0000         0.7667        83.2107        -999.25       -74.4081      -34.06179     0.08161703
      8757.5000         0.7752        81.6775        -999.25       -74.3221      -33.96712     0.08424664
      8758.0000         0.7884        88.0652        -999.25       -74.2363      -33.87266     0.08687062
      8758.5000         0.8016        94.1975        -999.25       -74.1505      -33.77819     0.08949471
      8759.0000         0.8168        95.9789        -999.25       -73.7019      -33.32092      0.1021966
      8759.5000         0.8352        96.6796        -999.25       -73.1003      -32.71067      0.1191482
      8760.0000         0.8537        97.3291        -999.25       -72.4987       -32.1004         0.1361
      8760.5000         0.8721        97.5484        -999.25        -72.047      -31.64003      0.1488882
      8761.0000          0.888        96.7286        -999.25       -71.7686      -31.35296      0.1568622
      8761.5000         0.8939        96.4608        -999.25       -71.4902       -31.0659      0.1648362
      8762.0000         0.8998         96.608        -999.25       -71.2916      -30.85863      0.1705935
      8762.5000         0.9057        96.7551        -999.25       -71.2552      -30.81357      0.1718453
      8763.0000         0.9116        96.0103        -999.25       -71.2189       -30.7686      0.1730943
      8763.5000         0.9175        95.7396        -999.25       -71.1825      -30.72354      0.1743462
      8764.0000         0.9222        96.2233        -999.25       -71.1461      -30.67847       0.175598
      8764.5000         0.9267        96.9064        -999.25       -71.1099      -30.63361      0.1768443
      8765.0000         0.9312        96.8352        -999.25       -70.9911      -30.50613      0.1803852
      8765.5000         0.9358        95.3095        -999.25       -70.8672      -30.37357      0.1840674
      8766.0000         0.9388        95.4565        -999.25       -70.7433        -30.241      0.1877499
      8766.5000         0.9404        96.0399        -999.25       -70.6194      -30.10844      0.1914322
      8767.0000         0.9421        96.5579        -999.25       -70.5458      -30.02617      0.1937174
      8767.5000         0.9477        97.0608        -999.25       -70.4863        -29.958       0.195611
      8768.0000         0.9604         97.426        -999.25        -70.427      -29.89005      0.1974987
      8768.5000         0.9751        97.5003        -999.25       -70.3148      -29.76917      0.2008563
      8769.0000         1.0413        97.2109        -999.25       -70.1664      -29.61211      0.2052193
      8769.5000         1.0715        95.1761        -999.25       -70.0182      -29.45525      0.2095764
      8770.0000         1.1016        95.1777        -999.25       -69.0854      -28.51378      0.2357283
      8770.5000         1.1694        96.2339        -999.25       -67.6646      -27.08431      0.2754359
      8771.0000         1.2319        96.8532        -999.25       -65.5184      -24.92945       0.335293
      8771.5000         1.2628        95.3346        -999.25       -63.1862      -22.58858      0.4003172
      8772.0000         1.2224        97.2199        -999.25       -60.6406      -20.03431      0.4712691
      8772.5000          1.173        97.4393        -999.25       -58.8862      -18.27125      0.5202431
      8773.0000         1.1196        93.8561        -999.25       -58.4317      -17.80809      0.5331087
      8773.5000         0.9629        90.1701        -999.25       -59.2634      -18.63112      0.5102467
      8774.0000         0.9721        89.7353        -999.25       -61.0222      -20.38125      0.4616319
      8774.5000         1.0179        90.5176        -999.25       -56.7076      -16.05799      0.5817226
      8775.0000         1.0539        96.3214        -999.25        -51.172      -10.51372      0.7357299
      8775.5000         1.0792       102.1253        -999.25       -48.4355      -7.768555      0.8119846
      8776.0000         1.1044       103.0355        -999.25       -47.2661      -6.590492      0.8447086
      8776.5000         1.1172        99.9245        -999.25       -46.0965      -5.412224      0.8774382
      8777.0000         1.1297       103.4893        -999.25       -45.1077      -4.414757      0.9051456
      8777.5000         1.1302       100.1458        -999.25       -44.1558      -3.454189      0.9318281
      8778.0000         1.1286       103.4201        -999.25       -43.5497      -2.839428      0.9489048
      8778.5000          1.142       103.6516        -999.25       -42.9572      -2.238258      0.9656039
      8779.0000         1.1811        106.679        -999.25       -42.3824      -1.654793      0.9818113
      8779.5000         1.3133       114.6244        -999.25        -41.961      -1.224728      0.9937575
      8780.0000         1.3474       115.2078        -999.25       -41.5401     -0.7951622              1
      8780.5000         1.3867       114.9912        -999.25       -41.6523     -0.8986969              1
      8781.0000         1.5131       112.6376        -999.25       -41.9099      -1.147633      0.9958991
      8781.5000         1.5983       105.0171        -999.25       -42.1678      -1.396866      0.9889759
      8782.0000         1.6488         94.274        -999.25       -42.4254      -1.645798      0.9820611
      8782.5000         1.6781        88.0396        -999.25       -42.6832      -1.894932      0.9751408
      8783.0000          1.707        86.0531        -999.25       -42.9409      -2.143967      0.9682232
      8783.5000         1.7349        87.7274        -999.25       -43.1987      -2.393101      0.9613028
      8784.0000         1.7263        85.5399        -999.25       -43.5009      -2.686634      0.9531491
      8784.5000         1.6985        80.7487        -999.25       -43.8298       -3.00687      0.9442536
      8785.0000         1.6705        82.6412        -999.25       -44.1592      -3.327602      0.9353444
      8785.5000         1.6402        80.4069        -999.25       -44.4886      -3.648338      0.9264351
      8786.0000         1.6362        75.1534        -999.25       -44.7636      -3.914673      0.9190369
      8786.5000         1.6418        83.6383        -999.25       -44.9124      -4.054806      0.9151443
      8787.0000         1.6504        94.2083        -999.25       -45.0613      -4.195038      0.9112489
      8787.5000          1.659        92.9248        -999.25       -45.2101      -4.335171      0.9073564
