#------------------------------------------------------------------------------
# Created by    : vladimir.rabinovich
# Created on    : 09/19/2023 17:22:38
#------------------------------------------------------------------------------
~Version Information Section
VERS.           2.0     :   CWLS log ASCII Standard - VERSION 2.0
WRAP.           NO      :   One line per depth step
~Well Information Section
#MNEM       .UNIT                                         VALUE :DESCRIPTION
#------------------------------------------------------------------------------
STRT        .FT                                             890 :START DEPTH
STOP        .FT                                            9058 :STOP DEPTH
STEP        .FT                                             0.5 :STEP      
NULL        .                                           -999.25 :NULL      
COMP        .                            COASTAL OIL & GAS CORP :COMPANY   
WELL        .                               OCS G01773 ST00BP00 :WELL      
FLD         .                                           WILDCAT :FIELD     
LOC         .                                                   :LOCATION  
CNTY        .                             GALVESTON LARGE BLOCK :LOCATION  
STAT        .                                             TEXAS :STATE     
CTRY        .                                     UNITED STATES :COUNTRY   
SRVC        .                                                   :SERVICE COMPANY
DATE        .                             9/13/2023 11:19:54 AM :LOG DATE  
API         .                                    42706403500000 :API NUMBER
UWI         .                                    42706403500000 :UNIQUE WELL ID
XCOORD      .                                  1074939.13305719 :SURFACE X 
YCOORD      .                                   10531967.363633 :SURFACE Y 
LAT         .                                         29.009472 :LATITUDE  
LON         .                                        -94.769566 :LONGITUDE 
ELEV        .FT                                              83 :ELEVATION VALUE
ELEV_TYPE   .                                                KB :ELEVATION REFERENCE TYPE
~Curve Information Section
#MNEM       .UNIT                                      API CODE :CURVE DESCRIPTION
#------------------------------------------------------------------------------
DEPT        .FT                                                 :DEPTH     
DCAL        .IN                                                 :          
DPSS        .V/V                                                :          
DRHO        .G/CM3                                              :          
DTLF        .US/FT                                              :          
DTLN        .US/FT                                              :          
GR          .GAPI                                               :          
GRS         .GAPI                                               :          
NPSS        .V/V                                                :Neutron Porosity Sandstone
SFL         .OHMM                                               :          
SP          .MV                                                 :          
SP_NORM     .MV                                                 :SP Normalized
SPHI_SAN    .V/V                                                :          
TENS        .LB                                                 :          
VSH_SP      .V/V                                                :Volume of Shale from SP
~A        DEPTH           DCAL           DPSS           DRHO           DTLF           DTLN             GR            GRS           NPSS            SFL             SP        SP_NORM       SPHI_SAN           TENS         VSH_SP
# ...
      6218.0000         1.1765        -999.25        -999.25        -999.25        -999.25        64.5098        -999.25        -999.25         0.4642            -15      -16.12994         0.3312           2640      0.7849341
      6218.5000         1.1765        -999.25        -999.25        -999.25        -999.25        61.5686        -999.25        -999.25         0.4729       -15.5882      -16.71814         0.3312           2620      0.7770914
      6219.0000         1.1373        -999.25        -999.25        -999.25        -999.25        61.5686        -999.25        -999.25         0.4431       -16.1765      -17.30644         0.3336           2620      0.7692474
      6219.5000         1.1373        -999.25        -999.25        -999.25        -999.25        62.1569        -999.25        -999.25         0.4075       -15.8824      -17.01234          0.336           2620      0.7731687
      6220.0000         1.0588        -999.25        -999.25        -999.25        -999.25        57.3469        -999.25        -999.25         0.4152       -19.1176      -20.24754         0.3336           2620      0.7300327
      6220.5000         0.9804        -999.25        -999.25        -999.25        -999.25           49.2        -999.25        -999.25         0.4862       -25.5882      -26.71814         0.3216           2620      0.6437581
      6221.0000         0.7843        -999.25        -999.25        -999.25        -999.25           44.8        -999.25        -999.25          0.611       -31.4706      -32.60054         0.3048           2620      0.5653261
      6221.5000         0.7059        -999.25        -999.25        -999.25        -999.25           42.2        -999.25        -999.25          0.868       -35.5882      -36.71814         0.2847           2620      0.5104247
      6222.0000         0.6667        -999.25        -999.25        -999.25        -999.25           42.2        -999.25        -999.25         1.0367       -34.4118      -35.54174         0.2647           2620      0.5261101
      6222.5000         0.6275        -999.25        -999.25        -999.25        -999.25             44        -999.25        -999.25         1.0555            -30      -31.12994         0.2624           2620      0.5849341
      6223.0000         0.5882        -999.25        -999.25        -999.25        -999.25           47.8        -999.25        -999.25         0.8601       -24.7059      -25.83584         0.2718           2620      0.6555221
      6223.5000         0.5098        -999.25        -999.25        -999.25        -999.25        50.2041        -999.25        -999.25         0.7203       -21.7647      -22.89464         0.2859           2620      0.6947381
      6224.0000         0.4314        -999.25        -999.25        -999.25        -999.25        50.2041        -999.25        -999.25         0.6937       -24.1176      -25.24754         0.2941           2600      0.6633661
      6224.5000         0.3529        -999.25        -999.25        -999.25        -999.25             48        -999.25        -999.25         0.7483       -30.2941      -31.42404         0.3012           2620      0.5810127
      6225.0000         0.3529        -999.25        -999.25        -999.25        -999.25           43.4        -999.25        -999.25         0.7924       -40.8824      -42.01234          0.306           2620      0.4398354
      6225.5000         0.3529        -999.25        -999.25        -999.25        -999.25             40        -999.25        -999.25         0.7924       -52.0408      -53.17074         0.3096           2620      0.2910568
      6226.0000         0.3137        -999.25        -999.25        -999.25        -999.25        37.1429        -999.25        -999.25         0.7701          -61.5      -62.62994         0.3108           2640      0.1649341
      6226.5000         0.3529        -999.25        -999.25        -999.25        -999.25         35.102        -999.25        -999.25         0.7555            -66      -67.12994          0.312           2640      0.1049341
      6227.0000         0.3922        -999.25        -999.25        -999.25        -999.25        34.2857        -999.25        -999.25         0.7627          -68.7      -69.82994         0.3132           2640     0.06893412
      6227.5000         0.4706        -999.25        -999.25        -999.25        -999.25        32.6531        -999.25        -999.25         0.7627          -70.2      -71.32994          0.312           2640     0.04893412
      6228.0000         0.5882        -999.25        -999.25        -999.25        -999.25        30.6122        -999.25        -999.25         0.7135          -70.8      -71.92995          0.312           2640     0.04093404
      6228.5000         0.7059        -999.25        -999.25        -999.25        -999.25        29.4118        -999.25        -999.25         0.6874          -71.1      -72.22994         0.3108           2620      0.0369341
      6229.0000         0.8235        -999.25        -999.25        -999.25        -999.25        30.8163        -999.25        -999.25         0.6812          -71.4      -72.52995         0.3108           2620     0.03293406
      6229.5000         0.9412        -999.25        -999.25        -999.25        -999.25        34.4898        -999.25        -999.25         0.7067          -71.4      -72.52995         0.3108           2640     0.03293406
      6230.0000         0.9412        -999.25        -999.25        -999.25        -999.25        36.3265        -999.25        -999.25         0.7483          -71.1      -72.22994         0.3096           2640      0.0369341
      6230.5000         0.9804        -999.25        -999.25        -999.25        -999.25        35.9184        -999.25        -999.25         0.8146          -71.1      -72.22994         0.3096           2640      0.0369341
      6231.0000         1.0196        -999.25        -999.25        -999.25        -999.25         34.898        -999.25        -999.25         0.8759          -71.1      -72.22994         0.3084           2640      0.0369341
      6231.5000          1.098        -999.25        -999.25        -999.25        -999.25        33.6735        -999.25        -999.25            0.9          -71.1      -72.22994         0.3072           2640      0.0369341
      6232.0000         1.1373        -999.25        -999.25        -999.25        -999.25        33.0612        -999.25        -999.25            0.9          -71.1      -72.22994         0.3072           2620      0.0369341
      6232.5000         1.2157        -999.25        -999.25        -999.25        -999.25        33.4694        -999.25        -999.25         0.8838          -71.1      -72.22994         0.3072           2620      0.0369341
      6233.0000         1.2157        -999.25        -999.25        -999.25        -999.25        34.4898        -999.25        -999.25         0.8759          -71.4      -72.52995         0.3072           2620     0.03293406
      6233.5000         1.2157        -999.25        -999.25        -999.25        -999.25         35.102        -999.25        -999.25         0.8759          -71.4      -72.52995         0.3072           2640     0.03293406
      6234.0000         1.2157        -999.25        -999.25        -999.25        -999.25         35.102        -999.25        -999.25         0.8838          -71.4      -72.52995         0.3072           2640     0.03293406
      6234.5000         1.2157        -999.25        -999.25        -999.25        -999.25        34.4898        -999.25        -999.25         0.8838          -71.7      -72.82994         0.3072           2640     0.02893412
      6235.0000         1.2157        -999.25        -999.25        -999.25        -999.25        34.6939        -999.25        -999.25         0.8759          -71.7      -72.82994          0.306           2640     0.02893412
      6235.5000         1.2157        -999.25        -999.25        -999.25        -999.25        35.3061        -999.25        -999.25          0.868            -72      -73.12994         0.3024           2620     0.02493408
