#------------------------------------------------------------------------------
# Created by    : vladimir.rabinovich
# Created on    : 09/19/2023 17:20:36
#------------------------------------------------------------------------------
~Version Information Section
VERS.           2.0     :   CWLS log ASCII Standard - VERSION 2.0
WRAP.           NO      :   One line per depth step
~Well Information Section
#MNEM       .UNIT                                         VALUE :DESCRIPTION
#------------------------------------------------------------------------------
STRT        .FT                                             504 :START DEPTH
STOP        .FT                                            9762 :STOP DEPTH
STEP        .FT                                             0.5 :STEP      
NULL        .                                           -999.25 :NULL      
COMP        .                                      SHELL OIL CO :COMPANY   
WELL        .                                OCS 00703 ST00BP00 :WELL      
FLD         .                                           WILDCAT :FIELD     
LOC         .                                                   :LOCATION  
CNTY        .                             GALVESTON LARGE BLOCK :LOCATION  
STAT        .                                             TEXAS :STATE     
CTRY        .                                     UNITED STATES :COUNTRY   
SRVC        .                                                   :SERVICE COMPANY
DATE        .                             9/13/2023 11:19:25 AM :LOG DATE  
API         .                                    42706000420000 :API NUMBER
UWI         .                                    42706000420000 :UNIQUE WELL ID
XCOORD      .                                  1132503.99790541 :SURFACE X 
YCOORD      .                                  10523078.0194322 :SURFACE Y 
LAT         .                                         28.987276 :LATITUDE  
LON         .                                        -94.589113 :LONGITUDE 
ELEV        .FT                                              83 :ELEVATION VALUE
ELEV_TYPE   .                                                KB :ELEVATION REFERENCE TYPE
~Curve Information Section
#MNEM       .UNIT                                      API CODE :CURVE DESCRIPTION
#------------------------------------------------------------------------------
DEPT        .FT                                                 :DEPTH     
ASN         .OHMM                                               :          
CILD        .MMHO                                               :          
DT          .US/F                                               :          
ILD         .OHMM                                               :          
LAT         .OHMM                                               :          
LN          .OHMM                                               :          
SP          .MV                                                 :          
SP_NORM     .MV                                                 :SP Normalized
VSH_SP      .V/V                                                :Volume of Shale from SP
~A        DEPTH            ASN           CILD             DT            ILD            LAT             LN             SP        SP_NORM         VSH_SP
# ...
      7871.0000         1.3905       810.7139        97.0036         1.2527        -999.25         1.2527       -38.2975      -2.492222      0.9907128
      7871.5000          1.396       808.6719        97.5762         1.2501        -999.25         1.2501       -38.6955      -2.892902      0.9831528
      7872.0000         1.4035       809.2939        98.6321         1.2338        -999.25         1.2338       -39.0941      -3.294189      0.9755813
      7872.5000         1.4111        809.916        99.7023         1.2176        -999.25         1.2176       -39.4921       -3.69487      0.9680213
      7873.0000         1.4224       815.3086        99.1679         1.2013        -999.25         1.2013       -39.8907      -4.096153      0.9604499
      7873.5000          1.437       823.6299        98.0661         1.1851        -999.25         1.1851       -40.2598      -4.467937      0.9534351
      7874.0000         1.4496        838.334        96.9643         1.1688        -999.25         1.1688       -40.6152      -4.826019      0.9466789
      7874.5000         1.4307       866.9775        96.0293         1.1504        -999.25         1.1504       -40.9706      -5.184105      0.9399226
      7875.0000         1.3974       899.8896        96.5206         1.1264        -999.25         1.1264       -41.0753      -5.291485      0.9378965
      7875.5000         1.3632       928.9775        98.1241         1.1023        -999.25         1.1023       -40.9846      -5.203468      0.9395572
      7876.0000          1.329       958.8057         98.352         1.0783        -999.25         1.0783       -40.8938      -5.115353      0.9412197
      7876.5000         1.2878       988.2393         98.484         1.0543        -999.25         1.0543       -40.5899      -4.814137      0.9469031
      7877.0000         1.2609       1004.078        98.8333         1.0304        -999.25         1.0304        -40.277      -4.503918      0.9527563
      7877.5000         1.2423       1020.411        99.4093         1.0077        -999.25         1.0077       -39.9645      -4.194103      0.9586018
      7878.0000         1.2238       1044.367        99.9853         0.9851        -999.25         0.9851       -39.6516      -3.883884       0.964455
      7878.5000         1.2077       1068.742       100.5613         0.9624        -999.25         0.9624       -39.2854      -3.520367      0.9713138
      7879.0000         1.1918        1093.24       101.1373         0.9397        -999.25         0.9397        -38.788       -3.02565      0.9806481
      7879.5000         1.1759       1105.107       101.7133         0.9233        -999.25         0.9233       -38.2906      -2.530933      0.9899824
      7880.0000         1.1625       1114.768        102.262         0.9156        -999.25         0.9156       -37.7933       -2.03632      0.9993147
      7880.5000         1.1496       1118.711       102.5786         0.9079        -999.25         0.9079       -37.3441      -1.589802              1
      7881.0000         1.1398       1121.404       103.3814         0.9002        -999.25         0.9002       -36.9066      -1.154984              1
      7881.5000         1.1331       1122.865       104.2118         0.8985        -999.25         0.8985       -36.4691     -0.7201691              1
      7882.0000         1.1278       1119.967       104.4579         0.9145        -999.25         0.9145       -36.1559     -0.4096489              1
      7882.5000         1.1302       1117.064       105.5208         0.9304        -999.25         0.9304       -35.8964      -0.152832              1
      7883.0000         1.1327       1109.832       105.9742         0.9464        -999.25         0.9464       -35.7415   -0.000617981              1
      7883.5000          1.143       1091.145        106.447         0.9629        -999.25         0.9629       -35.9226     -0.1843987              1
      7884.0000         1.1594        1047.08       106.9197         0.9886        -999.25         0.9886       -36.1035     -0.3679848              1
      7884.5000         1.1772       1026.184       107.3925         1.0144        -999.25         1.0144       -36.2833     -0.5504646              1
      7885.0000          1.207       1006.398       107.8653         1.0401        -999.25         1.0401       -36.4632     -0.7330475              1
      7885.5000         1.2368       966.8486       108.2208         1.0658        -999.25         1.0658       -36.6434     -0.9159317              1
      7886.0000         1.2793       943.3115       108.4134         1.0916        -999.25         1.0916       -36.7831      -1.058315              1
      7886.5000         1.3188       911.9297       108.3874         1.1213        -999.25         1.1213       -36.8633      -1.141197              1
      7887.0000         1.3519       882.6191       108.1431         1.1518        -999.25         1.1518       -36.9434      -1.223984              1
      7887.5000         1.3731       855.2344       107.7461         1.1823        -999.25         1.1823       -36.8319      -1.115166              1
      7888.0000         1.3944       828.1201       106.2557         1.2128        -999.25         1.2128       -36.4659     -0.7518463              1
      7888.5000          1.413       812.1074       104.7654         1.2387        -999.25         1.2387       -36.1044     -0.3930321              1
      7889.0000          1.433       788.6699        103.275         1.2636        -999.25         1.2636       -35.7465    -0.03781128              1
      7889.5000         1.4539       777.7275       101.7846         1.2886        -999.25         1.2886       -35.3885      0.3175011              1
      7890.0000         1.4727       768.5996       100.2942         1.3044        -999.25         1.3044        -36.063     -0.3596802              1
      7890.5000         1.4913       760.4326        98.8038          1.318        -999.25          1.318       -36.7128      -1.012161              1
      7891.0000         1.5098       754.3545        97.3135         1.3246        -999.25         1.3246       -37.2601      -1.562149              1
      7891.5000         1.5286       752.8184        96.3863          1.305        -999.25          1.305       -37.8081      -2.112831      0.9978711
      7892.0000         1.5475       751.2832        96.2254         1.2853        -999.25         1.2853       -38.3555       -2.66291      0.9874923
      7892.5000         1.5664       750.7676        95.5942         1.2657        -999.25         1.2657       -39.0743      -3.384396      0.9738793
      7893.0000         1.5879       756.1582        94.5167          1.246        -999.25          1.246       -39.8013      -4.114079      0.9601117
      7893.5000         1.5881        761.543        93.4392         1.2263        -999.25         1.2263       -40.5591      -4.874565      0.9457629
      7894.0000         1.5768       777.4199        92.3059         1.2067        -999.25         1.2067       -41.3946      -5.712746      0.9299482
      7894.5000         1.5655       806.6797        91.8825          1.187        -999.25          1.187       -41.6417      -5.962528      0.9252353
      7895.0000         1.5542       857.8613        91.7007         1.1669        -999.25         1.1669       -42.0049      -6.328415      0.9183318
      7895.5000          1.543        868.458        92.5683         1.1434        -999.25         1.1434       -42.4572      -6.783394      0.9097473
      7896.0000         1.5352       879.1406        93.5868         1.1198        -999.25         1.1198       -42.9095      -7.238377      0.9011627
      7896.5000           1.53       889.7744        94.6052         1.0963        -999.25         1.0963       -44.4158       -8.74736      0.8726913
      7897.0000         1.5295       899.1621        95.6236         1.0728        -999.25         1.0728        -46.504      -10.83825      0.8332406
