#------------------------------------------------------------------------------
# Created by    : vladimir.rabinovich
# Created on    : 09/19/2023 17:22:30
#------------------------------------------------------------------------------
~Version Information Section
VERS.           2.0     :   CWLS log ASCII Standard - VERSION 2.0
WRAP.           NO      :   One line per depth step
~Well Information Section
#MNEM       .UNIT                                         VALUE :DESCRIPTION
#------------------------------------------------------------------------------
STRT        .FT                                            1687 :START DEPTH
STOP        .FT                                            6155 :STOP DEPTH
STEP        .FT                                             0.5 :STEP      
NULL        .                                           -999.25 :NULL      
COMP        .                       AMERICAN COASTAL ENERGY INC :COMPANY   
WELL        .                                ST TR 00596-L NE/4 :WELL      
FLD         .                        SHERMAN OFFSHORE SOUTHWEST :FIELD     
LOC         .                                                   :LOCATION  
CNTY        .                      MATAGORDA ISLAND LARGE BLOCK :LOCATION  
STAT        .                                             TEXAS :STATE     
CTRY        .                                     UNITED STATES :COUNTRY   
SRVC        .                                                   :SERVICE COMPANY
DATE        .                             9/13/2023 11:12:01 AM :LOG DATE  
API         .                                    42703302820000 :API NUMBER
UWI         .                                    42703302820000 :UNIQUE WELL ID
XCOORD      .                                  484247.709270029 :SURFACE X 
YCOORD      .                                   10242127.767654 :SURFACE Y 
LAT         .                                        28.1765839 :LATITUDE  
LON         .                                       -96.5886238 :LONGITUDE 
ELEV        .FT                                              79 :ELEVATION VALUE
ELEV_TYPE   .                                                KB :ELEVATION REFERENCE TYPE
~Curve Information Section
#MNEM       .UNIT                                      API CODE :CURVE DESCRIPTION
#------------------------------------------------------------------------------
DEPT        .FT                                                 :DEPTH     
CILD        .MMHO                                               :          
DT          .US/F                                               :          
ILD         .OHMM                                               :          
SN          .OHMM                                               :          
SP          .MV                                                 :          
SP_NORM     .MV                                                 :SP Normalized
VSH_SP      .V/V                                                :Volume of Shale from SP
~A        DEPTH           CILD             DT            ILD             SN             SP        SP_NORM         VSH_SP
# ...
      3764.0000       1304.118        127.669         0.7724         1.0505       -28.6147        -7.0842      0.9341258
      3764.5000       1415.728       129.4632         0.7343         1.0172       -29.7109         -8.191      0.9162742
      3765.0000       1495.459        131.257         0.6918         1.0033       -29.7124        -8.2031       0.916079
      3765.5000       1543.312       134.0471         0.6638         0.9896       -29.6145        -8.1158      0.9174871
      3766.0000       1579.219       134.3469         0.6637         1.0079        -29.616        -8.1279      0.9172919
      3766.5000       1479.628        129.666         0.7078         1.0698       -30.0156        -8.5382      0.9106742
      3767.0000       1344.184       123.6892         0.7866         1.1513       -30.4151        -8.9483      0.9040596
      3767.5000       1168.893       113.4301         0.9186         1.2562       -31.1131        -9.6569      0.8926306
      3768.0000       969.6948        107.653         1.1319         1.4154       -31.8111       -10.3655      0.8812016
      3768.5000       770.4976        98.0908         1.4129         1.6318       -32.2106       -10.7756      0.8745871
      3769.0000       619.1175         90.819         1.9337         2.0246       -32.6101       -11.1857      0.8679726
      3769.5000        507.608        86.3379         2.0715         2.2707       -31.8157       -10.4019      0.8806145
      3770.0000        503.658          87.15         2.1687         2.2396       -31.1209        -9.7177        0.89165
      3770.5000       579.3857        90.6225         1.8384         2.0525       -32.3162       -10.9236         0.8722
      3771.0000       659.1168         97.995         1.6166         1.8299         -33.81       -12.4281      0.8479339
      3771.5000       770.7246        111.843         1.4413         1.6847       -35.2043        -13.833      0.8252742
      3772.0000       826.5472       114.9317         1.3028         1.5654       -35.4047        -14.044       0.821871
      3772.5000       906.2771       114.9321         1.1831         1.4679       -34.7098       -13.3597       0.832908
      3773.0000       938.1915       114.7334         1.1404         1.4478       -34.0149       -12.6754      0.8439451
      3773.5000       946.1981       114.5397         1.1352         1.4679       -34.1159        -12.787      0.8421451
      3774.0000       930.2971       114.5364         1.1403          1.495       -34.5153        -13.197      0.8355322
      3774.5000        898.458       114.5373         1.2104         1.5088       -34.7157        -13.408      0.8321291
      3775.0000       850.6808       115.1358         1.2557         1.5018       -35.0156       -13.7186      0.8271194
      3775.5000        818.842       115.3359         1.2907         1.4677       -35.3155       -14.0291      0.8221113
      3776.0000       834.8446       115.3367         1.2847         1.4344       -35.4164       -14.1406      0.8203129
      3776.5000       854.8247       114.7399         1.2556         1.4277       -35.1195       -13.8543      0.8249307
      3777.0000       858.8233       114.5409         1.2555         1.4475        -34.723       -13.4684      0.8311548
      3777.5000       846.9074       112.1517         1.2729         1.4342       -35.0229       -13.7789      0.8261468
      3778.0000       803.1156       110.1607         1.3084         1.4016       -35.9199       -14.6865      0.8115081
      3778.5000       787.2154       109.3645         1.3387         1.4145       -38.0099       -16.7871      0.7776274
      3779.0000       823.1135       107.5723         1.3204         1.3573       -40.8958       -19.6836      0.7309097
      3779.5000       902.8407       107.5732         1.1718         1.2786       -45.6714       -24.4699      0.6537113
      3780.0000       1110.059       109.1678         0.8905         1.1718       -50.1485       -28.9576       0.581329
      3780.5000       1608.148       110.7625         0.6768         1.0592       -59.7977       -38.6174      0.4255258
      3781.0000       2213.826       112.9548         0.4832          0.923       -70.5404       -49.3707      0.2520855
      3781.5000       2572.452       124.1124         0.3985         0.8775       -79.0948       -57.9357      0.1139403
      3782.0000       3122.348       125.5075         0.3153         0.8191       -81.7809       -60.6324     0.07044515
      3782.5000        3528.79        126.106         0.2824         0.8079       -83.7708       -62.6329     0.03817903
      3783.0000       3767.873       126.5052           0.26         0.8078       -84.7661       -63.6388     0.02195481
      3783.5000       3935.248       126.3068         0.2438         0.8153       -85.5624       -64.4458    0.008938697
      3784.0000        3975.14       125.3116         0.2438         0.8152       -86.0604       -64.9544   0.0007354983
      3784.5000       3879.526       124.7147         0.2483          0.819         -86.26       -65.1646              0
      3785.0000       3736.119       124.0187           0.26         0.8227       -86.0618        -64.977   0.0003710101
      3785.5000       3576.776       123.2227         0.2734         0.8418       -85.7641       -64.6899     0.00500156
      3786.0000       3377.589       120.7329         0.2902         0.8456       -85.3671       -64.3035     0.01123391
      3786.5000       3258.091       118.7416         0.3025         0.8653       -84.8706       -63.8176     0.01907096
      3787.0000       3174.474        115.555         0.3039         0.8853       -84.6723       -63.6299     0.02209836
      3787.5000       3210.342       114.7591         0.3011         0.8853       -84.4749       -63.4431     0.02511129
      3788.0000       3298.029       116.5527          0.297         0.8226       -84.0778       -63.0567     0.03134352
      3788.5000       3329.935       117.9484         0.2956         0.8113       -83.3825        -62.372     0.04238707
      3789.0000       3329.966       119.9413         0.2929         0.8076       -82.2894       -61.2895     0.05984676
      3789.5000       3290.155       124.3246         0.2956         0.8039        -81.097       -60.1077     0.07890806
      3790.0000       3186.595       123.7278         0.3094         0.8339       -79.3074       -58.3287      0.1076016
      3790.5000       3019.289       119.9441         0.3285         0.8611       -75.6291        -54.661      0.1667581
      3791.0000       2796.203       116.5579         0.3735         0.8811        -69.167       -48.2095      0.2708145
      3791.5000       2294.223       114.1686         0.4406          0.877       -61.2143       -40.2674      0.3989129
      3792.0000       1812.182       114.7671         0.5367          0.914       -51.2721       -30.3358         0.5591
      3792.5000       1401.827       115.9628         0.7849         1.0781        -38.149       -17.2234      0.7705903
      3793.0000       1194.685       118.9518         0.9309         1.1818       -34.6706       -13.7556      0.8265226
      3793.5000       995.5117       121.0447         1.0203         1.1444       -33.0813       -12.1769      0.8519855
      3794.0000       955.7072        121.444         1.1031         1.1184        -30.995       -10.1012      0.8854645
      3794.5000       963.7129       125.9266         1.1081         1.1709        -28.511        -7.6278      0.9253581
      3795.0000       979.6869       132.1029         1.0633         1.1925       -25.7298        -4.8572      0.9700451
      3795.5000       1019.566       135.4903         1.0155         1.1601       -24.6373        -3.7753      0.9874952
      3796.0000       1083.358       136.8855         0.9744         1.1183       -23.8436        -2.9922              1
      3796.5000       1135.196       137.8824         0.9307         1.1029         -22.95        -2.1093              1
      3797.0000       1155.146       138.0149         0.9012         1.0979       -21.9583        -1.1282              1
