#------------------------------------------------------------------------------
# Created by    : vladimir.rabinovich
# Created on    : 09/19/2023 17:22:15
#------------------------------------------------------------------------------
~Version Information Section
VERS.           2.0     :   CWLS log ASCII Standard - VERSION 2.0
WRAP.           NO      :   One line per depth step
~Well Information Section
#MNEM       .UNIT                                         VALUE :DESCRIPTION
#------------------------------------------------------------------------------
STRT        .FT                                             712 :START DEPTH
STOP        .FT                                            8940 :STOP DEPTH
STEP        .FT                                             0.5 :STEP      
NULL        .                                           -999.25 :NULL      
COMP        .                                      SHELL OIL CO :COMPANY   
WELL        .                               OCS G03086 ST00BP00 :WELL      
FLD         .                                           WILDCAT :FIELD     
LOC         .                                                   :LOCATION  
CNTY        .                      MATAGORDA ISLAND LARGE BLOCK :LOCATION  
STAT        .                                             TEXAS :STATE     
CTRY        .                                     UNITED STATES :COUNTRY   
SRVC        .                                                   :SERVICE COMPANY
DATE        .                             9/13/2023 11:19:05 AM :LOG DATE  
API         .                                    42703400050000 :API NUMBER
UWI         .                                    42703400050000 :UNIQUE WELL ID
XCOORD      .                                  597395.628989583 :SURFACE X 
YCOORD      .                                    10217429.66268 :SURFACE Y 
LAT         .                                         28.117488 :LATITUDE  
LON         .                                        -96.235866 :LONGITUDE 
ELEV        .FT                                              93 :ELEVATION VALUE
ELEV_TYPE   .                                                KB :ELEVATION REFERENCE TYPE
~Curve Information Section
#MNEM       .UNIT                                      API CODE :CURVE DESCRIPTION
#------------------------------------------------------------------------------
DEPT        .FT                                                 :DEPTH     
CALI        .IN                                                 :          
DRHO        .G/C3                                               :          
DT          .US/F                                               :          
GR          .GAPI                                               :          
GR_1        .GAPI                                               :          
GR_NORM     .GAPI                                               :GammaRay Normalized
ILD         .OHMM                                               :          
NPHI        .%                                                  :          
RHOB        .G/C3                                               :          
SFL         .OHMM                                               :          
SP          .MV                                                 :          
SP_NORM     .MV                                                 :SP Normalized
VSH_GR      .V/V                                                :Volume of Shale from GR
VSH_SP      .V/V                                                :Volume of Shale from SP
~A        DEPTH           CALI           DRHO             DT             GR           GR_1        GR_NORM            ILD           NPHI           RHOB            SFL             SP        SP_NORM         VSH_GR         VSH_SP
# ...
      2908.0000        17.4774         0.0514       143.1052        38.3405        34.4651        50.9855         0.3229        -999.25         1.8047         0.3756       -87.9037      -12.96738      0.3826702     0.08605194
      2908.5000         16.877         0.0172       144.6782         38.721        34.0262       50.34967          0.306        -999.25         1.8533         0.3908        -88.084      -13.14017      0.3691418     0.07165209
      2909.0000          18.22         0.0301       142.8745        39.0002          33.34       49.35535         0.2949        -999.25         1.8953         0.3968       -88.8704      -13.91908      0.3479863    0.006743113
      2909.5000        18.9605         0.0464       134.5076        39.1728        32.5057       48.14638         0.2891        -999.25         1.9208          0.391       -89.3265      -14.36768      0.3222634              0
      2910.0000        18.1904          0.049       130.1387         38.838        31.9239        47.3034         0.2868        -999.25         1.8974          0.369       -89.5468      -14.58049      0.3043276              0
      2910.5000        17.3513         0.0111       128.6223        38.7654        31.9819       47.38784         0.2856        -999.25         1.8597         0.3676       -89.7115      -14.73769      0.3061243              0
      2911.0000        17.2158         0.0105       130.0991        38.9943        33.3165       49.32278         0.2848        -999.25         1.8338         0.3825        -89.874       -14.8927      0.3472932              0
      2911.5000        15.4685         0.0868       133.5913        38.5549        34.2861       50.72864         0.2889        -999.25         1.8561         0.3895       -90.0552       -15.0664       0.377205              0
      2912.0000        15.7488         0.0489       134.0627        37.4498         34.738       51.38406         0.2952        -999.25         1.8853         0.3832       -89.9722      -14.97591      0.3911503              0
      2912.5000        15.5915         0.0561       132.7217          36.27        34.8163       51.49793          0.302        -999.25         1.9723         0.3992       -89.6139      -14.61012       0.393573              0
      2913.0000        16.4696         0.0549        130.843        35.7174         34.226       50.64265         0.3111        -999.25         1.9893         0.3825       -89.0944      -14.08311      0.3753754              0
      2913.5000        17.9585         0.0347       128.4229        36.4626        33.3973       49.44177         0.3223        -999.25         1.9729         0.3571       -88.9373      -13.91853      0.3498249    0.006789526
      2914.0000         17.928         0.0355       127.9854        37.7553        31.8122       47.14447         0.3311        -999.25           1.99         0.3519       -89.0946      -14.06832      0.3009462              0
      2914.5000        17.9215         0.0479       129.5515        39.9164        31.2255       46.29438         0.3368        -999.25         2.0044         0.3618       -88.4591      -13.42533      0.2828591     0.04788907
      2915.0000        17.2253         0.0652       132.6846         41.389        32.2126       47.72561         0.3363        -999.25         1.9971          0.388       -88.3486      -13.30733      0.3133109     0.05772209
      2915.5000        14.7674         0.0639       132.4983         41.411        33.1635       49.10436         0.3333        -999.25         1.9729         0.4124        -88.201      -13.15224       0.342646     0.07064692
      2916.0000         14.663         0.0386       129.7068        40.6469        33.9955       50.31075         0.3319        -999.25         1.9211         0.4265       -88.1664      -13.11014      0.3683138     0.07415517
      2916.5000        15.2947         0.0705       128.3621        39.7958        34.5938       51.17839         0.3365        -999.25         1.9253         0.3911       -88.4485      -13.38475      0.3867742      0.0512708
      2917.0000         15.874         0.0512       128.0977        39.5844        34.9609       51.71089         0.3407        -999.25         1.9147         0.3518       -88.8563      -13.78506      0.3981041     0.01791191
      2917.5000        15.0798         0.0738        128.873        39.8262        35.2303       52.10177         0.3417        -999.25         1.9586         0.3421       -88.9454      -13.86665      0.4064207     0.01111221
      2918.0000        14.5506         0.0619       131.3091        40.2573        35.3813       52.32103         0.3321        -999.25         1.9648         0.3447       -88.3462      -13.25996      0.4110857     0.06166967
      2918.5000        14.3771         0.0317       132.0557        40.0674         35.347       52.27168         0.3226        -999.25         1.9436         0.3683       -87.8719      -12.77817      0.4100357      0.1018194
      2919.0000        16.3798         0.0268       131.6726        39.3016        35.0326       51.81631         0.3123        -999.25         1.9561         0.3921       -88.1365      -13.03527      0.4003471     0.08039411
      2919.5000        16.3472         0.0384       132.5735        38.3862        34.4049       50.90681         0.3038        -999.25         1.9429         0.3725       -88.5011      -13.39237      0.3809959     0.05063565
      2920.0000        15.6577         0.0112       134.0977        38.3503        33.3572       49.38849         0.2966        -999.25         1.9215         0.3373       -89.2382      -14.12198      0.3486913              0
      2920.5000        15.4756         0.0058       134.7168         38.595        32.7261       48.47405         0.2932        -999.25         1.9517         0.3482       -89.7955      -14.67178      0.3292351              0
      2921.0000        15.4068         0.0392       134.2695        38.9163        32.7161       48.45993         0.2925        -999.25         1.9706         0.3514       -89.5585      -14.42729      0.3289346              0
      2921.5000        15.5576         0.0753       133.2371        40.3731        33.1055       49.02475         0.2939        -999.25         1.9545         0.3448       -89.6998       -14.5611       0.340952              0
      2922.0000        15.7528         0.0574       134.0771        43.2977        33.9915       50.30943         0.3018        -999.25         1.8384         0.3349       -88.9827      -13.83649      0.3682857     0.01362546
      2922.5000        15.1639          0.049       133.5986        46.0593        35.2021       52.06462          0.318        -999.25         1.8097         0.3416       -87.4679      -12.31421      0.4056301      0.1404826
      2923.0000        14.3699         0.0496       128.2217        47.9074        36.3998       53.80112         0.3499        -999.25         1.8469         0.3766       -86.6282        -11.467      0.4425769      0.2110831
      2923.5000        13.7765         0.0271       125.0294        47.8686        37.3774       55.21857         0.3902        -999.25         1.9501         0.4299       -86.0187      -10.85001      0.4727355      0.2624989
      2924.0000        14.1534         0.0555       122.4095        47.6014        38.0296       56.16433         0.4356        -999.25         2.0511         0.4965       -85.8317      -10.65552      0.4928581      0.2787069
      2924.5000        15.3358         0.1006       127.8147        48.1799        38.2465       56.47911         0.4795        -999.25         2.0615         0.4878       -85.6447      -10.46102      0.4995556      0.2949149
      2925.0000        15.0683          0.127       133.3384        48.8604        38.0137       56.14204         0.5086        -999.25         2.0429         0.4856       -85.3651      -10.17392      0.4923837        0.31884
      2925.5000        13.7388         0.0857        135.478        49.7499        37.6859       55.66725         0.5145        -999.25         2.0148          0.501       -85.2875      -10.08883      0.4822819      0.3259309
