#------------------------------------------------------------------------------
# Created by    : vladimir.rabinovich
# Created on    : 09/19/2023 17:19:50
#------------------------------------------------------------------------------
~Version Information Section
VERS.           2.0     :   CWLS log ASCII Standard - VERSION 2.0
WRAP.           NO      :   One line per depth step
~Well Information Section
#MNEM       .UNIT                                         VALUE :DESCRIPTION
#------------------------------------------------------------------------------
STRT        .FT                                             880 :START DEPTH
STOP        .FT                                            8374 :STOP DEPTH
STEP        .FT                                             0.5 :STEP      
NULL        .                                           -999.25 :NULL      
COMP        .                                        EXXON CORP :COMPANY   
WELL        .                               OCS G04552 ST00BP00 :WELL      
FLD         .                                 BRAZOS BLOCK 0451 :FIELD     
LOC         .                                                   :LOCATION  
CNTY        .                                BRAZOS LARGE BLOCK :LOCATION  
STAT        .                                             TEXAS :STATE     
CTRY        .                                     UNITED STATES :COUNTRY   
SRVC        .                                                   :SERVICE COMPANY
DATE        .                             9/13/2023 11:19:08 AM :LOG DATE  
API         .                                    42704401130000 :API NUMBER
UWI         .                                    42704401130000 :UNIQUE WELL ID
XCOORD      .                                  760277.642000753 :SURFACE X 
YCOORD      .                                  10343629.6463693 :SURFACE Y 
LAT         .                                         28.475327 :LATITUDE  
LON         .                                        -95.739931 :LONGITUDE 
ELEV        .FT                                              95 :ELEVATION VALUE
ELEV_TYPE   .                                                KB :ELEVATION REFERENCE TYPE
~Curve Information Section
#MNEM       .UNIT                                      API CODE :CURVE DESCRIPTION
#------------------------------------------------------------------------------
DEPT        .FT                                                 :DEPTH     
ASFL        .OHMM                                               :          
CALI        .IN                                                 :          
CILD        .MMHO                                               :          
DT          .US/F                                               :          
GR          .GAPI                                               :          
GR_NORM     .GAPI                                               :GammaRay Normalized
ILD         .OHMM                                               :          
ILM         .OHMM                                               :          
RHOB        .G/C3                                               :          
SP          .MV                                                 :          
SP_NORM     .MV                                                 :SP Normalized
VSH_GR      .V/V                                                :Volume of Shale from GR
VSH_SP      .V/V                                                :Volume of Shale from SP
~A        DEPTH           ASFL           CALI           CILD             DT             GR        GR_NORM            ILD            ILM           RHOB             SP        SP_NORM         VSH_GR         VSH_SP
# ...
      3958.0000         1.0961        -999.25       2719.758       137.4648        15.3214       36.99679         0.3417         0.4139         1.7864       -84.3615       -47.9315     0.08503813     0.04137001
      3958.5000         1.0873        -999.25       2447.633       144.9949        15.3958       37.09819         0.3514         0.4384         1.8089        -84.415       -47.9843     0.08719562     0.04031403
      3959.0000         1.0699        -999.25       2391.699        150.373         15.408       37.11467         0.3615         0.4578          1.835       -84.4929       -48.0616     0.08754609       0.038768
      3959.5000         1.0371        -999.25       2348.719       155.9678        15.4203        37.1314         0.3726         0.4689         1.8582       -84.5863       -48.1543     0.08790215     0.03691399
      3960.0000         1.0072        -999.25       2335.031       159.7004        15.4326       37.14815         0.3665         0.4772         1.9147       -84.6797        -48.247     0.08825854     0.03505997
      3960.5000         0.9864        -999.25       2344.832       158.0188        15.4449       37.16489         0.3583         0.4596          1.952       -84.7731       -48.3398     0.08861469     0.03320396
      3961.0000          0.965        -999.25        2398.59       152.6296        15.4597       37.18504         0.3488         0.4297         1.9755       -84.8665       -48.4325     0.08904339     0.03135002
      3961.5000         0.9661        -999.25       2494.613       144.5608         15.595       37.36933         0.3366         0.3931         1.9713        -84.947       -48.5123     0.09296442     0.02975403
      3962.0000         0.9799        -999.25       2999.074       133.0488        15.7305       37.55362         0.3244         0.3712         1.9574       -84.9933        -48.558     0.09688552     0.02884003
      3962.5000         0.9894        -999.25       3086.746       129.1128        15.8658       37.73778         0.3122         0.3563         1.9476       -85.0397       -48.6037      0.1008038     0.02792603
      3963.0000          0.999        -999.25       3174.371       128.6079        15.8191       37.67421         0.3022         0.3511         1.9433       -85.0859       -48.6492     0.09945135     0.02701599
      3963.5000         1.0065        -999.25       3261.691       129.2319        15.6723        37.4744         0.2937         0.3499         1.9518       -85.1322       -48.6949     0.09520007     0.02610199
      3964.0000         1.0095        -999.25       3313.527       129.7676        15.4481       37.16938         0.2852         0.3489         1.9842       -85.1785       -48.7405     0.08871022     0.02518997
      3964.5000         1.0126        -999.25       3341.684       129.5261        15.2239       36.86408         0.2801         0.3489         2.0109       -85.2036       -48.7649     0.08221452       0.024702
      3965.0000         1.0157        -999.25       3355.645       129.2847        14.9997       36.55893          0.277          0.349         2.0012       -85.2203        -48.781     0.07572182     0.02438004
      3965.5000         1.0187        -999.25       3352.746       129.0435        14.7755        36.2539         0.2738          0.349         2.0071       -85.2371       -48.7971     0.06923188       0.024058
      3966.0000         1.0209        -999.25       3349.848       128.8164        14.5768       35.98344         0.2707          0.349         2.0375       -85.2538       -48.8132     0.06347754     0.02373596
      3966.5000         1.0227        -999.25       3346.949       128.7246        14.4318       35.78595         0.2675         0.3505         2.0112       -85.2705       -48.8292     0.05927544     0.02341598
      3967.0000         1.0245        -999.25       3337.953       129.1516        14.2867       35.58858         0.2644         0.3525         1.9446       -85.2872       -48.8452     0.05507628     0.02309601
      3967.5000         1.0263        -999.25       3327.629       130.1914        14.1416       35.39095         0.2644         0.3548         1.9213       -85.2826         -48.84     0.05087134         0.0232
      3968.0000         1.0281        -999.25       3317.305       131.5369        13.9965       35.19359         0.2649          0.357         1.9506       -85.2769       -48.8336     0.04667217     0.02332802
      3968.5000         1.0307        -999.25       3308.668       133.0288        13.9102         35.076         0.2654         0.3574         2.0318       -85.2711       -48.8271     0.04417014     0.02345802
      3969.0000         1.0342        -999.25       3301.234       133.9509        13.8395       34.97976         0.2658          0.357         2.0725       -85.2655       -48.8209     0.04212254       0.023582
      3969.5000         1.0377        -999.25       3293.801       133.7058        13.7689        34.8838         0.2663         0.3576         2.0663        -85.252       -48.8067     0.04008094     0.02386597
      3970.0000         1.0412        -999.25       3286.371       132.6184        13.6983       34.78757         0.2681         0.3585         2.0367       -85.2008       -48.7548     0.03803343     0.02490402
      3970.5000         1.0446        -999.25       3282.887       131.1177        13.6301       34.69474           0.27         0.3614         2.0316       -85.1497       -48.7031     0.03605838     0.02593803
      3971.0000         1.0482        -999.25       3279.563       132.0881        13.6274       34.69107         0.2719         0.3644         2.0365       -85.1044       -48.6571     0.03598022     0.02685799
      3971.5000         1.0523        -999.25        3275.09       133.8909        13.6246       34.68726         0.2745         0.3697         2.0272       -85.0869       -48.6389     0.03589906     0.02722199
      3972.0000         1.0564        -999.25       3264.598        135.458        13.6219       34.68359         0.2783         0.3758          2.018       -85.0706        -48.622     0.03582098     0.02755997
      3972.5000         1.0605        -999.25       3254.102       135.7341        13.6705       34.74973         0.2822         0.3819         2.0236       -85.0598       -48.6105     0.03722836     0.02778999
      3973.0000         1.0646        -999.25       3224.645       134.9761         13.781       34.90028         0.2861         0.3881         2.0499       -85.0491       -48.5991     0.04043141     0.02801803
      3973.5000         1.0706        -999.25       3188.277       132.2505        13.8914        35.0504         0.2899          0.393         2.0877       -85.0333       -48.5827     0.04362553     0.02834602
      3974.0000         1.0778        -999.25       3115.219       128.4829        14.0437       35.25784         0.2947         0.3962         2.1109       -84.9976       -48.5463     0.04803905     0.02907402
      3974.5000          1.085        -999.25        3036.75       125.9492        14.3253       35.64099         0.3003          0.401         2.1187       -84.9618       -48.5098      0.0561913       0.029804
      3975.0000          1.075        -999.25       2960.141       124.7511        13.9493       35.12921         0.3058         0.4097         2.0842        -84.926       -48.4734     0.04530237       0.030532
      3975.5000         1.0525        -999.25       2820.457       126.1626        13.4306        34.4232         0.3114         0.4222          2.055       -84.8901       -48.4368      0.0302809     0.03126404
      3976.0000         1.0414        -999.25       2697.625         128.74        12.8823       33.67704         0.3169         0.4406          2.032       -84.8524       -48.3985     0.01440519     0.03203003
      3976.5000         1.0335        -999.25       2600.445       131.3872        12.5028       33.16037          0.326         0.4609         2.0606       -84.8147       -48.3601    0.003412044       0.032798
