#------------------------------------------------------------------------------
# Created by    : vladimir.rabinovich
# Created on    : 09/19/2023 17:20:40
#------------------------------------------------------------------------------
~Version Information Section
VERS.           2.0     :   CWLS log ASCII Standard - VERSION 2.0
WRAP.           NO      :   One line per depth step
~Well Information Section
#MNEM       .UNIT                                         VALUE :DESCRIPTION
#------------------------------------------------------------------------------
STRT        .FT                                             546 :START DEPTH
STOP        .FT                                            8737 :STOP DEPTH
STEP        .FT                                             0.5 :STEP      
NULL        .                                           -999.25 :NULL      
COMP        .                                      SHELL OIL CO :COMPANY   
WELL        .                                OCS 00702 ST00BP00 :WELL      
FLD         .                                           WILDCAT :FIELD     
LOC         .                                                   :LOCATION  
CNTY        .                             GALVESTON LARGE BLOCK :LOCATION  
STAT        .                                             TEXAS :STATE     
CTRY        .                                     UNITED STATES :COUNTRY   
SRVC        .                                                   :SERVICE COMPANY
DATE        .                             9/13/2023 11:19:42 AM :LOG DATE  
API         .                                    42706000140000 :API NUMBER
UWI         .                                    42706000140000 :UNIQUE WELL ID
XCOORD      .                                  1138683.88536091 :SURFACE X 
YCOORD      .                                  10533063.1188688 :SURFACE Y 
LAT         .                                         29.014964 :LATITUDE  
LON         .                                        -94.570199 :LONGITUDE 
ELEV        .FT                                              72 :ELEVATION VALUE
ELEV_TYPE   .                                                KB :ELEVATION REFERENCE TYPE
~Curve Information Section
#MNEM       .UNIT                                      API CODE :CURVE DESCRIPTION
#------------------------------------------------------------------------------
DEPT        .FT                                                 :DEPTH     
ASN         .OHMM                                               :          
CILD        .MMHO                                               :          
ILD         .OHMM                                               :          
SP          .MV                                                 :          
SP_NORM     .MV                                                 :SP Normalized
VSH_SP      .V/V                                                :Volume of Shale from SP
~A        DEPTH            ASN           CILD            ILD             SP        SP_NORM         VSH_SP
# ...
      7082.0000         0.8414       1575.607         0.8221       -48.1436      -6.432404      0.8927374
      7082.5000         0.8452       1644.348         0.8111       -50.8967      -9.186398      0.8066751
      7083.0000         0.8497       1714.693            0.8       -52.6039      -10.89449      0.7532971
      7083.5000         0.8546       1771.486          0.789       -53.2644      -11.55589      0.7326285
      7084.0000         0.8522       1828.326         0.7779       -52.1997      -10.49208      0.7658724
      7084.5000         0.8421       1777.104         0.7975       -52.4069      -10.70018      0.7593694
      7085.0000         0.8325       1728.557         0.8175       -53.7499      -12.04408      0.7173727
      7085.5000         0.8229       1682.063         0.8375       -55.3871      -13.68217      0.6661822
      7086.0000         0.8133       1639.043         0.8575       -57.6924      -15.98837      0.5941135
      7086.5000         0.8048       1595.578         0.8775       -57.6946      -15.99146      0.5940168
      7087.0000         0.7978       1494.295         0.8973       -55.5296      -13.82736      0.6616451
      7087.5000          0.802        1406.83         0.9171       -53.9649      -12.26355      0.7105139
      7088.0000         0.8911       1372.951         0.9369       -53.1965      -11.49605      0.7344985
      7088.5000         0.9276       1342.547         0.9568       -52.8724      -11.17284      0.7445986
      7089.0000          0.952       1324.916          0.976       -53.6163      -11.91764      0.7213237
      7089.5000         0.9735       1307.354         0.9553       -53.7466      -12.04884      0.7172238
      7090.0000         0.9928       1305.146         0.9345       -53.5665      -11.86963       0.722824
      7090.5000         0.9889       1322.197         0.9174       -53.0767      -11.38073      0.7381023
      7091.0000         0.9783       1339.248         0.9027       -52.5466      -10.85152      0.7546399
      7091.5000         0.9654        1413.34         0.8879       -52.0165      -10.32232      0.7711775
      7092.0000         0.9524       1479.227         0.8732       -51.4864      -9.793118      0.7877151
      7092.5000         0.9397       1526.258         0.8585       -51.1395      -9.447109      0.7985278
      7093.0000         0.9283       1590.318         0.8438       -50.9232      -9.231705      0.8052592
      7093.5000         0.9168        1638.15         0.8323       -50.7065      -9.015903       0.812003
      7094.0000         0.9095       1680.857         0.8217       -50.6851      -8.995399      0.8126438
      7094.5000         0.9037       1713.557         0.8112       -54.0796       -12.3908      0.7065376
      7095.0000         0.9045       1734.799         0.8006        -57.826      -16.13809      0.5894347
      7095.5000         0.9117       1705.422         0.8066       -58.6658      -16.97878       0.563163
      7096.0000         0.9223       1634.629          0.841       -56.8594      -15.17328      0.6195849
      7096.5000         0.9343       1548.859         0.8754       -55.1844      -13.49918      0.6719007
      7097.0000         0.9375       1509.139         0.9097       -53.2811      -11.59678      0.7313508
      7097.5000         0.9394       1471.113         0.9441       -53.7238      -12.04037      0.7174885
      7098.0000         0.9401       1425.375         0.9784       -54.2021      -12.51956      0.7025137
      7098.5000          0.943       1333.098         1.0128       -54.7139      -13.03226      0.6864918
      7099.0000         0.9599        1251.16         1.0472       -52.1685      -10.48775      0.7660077
      7099.5000         0.9729       1168.957         1.0721        -50.342      -8.662151      0.8230578
      7100.0000         0.9793       1132.715         1.0837       -48.8453      -7.166344      0.8698018
      7100.5000         0.9858       1093.262         1.0954       -47.6369      -5.958843      0.9075361
      7101.0000         0.9992        1037.85          1.107       -46.4163       -4.73914      0.9456519
      7101.5000          1.033       1008.518         1.1186       -45.6501      -3.973835      0.9695677
      7102.0000         1.0601       979.4971         1.1303       -45.9065      -4.231133      0.9615271
      7102.5000         1.0788       961.1973         1.1419       -46.1632      -4.488724      0.9534774
      7103.0000         1.0864       942.8975         1.1512       -45.9783      -4.304718      0.9592276
      7103.5000         1.0846       925.0215         1.1575       -45.7623      -4.089615      0.9659495
      7104.0000         1.0828       910.4326         1.1638       -45.5465      -3.874714      0.9726652
      7104.5000         1.0825       922.1123         1.1701       -45.3327      -3.661804      0.9793186
      7105.0000         1.0833       933.8027         1.1763       -45.1289        -3.4589      0.9856594
      7105.5000         1.0841       945.4824         1.1826       -44.9251      -3.255997      0.9920001
      7106.0000         1.0829       957.1738         1.1851       -44.7213      -3.053093      0.9983408
      7106.5000          1.073       968.8535          1.178       -44.5178      -2.850491              1
      7107.0000         1.0617       980.5439         1.1708        -44.314      -2.647583              1
      7107.5000         1.0496       991.7666         1.1636       -44.0645      -2.398979              1
      7108.0000         1.0375       1002.488         1.1565       -43.7852      -2.120575              1
      7108.5000         1.0296       1013.198         1.1493        -43.506      -1.842274              1
      7109.0000         1.0336        1023.92         1.1422       -43.2264      -1.563568              1
      7109.5000         1.0494       1034.641         1.1334       -42.9658      -1.303864              1
      7110.0000         1.0432       1045.361          1.124       -43.2375      -1.576458              1
      7110.5000         1.0337       1056.072         1.1146       -43.4531      -1.792953              1
      7111.0000         1.0225        1061.35         1.1052       -43.6586      -1.999352              1
      7111.5000         1.0145       1065.924         1.0959        -43.864      -2.205647              1
      7112.0000         1.0034       1070.498         1.0865       -43.9336      -2.276142              1
      7112.5000         0.9766       1075.074         1.0904       -43.9841      -2.327538              1
      7113.0000          0.957       1079.648         1.0943        -44.202      -2.546333              1
      7113.5000         0.9551        1082.92         1.0983       -44.4919      -2.837132              1
      7114.0000         0.9548        1074.84         1.1023       -44.4069      -2.753025              1
      7114.5000         0.9621        1066.76         1.1062       -44.1775      -2.524521              1
      7115.0000         0.9695        1058.68         1.1102       -43.9484      -2.296314              1
      7115.5000         0.9768         1050.6          1.114       -43.7189      -2.067711              1
      7116.0000         0.9782        1042.52         1.1178       -43.4898      -1.839508              1
      7116.5000         0.9778       1032.723         1.1216       -43.2604      -1.611004              1
      7117.0000         0.9761       1021.513         1.1254       -43.0313      -1.382797              1
      7117.5000         0.9755       1010.301         1.1292       -42.8411      -1.193493              1
      7118.0000         0.9817       998.5098          1.133       -42.6629       -1.01619              1
      7118.5000         0.9879       984.0879         1.1368       -42.4847     -0.8388863              1
      7119.0000         0.9959       969.6895         1.1366       -42.3065     -0.6615829              1
      7119.5000         1.0099        979.252         1.1326       -42.1284      -0.484375              1
