#------------------------------------------------------------------------------
# Created by    : vladimir.rabinovich
# Created on    : 09/19/2023 17:21:44
#------------------------------------------------------------------------------
~Version Information Section
VERS.           2.0     :   CWLS log ASCII Standard - VERSION 2.0
WRAP.           NO      :   One line per depth step
~Well Information Section
#MNEM       .UNIT                                         VALUE :DESCRIPTION
#------------------------------------------------------------------------------
STRT        .FT                                            3434 :START DEPTH
STOP        .FT                                            9802 :STOP DEPTH
STEP        .FT                                             0.5 :STEP      
NULL        .                                           -999.25 :NULL      
COMP        .                                  UMC PETROLEUM CO :COMPANY   
WELL        .                               OCS G11352 ST00BP00 :WELL      
FLD         .                            HIGH ISLAND BLOCK 0093 :FIELD     
LOC         .                                                   :LOCATION  
CNTY        .                           HIGH ISLAND LARGE BLOCK :LOCATION  
STAT        .                                             TEXAS :STATE     
CTRY        .                                     UNITED STATES :COUNTRY   
SRVC        .                                                   :SERVICE COMPANY
DATE        .                             9/13/2023 11:19:57 AM :LOG DATE  
API         .                                    42708403880000 :API NUMBER
UWI         .                                    42708403880000 :UNIQUE WELL ID
XCOORD      .                                  1243413.75648782 :SURFACE X 
YCOORD      .                                  10663707.7269925 :SURFACE Y 
LAT         .                                         29.377731 :LATITUDE  
LON         .                                        -94.246854 :LONGITUDE 
ELEV        .FT                                              85 :ELEVATION VALUE
ELEV_TYPE   .                                                KB :ELEVATION REFERENCE TYPE
~Curve Information Section
#MNEM       .UNIT                                      API CODE :CURVE DESCRIPTION
#------------------------------------------------------------------------------
DEPT        .FT                                                 :DEPTH     
CALI        .IN                                                 :          
CALI_1      .IN                                                 :          
DPHI        .%                                                  :          
DRHO        .G/C3                                               :          
DT          .US/F                                               :          
GR          .GAPI                                               :          
GR_1        .GAPI                                               :          
GR_NORM     .GAPI                                               :GammaRay Normalized
ILD         .OHMM                                               :          
ILM         .OHMM                                               :          
NPHI        .%                                                  :          
RFOC        .OHMM                                               :          
SP          .MV                                                 :          
SP_NORM     .MV                                                 :SP Normalized
VSH_GR      .V/V                                                :Volume of Shale from GR
VSH_SP      .V/V                                                :Volume of Shale from SP
~A        DEPTH           CALI         CALI_1           DPHI           DRHO             DT             GR           GR_1        GR_NORM            ILD            ILM           NPHI           RFOC             SP        SP_NORM         VSH_GR         VSH_SP
# ...
      5162.0000        -999.25        14.3774        -999.25        -999.25       120.3732        38.2581        -999.25       54.47212         0.2755         0.2919        -999.25         0.6343       -88.9558       -48.9558      0.4568537      0.2468338
      5162.5000        -999.25        14.8321        -999.25        -999.25       121.1443        35.7849        -999.25       49.89977         0.2558         0.2751        -999.25           0.62        -92.241        -52.241      0.3595695      0.1962924
      5163.0000        -999.25        15.0405        -999.25        -999.25       124.3861        33.4395        -999.25       45.56345         0.2409         0.2635        -999.25          0.607       -95.4343       -55.4343      0.2673074      0.1471646
      5163.5000        -999.25        15.0067        -999.25        -999.25       127.9407        31.6889        -999.25       42.32568         0.2268         0.2557        -999.25         0.5955       -97.6046       -57.6046      0.1984187      0.1137754
      5164.0000        -999.25         15.015        -999.25        -999.25       130.4653         30.926        -999.25       40.91212         0.2137         0.2501        -999.25         0.6016       -98.8088       -58.8088       0.168343     0.09524924
      5164.5000        -999.25        15.2136        -999.25        -999.25       130.4802        30.9867        -999.25       41.01969         0.2058         0.2484        -999.25         0.6086       -99.3038       -59.3038      0.1706317     0.08763381
      5165.0000        -999.25        15.3031        -999.25        -999.25       127.8452        31.5399        -999.25       42.03687         0.2036         0.2483        -999.25         0.6112       -99.4615       -59.4615      0.1922739     0.08520766
      5165.5000        -999.25        15.2342        -999.25        -999.25       125.9336        32.5754        -999.25       43.94482         0.2069           0.25        -999.25         0.6037       -99.5088       -59.5088      0.2328686     0.08448005
      5166.0000        -999.25        14.9334        -999.25        -999.25       124.9358        33.4755        -999.25        45.6027         0.2121         0.2531        -999.25         0.5912       -99.5685       -59.5685      0.2681426     0.08356159
      5166.5000        -999.25        14.4602        -999.25        -999.25       125.5116        33.6473        -999.25       45.91547         0.2188         0.2571        -999.25         0.5859       -99.6744       -59.6744      0.2747973     0.08193231
      5167.0000        -999.25        13.9942        -999.25        -999.25       126.2068        33.1924        -999.25       45.07077         0.2258         0.2611        -999.25         0.5833       -99.8518       -59.8518      0.2568249     0.07920309
      5167.5000        -999.25        13.6797        -999.25        -999.25       126.6064        32.4189        -999.25       43.63763         0.2323         0.2651        -999.25         0.5848      -100.2578       -60.2578      0.2263325     0.07295696
      5168.0000        -999.25        13.6619        -999.25        -999.25       125.8036        31.6691        -999.25       42.24826         0.2377         0.2693        -999.25         0.5875      -100.7501       -60.7501      0.1967714     0.06538309
      5168.5000        -999.25        14.1539        -999.25        -999.25       124.9714        30.9626        -999.25       40.93888         0.2421         0.2735        -999.25          0.593      -100.9727       -60.9727      0.1689123     0.06195843
      5169.0000        -999.25        14.6634        -999.25        -999.25       124.2699        30.4345        -999.25       39.95898         0.2449         0.2752        -999.25          0.599      -100.7646       -60.7646      0.1480634     0.06515996
      5169.5000        -999.25        14.9579        -999.25        -999.25       124.9073        30.3613        -999.25       39.81924         0.2443         0.2743        -999.25         0.6054       -100.296        -60.296      0.1450902     0.07236927
      5170.0000        -999.25         14.788        -999.25        -999.25       126.4397        31.3152        -999.25        41.5765          0.241         0.2711        -999.25         0.6066       -99.5935       -59.5935      0.1824786     0.08317695
      5170.5000        -999.25        14.5801        -999.25        -999.25       127.8973        32.5127        -999.25       43.78365         0.2372         0.2624        -999.25          0.605       -98.7847       -58.7847      0.2294393     0.09562002
      5171.0000        -999.25        14.5578        -999.25        -999.25       128.4148        32.8721        -999.25       44.44289         0.2332         0.2545        -999.25         0.6008       -98.1198       -58.1198      0.2434658      0.1058493
      5171.5000        -999.25        14.6754        -999.25        -999.25        126.765        31.5039        -999.25       41.91139          0.229         0.2471        -999.25         0.5985       -97.9862       -57.9862      0.1896041      0.1079046
      5172.0000        -999.25        14.8024        -999.25        -999.25       124.5519        29.3213        -999.25       37.87576          0.224         0.2418        -999.25         0.5994       -98.0994       -58.0994      0.1037395       0.106163
      5172.5000        -999.25        14.8607        -999.25        -999.25       122.7319        28.2667        -999.25       35.92345         0.2179         0.2397        -999.25         0.6054       -98.3737       -58.3737     0.06220108       0.101943
      5173.0000        -999.25        14.9176        -999.25        -999.25       122.7231        28.8706        -999.25       37.03426         0.2121         0.2387        -999.25         0.6111       -98.9106       -58.9106      0.0858354     0.09368309
      5173.5000        -999.25        15.0299        -999.25        -999.25       123.8661         30.096        -999.25       39.29295         0.2075         0.2381        -999.25         0.6157       -99.4828       -59.4828      0.1338926     0.08487995
      5174.0000        -999.25        15.1422        -999.25        -999.25       124.4053        28.9724        -999.25       37.21321         0.2048         0.2375        -999.25         0.6172       -99.7513       -59.7513     0.08964279     0.08074927
      5174.5000        -999.25        15.0367        -999.25        -999.25       123.9667        27.0616        -999.25       33.67956         0.2049         0.2382        -999.25         0.6176       -99.6167       -59.6167     0.01445868     0.08282001
      5175.0000        -999.25        14.8308        -999.25        -999.25       124.2053        26.2049        -999.25       32.09276         0.2053         0.2392        -999.25         0.6153       -99.4847       -59.4847              0     0.08485072
      5175.5000        -999.25        14.5833        -999.25        -999.25       124.9828        27.2813        -999.25       34.07625         0.2059         0.2406        -999.25           0.61       -99.5923       -59.5923     0.02289898     0.08319538
      5176.0000        -999.25        14.3093        -999.25        -999.25       126.7576        27.8939        -999.25       35.20315         0.2066         0.2423        -999.25         0.6027       -99.9645       -59.9645     0.04687549     0.07746922
      5176.5000        -999.25        14.0017        -999.25        -999.25       128.6064        27.6234        -999.25       34.69902         0.2086         0.2438        -999.25         0.5956      -100.2321       -60.2321     0.03614929     0.07335228
      5177.0000        -999.25        13.7992        -999.25        -999.25       128.7161        26.9927        -999.25       33.52963         0.2105          0.245        -999.25         0.5887      -100.0219       -60.0219      0.0112687     0.07658621
      5177.5000        -999.25        14.0092        -999.25        -999.25       130.1362        26.3589        -999.25        32.3545         0.2132         0.2458        -999.25         0.5838       -99.7565       -59.7565              0     0.08066922
