#------------------------------------------------------------------------------
# Created by    : vladimir.rabinovich
# Created on    : 09/19/2023 17:20:57
#------------------------------------------------------------------------------
~Version Information Section
VERS.           2.0     :   CWLS log ASCII Standard - VERSION 2.0
WRAP.           NO      :   One line per depth step
~Well Information Section
#MNEM       .UNIT                                         VALUE :DESCRIPTION
#------------------------------------------------------------------------------
STRT        .FT                                             727 :START DEPTH
STOP        .FT                                            8206 :STOP DEPTH
STEP        .FT                                             0.5 :STEP      
NULL        .                                           -999.25 :NULL      
COMP        .                              PHOENIX RESOURCES CO :COMPANY   
WELL        .                                          BLK 335L :WELL      
FLD         .                                 BRAZOS BLOCK 0309 :FIELD     
LOC         .                                                   :LOCATION  
CNTY        .                                BRAZOS LARGE BLOCK :LOCATION  
STAT        .                                             TEXAS :STATE     
CTRY        .                                     UNITED STATES :COUNTRY   
SRVC        .                                                   :SERVICE COMPANY
DATE        .                             9/13/2023 11:18:52 AM :LOG DATE  
API         .                                    42704300210000 :API NUMBER
UWI         .                                    42704300210000 :UNIQUE WELL ID
XCOORD      .                                  898426.347293712 :SURFACE X 
YCOORD      .                                  10460523.5569112 :SURFACE Y 
LAT         .                                        28.8046676 :LATITUDE  
LON         .                                       -95.3172337 :LONGITUDE 
ELEV        .FT                                              70 :ELEVATION VALUE
ELEV_TYPE   .                                                DF :ELEVATION REFERENCE TYPE
~Curve Information Section
#MNEM       .UNIT                                      API CODE :CURVE DESCRIPTION
#------------------------------------------------------------------------------
DEPT        .FT                                                 :DEPTH     
ASN         .OHMM                                               :          
CALI        .IN                                                 :          
DT          .US/F                                               :          
ILD         .OHMM                                               :          
SP          .MV                                                 :          
SP_NORM     .MV                                                 :SP Normalized
VSH_SP      .V/V                                                :Volume of Shale from SP
~A        DEPTH            ASN           CALI             DT            ILD             SP        SP_NORM         VSH_SP
# ...
      8164.0000         0.4406         13.423       131.7729         0.4463       -42.5393        1.36314              1
      8164.5000         0.4384        15.0008       135.4653         0.4457       -42.8454       1.057037              1
      8165.0000         0.4388        15.3795       137.3906         0.4452       -43.2311      0.6713409              1
      8165.5000         0.4395        15.2516       135.7405         0.4447       -43.5335      0.3689384              1
      8166.0000         0.4398        14.9796        134.603         0.4441       -43.7666      0.1358376              1
      8166.5000         0.4398         14.757        134.229          0.443       -43.8473     0.05513763              1
      8167.0000         0.4398        14.6145       136.7786         0.4419       -43.6813       0.221138              1
      8167.5000         0.4396        14.5298       138.9392         0.4408       -43.3193      0.5831375              1
      8168.0000         0.4382        14.1221       136.4565         0.4397       -42.8647       1.037739              1
      8168.5000         0.4369        12.3488       133.2107         0.4385        -43.141      0.7614403              1
      8169.0000         0.4352        11.5752       126.9221         0.4374       -43.9519    -0.04946136              1
      8169.5000         0.4334        11.5327       125.7563         0.4363       -44.4079     -0.5054626              1
      8170.0000         0.4382        11.6171       126.9048         0.4366       -44.2827     -0.3802605              1
      8170.5000         0.4428        11.4266       126.8218         0.4371       -43.6088      0.2936401              1
      8171.0000         0.4467        11.1659       126.8428         0.4376       -42.6572       1.245239              1
      8171.5000         0.4506        10.8403          128.8         0.4381       -41.6674       2.235039              1
      8172.0000         0.4527        10.6696       128.1782         0.4386       -41.1018        2.80064              1
      8172.5000         0.4542        10.5641       126.9357         0.4391       -40.9055       2.996941              1
      8173.0000         0.4555        10.4861       126.3969         0.4396       -40.7127       3.189739              1
      8173.5000         0.4557        10.4694       126.5789         0.4401       -40.4902       3.412239              1
      8174.0000         0.4559        10.5992       126.9989         0.4405        -40.204       3.698441              1
      8174.5000         0.4561        10.6267       125.7212         0.4409       -40.6294       3.273041              1
      8175.0000         0.4558        10.4651       125.5891         0.4413        -41.228       2.674438              1
      8175.5000         0.4548        10.3044       124.1321         0.4418       -41.5329       2.369537              1
      8176.0000         0.4538        10.4333       122.7495         0.4422       -41.4779       2.424538              1
      8176.5000         0.4525        11.1165       124.0039         0.4426       -41.5717       2.330738              1
      8177.0000         0.4503        11.4641       124.3948          0.443       -41.6698       2.232639              1
      8177.5000          0.448        11.5184       124.4734         0.4433       -41.4612       2.441238              1
      8178.0000         0.4458        10.8045       125.0867         0.4424       -40.9799       2.922539              1
      8178.5000         0.4445        10.6474       125.0588         0.4414       -40.4437        3.45874              1
      8179.0000         0.4432        10.6497       124.0206         0.4405       -39.8315       4.070938              1
      8179.5000         0.4464        10.9832       123.7369         0.4396       -39.5742       4.328239              1
      8180.0000         0.4518        11.1566       124.7379         0.4387       -39.7266       4.175838              1
      8180.5000         0.4571        10.6031       125.4231         0.4378        -40.182        3.72044              1
      8181.0000         0.4625        10.3501       124.5062         0.4368       -40.6541       3.248341              1
      8181.5000         0.4608        10.5498       123.7332         0.4359       -40.8941       3.008339              1
      8182.0000         0.4581         10.826       123.4165         0.4353       -40.7596       3.142838              1
      8182.5000         0.4553        10.8796       123.3414         0.4364       -40.4911       3.411339              1
      8183.0000         0.4523         10.612       123.6818         0.4374         -40.09       3.812439              1
      8183.5000         0.4491         10.922       124.8531         0.4384       -39.5414       4.361038              1
      8184.0000         0.4499        11.3186       126.7684         0.4395       -38.9935       4.908939              1
      8184.5000         0.4523        11.3627       127.5558         0.4405       -38.6855       5.216938              1
      8185.0000         0.4546        11.3972        127.399         0.4415       -38.6275        5.27494              1
      8185.5000          0.457        11.8432       126.9171         0.4426       -38.9132       4.989239              1
      8186.0000         0.4558         11.978       126.0326         0.4432       -40.0938        3.80864              1
      8186.5000         0.4534        11.5263       125.3635         0.4437       -40.3122        3.59024              1
      8187.0000          0.451        11.0435       124.7788         0.4441       -40.0378       3.864639              1
      8187.5000         0.4485        11.0612         124.23         0.4446       -40.5257        3.37674              1
      8188.0000          0.446        11.2922       123.8489         0.4451       -40.3659       3.536541              1
      8188.5000         0.4428        11.5529       124.4988         0.4456       -39.7901       4.112339              1
      8189.0000         0.4397        11.7571       125.2867         0.4461       -39.2156        4.68684              1
      8189.5000         0.4362        11.7312       125.4335         0.4467       -39.2211       4.681339              1
      8190.0000         0.4338        11.9047       124.6648         0.4472        -40.032       3.870438              1
      8190.5000         0.4366        12.2969       125.4453         0.4477       -40.5837       3.318741              1
      8191.0000         0.4394        12.4212        127.025         0.4483       -40.5367       3.365738              1
      8191.5000         0.4422        12.0842       126.9673         0.4488       -40.0327        3.86974              1
      8192.0000         0.4449        11.7292       127.0336         0.4494       -40.1826       3.719841              1
      8192.5000         0.4461        11.6534       125.1628         0.4499       -41.0021       2.900337              1
      8193.0000         0.4472         11.742       123.9249         0.4505        -41.481        2.42144              1
      8193.5000         0.4484        11.8822       124.1467         0.4512       -41.4218        2.48064              1
      8194.0000          0.449         11.899       124.1711         0.4518       -40.8046       3.097839              1
      8194.5000         0.4492        11.8796       123.7784         0.4525        -40.285       3.617439              1
      8195.0000         0.4495        11.9425       123.6244         0.4531        -40.182        3.72044              1
      8195.5000         0.4497        -999.25        -999.25         0.4538        -999.25        -999.25        -999.25
      8196.0000           0.45        -999.25        -999.25         0.4531        -999.25        -999.25        -999.25
      8196.5000         0.4502        -999.25        -999.25         0.4524        -999.25        -999.25        -999.25
      8197.0000         0.4506        -999.25        -999.25         0.4517        -999.25        -999.25        -999.25
