#------------------------------------------------------------------------------
# Created by    : vladimir.rabinovich
# Created on    : 09/19/2023 17:21:52
#------------------------------------------------------------------------------
~Version Information Section
VERS.           2.0     :   CWLS log ASCII Standard - VERSION 2.0
WRAP.           NO      :   One line per depth step
~Well Information Section
#MNEM       .UNIT                                         VALUE :DESCRIPTION
#------------------------------------------------------------------------------
STRT        .FT                                            2690 :START DEPTH
STOP        .FT                                            8272 :STOP DEPTH
STEP        .FT                                             0.5 :STEP      
NULL        .                                           -999.25 :NULL      
COMP        .                        PG&E RESOURCES OFFSHORE CO :COMPANY   
WELL        .                               OCS G09053 ST00BP00 :WELL      
FLD         .                              GALVESTON BLOCK 0427 :FIELD     
LOC         .                                                   :LOCATION  
CNTY        .                             GALVESTON LARGE BLOCK :LOCATION  
STAT        .                                             TEXAS :STATE     
CTRY        .                                     UNITED STATES :COUNTRY   
SRVC        .                                                   :SERVICE COMPANY
DATE        .                             9/13/2023 11:11:09 AM :LOG DATE  
API         .                                    42706402380000 :API NUMBER
UWI         .                                    42706402380000 :UNIQUE WELL ID
XCOORD      .                                  948581.259723803 :SURFACE X 
YCOORD      .                                  10360666.4777899 :SURFACE Y 
LAT         .                                         28.532718 :LATITUDE  
LON         .                                        -95.155068 :LONGITUDE 
ELEV        .FT                                             119 :ELEVATION VALUE
ELEV_TYPE   .                                                KB :ELEVATION REFERENCE TYPE
~Curve Information Section
#MNEM       .UNIT                                      API CODE :CURVE DESCRIPTION
#------------------------------------------------------------------------------
DEPT        .FT                                                 :DEPTH     
CALI        .IN                                                 :          
DRHO        .G/C3                                               :          
DT          .US/F                                               :          
GR          .GAPI                                               :          
GR_1        .GAPI                                               :          
GR_NORM     .GAPI                                               :GammaRay Normalized
ILD         .OHMM                                               :          
ILM         .OHMM                                               :          
NPHI        .%                                                  :          
RFOC        .OHMM                                               :          
RHOB        .G/C3                                               :          
SP          .MV                                                 :          
SP_NORM     .MV                                                 :SP Normalized
VSH_GR      .V/V                                                :Volume of Shale from GR
VSH_SP      .V/V                                                :Volume of Shale from SP
~A        DEPTH           CALI           DRHO             DT             GR           GR_1        GR_NORM            ILD            ILM           NPHI           RFOC           RHOB             SP        SP_NORM         VSH_GR         VSH_SP
# ...
      4594.0000        -999.25        -999.25       140.6948       102.7764        -999.25       91.26547         0.7581         0.7524        -999.25         1.0395        -999.25       -41.4105      -2.561825              1      0.9599532
      4594.5000        -999.25        -999.25       140.4731       104.1543        -999.25       92.82275         0.7592         0.7564        -999.25         1.0431        -999.25       -41.7761       -2.92136              1      0.9507344
      4595.0000        -999.25        -999.25       140.2268       102.8556        -999.25       91.35083         0.7594         0.7566        -999.25         1.0407        -999.25       -41.9801      -3.119297              1       0.945659
      4595.5000        -999.25        -999.25       139.8086       100.7512        -999.25       88.96706         0.7596         0.7568        -999.25         1.0365        -999.25       -42.0772      -3.210339              1      0.9433246
      4596.0000        -999.25        -999.25       139.5325        96.7289        -999.25       84.41274         0.7585         0.7569        -999.25         1.0284        -999.25        -41.735      -2.862072              1      0.9522546
      4596.5000        -999.25        -999.25       139.9417        95.2019        -999.25       82.68245         0.7559         0.7563        -999.25         1.0206        -999.25        -41.494      -2.615009              1      0.9585895
      4597.0000        -999.25        -999.25       140.5315        97.2611        -999.25       85.01077         0.7532         0.7556        -999.25         1.0164        -999.25       -41.3489      -2.463848              1      0.9624654
      4597.5000        -999.25        -999.25       141.4382        98.7273        -999.25       86.66798         0.7527          0.755        -999.25         1.0122        -999.25       -41.2276      -2.336483              1      0.9657312
      4598.0000        -999.25        -999.25       142.2329        98.2523        -999.25       86.12827         0.7546         0.7524        -999.25         1.0072        -999.25       -41.1429       -2.24572              1      0.9680585
      4598.5000        -999.25        -999.25       142.5996        95.6134        -999.25       83.13959         0.7565         0.7487        -999.25         1.0014        -999.25        -41.093      -2.189758              1      0.9694934
      4599.0000        -999.25        -999.25       142.1428        94.4188        -999.25       81.78548         0.7584         0.7456        -999.25         1.0037        -999.25       -41.1461      -2.236797              1      0.9682872
      4599.5000        -999.25        -999.25       141.2104         95.689        -999.25       83.22086          0.761         0.7458        -999.25         1.0203        -999.25       -41.4141      -2.498734              1      0.9615709
      4600.0000        -999.25        -999.25       140.3257        98.1927        -999.25       86.05225         0.7644          0.746        -999.25         1.0372        -999.25       -41.9167       -2.99527              1      0.9488392
      4600.5000        -999.25        -999.25       139.7834        98.9773        -999.25       86.93806         0.7677         0.7479        -999.25         1.0499        -999.25        -42.155      -3.227509              1      0.9428844
      4601.0000        -999.25        -999.25       139.3479        98.8516        -999.25       86.79366         0.7711         0.7548        -999.25         1.0621        -999.25       -42.0824      -3.148846              1      0.9449014
      4601.5000        -999.25        -999.25         138.99         98.376        -999.25       86.25327          0.776         0.7618        -999.25         1.0322        -999.25       -41.8819      -2.942284              1      0.9501979
      4602.0000        -999.25        -999.25       138.8005        97.3817        -999.25       85.12584         0.7766         0.7658        -999.25          1.008        -999.25       -41.6615       -2.71582              1      0.9560046
      4602.5000        -999.25        -999.25       138.8694        95.9166        -999.25        83.4656         0.7749         0.7689        -999.25         1.0045        -999.25       -41.4698      -2.518055              1      0.9610755
      4603.0000        -999.25        -999.25       139.0989        94.8207        -999.25       82.22319         0.7708         0.7658        -999.25         1.0156        -999.25       -41.7505      -2.792694              1      0.9540335
      4603.5000        -999.25        -999.25       139.4973        94.5146        -999.25       81.87463         0.7668         0.7607        -999.25         1.0262        -999.25       -41.9061      -2.942234              1      0.9501991
      4604.0000        -999.25        -999.25        140.073        94.6124        -999.25       81.98315         0.7604         0.7528        -999.25         1.0285        -999.25       -41.9522      -2.982269              1      0.9491726
      4604.5000        -999.25        -999.25       140.6909        95.2042        -999.25       82.65078         0.7517         0.7437        -999.25         1.0161        -999.25       -42.5092      -3.533207              1       0.935046
      4605.0000        -999.25        -999.25       141.1738        96.4391        -999.25       84.04621         0.7432         0.7349        -999.25         1.0073        -999.25       -43.4828      -4.500744              1      0.9102373
      4605.5000        -999.25        -999.25       142.0168        98.7577        -999.25       86.66811         0.7362         0.7263        -999.25         1.0028        -999.25          -43.8      -4.811878              1      0.9022595
      4606.0000        -999.25        -999.25       142.3433       100.6672        -999.25         88.827         0.7292         0.7185        -999.25         1.0001        -999.25       -43.8611      -4.866917              1      0.9008483
      4606.5000        -999.25        -999.25       142.3113       102.3721        -999.25       90.75436         0.7255         0.7199        -999.25         1.0038        -999.25       -43.5026      -4.502357              1      0.9101959
      4607.0000        -999.25        -999.25       142.7107       103.1277        -999.25       91.60736         0.7227          0.725        -999.25         1.0074        -999.25       -43.0414      -4.035091              1      0.9221771
      4607.5000        -999.25        -999.25       143.5894       103.3867        -999.25       91.89834         0.7199         0.7302        -999.25         1.0023        -999.25        -42.733      -3.720631              1      0.9302402
      4608.0000        -999.25        -999.25       143.2976       103.2848        -999.25       91.78088          0.718         0.7327        -999.25          0.999        -999.25       -42.5337      -3.515266              1       0.935506
      4608.5000        -999.25        -999.25       142.8889       102.7731        -999.25       91.19962         0.7164         0.7356        -999.25         0.9994        -999.25        -42.553      -3.528503              1      0.9351666
      4609.0000        -999.25        -999.25       142.5237       101.6403        -999.25       89.91545         0.7151         0.7396        -999.25         0.9966        -999.25       -42.7445       -3.71394              1      0.9304118
      4609.5000        -999.25        -999.25       143.3367        98.5677        -999.25       86.43595         0.7205         0.7442        -999.25         0.9862        -999.25       -42.8467      -3.810078              1      0.9279467
      4610.0000        -999.25        -999.25       144.7781        94.9998        -999.25        82.3959         0.7259         0.7547        -999.25         0.9793        -999.25       -42.8433      -3.800613              1      0.9281894
      4610.5000        -999.25        -999.25       145.1333        92.7554        -999.25       79.85368         0.7367         0.7658        -999.25         0.9767        -999.25       -42.6616       -3.61285      0.9968867      0.9330038
