#------------------------------------------------------------------------------
# Created by    : vladimir.rabinovich
# Created on    : 09/19/2023 17:21:31
#------------------------------------------------------------------------------
~Version Information Section
VERS.           2.0     :   CWLS log ASCII Standard - VERSION 2.0
WRAP.           NO      :   One line per depth step
~Well Information Section
#MNEM       .UNIT                                         VALUE :DESCRIPTION
#------------------------------------------------------------------------------
STRT        .FT                                              40 :START DEPTH
STOP        .FT                                           13401 :STOP DEPTH
STEP        .FT                                             0.5 :STEP      
NULL        .                                           -999.25 :NULL      
COMP        .                                        TEXACO USA :COMPANY   
WELL        .                               OCS G01759 ST00BP00 :WELL      
FLD         .                                           WILDCAT :FIELD     
LOC         .                                                   :LOCATION  
CNTY        .                             GALVESTON LARGE BLOCK :LOCATION  
STAT        .                                             TEXAS :STATE     
CTRY        .                                     UNITED STATES :COUNTRY   
SRVC        .                                                   :SERVICE COMPANY
DATE        .                             9/13/2023 11:19:24 AM :LOG DATE  
API         .                                    42706001440000 :API NUMBER
UWI         .                                    42706001440000 :UNIQUE WELL ID
XCOORD      .                                   1131482.4965331 :SURFACE X 
YCOORD      .                                  10562344.6824913 :SURFACE Y 
LAT         .                                         29.095227 :LATITUDE  
LON         .                                        -94.593967 :LONGITUDE 
ELEV        .FT                                              83 :ELEVATION VALUE
ELEV_TYPE   .                                                KB :ELEVATION REFERENCE TYPE
~Curve Information Section
#MNEM       .UNIT                                      API CODE :CURVE DESCRIPTION
#------------------------------------------------------------------------------
DEPT        .FT                                                 :DEPTH     
CALI        .IN                                                 :          
DT          .US/F                                               :          
GR          .GAPI                                               :          
GR_NORM     .GAPI                                               :GammaRay Normalized
RHOB        .G/C3                                               :          
SP          .MV                                                 :          
SP_NORM     .MV                                                 :SP Normalized
VSH_GR      .V/V                                                :Volume of Shale from GR
VSH_SP      .V/V                                                :Volume of Shale from SP
~A        DEPTH           CALI             DT             GR        GR_NORM           RHOB             SP        SP_NORM         VSH_GR         VSH_SP
# ...
      8255.0000         9.4405       118.2246         59.764       80.82019         2.3821       -23.7121      -3.712099              1       0.925758
      8255.5000         9.3447       116.3905         59.149       79.95557         2.3823       -23.1181      -3.118099      0.9990546       0.937638
      8256.0000         9.2923       113.0175        59.9103       81.01903         2.3462        -23.081      -3.080999              1        0.93838
      8256.5000         9.0059       111.7157        59.3013       80.16282         2.3242       -23.3251        -3.3251              1       0.933498
      8257.0000         8.6524       109.8041        57.3258       77.39221         2.3392       -24.1357        -4.1357      0.9445152       0.917286
      8257.5000         8.7254       108.5483        55.8058       75.25975         2.3531       -24.6304        -4.6304      0.8991436       0.907392
      8258.0000         8.6023       110.1743        54.6994       73.70671         2.3508       -24.2631        -4.2631      0.8661003       0.914738
      8258.5000         8.7735       111.0503        53.9753       72.68924         2.3533       -24.8679      -4.867901      0.8444519       0.902642
      8259.0000         9.0508       114.8612        53.3184       71.76591         2.3578       -25.5962      -5.596201      0.8248065       0.888076
      8259.5000         9.1205       117.5471        52.8474       71.10301         2.3572       -25.5232      -5.523199      0.8107024       0.889536
      8260.0000         9.1982        116.457        54.3553       73.21242         2.3613       -25.1675        -5.1675      0.8555834        0.89665
      8260.5000         9.2648       116.0424        56.4172       76.09792         2.3544        -24.875         -4.875      0.9169771         0.9025
      8261.0000         9.3547       115.5098        58.3063       78.74138         2.3459        -24.098         -4.098      0.9732208        0.91804
      8261.5000         9.3307       114.5479        60.1524       81.32457         2.3576       -24.6142      -4.614201              1       0.907716
      8262.0000          9.277        115.765        60.7889       82.21321         2.3735       -24.7602      -4.760201              1       0.904796
      8262.5000         9.3035       116.4945        59.9618       81.05143         2.3682        -24.293      -4.292999              1        0.91414
      8263.0000         9.1321        117.166         61.248       82.85027         2.3416       -23.9885      -3.988501              1        0.92023
      8263.5000         9.1138       116.9906        61.6221       83.37129         2.3451       -23.3568        -3.3568              1       0.932864
      8264.0000         9.1333        114.658        59.2797        80.0867         2.3589       -22.8356        -2.8356              1       0.943288
      8264.5000         9.1288       112.0858        56.8942       76.74172         2.3718       -23.1917        -3.1917      0.9306749       0.936166
      8265.0000         9.1649       109.7896        56.8439        76.6682         2.3561        -23.949      -3.948999      0.9291106        0.92102
      8265.5000         9.2089       109.1362         58.491       78.97261         2.3676       -25.1574        -5.1574      0.9781407       0.896852
      8266.0000         9.2198       108.2483        59.1143       79.84276         2.3716       -25.7299        -5.7299      0.9966545       0.885402
      8266.5000         9.1929        109.475        59.9091       80.95316         2.3703       -26.1067      -6.106701              1       0.877866
      8267.0000          9.223       110.2203        59.7305       80.69991         2.3693       -26.4154        -6.4154              1       0.871692
      8267.5000         9.1503        110.455         58.437       78.88475         2.3845       -25.8369      -5.836901      0.9762713       0.883262
      8268.0000         9.1926       111.8766        60.0517       81.14377         2.3805       -25.3973      -5.397301              1       0.892054
      8268.5000         9.2915       111.7175        61.6077       83.32055         2.3609       -25.1837      -5.183701              1       0.896326
      8269.0000         9.2954       112.5117         62.967       85.22176         2.3383       -25.1121      -5.112101              1       0.897758
      8269.5000         9.2572       113.9213        61.6071        83.3136         2.3148       -24.9085      -4.908501              1        0.90183
      8270.0000         9.2728       114.8915        61.4687       83.11665         2.3165          -24.5           -4.5              1           0.91
      8270.5000          9.281       112.2915        58.2249       78.56926         2.3296       -24.2404        -4.2404      0.9695587       0.915192
      8271.0000         8.9982        111.337        54.9116       73.92449         2.3308       -24.2743        -4.2743      0.8707339       0.914514
      8271.5000         9.0431       108.1853        53.9286       72.54434         2.3339       -24.2622      -4.262199       0.841369       0.914756
      8272.0000         9.0005       106.0923        54.9067       73.91153         2.3403       -24.6477      -4.647699      0.8704581       0.907046
      8272.5000         8.9892       103.4476        56.0983       75.57783         2.3678       -25.2339        -5.2339      0.9059112       0.895322
      8273.0000         8.9992        99.0656        56.0042       75.44294         2.3922       -26.1696        -6.1696      0.9030412       0.876608
      8273.5000         9.0285        98.0565        56.4915       76.12256         2.4169       -26.9969      -6.996901      0.9175013       0.860062
      8274.0000         9.0431       101.3352         54.492       73.31834         2.3889       -27.3657        -7.3657       0.857837       0.852686
      8274.5000         9.1485       108.0426        53.1218       71.39574         2.3784       -26.9759      -6.975901      0.8169307       0.860482
      8275.0000         9.3595       113.5691          53.34       71.69836         2.3947       -25.7412      -5.741199      0.8233693       0.885176
      8275.5000         9.2346       116.5551        54.0377       72.67274         2.4115       -24.5676        -4.5676      0.8441008       0.908648
      8276.0000         9.0853       116.2308        54.6023       73.46065         2.4093       -23.9595      -3.959499      0.8608648        0.92081
      8276.5000         9.1683       114.5358        54.7269       73.63213         2.3747       -23.9086        -3.9086      0.8645133       0.921828
      8277.0000         9.3023       114.1595        54.1528       72.82481         2.3658        -24.174         -4.174      0.8473365        0.91652
      8277.5000         9.3873       115.7808        55.6763       74.95605         2.3427       -25.2555      -5.255501       0.892682        0.89489
      8278.0000         9.1925        117.506        57.6902       77.77435         2.3167       -27.4952      -7.495199      0.9526457       0.850096
      8278.5000         8.8541       117.0583        57.7909       77.91235         2.3198       -30.6561       -10.6561      0.9555818       0.786878
      8279.0000         8.0712       113.9321        57.0285       76.84122         2.3249       -38.1887       -18.1887       0.932792      0.6362259
      8279.5000         7.9595       108.8459        52.4805       70.46674         2.3112        -45.525        -25.525      0.7971647         0.4895
      8280.0000         8.2885       101.8966        49.9296       66.89006           2.31        -44.075        -24.075      0.7210651         0.5185
      8280.5000         8.8656        93.4421        47.7815       63.87767         2.2913       -35.2025       -15.2025      0.6569716        0.69595
      8281.0000         9.0061        88.4963        45.3936       60.52934           2.28       -30.9097       -10.9097      0.5857307       0.781806
