#------------------------------------------------------------------------------
# Created by    : vladimir.rabinovich
# Created on    : 09/19/2023 17:20:03
#------------------------------------------------------------------------------
~Version Information Section
VERS.           2.0     :   CWLS log ASCII Standard - VERSION 2.0
WRAP.           NO      :   One line per depth step
~Well Information Section
#MNEM       .UNIT                                         VALUE :DESCRIPTION
#------------------------------------------------------------------------------
STRT        .FT                                            3149 :START DEPTH
STOP        .FT                                           10186 :STOP DEPTH
STEP        .FT                                             0.5 :STEP      
NULL        .                                           -999.25 :NULL      
COMP        .                                  SAMEDAN OIL CORP :COMPANY   
WELL        .                                     ST TR 00817-L :WELL      
FLD         .                                           WILDCAT :FIELD     
LOC         .                                                   :LOCATION  
CNTY        .                        MUSTANG ISLAND LARGE BLOCK :LOCATION  
STAT        .                                             TEXAS :STATE     
CTRY        .                                     UNITED STATES :COUNTRY   
SRVC        .                                                   :SERVICE COMPANY
DATE        .                             9/13/2023 11:18:55 AM :LOG DATE  
API         .                                    42702300080000 :API NUMBER
UWI         .                                    42702300080000 :UNIQUE WELL ID
XCOORD      .                                  304914.569303086 :SURFACE X 
YCOORD      .                                  10013906.4088957 :SURFACE Y 
LAT         .                                        27.5345201 :LATITUDE  
LON         .                                       -97.1203623 :LONGITUDE 
ELEV        .FT                                              65 :ELEVATION VALUE
ELEV_TYPE   .                                                KB :ELEVATION REFERENCE TYPE
~Curve Information Section
#MNEM       .UNIT                                      API CODE :CURVE DESCRIPTION
#------------------------------------------------------------------------------
DEPT        .FT                                                 :DEPTH     
ASFL        .OHMM                                               :          
CILD        .MMHO                                               :          
DT          .US/F                                               :          
GR          .GAPI                                               :          
ILD         .OHMM                                               :          
SP          .MV                                                 :          
SP_NORM     .MV                                                 :SP Normalized
VSH_SP      .V/V                                                :Volume of Shale from SP
~A        DEPTH           ASFL           CILD             DT             GR            ILD             SP        SP_NORM         VSH_SP
# ...
      5951.5000         0.6981       1733.043       125.8162        -999.25         0.6431       -47.4084      -2.482681      0.9799638
      5952.0000         0.6958       1744.471       124.9174        -999.25         0.6376       -47.6356      -2.702579      0.9769922
      5952.5000         0.6935        1755.02       124.3206        -999.25         0.6322        -47.816      -2.875683      0.9746529
      5953.0000         0.6914       1763.469       124.6381        -999.25         0.6268       -47.9965      -3.048882      0.9723124
      5953.5000         0.6896       1771.918       125.5748        -999.25         0.6214       -48.0911      -3.136181      0.9711327
      5954.0000         0.6879       1779.627       125.9163        -999.25         0.6159       -48.1302      -3.167984      0.9707029
      5954.5000         0.6861       1785.311       125.9446        -999.25         0.6143       -48.1694      -3.199883      0.9702719
      5955.0000         0.6844       1790.988       125.8264        -999.25         0.6128       -48.2086      -3.231785      0.9698408
      5955.5000         0.6826       1795.824       125.3602        -999.25         0.6113       -48.2478      -3.263683      0.9694097
      5956.0000         0.6809       1799.531       124.9111        -999.25         0.6098       -48.2725      -3.281086      0.9691745
      5956.5000         0.6808        1803.24       124.7217        -999.25         0.6083       -48.2689      -3.270191      0.9693217
      5957.0000          0.681       1806.951       124.7102        -999.25         0.6069       -48.2654      -3.259388      0.9694678
      5957.5000         0.6812        1810.66       124.6083        -999.25         0.6075       -48.2618      -3.248489       0.969615
      5958.0000         0.6827       1814.305       124.1636        -999.25         0.6104       -48.2583       -3.23769       0.969761
      5958.5000         0.6843        1817.48       123.6342        -999.25         0.6132       -48.2548      -3.226891      0.9699069
      5959.0000         0.6858        1820.34       122.9587        -999.25         0.6161       -48.2783      -3.243092      0.9696879
      5959.5000         0.6873       1812.367       122.4208        -999.25         0.6189       -48.3618      -3.319294      0.9686582
      5960.0000         0.6888       1804.395       122.0509        -999.25         0.6218        -48.445      -3.395195      0.9676325
      5960.5000         0.6897       1797.045        123.113        -999.25         0.6249       -48.5284      -3.471294      0.9666041
      5961.0000         0.6907       1789.994       125.2726        -999.25         0.6291       -48.6544      -3.589996          0.965
      5961.5000         0.6916       1782.021       127.3624        -999.25         0.6333       -48.8152      -3.743496      0.9629257
      5962.0000         0.6926       1774.049       129.3503        -999.25         0.6375       -48.9762      -3.897198      0.9608487
      5962.5000         0.6935       1765.838       131.4426        -999.25         0.6417       -49.1371      -4.050797       0.958773
      5963.0000         0.6934       1756.021       133.3459        -999.25         0.6516       -48.7488      -3.655197       0.964119
      5963.5000         0.6925       1746.217       134.9929        -999.25         0.6626       -48.1506      -3.049702      0.9723013
      5964.0000         0.6916         1736.4        136.314        -999.25         0.6732       -47.3626      -2.254398      0.9830487
      5964.5000         0.6906       1726.596       135.8115        -999.25         0.6837       -46.5738      -1.458302      0.9938067
      5965.0000         0.6897       1710.127       134.7266        -999.25         0.6943       -45.7768     -0.6539993              1
      5965.5000         0.6892       1691.396       132.9578        -999.25         0.7049       -44.9443      0.1857948              1
      5966.0000         0.6901       1671.398       131.1465        -999.25          0.716       -44.2191      0.9182968              1
      5966.5000         0.7067        1648.25       128.4397        -999.25         0.7293       -43.6989       1.445797              1
      5967.0000         0.7258       1614.527       125.8547        -999.25         0.7454       -43.4025       1.749496              1
      5967.5000         0.7443       1582.588       123.4165        -999.25         0.7626        -43.347       1.812294              1
      5968.0000         0.7676       1551.527       120.9336        -999.25         0.7808       -43.2837       1.882893              1
      5968.5000         0.7888       1520.125       118.8287        -999.25          0.777       -43.2017       1.972195              1
      5969.0000         0.8088       1488.332       117.4915        -999.25         0.7593       -43.1199       2.061291              1
      5969.5000         0.8261       1466.404       117.2615        -999.25         0.7417       -43.0482       2.140293              1
      5970.0000         0.8318       1468.688       118.8586        -999.25         0.7237       -42.9819        2.21389              1
      5970.5000         0.8246       1584.541       121.1873        -999.25         0.6902       -42.9155        2.28759              1
      5971.0000         0.8175       1658.969       123.1378        -999.25         0.6567       -42.8248        2.38559              1
      5971.5000         0.8098       1732.615          124.5        -999.25          0.625       -42.7042       2.513485              1
      5972.0000         0.7978       1786.482       124.8247        -999.25         0.6005       -42.5837       2.641289              1
      5972.5000         0.7858        1826.09       124.0826        -999.25         0.5761       -42.4651       2.767185              1
      5973.0000         0.7754       1860.813       122.7385        -999.25         0.5516        -42.353       2.886585              1
      5973.5000         0.7689       1907.209       121.1736        -999.25         0.5569       -42.2408       3.006084              1
      5974.0000          0.764       1944.951       121.0538        -999.25         0.5699       -42.2651       2.989086              1
      5974.5000         0.7643       1948.873       121.7452        -999.25         0.5829       -42.3274       2.934082              1
      5975.0000         0.7655       1952.795       122.4132        -999.25         0.5626       -42.3653       2.903481              1
      5975.5000         0.7722       1816.713        122.495        -999.25         0.5767       -42.3934       2.882683              1
      5976.0000          0.779       1649.006       121.9735        -999.25         0.6058       -42.4031        2.88028              1
      5976.5000         0.7997       1418.299       109.7054        -999.25         0.6349       -42.1968        3.09388              1
      5977.0000          0.838       1285.754       100.2114        -999.25         0.6916       -41.9905       3.307476              1
      5977.5000         0.9146       1194.234        97.0206        -999.25         0.7801        -41.651       3.654278              1
      5978.0000         1.0455       1110.918        96.5778        -999.25         0.9144        -42.605       2.707577              1
      5978.5000         1.1764       1047.674        96.7761        -999.25         1.0592       -44.2572       1.062675              1
      5979.0000         1.3072       1001.523        96.1262        -999.25         1.1729       -46.0309     -0.7037239              1
      5979.5000          1.438       953.5645        94.6459        -999.25         1.2518       -47.3826      -2.048126      0.9858361
      5980.0000         1.5689       915.6172        92.2301        -999.25         1.3306       -47.3454      -2.003628      0.9864374
      5980.5000         1.6997       886.6572        87.9906        -999.25         1.3602       -46.5402      -1.191128      0.9974172
