#------------------------------------------------------------------------------
# Created by    : vladimir.rabinovich
# Created on    : 09/19/2023 17:20:38
#------------------------------------------------------------------------------
~Version Information Section
VERS.           2.0     :   CWLS log ASCII Standard - VERSION 2.0
WRAP.           NO      :   One line per depth step
~Well Information Section
#MNEM       .UNIT                                         VALUE :DESCRIPTION
#------------------------------------------------------------------------------
STRT        .FT                                             510 :START DEPTH
STOP        .FT                                            8711 :STOP DEPTH
STEP        .FT                                             0.5 :STEP      
NULL        .                                           -999.25 :NULL      
COMP        .                                      SHELL OIL CO :COMPANY   
WELL        .                                OCS 00708 ST00BP00 :WELL      
FLD         .                                           WILDCAT :FIELD     
LOC         .                                                   :LOCATION  
CNTY        .                             GALVESTON LARGE BLOCK :LOCATION  
STAT        .                                             TEXAS :STATE     
CTRY        .                                     UNITED STATES :COUNTRY   
SRVC        .                                                   :SERVICE COMPANY
DATE        .                             9/13/2023 11:19:25 AM :LOG DATE  
API         .                                    42706000300000 :API NUMBER
UWI         .                                    42706000300000 :UNIQUE WELL ID
XCOORD      .                                  1082576.09526943 :SURFACE X 
YCOORD      .                                  10493698.2734572 :SURFACE Y 
LAT         .                                         28.904546 :LATITUDE  
LON         .                                        -94.743912 :LONGITUDE 
ELEV        .FT                                              92 :ELEVATION VALUE
ELEV_TYPE   .                                                KB :ELEVATION REFERENCE TYPE
~Curve Information Section
#MNEM       .UNIT                                      API CODE :CURVE DESCRIPTION
#------------------------------------------------------------------------------
DEPT        .FT                                                 :DEPTH     
ASN         .OHMM                                               :          
CILD        .MMHO                                               :          
DT          .US/F                                               :          
ILD         .OHMM                                               :          
SP          .MV                                                 :          
SP_NORM     .MV                                                 :SP Normalized
VSH_SP      .V/V                                                :Volume of Shale from SP
~A        DEPTH            ASN           CILD             DT            ILD             SP        SP_NORM         VSH_SP
# ...
      8148.0000         0.7491       1438.471        98.8257          0.637       -56.0123      -16.64265      0.7555836
      8148.5000         0.7761       1192.117       100.4312          0.669       -54.4319      -15.06528        0.78023
      8149.0000         0.7934       1164.203       101.0101          0.697       -53.1068      -13.74321      0.8008873
      8149.5000         0.8042       1144.453       101.9663         0.7101       -51.7838      -12.42324      0.8215118
      8150.0000         0.8151       1133.633       101.0578         0.7231       -51.1168      -11.75928      0.8318863
      8150.5000         0.8238       1153.023       101.4726         0.7283       -50.4866      -11.13211      0.8416858
      8151.0000         0.8314       1223.932       102.4388          0.709       -49.8564      -10.50494      0.8514853
      8151.5000          0.839       1286.035       102.7823         0.6897       -49.6707      -10.32228      0.8543394
      8152.0000         0.8466       1336.309       101.7825         0.6705       -52.8224      -13.47701      0.8050467
      8152.5000         0.8543       1387.031        101.181         0.6155       -56.6593      -17.31694      0.7450478
      8153.0000          0.862       1447.789         100.89         0.5434        -58.571      -19.23167      0.7151302
      8153.5000         0.8663         1643.5       100.5727         0.4712       -59.5234       -20.1871      0.7002015
      8154.0000         0.8467         1869.5       100.0637         0.4224       -66.6565      -27.32324      0.5886994
      8154.5000         0.8132        2095.25         99.719         0.3975       -75.8254      -36.49517       0.445388
      8155.0000          0.741       3968.813       100.1397         0.3726       -84.9943       -45.6671      0.3020765
      8155.5000         0.6452       4053.875       101.6854         0.3477      -102.8917      -63.56754     0.02238226
      8156.0000         0.5689       4134.383       104.6088         0.3394      -104.2634      -64.94226   0.0009021759
      8156.5000         0.5184        4070.25        105.922         0.3374      -106.5522       -67.2341              0
      8157.0000         0.4915       3966.125       105.5026         0.3461      -106.6332      -67.31813              0
      8157.5000         0.4728       3903.035       105.8876         0.3583      -106.7141      -67.40207              0
      8158.0000          0.458       3770.941       106.0432         0.3717        -95.193        -55.884      0.1424375
      8158.5000         0.5175       3531.133       105.6283           0.39       -91.6293      -52.32333      0.1980729
      8159.0000          0.584        3291.32       104.1188         0.4083       -76.5149      -37.21196      0.4341881
      8159.5000         0.6274       3051.152       101.9534         0.4267       -61.4183       -22.1184      0.6700251
      8160.0000         0.6597        2811.34       105.3746          0.445       -67.6324      -28.33553      0.5728824
      8160.5000         0.6614       2571.172       106.4913         0.4634       -76.2462      -36.95236      0.4382443
      8161.0000         0.6447       2312.273       105.5829         0.4817       -84.8511      -45.56029      0.3037454
      8161.5000          0.628       2510.234       104.8839            0.5       -93.4648      -54.17702       0.169109
      8162.0000         0.6104       2678.172       107.2596          0.484       -99.9678      -60.68306     0.06745225
      8162.5000         0.5926       2824.605       108.7235         0.4497      -101.1206      -61.83889     0.04939234
      8163.0000         0.5749       3211.742       101.2657         0.4155      -102.7994      -63.52073     0.02311367
      8163.5000         0.5619       3318.832        98.3073         0.3852       -95.6451      -56.36946      0.1348522
      8164.0000         0.5498       3675.949        97.5485         0.3998       -94.4252      -55.15259      0.1538658
      8164.5000         0.5372       3731.152        98.4095         0.4144        -90.434      -51.16442      0.2161809
      8165.0000         0.5262       3307.453        96.8435          0.429       -83.4094      -44.14285      0.3258929
      8165.5000         0.5648        3218.91        95.5466         0.4435       -79.1384      -39.87488        0.39258
      8166.0000         0.5965       3173.164        98.9927         0.4562       -74.8673      -35.60682      0.4592685
      8166.5000         0.6114       3137.766       102.9795         0.4683       -70.5962      -31.33875       0.525957
      8167.0000         0.6211       3092.598       104.9587         0.4803       -69.3784      -30.12399      0.5449377
      8167.5000         0.6199        2567.59       107.0666         0.4923       -76.4253      -37.17392      0.4347826
      8168.0000         0.6186        2546.82        107.465         0.5044       -81.8469      -42.59855      0.3500227
      8168.5000         0.6291       2526.027       106.7391         0.5164       -77.7908      -38.54548      0.4133518
      8169.0000         0.6552       2511.379       105.3923         0.5204         -71.42      -32.17771      0.5128483
      8169.5000         0.6656       2531.184       103.6504         0.5191        -77.249      -38.00975      0.4217227
      8170.0000         0.6575       2624.762        100.834         0.5177       -79.8491      -40.61288      0.3810488
      8170.5000         0.6493       2545.543         98.092         0.5163       -76.4432      -37.21001      0.4342186
      8171.0000         0.6412       2498.227        97.9279          0.515         -70.95      -31.71984      0.5200025
      8171.5000          0.633       2492.871        97.5387         0.5136       -69.1725      -29.94538      0.5477285
      8172.0000         0.6249       2501.969        98.8649         0.5122       -67.9257      -28.70161      0.5671624
      8172.5000          0.615       2511.063        99.4229         0.5109       -67.3246      -28.10354      0.5765072
      8173.0000         0.6319        2520.16        101.657         0.5095       -68.3979      -29.17988      0.5596894
      8173.5000         0.6431       2529.254        103.472         0.5103       -68.5525      -29.33751      0.5572265
      8174.0000         0.6375       2510.367       106.1948         0.5166       -67.4958      -28.28384      0.5736901
      8174.5000         0.6359       2490.809       106.5457         0.5228       -69.1815      -29.97258      0.5473035
      8175.0000         0.6469       2474.926       106.6277          0.529       -70.8671      -31.66121      0.5209186
      8175.5000         0.6788        2441.32       106.8916         0.5353       -70.1127      -30.90984      0.5326588
      8176.0000         0.6967        2378.77       107.6392         0.5415       -68.8323      -29.63247      0.5526177
      8176.5000         0.6854       2316.309       108.7057         0.5556       -77.5894       -38.3926      0.4157405
      8177.0000         0.6741       2253.844       107.4811         0.5724       -80.4368      -41.24303      0.3712026
      8177.5000         0.6628       2191.293        106.811         0.5892       -76.1567      -36.96597      0.4380318
      8178.0000         0.6987       2128.832       108.5806          0.606       -69.0471      -29.85939       0.549072
      8178.5000         0.7341       2028.375       108.4568         0.6228       -61.2841      -22.09943      0.6703214
      8179.0000         0.7331        1764.49       107.3228         0.6396       -57.8412      -18.65956      0.7240693
      8179.5000         0.7422       1641.986       106.1392         0.6557       -55.7068      -16.52819       0.757372
      8180.0000         0.7581       1594.266       106.4802         0.6358        -54.798      -15.62243      0.7715245
      8180.5000         0.8063       1877.406       107.3737          0.616       -53.8253      -14.65276      0.7866756
      8181.0000         0.8763       1966.932       106.9543         0.5859       -57.4786      -18.30909      0.7295454
