#------------------------------------------------------------------------------
# Created by    : vladimir.rabinovich
# Created on    : 09/19/2023 17:20:39
#------------------------------------------------------------------------------
~Version Information Section
VERS.           2.0     :   CWLS log ASCII Standard - VERSION 2.0
WRAP.           NO      :   One line per depth step
~Well Information Section
#MNEM       .UNIT                                         VALUE :DESCRIPTION
#------------------------------------------------------------------------------
STRT        .FT                                             523 :START DEPTH
STOP        .FT                                           11863 :STOP DEPTH
STEP        .FT                                             0.5 :STEP      
NULL        .                                           -999.25 :NULL      
COMP        .                                      SHELL OIL CO :COMPANY   
WELL        .                                OCS 00727 ST00BP00 :WELL      
FLD         .                                           WILDCAT :FIELD     
LOC         .                                                   :LOCATION  
CNTY        .                             GALVESTON LARGE BLOCK :LOCATION  
STAT        .                                             TEXAS :STATE     
CTRY        .                                     UNITED STATES :COUNTRY   
SRVC        .                                                   :SERVICE COMPANY
DATE        .                             9/13/2023 11:19:42 AM :LOG DATE  
API         .                                    42706000240000 :API NUMBER
UWI         .                                    42706000240000 :UNIQUE WELL ID
XCOORD      .                                  977080.798970248 :SURFACE X 
YCOORD      .                                   10388448.113324 :SURFACE Y 
LAT         .                                         28.610486 :LATITUDE  
LON         .                                        -95.067834 :LONGITUDE 
ELEV        .FT                                              76 :ELEVATION VALUE
ELEV_TYPE   .                                                KB :ELEVATION REFERENCE TYPE
~Curve Information Section
#MNEM       .UNIT                                      API CODE :CURVE DESCRIPTION
#------------------------------------------------------------------------------
DEPT        .FT                                                 :DEPTH     
ASN         .OHMM                                               :          
ILD         .OHMM                                               :          
LN          .OHMM                                               :          
SP          .MV                                                 :          
SP_NORM     .MV                                                 :SP Normalized
VSH_SP      .V/V                                                :Volume of Shale from SP
~A        DEPTH            ASN            ILD             LN             SP        SP_NORM         VSH_SP
# ...
      2765.0000         1.0835        -999.25         1.0269       -39.6822     -0.6578102              1
      2765.5000          1.072        -999.25          1.021       -39.7358     -0.7114105              1
      2766.0000         1.0603        -999.25          1.015       -39.7723     -0.7479095              1
      2766.5000         1.0486        -999.25          1.009       -39.8087     -0.7843094              1
      2767.0000         1.0369        -999.25         1.0031       -39.7166     -0.6922073              1
      2767.5000         1.0252        -999.25         0.9965       -39.4866     -0.4622078              1
      2768.0000         1.0135        -999.25         0.9897       -39.2566     -0.2322083              1
      2768.5000         1.0037        -999.25          0.983       -39.0266    -0.00220871              1
      2769.0000         0.9945        -999.25         0.9783       -38.7968      0.2275925              1
      2769.5000          0.996        -999.25         0.9745       -38.6672       0.357193              1
      2770.0000         1.0051        -999.25         0.9708       -39.0742     -0.0498085              1
      2770.5000         1.0142        -999.25         0.9671       -39.4813     -0.4569092              1
      2771.0000         1.0085        -999.25         0.9634       -39.8885      -0.864109              1
      2771.5000         0.9878        -999.25         0.9596       -40.2957      -1.271309      0.9906445
      2772.0000         0.9736        -999.25         0.9559       -40.7027       -1.67831        0.97661
      2772.5000         0.9634        -999.25         0.9522       -40.9749      -1.950508      0.9672239
      2773.0000         0.9592        -999.25         0.9484       -41.0665       -2.04211      0.9640651
      2773.5000         0.9554        -999.25         0.9447        -41.158       -2.13361        0.96091
      2774.0000         0.9536        -999.25          0.941       -41.2496      -2.225208      0.9577515
      2774.5000         0.9519        -999.25         0.9373       -41.3411      -2.316708      0.9545963
      2775.0000         0.9501        -999.25         0.9335       -41.4327       -2.40831      0.9514376
      2775.5000         0.9483        -999.25         0.9323       -41.5242      -2.499809      0.9482824
      2776.0000         0.9479        -999.25         0.9312       -41.5372       -2.51281      0.9478341
      2776.5000         0.9499        -999.25           0.93       -41.4266       -2.40221      0.9516479
      2777.0000         0.9518        -999.25         0.9289       -41.3161       -2.29171      0.9554583
      2777.5000         0.9526        -999.25         0.9278       -41.2056       -2.18121      0.9592686
      2778.0000         0.9458        -999.25         0.9266        -41.095       -2.07061      0.9630824
      2778.5000         0.9426        -999.25         0.9251       -40.9844      -1.960011      0.9668962
      2779.0000         0.9461        -999.25         0.9194       -40.8739       -1.84951      0.9707065
      2779.5000         0.9525        -999.25         0.9137       -40.8528      -1.828407      0.9714342
      2780.0000         0.9591        -999.25         0.9081       -40.9308       -1.90641      0.9687445
      2780.5000         0.9658        -999.25         0.9024       -41.0089      -1.984509      0.9660515
      2781.0000         0.9725        -999.25         0.8968        -41.106      -2.081608      0.9627032
      2781.5000         0.9791        -999.25         0.8911       -41.2593      -2.234909       0.957417
      2782.0000         0.9858        -999.25         0.8854       -41.4125      -2.388107      0.9521343
      2782.5000          0.986        -999.25         0.8831       -41.5658      -2.541409       0.946848
      2783.0000         0.9805        -999.25         0.8848       -41.7191       -2.69471      0.9415618
      2783.5000         0.9746        -999.25         0.8865       -41.7757      -2.751308      0.9396101
      2784.0000         0.9687        -999.25         0.8882       -41.8146      -2.790211      0.9382686
      2784.5000         0.9629        -999.25         0.8899       -41.8495      -2.825108      0.9370652
      2785.0000          0.957        -999.25         0.8916        -41.702      -2.677608      0.9421514
      2785.5000         0.9511        -999.25         0.8933       -41.5547      -2.530308      0.9472308
      2786.0000         0.9466        -999.25         0.8951       -41.4072      -2.382809      0.9523169
      2786.5000          0.942        -999.25          0.895       -41.2598      -2.235409      0.9573997
      2787.0000         0.9375        -999.25         0.8936       -41.1123       -2.08791      0.9624858
      2787.5000          0.933        -999.25         0.8922       -40.9749      -1.950508      0.9672239
      2788.0000         0.9284        -999.25         0.8908       -40.9185      -1.894108      0.9691687
      2788.5000         0.9308        -999.25         0.8894       -40.8621      -1.837708      0.9711136
      2789.0000         0.9348        -999.25         0.8881       -40.5657      -1.541309      0.9813341
      2789.5000         0.9388        -999.25         0.8867       -40.1552       -1.13081      0.9954893
      2790.0000         0.9428        -999.25         0.8853       -39.7446     -0.7202072              1
      2790.5000         0.9468        -999.25         0.8835       -39.3342     -0.3098106              1
      2791.0000         0.9508        -999.25          0.881       -39.3579     -0.3335075              1
      2791.5000         0.9539        -999.25         0.8784       -39.5294     -0.5050087              1
      2792.0000         0.9545        -999.25         0.8758        -39.701      -0.676609              1
      2792.5000         0.9535        -999.25         0.8733       -39.8726     -0.8482094              1
      2793.0000         0.9475        -999.25         0.8707       -40.0441      -1.019711      0.9993203
      2793.5000         0.9416        -999.25         0.8681       -40.2156      -1.191208      0.9934067
      2794.0000         0.9356        -999.25         0.8656       -40.3369      -1.312508      0.9892239
      2794.5000         0.9296        -999.25          0.863       -40.4406       -1.41621      0.9856479
      2795.0000         0.9237        -999.25         0.8604       -40.4421      -1.417709      0.9855962
      2795.5000         0.9177        -999.25         0.8579       -40.2349       -1.21051       0.992741
      2796.0000         0.9149        -999.25         0.8553       -40.0277      -1.003307       0.999886
      2796.5000         0.9135        -999.25         0.8526       -39.8204     -0.7960091              1
      2797.0000          0.912        -999.25         0.8498       -39.6133     -0.5889091              1
      2797.5000         0.9105        -999.25          0.847        -39.406     -0.3816071              1
      2798.0000         0.9091        -999.25         0.8442       -39.1989     -0.1745071              1
      2798.5000         0.9093        -999.25         0.8414       -39.0624    -0.03800964              1
      2799.0000         0.9142        -999.25         0.8386       -38.9774     0.04698944              1
      2799.5000          0.919        -999.25         0.8358       -38.8923      0.1320915              1
      2800.0000         0.9238        -999.25          0.833       -38.8073      0.2170906              1
      2800.5000         0.9287        -999.25         0.8302       -38.7222      0.3021927              1
      2801.0000         0.9335        -999.25         0.8274       -38.5767      0.4476929              1
      2801.5000         0.9384        -999.25         0.8246       -38.2727      0.7516899              1
      2802.0000         0.9432        -999.25         0.8218       -37.9687       1.055691              1
      2802.5000         0.9449        -999.25         0.8217       -37.6859        1.33849              1
