#------------------------------------------------------------------------------
# Created by    : vladimir.rabinovich
# Created on    : 09/19/2023 17:20:32
#------------------------------------------------------------------------------
~Version Information Section
VERS.           2.0     :   CWLS log ASCII Standard - VERSION 2.0
WRAP.           NO      :   One line per depth step
~Well Information Section
#MNEM       .UNIT                                         VALUE :DESCRIPTION
#------------------------------------------------------------------------------
STRT        .FT                                             642 :START DEPTH
STOP        .FT                                           11989 :STOP DEPTH
STEP        .FT                                             0.5 :STEP      
NULL        .                                           -999.25 :NULL      
COMP        .                       CORPUS CHRISTI OIL & GAS CO :COMPANY   
WELL        .                               OCS G05177 ST00BP00 :WELL      
FLD         .                              GALVESTON BLOCK 0151 :FIELD     
LOC         .                                                   :LOCATION  
CNTY        .                             GALVESTON LARGE BLOCK :LOCATION  
STAT        .                                             TEXAS :STATE     
CTRY        .                                     UNITED STATES :COUNTRY   
SRVC        .                                                   :SERVICE COMPANY
DATE        .                             9/13/2023 11:19:27 AM :LOG DATE  
API         .                                    42706401010000 :API NUMBER
UWI         .                                    42706401010000 :UNIQUE WELL ID
XCOORD      .                                   1130272.6689428 :SURFACE X 
YCOORD      .                                  10609756.0111422 :SURFACE Y 
LAT         .                                         29.225567 :LATITUDE  
LON         .                                        -94.599775 :LONGITUDE 
ELEV        .FT                                              83 :ELEVATION VALUE
ELEV_TYPE   .                                                KB :ELEVATION REFERENCE TYPE
~Curve Information Section
#MNEM       .UNIT                                      API CODE :CURVE DESCRIPTION
#------------------------------------------------------------------------------
DEPT        .FT                                                 :DEPTH     
ASN         .OHMM                                               :          
CILD        .MMHO                                               :          
DT          .US/F                                               :          
ILD         .OHMM                                               :          
RHOB        .G/CC                                               :          
SP          .MV                                                 :          
SP_NORM     .MV                                                 :SP Normalized
VSH_SP      .V/V                                                :Volume of Shale from SP
~A        DEPTH            ASN           CILD             DT            ILD           RHOB             SP        SP_NORM         VSH_SP
# ...
      9698.5000         0.5016       2298.082       121.4476          0.441          2.354        -43.566         -1.313      0.9812428
      9699.0000         0.5026       2301.305        121.609         0.4404          2.354        -43.582      -1.327278      0.9810389
      9699.5000         0.5035        2304.52       121.4585         0.4398          2.361        -43.598       -1.34156      0.9808348
      9700.0000         0.5043       2307.738       121.0014         0.4392         2.3737       -43.6141      -1.355942      0.9806294
      9700.5000         0.5051       2318.727       120.8508         0.4386         2.3978       -43.6301      -1.370224      0.9804254
      9701.0000         0.5059       2311.461       120.7017          0.438         2.3924         -43.67      -1.408401        0.97988
      9701.5000         0.5067       2296.566       120.7086         0.4374         2.3877       -43.7139      -1.450588      0.9792773
      9702.0000         0.5075       2279.902       121.1782         0.4368         2.4092       -43.7578      -1.492767      0.9786748
      9702.5000          0.508       2271.309       121.3384         0.4362         2.4184       -43.8017       -1.53495      0.9780722
      9703.0000         0.5084       2269.504       121.1892         0.4356         2.4176       -43.8326      -1.564129      0.9776553
      9703.5000         0.5089       2287.414       120.4165          0.435         2.4245       -43.8476      -1.577412      0.9774656
      9704.0000         0.5071       2318.824       119.9446         0.4342         2.4329       -43.8626      -1.590694      0.9772758
      9704.5000         0.5032       2351.703       120.2791         0.4335          2.429       -43.8776      -1.603977      0.9770861
      9705.0000         0.4994       2374.684       121.0581         0.4327         2.4081       -43.8926       -1.61726      0.9768963
      9705.5000         0.4972       2381.227       122.4557          0.432         2.3926       -43.8621      -1.585037      0.9773566
      9706.0000         0.4958        2365.16       123.3893         0.4312         2.3879       -43.7791       -1.50032      0.9785668
      9706.5000         0.4944       2349.094       123.3949         0.4305         2.3902       -43.6964      -1.415901      0.9797729
      9707.0000         0.4975       2326.285        123.091         0.4298         2.4241       -43.6136      -1.331387      0.9809802
      9707.5000         0.5019       2301.215       122.1685          0.429         2.4372       -43.6591      -1.375164      0.9803548
      9708.0000         0.5063       2276.145       120.7819         0.4283         2.3792       -43.7819      -1.496246      0.9786251
      9708.5000         0.5102       2249.086       119.7047         0.4275         2.3537       -43.9047      -1.617329      0.9768953
      9709.0000         0.5133       2209.441       119.5555         0.4275         2.3475       -44.0275      -1.738411      0.9751655
      9709.5000         0.5094       2223.223       120.1997         0.4279         2.3505        -44.031      -1.740189      0.9751402
      9710.0000         0.5039       2267.094       121.1148         0.4283         2.3473       -44.0046      -1.712074      0.9755418
      9710.5000         0.4983       2310.965       121.4297         0.4287          2.348       -43.9781      -1.683857      0.9759449
      9711.0000         0.4932       2348.473       121.1258         0.4291         2.3549       -43.8933      -1.597336      0.9771809
      9711.5000         0.4886       2379.859       120.2033         0.4295         2.3579       -43.7869       -1.48922      0.9787254
      9712.0000          0.484       2405.699       120.0527         0.4299         2.3555       -43.6802      -1.380798      0.9802743
      9712.5000         0.4793       2422.238       120.0199         0.4303         2.3175       -43.5736      -1.272484      0.9818217
      9713.0000         0.4747       2438.703       120.9728         0.4307         2.2797       -43.4672      -1.164364      0.9833663
      9713.5000         0.4716       2454.668       121.7391         0.4311         2.2782       -43.3605      -1.055946      0.9849151
      9714.0000         0.4687       2470.613       122.5721         0.4312         2.2943       -43.2801     -0.9738274      0.9860882
      9714.5000         0.4657       2482.438       123.4573         0.4303         2.3359       -43.2076     -0.8996086      0.9871485
      9715.0000         0.4628       2486.895       123.6195         0.4294         2.3397        -43.135     -0.8252869      0.9882102
      9715.5000         0.4598       2491.348        123.627         0.4285         2.3303       -43.0624     -0.7509727      0.9892718
      9716.0000         0.4569       2500.234       123.3252         0.4276         2.3303       -42.9897     -0.6765556      0.9903349
      9716.5000         0.4547       2513.863       123.3327         0.4267         2.3256       -42.9173     -0.6024361      0.9913937
      9717.0000         0.4527       2527.516       123.1837         0.4258         2.3147       -42.8447     -0.5281181      0.9924555
      9717.5000         0.4507       2541.492       123.6571         0.4249         2.2946       -42.7713     -0.4529991      0.9935286
      9718.0000         0.4488       2556.766       124.2833          0.424         2.2744       -42.6885     -0.3684807       0.994736
      9718.5000         0.4468       2572.059       124.7555         0.4231         2.2718       -42.6058     -0.2840614       0.995942
      9719.0000         0.4459       2587.332       124.9171         0.4223         2.2836        -42.523      -0.199543      0.9971494
      9719.5000          0.445       2602.602       124.9246         0.4214         2.3012       -42.4402     -0.1150246      0.9983568
      9720.0000         0.4441       2612.352       124.9322         0.4205         2.3254       -42.3574    -0.03050613      0.9995642
      9720.5000         0.4432       2599.418       124.6303         0.4195         2.3281       -42.2908     0.03781509              1
      9721.0000         0.4447        2569.82       124.4832         0.4182         2.3149       -42.2576     0.07273102              1
      9721.5000         0.4477        2521.77       124.3203          0.417         2.3025       -42.2244      0.1076508              1
      9722.0000         0.4508       2474.543       123.5189         0.4157         2.2908       -42.1912      0.1425667              1
      9722.5000         0.4538       2457.305       123.1136         0.4144         2.2784        -42.307     0.02848434              1
      9723.0000          0.456       2440.094       122.9683         0.4131         2.2745       -42.4922      -0.154995      0.9977858
      9723.5000         0.4582       2425.215       122.6646         0.4119          2.286       -42.6777     -0.3387794      0.9951603
      9724.0000         0.4604       2422.273        122.674         0.4106         2.3129       -42.8633     -0.5226593      0.9925334
      9724.5000         0.4612        2419.34       123.1456         0.4093         2.3321       -43.0485     -0.7061424      0.9899123
      9725.0000         0.4592       2424.027       123.6172         0.4081         2.3251       -43.2341     -0.8900223      0.9872854
      9725.5000         0.4573        2436.91       123.6247         0.4068         2.3058       -43.2113     -0.8655052      0.9876356
      9726.0000         0.4553       2449.793       123.7869         0.4055         2.2849       -43.1227     -0.7751846      0.9889259
      9726.5000         0.4533       2462.703       123.6378         0.4043         2.2578       -43.0334     -0.6841698      0.9902261
      9727.0000         0.4521       2475.137       123.6473         0.4049           2.24       -42.9374     -0.5864487      0.9916221
      9727.5000         0.4508       2486.406       123.8095         0.4055         2.2456       -42.8416     -0.4889297      0.9930153
