#------------------------------------------------------------------------------
# Created by    : vladimir.rabinovich
# Created on    : 09/19/2023 17:19:20
#------------------------------------------------------------------------------
~Version Information Section
VERS.           2.0     :   CWLS log ASCII Standard - VERSION 2.0
WRAP.           NO      :   One line per depth step
~Well Information Section
#MNEM       .UNIT                                         VALUE :DESCRIPTION
#------------------------------------------------------------------------------
STRT        .FT                                            4783 :START DEPTH
STOP        .FT                                            9473 :STOP DEPTH
STEP        .FT                                             0.5 :STEP      
NULL        .                                           -999.25 :NULL      
COMP        .                                   FOREST OIL CORP :COMPANY   
WELL        .                               OCS G20658 ST00BP00 :WELL      
FLD         .                            HIGH ISLAND BLOCK 0052 :FIELD     
LOC         .                                                   :LOCATION  
CNTY        .                           HIGH ISLAND LARGE BLOCK :LOCATION  
STAT        .                                             TEXAS :STATE     
CTRY        .                                     UNITED STATES :COUNTRY   
SRVC        .                                                   :SERVICE COMPANY
DATE        .                             9/13/2023 11:19:51 AM :LOG DATE  
API         .                                    42708405710000 :API NUMBER
UWI         .                                    42708405710000 :UNIQUE WELL ID
XCOORD      .                                  1254974.65209524 :SURFACE X 
YCOORD      .                                  10682885.5467737 :SURFACE Y 
LAT         .                                         29.430813 :LATITUDE  
LON         .                                        -94.211177 :LONGITUDE 
ELEV        .FT                                             108 :ELEVATION VALUE
ELEV_TYPE   .                                                KB :ELEVATION REFERENCE TYPE
~Curve Information Section
#MNEM       .UNIT                                      API CODE :CURVE DESCRIPTION
#------------------------------------------------------------------------------
DEPT        .FT                                                 :DEPTH     
A28H_COND   .MMHO                                               :          
A28H_UNC    .OHMM                                               :          
AHT10       .OHMM                                               :          
AHT20       .OHMM                                               :          
AHT30       .OHMM                                               :          
AHT60       .OHMM                                               :          
AHT90       .OHMM                                               :          
DCAL        .IN                                                 :          
DPHZ        .V/V                                                :          
DRHO        .G/CC                                               :          
DTCO        .US/F                                               :          
DTSM        .US/F                                               :          
GR          .GAPI                                               :          
GR_ARC_FIL  .GAPI                                               :          
GR_NORM     .GAPI                                               :GammaRay Normalized
GR1         .GAPI                                               :          
GRM1        .GAPI                                               :          
NPOR        .V/V                                                :          
P28H_UNC    .OHMM                                               :          
ROP5        .F/HR                                               :          
ROP5_RM     .F/HR                                               :          
SP          .MV                                                 :          
TENS        .LB                                                 :          
VSH_GR      .V/V                                                :Volume of Shale from GR
~A        DEPTH      A28H_COND       A28H_UNC          AHT10          AHT20          AHT30          AHT60          AHT90           DCAL           DPHZ           DRHO           DTCO           DTSM             GR     GR_ARC_FIL        GR_NORM            GR1           GRM1           NPOR       P28H_UNC           ROP5        ROP5_RM             SP           TENS         VSH_GR
# ...
      8325.0000       1312.981          0.762        -999.25        -999.25        -999.25        -999.25        -999.25        -999.25        -999.25        -999.25       121.3932       303.7025        -999.25        100.052       88.07065           42.3        -999.25        -999.25          0.743        -999.25         48.008        -999.25        -999.25              1
      8325.5000        1297.34          0.771        -999.25        -999.25        -999.25        -999.25        -999.25        -999.25        -999.25        -999.25          119.4       296.5272        -999.25        100.771       84.64674           40.9        -999.25        -999.25          0.747        -999.25         45.807        -999.25        -999.25              1
      8326.0000       1311.776          0.762        -999.25        -999.25        -999.25        -999.25        -999.25        -999.25        -999.25        -999.25          116.8       289.5866        -999.25        103.357        87.0924           41.9        -999.25        -999.25           0.75        -999.25         43.802        -999.25        -999.25              1
      8326.5000       1286.407          0.777        -999.25        -999.25        -999.25        -999.25        -999.25        -999.25        -999.25        -999.25          114.4       283.4381        -999.25        100.095       80.48913           39.2        -999.25        -999.25          0.762        -999.25         40.007        -999.25        -999.25              1
      8327.0000       1314.926          0.761        -999.25        -999.25        -999.25        -999.25        -999.25        -999.25        -999.25        -999.25          112.4       279.0625        -999.25         95.242       73.88587           36.5        -999.25        -999.25          0.775        -999.25          38.06        -999.25        -999.25      0.8699121
      8327.5000       1294.104          0.773        -999.25        -999.25        -999.25        -999.25        -999.25        -999.25        -999.25        -999.25          110.6       275.6525        -999.25         92.585       67.28261           33.8        -999.25        -999.25          0.773        -999.25         33.278        -999.25        -999.25      0.7294172
      8328.0000       1350.027          0.741        -999.25        -999.25        -999.25        -999.25        -999.25        -999.25        -999.25        -999.25          109.4       273.2425        -999.25         95.455       67.52718           33.9        -999.25        -999.25          0.736        -999.25         31.583        -999.25        -999.25      0.7346207
      8328.5000       1349.928          0.741        -999.25        -999.25        -999.25        -999.25        -999.25        -999.25        -999.25        -999.25            109       272.6325        -999.25         99.867       75.59783           37.2        -999.25        -999.25          0.717        -999.25         33.339        -999.25        -999.25      0.9063368
      8329.0000       1344.013          0.744        -999.25        -999.25        -999.25        -999.25        -999.25        -999.25        -999.25        -999.25          109.2       273.6225        -999.25         99.535       80.48913           39.2        -999.25        -999.25          0.723        -999.25          33.65        -999.25        -999.25              1
      8329.5000       1340.405          0.746        -999.25        -999.25        -999.25        -999.25        -999.25        -999.25        -999.25        -999.25          109.6       275.0125        -999.25         97.122       79.26631           38.7        -999.25        -999.25          0.755        -999.25         36.668        -999.25        -999.25      0.9843896
      8330.0000       1351.766           0.74         0.5723         0.6202         0.6551         0.6616          0.643        -0.3659        -999.25        -999.25          110.2       276.4025         38.839          96.31       79.75544           38.9        -999.25         0.4374           0.77        -999.25         38.227         1.8823        -999.25      0.9947966
      8330.5000       1343.597          0.744         0.5723         0.6202         0.6551         0.6616          0.643        -0.3736        -999.25        -999.25          111.2            278        39.8299         99.558       81.22283           39.5        -999.25         0.4452          0.739        -999.25          40.37         5.9973        -999.25              1
      8331.0000       1366.346          0.732         0.5723         0.6202         0.6551         0.6616          0.643        -0.3736        -999.25        -999.25          112.2        280.198        41.0003        101.183       81.95652           39.8        -999.25         0.4578          0.735        -999.25         42.268         9.3623        -999.25              1
      8331.5000       1349.707          0.741         0.5723         0.6202         0.6551         0.6616          0.643        -0.3736        -999.25        -999.25          113.2       283.1683        41.5789         100.56       80.48913           39.2        -999.25         0.4825          0.728        -999.25         43.809        11.4148        -999.25              1
      8332.0000       1340.124          0.746         0.5723         0.6202         0.6551         0.6616          0.643        -0.3736        -999.25        -999.25          114.6       286.9307        41.1395         97.393       81.22283           39.5        -999.25         0.4825           0.71        -999.25         42.465        12.2381        -999.25              1
      8332.5000       1323.492          0.756         0.5723         0.6202         0.6551         0.6616          0.643        -0.3736        -999.25        -999.25          116.6        290.495        39.9043         98.394       82.44565             40        -999.25         0.4856          0.708        -999.25         47.761        12.6448        -999.25              1
      8333.0000        1319.33          0.758         0.5723         0.6202         0.6551         0.6616          0.643        -0.3697        -999.25        -999.25          118.8       294.0594        39.0447         97.312       83.66848           40.5        -999.25         0.4887            0.7        -999.25         48.534        11.5306        -999.25              1
      8333.5000         1257.3          0.795         0.5723         0.6202         0.6551         0.6616          0.643        -0.3697        -999.25        -999.25       120.5941       297.6238        40.1643         96.148       82.44565             40        -999.25         0.4919          0.774        -999.25         47.759         8.3331        -999.25              1
      8334.0000       1216.395          0.822         0.5723         0.6202         0.6551         0.6616          0.643        -0.3736        -999.25        -999.25       122.9703          300.6        42.0384         92.169       80.24456           39.1        -999.25          0.495          0.882        -999.25         44.567         4.3856        -999.25              1
      8334.5000       1236.712          0.809         0.5723         0.6202         0.6551         0.6616          0.643        -0.3774        -999.25        -999.25       125.1485          303.8        43.0148          89.11       89.04892           42.7        -999.25          0.537          0.937        -999.25         44.345         2.8964        -999.25              1
      8335.0000       1272.627          0.786         0.5723         0.6202         0.6551         0.6616          0.643        -0.3697        -999.25        -999.25       126.3366          306.6        42.6069         88.027        97.6087           46.2        -999.25          0.552          0.849        -999.25          45.58         4.0114        -999.25              1
      8335.5000       1380.517          0.724         0.5723         0.6202         0.6551         0.6616          0.643        -0.3659        -999.25        -999.25       127.1287          308.6        41.7878         92.981       102.0109             48        -999.25         0.5532          0.715        -999.25         44.565         5.5222        -999.25              1
