#------------------------------------------------------------------------------
# Created by    : vladimir.rabinovich
# Created on    : 09/19/2023 17:19:40
#------------------------------------------------------------------------------
~Version Information Section
VERS.           2.0     :   CWLS log ASCII Standard - VERSION 2.0
WRAP.           NO      :   One line per depth step
~Well Information Section
#MNEM       .UNIT                                         VALUE :DESCRIPTION
#------------------------------------------------------------------------------
STRT        .FT                                            4790 :START DEPTH
STOP        .FT                                           12963 :STOP DEPTH
STEP        .FT                                             0.5 :STEP      
NULL        .                                           -999.25 :NULL      
COMP        .                         ATLANTIC RICHFIELD CO THE :COMPANY   
WELL        .                               OCS G06150 ST00BP00 :WELL      
FLD         .                                           WILDCAT :FIELD     
LOC         .                                                   :LOCATION  
CNTY        .                           HIGH ISLAND LARGE BLOCK :LOCATION  
STAT        .                                             TEXAS :STATE     
CTRY        .                                     UNITED STATES :COUNTRY   
SRVC        .                                                   :SERVICE COMPANY
DATE        .                             9/13/2023 11:19:59 AM :LOG DATE  
API         .                                    42708402440000 :API NUMBER
UWI         .                                    42708402440000 :UNIQUE WELL ID
XCOORD      .                                  1291497.32246636 :SURFACE X 
YCOORD      .                                   10652058.279547 :SURFACE Y 
LAT         .                                         29.347015 :LATITUDE  
LON         .                                        -94.095521 :LONGITUDE 
ELEV        .FT                                             105 :ELEVATION VALUE
ELEV_TYPE   .                                                KB :ELEVATION REFERENCE TYPE
~Curve Information Section
#MNEM       .UNIT                                      API CODE :CURVE DESCRIPTION
#------------------------------------------------------------------------------
DEPT        .FT                                                 :DEPTH     
ALL         .OHMM                                               :          
CILD        .MMHO                                               :          
GR          .GAPI                                               :          
GR_NORM     .GAPI                                               :GammaRay Normalized
ILD         .OHMM                                               :          
SP          .MV                                                 :          
SP_NORM     .MV                                                 :SP Normalized
VSH_GR      .V/V                                                :Volume of Shale from GR
VSH_SP      .V/V                                                :Volume of Shale from SP
~A        DEPTH            ALL           CILD             GR        GR_NORM            ILD             SP        SP_NORM         VSH_GR         VSH_SP
# ...
     10249.0000         0.5947       1657.215        60.4473       75.20199         0.5754       -34.6122       -2.67943      0.9591361       0.958778
     10249.5000         0.6068       1650.896        59.9804       74.61836         0.5885       -34.4609      -2.528128      0.9458719      0.9611057
     10250.0000         0.6189       1619.904        60.3129       75.03399         0.6034       -34.3157      -2.382929      0.9553179      0.9633396
     10250.5000          0.631       1567.799        60.9901       75.88049         0.6183       -34.2551      -2.322329      0.9745567      0.9642718
     10251.0000         0.6634       1515.789         61.424       76.42287         0.6332       -34.1947      -2.261927      0.9868833      0.9652011
     10251.5000         0.6952         1471.1        60.9192       75.79185         0.6485       -34.1343      -2.201529      0.9725422      0.9661303
     10252.0000         0.7159       1429.922        60.4143       75.16074         0.6659       -34.1618      -2.229029      0.9581985      0.9657072
     10252.5000         0.7366       1388.646        59.9095       74.52973         0.6834       -34.2253      -2.292528      0.9438576      0.9647303
     10253.0000         0.7609       1359.473         59.412       73.90785         0.7008       -34.2888      -2.356028      0.9297239      0.9637534
     10253.5000         0.7473       1333.078        60.0648       74.72385         0.7183       -34.3523      -2.419527      0.9482694      0.9627765
     10254.0000         0.7264       1306.684        61.6758       76.73761         0.7357       -34.4157      -2.482927      0.9940366      0.9618011
     10254.5000         0.7054       1280.289        63.0547       78.46123         0.7531       -34.4793       -2.54653              1      0.9608226
     10255.0000         0.6953       1268.652         64.431       80.18161         0.7603       -34.5319      -2.599127              1      0.9600134
     10255.5000         0.6859       1262.615        65.2549       81.21148         0.7614        -34.525       -2.59223              1      0.9601195
     10256.0000         0.6765       1256.564         65.783        81.8716         0.7626       -34.5181      -2.585329              1      0.9602257
     10256.5000         0.6671       1254.162        65.6876       81.75236         0.7638       -34.5113      -2.578527              1      0.9603304
     10257.0000         0.6664       1258.363        65.2244       81.17336         0.7649       -34.5044      -2.571627              1      0.9604365
     10257.5000         0.6669       1262.566        64.7495       80.57973         0.7661       -34.4976      -2.564829              1      0.9605411
     10258.0000         0.6674       1266.768        64.2751       79.98673         0.7673       -34.4907      -2.557928              1      0.9606473
     10258.5000         0.6679       1270.963         63.801       79.39411         0.7637       -34.4839      -2.551126              1      0.9607519
     10259.0000          0.668       1279.801        63.3267       78.80123         0.7544        -34.477       -2.54423              1       0.960858
     10259.5000         0.6648       1292.438        62.8524       78.20836         0.7452       -34.4108      -2.478029              1      0.9618765
     10260.0000         0.6616       1301.186        62.3616       77.59485         0.7359       -34.3331      -2.400328              1      0.9630719
     10260.5000         0.6583       1302.031        61.8494       76.95461         0.7267       -34.2554       -2.32263      0.9989685      0.9642673
     10261.0000         0.6486       1321.514        61.3384       76.31586         0.7174       -34.1777      -2.244928      0.9844513      0.9654626
     10261.5000         0.6317       1357.131        61.2431       76.19673         0.7082       -34.0782       -2.14543      0.9817439      0.9669934
     10262.0000          0.607       1392.746        61.8103       76.90573         0.6989       -33.9691      -2.036329      0.9978575      0.9686719
     10262.5000         0.5807       1430.654        62.3775       77.61473         0.6897       -33.8721      -1.939329              1      0.9701642
     10263.0000         0.5743       1469.832        62.9434       78.32211         0.6761       -33.8525      -1.919729              1      0.9704657
     10263.5000         0.5678        1504.08        63.5106       79.03111         0.6601       -33.8329      -1.900129              1      0.9707673
     10264.0000          0.562       1534.672        63.2277       78.67748         0.6441       -33.8133      -1.880529              1      0.9710688
     10264.5000         0.5612       1565.262        62.9019       78.27023         0.6281       -33.7937      -1.860929              1      0.9713703
     10265.0000         0.5604       1595.852        62.5761       77.86299         0.6122       -33.7741       -1.84133              1      0.9716719
     10265.5000         0.5596       1626.441        62.2504       77.45586         0.5962       -33.7545       -1.82173              1      0.9719734
     10266.0000         0.5588       1656.984        61.9246       77.04861         0.5802        -33.699       -1.76623              1      0.9728273
     10266.5000         0.5581       1687.574        61.5994       76.64211         0.5685       -33.5909      -1.658129      0.9918662      0.9744903
     10267.0000         0.5573       1718.164        61.2737       76.23499         0.5575       -33.4829      -1.550127      0.9826133      0.9761519
     10267.5000         0.5605       1696.893        60.9088       75.77885         0.5466       -33.4615      -1.528727      0.9722467      0.9764811
     10268.0000         0.5721       1674.205        60.5402       75.31811         0.5517       -33.5454      -1.612627      0.9617752      0.9751903
     10268.5000         0.5837       1641.029        60.8214       75.66962         0.5663       -33.6295       -1.69673       0.969764      0.9738964
     10269.0000         0.5953       1601.805        61.3861       76.37549          0.581       -33.6444       -1.71163      0.9858065      0.9736672
     10269.5000         0.6069       1562.529         60.704       75.52286         0.5957       -33.4745      -1.541727      0.9664286      0.9762811
     10270.0000         0.6185       1523.303        59.9694       74.60461         0.6103       -33.3046      -1.371828      0.9455593      0.9788949
     10270.5000         0.6304       1484.078        59.2347       73.68623          0.625       -33.1347      -1.201929      0.9246871      0.9815088
     10271.0000         0.6423       1445.584        58.5661       72.85049         0.6396       -33.0847       -1.15193      0.9056929       0.982278
     10271.5000         0.6542       1418.457         57.906       72.02536         0.6543       -33.1366      -1.203829        0.88694      0.9814796
     10272.0000          0.666        1391.33        57.7251       71.79924          0.669       -33.1885      -1.255728      0.8818009      0.9806811
     10272.5000         0.6724       1364.205        59.2066       73.65111         0.6793       -33.2405       -1.30773      0.9238888      0.9798811
     10273.0000         0.6785       1337.078        60.7884       75.62836         0.6853       -33.2924      -1.359629      0.9688263      0.9790826
     10273.5000         0.6772           1313        59.3998       73.89261         0.6913       -33.3443      -1.411528      0.9293775      0.9782842
     10274.0000         0.6741       1293.754        58.0087       72.15374         0.6974       -33.3962      -1.463427      0.8898577      0.9774857
     10274.5000          0.671       1274.506        56.1238       69.79761         0.7034       -33.4482      -1.515429      0.8363093      0.9766857
     10275.0000         0.6678       1257.041        55.5077       69.02748         0.7095       -33.5002      -1.567427      0.8188064      0.9758857
