#------------------------------------------------------------------------------
# Created by    : vladimir.rabinovich
# Created on    : 09/19/2023 17:20:40
#------------------------------------------------------------------------------
~Version Information Section
VERS.           2.0     :   CWLS log ASCII Standard - VERSION 2.0
WRAP.           NO      :   One line per depth step
~Well Information Section
#MNEM       .UNIT                                         VALUE :DESCRIPTION
#------------------------------------------------------------------------------
STRT        .FT                                             546 :START DEPTH
STOP        .FT                                            8737 :STOP DEPTH
STEP        .FT                                             0.5 :STEP      
NULL        .                                           -999.25 :NULL      
COMP        .                                      SHELL OIL CO :COMPANY   
WELL        .                                OCS 00702 ST00BP00 :WELL      
FLD         .                                           WILDCAT :FIELD     
LOC         .                                                   :LOCATION  
CNTY        .                             GALVESTON LARGE BLOCK :LOCATION  
STAT        .                                             TEXAS :STATE     
CTRY        .                                     UNITED STATES :COUNTRY   
SRVC        .                                                   :SERVICE COMPANY
DATE        .                             9/13/2023 11:19:42 AM :LOG DATE  
API         .                                    42706000140000 :API NUMBER
UWI         .                                    42706000140000 :UNIQUE WELL ID
XCOORD      .                                  1138683.88536091 :SURFACE X 
YCOORD      .                                  10533063.1188688 :SURFACE Y 
LAT         .                                         29.014964 :LATITUDE  
LON         .                                        -94.570199 :LONGITUDE 
ELEV        .FT                                              72 :ELEVATION VALUE
ELEV_TYPE   .                                                KB :ELEVATION REFERENCE TYPE
~Curve Information Section
#MNEM       .UNIT                                      API CODE :CURVE DESCRIPTION
#------------------------------------------------------------------------------
DEPT        .FT                                                 :DEPTH     
ASN         .OHMM                                               :          
CILD        .MMHO                                               :          
ILD         .OHMM                                               :          
SP          .MV                                                 :          
SP_NORM     .MV                                                 :SP Normalized
VSH_SP      .V/V                                                :Volume of Shale from SP
~A        DEPTH            ASN           CILD            ILD             SP        SP_NORM         VSH_SP
# ...
      3282.0000         0.6063       1374.992         0.7895       -41.7398      -1.282925              1
      3282.5000           0.61        1387.93         0.7907       -41.8541      -1.394054              1
      3283.0000         0.6138       1400.869         0.7916       -41.8666      -1.403385              1
      3283.5000         0.6175       1413.807         0.7915       -41.8749      -1.408516              1
      3284.0000         0.6155       1419.158         0.7914       -41.8834      -1.413849              1
      3284.5000         0.6095        1423.42         0.7914       -41.8917       -1.41898              1
      3285.0000         0.6035       1427.686         0.7913        -41.917      -1.441109              1
      3285.5000         0.5975       1431.949         0.7912       -42.0013       -1.52224              1
      3286.0000         0.5938       1436.213         0.7912       -42.0856      -1.603371              1
      3286.5000          0.593       1440.475         0.7895       -42.1699      -1.684498              1
      3287.0000         0.5923       1445.514         0.7868       -42.2543      -1.765732              1
      3287.5000         0.5915       1451.244          0.784       -42.3386      -1.846863              1
      3288.0000         0.5941       1456.979         0.7813       -42.4216      -1.926693              1
      3288.5000         0.6005       1462.709         0.7786       -42.5042      -2.006123              1
      3289.0000         0.6068       1471.309         0.7765       -42.5868      -2.085552              1
      3289.5000         0.6131        1482.27         0.7764       -42.6694      -2.164986              1
      3290.0000         0.6195       1486.445         0.7774       -42.7263      -2.218716              1
      3290.5000         0.6287       1466.145         0.7888       -42.7336      -2.222847              1
      3291.0000         0.6389       1456.521         0.8001       -42.7409      -2.226974              1
      3291.5000         0.6491       1446.904         0.8114       -42.7482      -2.231106              1
      3292.0000         0.6593       1437.287         0.8257       -42.7555      -2.235237              1
      3292.5000         0.6664       1427.666         0.8453       -42.7628      -2.239368              1
      3293.0000         0.6534       1418.049         0.8603       -42.7803        -2.2537              1
      3293.5000         0.6406       1412.803         0.8548       -42.8001      -2.270329              1
      3294.0000         0.6278       1411.475         0.8448       -42.8199      -2.286961              1
      3294.5000          0.615       1410.146         0.8179        -42.848       -2.31189              1
      3295.0000         0.6029       1408.818          0.791       -43.0036      -2.464325              1
      3295.5000         0.6001        1407.49          0.764       -43.1592      -2.616753              1
      3296.0000         0.5974       1406.162          0.744       -43.3149      -2.769283              1
      3296.5000         0.5947       1404.832         0.7457       -43.4706      -2.921814              1
      3297.0000         0.5933       1401.449         0.7474       -43.6262      -3.074245      0.9976798
      3297.5000         0.5919       1396.854         0.7492       -43.7748      -3.219673      0.9931352
      3298.0000         0.5906       1392.256         0.7517       -43.9091      -3.350807      0.9890373
      3298.5000         0.5901       1387.662         0.7564       -44.0433      -3.481838      0.9849426
      3299.0000         0.5948        1385.09          0.761       -44.1776      -3.612968      0.9808447
      3299.5000         0.5995       1387.043         0.7656       -44.3118      -3.743996      0.9767501
      3300.0000         0.6041       1388.998         0.7702        -44.446      -3.875027      0.9726554
      3300.5000         0.6086       1390.953         0.7748       -44.5803      -4.006161      0.9685575
      3301.0000         0.6086       1392.906         0.7795       -44.6621      -4.084793      0.9661002
      3301.5000         0.6086        1396.01         0.7841       -44.7407      -4.160221      0.9637431
      3302.0000         0.6062       1399.947         0.7871       -44.8193      -4.235653      0.9613858
      3302.5000         0.6033       1403.887         0.7894       -44.8978      -4.310982      0.9590318
      3303.0000         0.6005       1407.822         0.7916       -44.9764      -4.386414      0.9566746
      3303.5000         0.5977       1400.086         0.7939       -44.9555      -4.362347      0.9574267
      3304.0000         0.5948       1389.285         0.7962       -44.9303      -4.333977      0.9583132
      3304.5000         0.5924       1378.621         0.7984        -44.905      -4.305504       0.959203
      3305.0000         0.5945       1372.914         0.8007       -44.8798      -4.277134      0.9600896
      3305.5000         0.5965       1367.203          0.803       -44.8545      -4.248665      0.9609792
      3306.0000         0.5986       1361.492         0.8052       -44.8134      -4.204399      0.9623625
      3306.5000         0.6007       1355.781         0.8069       -44.7457       -4.13353      0.9645772
      3307.0000         0.6027       1353.732         0.8072       -44.6781      -4.062759      0.9667888
      3307.5000         0.6046       1353.498         0.8076       -44.6104       -3.99189      0.9690034
      3308.0000         0.6065       1353.264         0.8079       -44.5428       -3.92112       0.971215
      3308.5000         0.6083       1353.029         0.8083       -44.4752      -3.850353      0.9734265
      3309.0000         0.6102       1352.795         0.8086       -44.4075      -3.779484      0.9756411
      3309.5000         0.6092       1352.561          0.809       -44.3398      -3.708614      0.9778558
      3310.0000         0.6072       1353.391         0.8093       -44.2722      -3.637844      0.9800674
      3310.5000         0.6051       1355.256         0.8097       -44.3254      -3.687874      0.9785039
      3311.0000         0.6031       1357.123           0.81       -44.3793      -3.738602      0.9769187
      3311.5000         0.6022        1358.99          0.811       -44.5165      -3.872635      0.9727302
      3312.0000         0.6076       1358.527         0.8122       -44.6537      -4.006668      0.9685416
      3312.5000          0.613       1353.248         0.8133        -44.791      -4.140797      0.9643501
      3313.0000         0.6167       1347.969         0.8145       -44.9283      -4.274925      0.9601586
      3313.5000         0.6176       1342.689         0.8156       -45.0656      -4.409058      0.9559669
      3314.0000         0.6186       1327.563         0.8168       -45.1824       -4.52269      0.9524159
      3314.5000         0.6192       1312.004         0.8179       -45.2947      -4.631821      0.9490056
      3315.0000         0.6192       1296.434          0.819        -45.407      -4.740952      0.9455953
      3315.5000         0.6192       1261.385         0.8202       -45.5194      -4.850182      0.9421818
      3316.0000         0.6192       1215.477         0.8184       -45.6318      -4.959412      0.9387684
      3316.5000         0.6267       1172.977         0.8148       -45.6295      -4.953945      0.9389392
      3317.0000          0.636       1157.252         0.8112       -45.4813      -4.802574      0.9436696
      3317.5000         0.6453       1141.525          0.819       -45.3326      -4.650703      0.9484155
      3318.0000         0.6609       1125.367         0.8333       -45.1725      -4.487434      0.9535177
      3318.5000         0.6778        1108.82         0.8476       -45.0126      -4.324364      0.9586136
      3319.0000         0.6947       1093.373         0.8697       -44.8526      -4.161194      0.9637127
      3319.5000         0.7129       1083.301         0.8959       -44.6926      -3.998028      0.9688116
