#------------------------------------------------------------------------------
# Created by    : vladimir.rabinovich
# Created on    : 09/19/2023 17:19:48
#------------------------------------------------------------------------------
~Version Information Section
VERS.           2.0     :   CWLS log ASCII Standard - VERSION 2.0
WRAP.           NO      :   One line per depth step
~Well Information Section
#MNEM       .UNIT                                         VALUE :DESCRIPTION
#------------------------------------------------------------------------------
STRT        .FT                                             130 :START DEPTH
STOP        .FT                                            9502 :STOP DEPTH
STEP        .FT                                             0.5 :STEP      
NULL        .                                           -999.25 :NULL      
COMP        .            MOBIL PRODUCING TEXAS & NEW MEXICO INC :COMPANY   
WELL        .                               OCS G07243 ST00BP00 :WELL      
FLD         .                                           WILDCAT :FIELD     
LOC         .                                                   :LOCATION  
CNTY        .                             GALVESTON LARGE BLOCK :LOCATION  
STAT        .                                             TEXAS :STATE     
CTRY        .                                     UNITED STATES :COUNTRY   
SRVC        .                                                   :SERVICE COMPANY
DATE        .                             9/13/2023 11:19:36 AM :LOG DATE  
API         .                                    42706401330000 :API NUMBER
UWI         .                                    42706401330000 :UNIQUE WELL ID
XCOORD      .                                  993943.906145108 :SURFACE X 
YCOORD      .                                  10496155.9223708 :SURFACE Y 
LAT         .                                         28.907432 :LATITUDE  
LON         .                                        -95.020991 :LONGITUDE 
ELEV        .FT                                              92 :ELEVATION VALUE
ELEV_TYPE   .                                                KB :ELEVATION REFERENCE TYPE
~Curve Information Section
#MNEM       .UNIT                                      API CODE :CURVE DESCRIPTION
#------------------------------------------------------------------------------
DEPT        .FT                                                 :DEPTH     
ASFL        .OHMM                                               :          
CILD        .MMHO                                               :          
DT          .US/F                                               :          
GR          .GAPI                                               :          
GR_NORM     .GAPI                                               :GammaRay Normalized
ILD         .OHMM                                               :          
SP          .MV                                                 :          
SP_NORM     .GAPI                                               :SP Normalized
VSH_GR      .V/V                                                :Volume of Shale from GR
VSH_SP      .V/V                                                :Volume of Shale from SP
~A        DEPTH           ASFL           CILD             DT             GR        GR_NORM            ILD             SP        SP_NORM         VSH_GR         VSH_SP
# ...
      3878.5000         0.3665       2703.441        -999.25        26.1607       50.04919         0.3526        -999.25        -999.25      0.3627487        -999.25
      3879.0000         0.3768       2372.859        -999.25        25.7966       49.12812         0.3872        -999.25        -999.25      0.3431516        -999.25
      3879.5000         0.3996        2165.16        -999.25        25.5294       48.45216         0.4377        -999.25        -999.25      0.3287694        -999.25
      3880.0000         0.4256       1888.199        -999.25        25.4027       48.13164         0.4902        -999.25        -999.25      0.3219498        -999.25
      3880.5000         0.5676        1294.92        -999.25        26.5763       51.10059         0.5877        -999.25        -999.25      0.3851189        -999.25
      3881.0000         0.8231        1150.24        -999.25        29.0067       57.24894         0.7149        -999.25        -999.25      0.5159349        -999.25
      3881.5000         0.9236       1050.279        -999.25        30.3407        60.6237         0.9103        -999.25        -999.25      0.5877383        -999.25
      3882.0000           1.07       1088.551        -999.25        31.0062       62.30729         1.0495        -999.25        -999.25      0.6235592        -999.25
      3882.5000         1.1742       1167.359        -999.25        31.2752       62.98774         1.1474        -999.25        -999.25       0.638037        -999.25
      3883.0000         1.0677       1221.965        -999.25         31.534       63.64243         1.0288        -999.25        -999.25      0.6519667        -999.25
      3883.5000         1.0227       1276.619        -999.25        31.7534        64.1975         0.9216        -999.25        -999.25      0.6637766        -999.25
      3884.0000         0.9725       1317.525        -999.25        32.0113       64.84993          0.856        -999.25        -999.25      0.6776581        -999.25
      3884.5000         0.9198       1355.158        -999.25        32.2722       65.50995         0.8389        -999.25        -999.25      0.6917011        -999.25
      3885.0000         0.8801       1395.719        -999.25        32.7307       66.66983         0.8096        -999.25        -999.25      0.7163793        -999.25
      3885.5000         0.8563       1440.338        -999.25        32.3255       65.64478         0.7774        -999.25        -999.25      0.6945698        -999.25
      3886.0000         0.8349       1489.139        -999.25          31.92       64.61893         0.7641        -999.25        -999.25      0.6727433        -999.25
      3886.5000          0.816       1617.141        -999.25        31.5146       63.59338         0.7277        -999.25        -999.25      0.6509231        -999.25
      3887.0000         0.7984       1753.311        -999.25        31.1094       62.56829         0.6497        -999.25        -999.25      0.6291127        -999.25
      3887.5000         0.7676       1896.563        -999.25        30.5918       61.25893         0.5658        -999.25        -999.25      0.6012538        -999.25
      3888.0000         0.7227       2042.865        -999.25        29.8844       59.46933         0.4782        -999.25        -999.25      0.5631772        -999.25
      3888.5000           0.67       2252.629        -999.25        29.5279       58.56749         0.4179        -999.25        -999.25      0.5439891        -999.25
      3889.0000          0.585       2749.289        -999.25         29.405       58.25655         0.3897        -999.25        -999.25      0.5373735        -999.25
      3889.5000         0.4184       2852.008        -999.25        29.2822        57.9459         0.3714        -999.25        -999.25      0.5307637        -999.25
      3890.0000         0.3939       2925.602        -999.25        29.1568       57.62868         0.3531        -999.25        -999.25      0.5240146        -999.25
      3890.5000         0.3715       2982.125        -999.25        29.0278       57.30234         0.3332        -999.25        -999.25      0.5170711        -999.25
      3891.0000         0.3594       3028.219        -999.25        28.8629       56.88517         0.3132        -999.25        -999.25      0.5081951        -999.25
      3891.5000         0.3472       3074.316        -999.25        28.6657       56.38632         0.2983        -999.25        -999.25      0.4975813        -999.25
      3892.0000         0.3351       3104.531        -999.25        28.3443       55.57324         0.2844        -999.25        -999.25      0.4802817        -999.25
      3892.5000         0.3253       3128.355        -999.25        27.7589       54.09229         0.2723        -999.25        -999.25      0.4487722        -999.25
      3893.0000         0.3183       3152.176        -999.25        27.5849       53.65212          0.265        -999.25        -999.25      0.4394069        -999.25
      3893.5000         0.3114       3171.473        -999.25        27.8754         54.387         0.2577        -999.25        -999.25      0.4550427        -999.25
      3894.0000         0.3044       3175.918        -999.25        28.1472       55.07465         0.2557        -999.25        -999.25      0.4696733        -999.25
      3894.5000         0.2979       3163.941        -999.25        28.3163        55.5024         0.2586        -999.25        -999.25      0.4787745        -999.25
      3895.0000         0.2957       3070.035        -999.25        28.4853       55.92994         0.2636        -999.25        -999.25       0.487871        -999.25
      3895.5000         0.3068       2904.352        -999.25        28.6542       56.35721         0.2802        -999.25        -999.25      0.4969619        -999.25
      3896.0000         0.3287        2767.59        -999.25        28.8232       56.78474         0.2967        -999.25        -999.25      0.5060584        -999.25
      3896.5000         0.3507       2651.789        -999.25        28.8989       56.97623         0.3169        -999.25        -999.25      0.5101325        -999.25
      3897.0000         0.3682       2536.574        -999.25        28.9564       57.12172         0.3535        -999.25        -999.25      0.5132281        -999.25
      3897.5000         0.3849       2430.711        -999.25        29.2083       57.75894         0.3901        -999.25        -999.25      0.5267859        -999.25
      3898.0000         0.4016       2360.512        -999.25        29.4801       58.44656         0.4094        -999.25        -999.25      0.5414162        -999.25
      3898.5000         0.4183           2300        -999.25        29.7973       59.24899         0.4248        -999.25        -999.25      0.5584892        -999.25
      3899.0000         0.4304       2256.969        -999.25        29.6262       58.81613         0.4262        -999.25        -999.25      0.5492794        -999.25
      3899.5000         0.4425       2283.152        -999.25        29.2511       57.86724         0.4275        -999.25        -999.25      0.5290903        -999.25
      3900.0000         0.4545       2332.914        -999.25        28.7525       56.60589         0.4138        -999.25        -999.25      0.5022529        -999.25
      3900.5000         0.4432       2381.395        -999.25        27.6684       53.86335         0.3973        -999.25        -999.25      0.4439012        -999.25
      3901.0000         0.4308       2429.875        -999.25        26.7996        51.6655         0.3779        -999.25        -999.25      0.3971382        -999.25
      3901.5000         0.4179       2420.086        -999.25        26.3148       50.43906         0.3708        -999.25        -999.25      0.3710439        -999.25
      3902.0000         0.4085       2362.281        -999.25        25.8343       49.22348         0.3853        -999.25        -999.25      0.3451804        -999.25
      3902.5000         0.4156       2263.844        -999.25         25.403        48.1324         0.3971        -999.25        -999.25      0.3219661        -999.25
