#------------------------------------------------------------------------------
# Created by    : vladimir.rabinovich
# Created on    : 09/19/2023 17:22:38
#------------------------------------------------------------------------------
~Version Information Section
VERS.           2.0     :   CWLS log ASCII Standard - VERSION 2.0
WRAP.           NO      :   One line per depth step
~Well Information Section
#MNEM       .UNIT                                         VALUE :DESCRIPTION
#------------------------------------------------------------------------------
STRT        .FT                                             890 :START DEPTH
STOP        .FT                                            9058 :STOP DEPTH
STEP        .FT                                             0.5 :STEP      
NULL        .                                           -999.25 :NULL      
COMP        .                            COASTAL OIL & GAS CORP :COMPANY   
WELL        .                               OCS G01773 ST00BP00 :WELL      
FLD         .                                           WILDCAT :FIELD     
LOC         .                                                   :LOCATION  
CNTY        .                             GALVESTON LARGE BLOCK :LOCATION  
STAT        .                                             TEXAS :STATE     
CTRY        .                                     UNITED STATES :COUNTRY   
SRVC        .                                                   :SERVICE COMPANY
DATE        .                             9/13/2023 11:19:54 AM :LOG DATE  
API         .                                    42706403500000 :API NUMBER
UWI         .                                    42706403500000 :UNIQUE WELL ID
XCOORD      .                                  1074939.13305719 :SURFACE X 
YCOORD      .                                   10531967.363633 :SURFACE Y 
LAT         .                                         29.009472 :LATITUDE  
LON         .                                        -94.769566 :LONGITUDE 
ELEV        .FT                                              83 :ELEVATION VALUE
ELEV_TYPE   .                                                KB :ELEVATION REFERENCE TYPE
~Curve Information Section
#MNEM       .UNIT                                      API CODE :CURVE DESCRIPTION
#------------------------------------------------------------------------------
DEPT        .FT                                                 :DEPTH     
DCAL        .IN                                                 :          
DPSS        .V/V                                                :          
DRHO        .G/CM3                                              :          
DTLF        .US/FT                                              :          
DTLN        .US/FT                                              :          
GR          .GAPI                                               :          
GRS         .GAPI                                               :          
NPSS        .V/V                                                :Neutron Porosity Sandstone
SFL         .OHMM                                               :          
SP          .MV                                                 :          
SP_NORM     .MV                                                 :SP Normalized
SPHI_SAN    .V/V                                                :          
TENS        .LB                                                 :          
VSH_SP      .V/V                                                :Volume of Shale from SP
~A        DEPTH           DCAL           DPSS           DRHO           DTLF           DTLN             GR            GRS           NPSS            SFL             SP        SP_NORM       SPHI_SAN           TENS         VSH_SP
# ...
      5408.0000         0.9231        -999.25        -999.25        -999.25        -999.25        38.7755        -999.25        -999.25         1.2612       -43.8235      -44.95345          0.288       2422.506      0.4006207
      5408.5000         0.8846        -999.25        -999.25        -999.25        -999.25        35.3061        -999.25        -999.25         1.1741       -49.2857      -50.41565         0.3024       2421.963      0.3277914
      5409.0000         0.8462        -999.25        -999.25        -999.25        -999.25        33.0612        -999.25        -999.25         0.9799       -56.3265      -57.45644         0.3204       2401.468      0.2339141
      5409.5000         0.8462        -999.25        -999.25        -999.25        -999.25         32.449        -999.25        -999.25          0.687          -60.3      -61.42994         0.3348       2400.792      0.1809341
      5410.0000         0.8077        -999.25        -999.25        -999.25        -999.25        34.2857        -999.25        -999.25         0.5476          -61.2      -62.32994         0.3324       2400.226      0.1689341
      5410.5000         0.8077        -999.25        -999.25        -999.25        -999.25        36.7347        -999.25        -999.25         0.4431       -58.4694      -59.59934         0.3276           2400      0.2053421
      5411.0000         0.8077        -999.25        -999.25        -999.25        -999.25        39.3878        -999.25        -999.25         0.4229       -51.1224      -52.25234         0.3228           2400      0.3033021
      5411.5000         0.8462        -999.25        -999.25        -999.25        -999.25           42.2        -999.25        -999.25         0.4954       -44.4118      -45.54174         0.3192           2400      0.3927768
      5412.0000         0.8462        -999.25        -999.25        -999.25        -999.25           45.4        -999.25        -999.25         0.6055       -38.2353      -39.36524         0.3216           2400      0.4751301
      5412.5000         0.8846        -999.25        -999.25        -999.25        -999.25           47.2        -999.25        -999.25          0.669       -31.4706      -32.60054          0.324           2400      0.5653261
      5413.0000         0.9231        -999.25        -999.25        -999.25        -999.25           47.4        -999.25        -999.25         0.6055       -26.4706      -27.60054         0.3132           2400      0.6319928
      5413.5000         0.9231        -999.25        -999.25        -999.25        -999.25           47.2        -999.25        -999.25          0.611       -22.9412      -24.07114         0.2916           2400      0.6790514
      5414.0000         0.8462        -999.25        -999.25        -999.25        -999.25           45.6        -999.25        -999.25         0.7067       -21.7647      -22.89464         0.2556           2400      0.6947381
      5414.5000         0.8462        -999.25        -999.25        -999.25        -999.25           43.8        -999.25        -999.25         0.8146       -23.5294      -24.65934         0.2496           2400      0.6712087
      5415.0000         0.8462        -999.25        -999.25        -999.25        -999.25           41.6        -999.25        -999.25         0.8759       -27.0588      -28.18874         0.2688           2400      0.6241501
      5415.5000         0.8462        -999.25        -999.25        -999.25        -999.25        39.5918        -999.25        -999.25         0.9087       -30.8824      -32.01234          0.288           2400      0.5731688
      5416.0000         0.7692        -999.25        -999.25        -999.25        -999.25        38.1633        -999.25        -999.25         1.0182       -35.8824      -37.01234         0.3108           2400      0.5065021
      5416.5000         0.7692        -999.25        -999.25        -999.25        -999.25        36.1224        -999.25        -999.25         1.1446       -41.4706      -42.60054         0.3288           2400      0.4319927
      5417.0000         0.6923        -999.25        -999.25        -999.25        -999.25        34.2857        -999.25        -999.25         1.1241       -46.5306      -47.66055         0.3372           2420      0.3645261
      5417.5000         0.6923        -999.25        -999.25        -999.25        -999.25        33.4694        -999.25        -999.25         0.9352        -49.898      -51.02794         0.3336           2420      0.3196274
      5418.0000         0.6923        -999.25        -999.25        -999.25        -999.25        34.6939        -999.25        -999.25            0.8       -50.5102      -51.64014          0.324           2400      0.3114648
      5418.5000         0.6923        -999.25        -999.25        -999.25        -999.25        38.5714        -999.25        -999.25         0.7412       -46.2245      -47.35444          0.312           2400      0.3686074
      5419.0000         0.6923        -999.25        -999.25        -999.25        -999.25           43.2        -999.25        -999.25         0.7272       -40.5882      -41.71814          0.312           2400      0.4437581
      5419.5000         0.7308        -999.25        -999.25        -999.25        -999.25           47.8        -999.25        -999.25         0.6874       -33.8235      -34.95345         0.3204           2400      0.5339541
      5420.0000         0.8077        -999.25        -999.25        -999.25        -999.25        51.6327        -999.25        -999.25         0.6335       -28.8235      -29.95344         0.3072           2400      0.6006207
      5420.5000         0.8846        -999.25        -999.25        -999.25        -999.25        54.2857        -999.25        -999.25         0.6278       -25.5882      -26.71814         0.2796           2400      0.6437581
      5421.0000         0.9615        -999.25        -999.25        -999.25        -999.25        53.4694        -999.25        -999.25         0.7342       -25.2941      -26.42404         0.2532           2420      0.6476794
      5421.5000         0.9615        -999.25        -999.25        -999.25        -999.25           46.4        -999.25        -999.25         0.8447       -30.5882      -31.71814         0.2556           2420      0.5770914
      5422.0000         0.9615        -999.25        -999.25        -999.25        -999.25        39.3878        -999.25        -999.25         0.8759       -39.1176      -40.24754         0.2808           2420      0.4633661
      5422.5000         0.9615        -999.25        -999.25        -999.25        -999.25        29.4118        -999.25        -999.25         0.7067        -49.898      -51.02794         0.3024           2420      0.3196274
      5423.0000         0.9615        -999.25        -999.25        -999.25        -999.25        26.6667        -999.25        -999.25         0.5681       -55.7143      -56.84424         0.3252           2420      0.2420768
      5423.5000         0.9615        -999.25        -999.25        -999.25        -999.25        25.8824        -999.25        -999.25         0.4773       -59.6939      -60.82384         0.3336           2420      0.1890154
      5424.0000         0.9615        -999.25        -999.25        -999.25        -999.25        25.8824        -999.25        -999.25         0.4954          -60.9      -62.02995         0.3204           2420      0.1729341
      5424.5000         0.9615        -999.25        -999.25        -999.25        -999.25        26.0784        -999.25        -999.25         0.7849          -60.9      -62.02995         0.3072           2420      0.1729341
      5425.0000         0.8846        -999.25        -999.25        -999.25        -999.25        26.2745        -999.25        -999.25         1.1654          -61.5      -62.62994         0.3012           2420      0.1649341
      5425.5000         0.7308        -999.25        -999.25        -999.25        -999.25        25.8824        -999.25        -999.25          1.219          -62.1      -63.22994         0.3096           2420      0.1569341
