#------------------------------------------------------------------------------
# Created by    : vladimir.rabinovich
# Created on    : 09/19/2023 17:22:39
#------------------------------------------------------------------------------
~Version Information Section
VERS.           2.0     :   CWLS log ASCII Standard - VERSION 2.0
WRAP.           NO      :   One line per depth step
~Well Information Section
#MNEM       .UNIT                                         VALUE :DESCRIPTION
#------------------------------------------------------------------------------
STRT        .FT                                            3493 :START DEPTH
STOP        .FT                                            8566 :STOP DEPTH
STEP        .FT                                             0.5 :STEP      
NULL        .                                           -999.25 :NULL      
COMP        .                          SEAGULL ENERGY E & P INC :COMPANY   
WELL        .                               OCS G09038 ST00BP00 :WELL      
FLD         .                                           WILDCAT :FIELD     
LOC         .                                                   :LOCATION  
CNTY        .                             GALVESTON LARGE BLOCK :LOCATION  
STAT        .                                             TEXAS :STATE     
CTRY        .                                     UNITED STATES :COUNTRY   
SRVC        .                                                   :SERVICE COMPANY
DATE        .                             9/13/2023 11:19:36 AM :LOG DATE  
API         .                                    42706402070000 :API NUMBER
UWI         .                                    42706402070000 :UNIQUE WELL ID
XCOORD      .                                  986976.405819811 :SURFACE X 
YCOORD      .                                  10491452.3738699 :SURFACE Y 
LAT         .                                         28.894171 :LATITUDE  
LON         .                                        -95.042508 :LONGITUDE 
ELEV        .FT                                              93 :ELEVATION VALUE
ELEV_TYPE   .                                                KB :ELEVATION REFERENCE TYPE
~Curve Information Section
#MNEM       .UNIT                                      API CODE :CURVE DESCRIPTION
#------------------------------------------------------------------------------
DEPT        .FT                                                 :DEPTH     
DCAL        .IN                                                 :          
DPHI        .%                                                  :          
DRHO        .G/C3                                               :          
GR          .GAPI                                               :          
GR_NORM     .GAPI                                               :GammaRay Normalized
ILD         .OHMM                                               :          
ILM         .OHMM                                               :          
NPHI        .%                                                  :          
SGRD        .OHMM                                               :          
SP          .MV                                                 :          
SP_NORM     .MV                                                 :SP Normalized
VSH_GR      .V/V                                                :Volume of Shale from GR
VSH_SP      .V/V                                                :Volume of Shale from SP
~A        DEPTH           DCAL           DPHI           DRHO             GR        GR_NORM            ILD            ILM           NPHI           SGRD             SP        SP_NORM         VSH_GR         VSH_SP
# ...
      5849.0000         1.0242        22.0195         0.0491        84.1354       92.68934         0.7151         0.7446        43.1907         0.9187       -52.0467     -0.7310753              1      0.9908615
      5849.5000         0.9936        22.1876         0.0482         84.355       92.98355         0.7137         0.7479         43.304         0.9167       -52.0788     -0.7650337              1      0.9904371
      5850.0000         0.9544        22.4102         0.0476        83.4091       91.68322         0.7114           0.75        43.5842         0.9191       -51.7682     -0.4562912              1      0.9942964
      5850.5000         0.9288        22.4462         0.0476        82.0308       89.79133         0.7112         0.7554        43.9119         0.9263       -51.4199     -0.1098442              1      0.9986269
      5851.0000         0.9064        22.2628         0.0482        80.5446       87.75183          0.712         0.7575          43.97         0.9374       -50.9575      0.3506966              1              1
      5851.5000         0.9866        21.9155         0.0469        80.6935        87.9493         0.7141         0.7574        43.7087         0.9685       -50.3664      0.9399376              1              1
      5852.0000         1.0583        21.5672         0.0455        83.9047        92.3363         0.7189         0.7585        43.7597         1.0082       -50.0543       1.250187              1              1
      5852.5000          1.106        21.8825         0.0439        82.9128       90.97306         0.7322         0.7595        44.1005         0.9569       -50.3707      0.9319267              1              1
      5853.0000         1.1403        22.2843         0.0394        81.9563       89.65823         0.7425         0.7621        44.5323         0.9243       -51.1901      0.1106682              1              1
      5853.5000         1.1561        22.9174         0.0323        81.1096       88.49362         0.7517         0.7655        45.0387         0.9207       -52.3103      -1.011383              1      0.9873577
      5854.0000         1.1754        23.6551         0.0343         80.217       87.26624         0.7585         0.7698        45.6815         0.9432       -53.1421      -1.845043              1      0.9769369
      5854.5000         1.1975        23.6323         0.0428        79.4504       86.21121         0.7637         0.7736        45.8772         0.9627       -53.6558        -2.3606              1      0.9704925
      5855.0000         1.2358        23.4116         0.0519        80.9354       88.23659         0.7636         0.7757        45.5469         0.9772       -53.7943      -2.500954              1      0.9687381
      5855.5000         1.2767        23.1547         0.0598        82.0668       89.77822         0.7632         0.7732        45.2092          0.977       -54.1575      -2.866013              1      0.9641749
      5856.0000         1.2993        22.8587         0.0659         82.906       90.92008         0.7623         0.7697        45.4435         0.9573       -55.7007      -4.411068              1      0.9448617
      5856.5000         1.3169        22.6444         0.0701        83.0133       91.06064          0.757         0.7653        45.8916         0.9418       -58.2091      -6.921322              1      0.9134835
      5857.0000         1.3334        22.7858         0.0702        80.8423       88.08427         0.7489           0.76        46.3909         0.9578       -60.8167      -9.530781              1      0.8808652
      5857.5000         1.3421        23.5476         0.0715        78.8674       85.37619         0.7382         0.7527         46.663         0.9652       -62.5038      -11.21974              1      0.8597533
      5858.0000          1.329        24.3505         0.0729        76.9669       82.76989         0.7263         0.7443        46.7554         0.9696       -61.4953      -10.21309              1      0.8723363
      5858.5000         1.2741         24.759         0.0729        74.9994       80.07192         0.7147         0.7311        46.7673         0.9699       -60.2051      -8.924751              1      0.8884406
      5859.0000         1.1872         24.761         0.0734        73.6633       78.23778         0.7019         0.7155        46.5829         0.9633       -60.0277      -8.749207      0.9625059      0.8906349
      5859.5000         1.0918        24.2133         0.0774         74.002        78.6949         0.6809         0.6997        46.0566          0.952       -61.1603      -9.883663      0.9722319      0.8764542
      5860.0000         1.0251        23.2863         0.0821        75.5775       80.84411         0.6446         0.6839        45.5673         0.9362       -62.9852      -11.71042              1      0.8536198
      5860.5000         0.9908        23.1993         0.0838        78.3811       84.67346         0.5838         0.6616        46.2019          0.916       -65.3744      -14.10147              1      0.8237315
      5861.0000         0.9943        23.3611         0.0817        77.5598       83.54361         0.5266         0.6189         46.835          0.895       -68.2079      -16.93683              1      0.7882896
      5861.5000         1.0118        23.1235         0.0761        74.2848       79.05686          0.484         0.5672        47.3903         0.8728       -73.0211      -21.75189      0.9799332      0.7281014
      5862.0000         1.0166         22.483         0.0705        70.1786       73.43296         0.4536         0.5167        47.8685         0.8532       -85.5903      -34.32295      0.8602757      0.5709631
      5862.5000         0.9524        23.9969         0.0662        66.7498       68.73581         0.4359         0.4773        48.2862          0.834       -94.7852       -43.5197      0.7603363      0.4560037
      5863.0000         0.8719         26.645         0.0631        63.7725       64.65633         0.4223         0.4566        48.5946         0.8157        -89.431      -38.16736      0.6735389       0.522908
      5863.5000         0.8371         29.216         0.0611        66.9432       68.98792         0.4185         0.4518        48.7931         0.8212       -80.0128      -28.75102      0.7657003      0.6406122
      5864.0000         0.8247        29.4184         0.0595        72.0841       76.01491         0.4392         0.4679        48.2065         0.8608        -71.468      -20.20807      0.9152108      0.7473991
      5864.5000         0.8312        27.6799         0.0604        76.8329       82.50549         0.4709         0.4941        47.4192         0.8904       -66.3519      -15.09383              1      0.8113272
      5865.0000         0.8452        24.8583         0.0606        79.4132       86.02934         0.5057         0.5209        47.0695         0.9086        -64.016      -12.75978              1      0.8405027
      5865.5000         0.8684        23.5973         0.0595        80.7841       87.89862         0.5439         0.5557        46.8268         0.8906       -64.2543      -12.99994              1      0.8375007
      5866.0000         0.8932        23.4408         0.0594        81.1947       88.45412         0.5793         0.6014        46.5683          0.884       -66.6571      -15.40459              1      0.8074425
      5866.5000         0.9272        22.8856         0.0604        80.2568       87.16475         0.6079         0.6387        46.2771         0.9137        -68.998      -17.74736              1      0.7781581
      5867.0000         0.9601        22.9048         0.0606        78.9009       85.30352         0.6188         0.6652        45.9128          0.946       -67.7513      -16.50251              1      0.7937187
      5867.5000         0.9844        23.6047         0.0612        76.2175       81.62612         0.6053         0.6479        45.4086          0.987       -64.1909      -12.94397              1      0.8382004
