#------------------------------------------------------------------------------
# Created by    : vladimir.rabinovich
# Created on    : 09/19/2023 17:20:58
#------------------------------------------------------------------------------
~Version Information Section
VERS.           2.0     :   CWLS log ASCII Standard - VERSION 2.0
WRAP.           NO      :   One line per depth step
~Well Information Section
#MNEM       .UNIT                                         VALUE :DESCRIPTION
#------------------------------------------------------------------------------
STRT        .FT                                             521 :START DEPTH
STOP        .FT                                           11050 :STOP DEPTH
STEP        .FT                                             0.5 :STEP      
NULL        .                                           -999.25 :NULL      
COMP        .                                      SHELL OIL CO :COMPANY   
WELL        .                                     ST TR 00335-L :WELL      
FLD         .                                           WILDCAT :FIELD     
LOC         .                                                   :LOCATION  
CNTY        .                                BRAZOS LARGE BLOCK :LOCATION  
STAT        .                                             TEXAS :STATE     
CTRY        .                                     UNITED STATES :COUNTRY   
SRVC        .                                                   :SERVICE COMPANY
DATE        .                             9/13/2023 11:18:52 AM :LOG DATE  
API         .                                    42704000130000 :API NUMBER
UWI         .                                    42704000130000 :UNIQUE WELL ID
XCOORD      .                                  903482.990868916 :SURFACE X 
YCOORD      .                                   10450808.276789 :SURFACE Y 
LAT         .                                        28.7782296 :LATITUDE  
LON         .                                       -95.3008656 :LONGITUDE 
ELEV        .FT                                              81 :ELEVATION VALUE
ELEV_TYPE   .                                                DF :ELEVATION REFERENCE TYPE
~Curve Information Section
#MNEM       .UNIT                                      API CODE :CURVE DESCRIPTION
#------------------------------------------------------------------------------
DEPT        .FT                                                 :DEPTH     
ASN         .OHMM                                               :          
CILD        .MMHO                                               :          
ILD         .OHMM                                               :          
SP          .MV                                                 :          
SP_NORM     .MV                                                 :SP Normalized
VSH_SP      .V/V                                                :Volume of Shale from SP
~A        DEPTH            ASN           CILD            ILD             SP        SP_NORM         VSH_SP
# ...
      3333.0000         0.5422       2183.195         0.3161       -93.5381      -49.82459    0.003579821
      3333.5000          0.554       2207.484         0.3165       -94.1768      -50.45208              0
      3334.0000         0.5678       2193.102         0.3168       -94.8156      -51.07967              0
      3334.5000         0.5816       2163.004         0.3172       -95.0653      -51.31817              0
      3335.0000         0.5969       2136.281         0.3176       -95.2916      -51.53326              0
      3335.5000         0.6184       2109.543         0.3179       -95.5172      -51.74765              0
      3336.0000         0.6371        2082.82         0.3183       -95.3933      -51.61255              0
      3336.5000         0.6428       2042.637         0.3187       -95.2695      -51.47754              0
      3337.0000         0.6485       2012.596          0.319       -95.1221      -51.31893              0
      3337.5000         0.6543       2011.842         0.3194       -94.9691      -51.15472              0
      3338.0000         0.6562        2011.09         0.3198       -94.8163      -50.99072              0
      3338.5000         0.6529       2010.336         0.3201       -94.6635      -50.82671              0
      3339.0000         0.6496       2009.555         0.3205       -94.5106       -50.6626              0
      3339.5000         0.6463       2008.645         0.3208       -94.3971       -50.5379              0
      3340.0000         0.6429       2007.732         0.3212       -94.4066      -50.53619              0
      3340.5000         0.6396       2009.178         0.3216       -94.4161      -50.53448              0
      3341.0000         0.6378       2012.664          0.322       -94.4257      -50.53287              0
      3341.5000         0.6373       2033.994         0.3224       -94.4352      -50.53117              0
      3342.0000         0.6167       2055.316         0.3229       -94.4786      -50.56336              0
      3342.5000          0.593       2079.949         0.3233       -94.5369      -50.61045              0
      3343.0000         0.5743       2112.516         0.3237       -94.5952      -50.65754              0
      3343.5000         0.5636       2071.793         0.3241       -94.6534      -50.70453              0
      3344.0000         0.5725       2015.426         0.3246       -94.7118      -50.75173              0
      3344.5000         0.5915       1999.262          0.325         -94.77      -50.79872              0
      3345.0000         0.6117       1998.652         0.3254       -94.7852      -50.80272              0
      3345.5000         0.6319       1998.045         0.3258       -94.7682      -50.77451              0
      3346.0000         0.6521       1998.639         0.3263       -94.7512       -50.7463              0
      3346.5000         0.6653        1999.35         0.3267       -94.7344      -50.71829              0
      3347.0000         0.6643       2017.105         0.3275       -94.7174      -50.69009              0
      3347.5000         0.6482       2041.041         0.3304       -94.7004      -50.66188              0
      3348.0000         0.6321       2143.984         0.3334       -94.6779      -50.62817              0
      3348.5000         0.6168       2264.414         0.3364       -94.5266      -50.46567              0
      3349.0000         0.6016       2415.441         0.3393       -94.3752      -50.30305              0
      3349.5000         0.5864        2468.16         0.3423       -94.2239      -50.14055              0
      3350.0000         0.5722       2500.688         0.3453       -93.6306      -49.53604    0.009468546
      3350.5000         0.5606       2523.945         0.3482       -92.5188      -48.41303     0.03238709
      3351.0000         0.5489       2542.406         0.3512       -91.5226      -47.40562     0.05294644
      3351.5000         0.5416       2543.828         0.3542       -91.0403      -46.91212     0.06301802
      3352.0000         0.5346       2504.328         0.3572          -91.6      -47.46061      0.0518243
      3352.5000         0.5508       2407.383         0.3601       -92.1873      -48.03671     0.04006717
      3353.0000         0.5835           2114         0.3631       -92.6091       -48.4473     0.03168776
      3353.5000         0.6115       1973.664         0.3653       -93.0016      -48.82859     0.02390624
      3354.0000         0.6356       1943.545         0.3672        -93.394      -49.20978      0.0161269
      3354.5000         0.6597       1913.424         0.3691       -93.7865      -49.59108     0.00834539
      3355.0000         0.6731       1883.316         0.3709       -94.1051      -49.89847    0.002072003
      3355.5000         0.6781       1853.197         0.3728        -94.296      -50.07816              0
      3356.0000         0.6792       1823.076         0.3747       -94.4867      -50.25766              0
      3356.5000         0.6803       1792.957         0.3766       -94.6776      -50.43734              0
      3357.0000         0.6814        1762.85         0.3785       -94.8685      -50.61704              0
      3357.5000         0.6819           1720         0.3803       -94.9874      -50.72473              0
      3358.0000         0.6824       1677.115         0.3822       -95.0939      -50.82003              0
      3358.5000         0.6829       1634.229         0.3841       -95.2004      -50.91532              0
      3359.0000         0.6834       1487.537         0.3857       -95.0039      -50.70761              0
      3359.5000         0.6764       1455.457         0.3864       -94.7722      -50.46471              0
      3360.0000         0.6678       1423.402         0.3872       -94.5403       -50.2216              0
      3360.5000         0.6592       1392.236         0.3879       -94.3086      -49.97869   0.0004348755
      3361.0000         0.6507       1379.871         0.3886       -94.0769      -49.73578    0.005392269
      3361.5000         0.6382       1401.217         0.3894       -93.8032      -49.45087     0.01120665
      3362.0000         0.6254       1428.586         0.3901       -93.5122      -49.14867     0.01737416
      3362.5000         0.6127       1456.881         0.3909       -93.2209      -48.84616     0.02354774
      3363.0000         0.5999       1487.195         0.3916       -92.9348      -48.54885     0.02961528
      3363.5000         0.5902       1517.498         0.3896        -92.692      -48.29485     0.03479907
      3364.0000         0.5811       1547.813         0.3859       -92.4491      -48.04073     0.03998503
      3364.5000         0.5799       1578.492         0.3849       -92.3921      -47.97253     0.04137693
      3365.0000         0.5851       1610.547         0.3873       -92.4128      -47.98203     0.04118308
      3365.5000         0.5971       1642.625         0.3898       -92.4335      -47.99152     0.04098939
      3366.0000          0.609       1674.682         0.3891       -92.4542      -48.00101      0.0407957
      3366.5000          0.621       1706.736          0.385       -92.6378       -48.1734     0.03727746
      3367.0000          0.633           1755         0.3809        -92.875      -48.39939     0.03266541
      3367.5000         0.6423       1808.313         0.3768       -93.1119      -48.62509     0.02805943
      3368.0000         0.6492       1861.656         0.3727       -93.4163      -48.91828     0.02207596
      3368.5000         0.6446       1914.969         0.3597       -93.7621      -49.25287      0.0152475
      3369.0000         0.6357       1968.281         0.3385        -94.108      -49.58757    0.008417013
      3369.5000         0.6343        2006.82         0.3177       -94.4539      -49.92226    0.001586525
      3370.0000         0.6332       2022.031          0.306       -94.7632      -50.22035              0
      3370.5000          0.632       2037.232         0.2943       -94.9438      -50.38975              0
