#------------------------------------------------------------------------------
# Created by    : vladimir.rabinovich
# Created on    : 09/19/2023 17:21:54
#------------------------------------------------------------------------------
~Version Information Section
VERS.           2.0     :   CWLS log ASCII Standard - VERSION 2.0
WRAP.           NO      :   One line per depth step
~Well Information Section
#MNEM       .UNIT                                         VALUE :DESCRIPTION
#------------------------------------------------------------------------------
STRT        .FT                                             404 :START DEPTH
STOP        .FT                                            9564 :STOP DEPTH
STEP        .FT                                             0.5 :STEP      
NULL        .                                           -999.25 :NULL      
COMP        .                               AMOCO PRODUCTION CO :COMPANY   
WELL        .                               OCS G03108 ST00BP01 :WELL      
FLD         .                                           WILDCAT :FIELD     
LOC         .                                                   :LOCATION  
CNTY        .                      MATAGORDA ISLAND LARGE BLOCK :LOCATION  
STAT        .                                             TEXAS :STATE     
CTRY        .                                     UNITED STATES :COUNTRY   
SRVC        .                                                   :SERVICE COMPANY
DATE        .                             9/13/2023 11:12:09 AM :LOG DATE  
API         .                                    42703400030000 :API NUMBER
UWI         .                                    42703400030000 :UNIQUE WELL ID
XCOORD      .                                  482242.907024332 :SURFACE X 
YCOORD      .                                  10146341.7942038 :SURFACE Y 
LAT         .                                         27.913374 :LATITUDE  
LON         .                                         -96.58609 :LONGITUDE 
ELEV        .FT                                              95 :ELEVATION VALUE
ELEV_TYPE   .                                                KB :ELEVATION REFERENCE TYPE
~Curve Information Section
#MNEM       .UNIT                                      API CODE :CURVE DESCRIPTION
#------------------------------------------------------------------------------
DEPT        .FT                                                 :DEPTH     
CALI        .IN                                                 :          
CILD        .MMHO                                               :          
GR          .GAPI                                               :          
GR_NORM     .GAPI                                               :GammaRay Normalized
ILD         .OHMM                                               :          
RHOB        .G/C3                                               :          
SFL         .OHMM                                               :          
SP          .MV                                                 :          
SP_NORM     .MV                                                 :SP Normalized
VSH_GR      .V/V                                                :Volume of Shale from GR
VSH_SP      .V/V                                                :Volume of Shale from SP
~A        DEPTH           CALI           CILD             GR        GR_NORM            ILD           RHOB            SFL             SP        SP_NORM         VSH_GR         VSH_SP
# ...
      3396.5000        -999.25        -999.25        32.8101       34.59979         0.4035        -999.25         0.8969       -82.1019        -43.513     0.03403814      0.1351458
      3397.0000        -999.25        -999.25        32.6077       34.34696         0.3807        -999.25          0.927       -82.6804       -44.0965     0.02865868      0.1229896
      3397.5000        -999.25        -999.25        32.4802       34.18808         0.3714        -999.25         0.8532       -82.9987       -44.4198     0.02527838      0.1162542
      3398.0000        -999.25        -999.25         32.408       34.09862         0.3761        -999.25         0.7676       -82.8016       -44.2276     0.02337492      0.1202583
      3398.5000        -999.25        -999.25        32.9626       34.79566         0.3836        -999.25         0.7006       -81.6642       -43.0952     0.03820557        0.14385
      3399.0000        -999.25        -999.25        34.5648       36.80725          0.394        -999.25         0.9547        -80.408        -41.844     0.08100534      0.1699166
      3399.5000        -999.25        -999.25        36.0825       38.71292         0.4077        -999.25         1.2915       -79.4318       -40.8728      0.1215515        0.19015
      3400.0000        -999.25        -999.25        37.0948        39.9843         0.4261        -999.25         1.0841       -78.3474       -39.7934      0.1486021      0.2126375
      3400.5000        -999.25        -999.25        37.1351       40.03599         0.4541        -999.25          0.888       -76.9066       -38.3575       0.149702      0.2425521
      3401.0000        -999.25        -999.25        37.5114       40.50931          0.484        -999.25         0.9203       -75.1082       -36.5641      0.1597726      0.2799146
      3401.5000        -999.25        -999.25        39.1447       42.55993         0.5085        -999.25         0.9522       -71.7339       -33.1948      0.2034027      0.3501083
      3402.0000        -999.25        -999.25        41.5998       45.64172         0.5253        -999.25         0.9228       -68.2371        -29.703      0.2689728      0.4228542
      3402.5000        -999.25        -999.25        45.8495       50.97542         0.5352        -999.25         0.8845       -63.7546       -25.2255      0.3824557      0.5161354
      3403.0000        -999.25        -999.25        51.2574       57.76241         0.5415        -999.25         0.8793       -60.1452       -21.6211      0.5268599      0.5912271
      3403.5000        -999.25        -999.25        60.4574       69.30776         0.5493        -999.25         0.9622       -57.7639       -19.2447      0.7725056      0.6407354
      3404.0000        -999.25        -999.25        64.8922       74.87373         0.5592        -999.25         1.0698       -55.4064       -16.8922      0.8909304      0.6897458
      3404.5000        -999.25        -999.25        69.2371       80.32688         0.5711        -999.25         0.8752       -52.0809       -13.5717              1      0.7589229
      3405.0000        -999.25        -999.25        76.3809        89.2921         0.5874        -999.25         0.6576       -49.5233       -11.0191              1      0.8121021
      3405.5000        -999.25        -999.25        83.1395        97.7741         0.6061        -999.25          0.651       -47.8342         -9.335              1      0.8471875
      3406.0000        -999.25        -999.25           88.6       104.6271         0.6119        -999.25         0.6756       -47.2053         -8.711              1      0.8601875
      3406.5000        -999.25        -999.25        91.0763       107.7355         0.6084        -999.25         0.6728       -47.1411        -8.6518              1      0.8614208
      3407.0000        -999.25        -999.25        92.2288       109.1828         0.6033        -999.25         0.6543       -47.3718        -8.8875              1      0.8565104
      3407.5000        -999.25        -999.25        91.3695       108.1057         0.5986        -999.25         0.6345       -47.4871        -9.0078              1      0.8540041
      3408.0000        -999.25        -999.25        89.9788       106.3618         0.5941        -999.25         0.6249       -47.1989        -8.7246              1      0.8599042
      3408.5000        -999.25        -999.25        88.6218       104.6601         0.5886        -999.25         0.6212       -46.6896        -8.2203              1      0.8704104
      3409.0000        -999.25        -999.25        87.0354       102.6706         0.5876        -999.25         0.6234       -46.1793        -7.7149              1      0.8809396
      3409.5000        -999.25        -999.25        82.8344       97.40029         0.5844        -999.25         0.6369        -45.451        -6.9916              1      0.8960083
      3410.0000        -999.25        -999.25        79.7465       93.52669         0.5807        -999.25         0.6382       -44.6125        -6.1581              1      0.9133729
      3410.5000        -999.25        -999.25        77.8304       91.12348          0.577        -999.25         0.6231       -43.8959        -5.4465              1      0.9281979
      3411.0000        -999.25        -999.25        76.5048       89.46124         0.5745        -999.25         0.6163       -43.9124         -5.468              1        0.92775
      3411.5000        -999.25        -999.25        75.0205       87.59997         0.5786        -999.25         0.6176       -44.2207        -5.7812              1       0.921225
      3412.0000        -999.25        -999.25        75.8231       88.60824         0.5936        -999.25         0.6312       -44.6569        -6.2224              1      0.9120333
      3412.5000        -999.25        -999.25        78.2256       91.62403         0.6148        -999.25         0.6481        -45.215        -6.7855              1      0.9003021
      3413.0000        -999.25        -999.25        80.4368       94.39979         0.6377        -999.25         0.6657       -45.9104        -7.4859              1      0.8857104
      3413.5000        -999.25        -999.25        81.9476       96.29669         0.6608        -999.25         0.6872       -46.0208        -7.6013              1      0.8833063
      3414.0000        -999.25        -999.25        82.2834       96.71917         0.6807        -999.25         0.7127       -44.9539        -6.5394              1      0.9054292
      3414.5000        -999.25        -999.25        80.6494       94.66995         0.6997        -999.25         0.7355       -43.8665        -5.4569              1      0.9279813
      3415.0000        -999.25        -999.25        78.8447       92.40652         0.7188        -999.25         0.7579       -42.7527        -4.3481              1      0.9510813
      3415.5000        -999.25        -999.25        77.7451       91.02788         0.7381        -999.25         0.7791       -41.6509        -3.2513              1      0.9739313
      3416.0000        -999.25        -999.25         77.615       90.86575         0.7556        -999.25         0.7944       -40.6688        -2.2742              1      0.9942875
      3416.5000        -999.25        -999.25        78.3475       91.78603         0.7711        -999.25         0.8012       -40.1526         -1.763              1              1
      3417.0000        -999.25        -999.25        79.3031       92.98625         0.7774        -999.25         0.8051       -39.8098        -1.4251              1              1
      3417.5000        -999.25        -999.25        79.8313        93.6503         0.7765        -999.25         0.8076       -39.3709        -0.9912              1              1
      3418.0000        -999.25        -999.25        77.3877       90.58517         0.7734        -999.25         0.8056       -39.0765        -0.7018              1              1
      3418.5000        -999.25        -999.25        75.4341       88.13491          0.768        -999.25         0.7963       -39.2109        -0.8412              1              1
