#------------------------------------------------------------------------------
# Created by    : vladimir.rabinovich
# Created on    : 09/19/2023 17:20:11
#------------------------------------------------------------------------------
~Version Information Section
VERS.           2.0     :   CWLS log ASCII Standard - VERSION 2.0
WRAP.           NO      :   One line per depth step
~Well Information Section
#MNEM       .UNIT                                         VALUE :DESCRIPTION
#------------------------------------------------------------------------------
STRT        .FT                                             984 :START DEPTH
STOP        .FT                                            6595 :STOP DEPTH
STEP        .FT                                             0.5 :STEP      
NULL        .                                           -999.25 :NULL      
COMP        .                   MCMORAN OFFSHORE EXPLORATION CO :COMPANY   
WELL        .                               OCS G03106 ST00BP00 :WELL      
FLD         .                                           WILDCAT :FIELD     
LOC         .                                                   :LOCATION  
CNTY        .                      MATAGORDA ISLAND LARGE BLOCK :LOCATION  
STAT        .                                             TEXAS :STATE     
CTRY        .                                     UNITED STATES :COUNTRY   
SRVC        .                                                   :SERVICE COMPANY
DATE        .                             9/13/2023 11:12:09 AM :LOG DATE  
API         .                                    42703400570000 :API NUMBER
UWI         .                                    42703400570000 :UNIQUE WELL ID
XCOORD      .                                  467986.403229072 :SURFACE X 
YCOORD      .                                  10153243.7887249 :SURFACE Y 
LAT         .                                         27.931172 :LATITUDE  
LON         .                                        -96.630795 :LONGITUDE 
ELEV        .FT                                              95 :ELEVATION VALUE
ELEV_TYPE   .                                                KB :ELEVATION REFERENCE TYPE
~Curve Information Section
#MNEM       .UNIT                                      API CODE :CURVE DESCRIPTION
#------------------------------------------------------------------------------
DEPT        .FT                                                 :DEPTH     
ASFL        .OHMM                                               :          
CILD        .MMHO                                               :          
DT          .US/F                                               :          
GR          .GAPI                                               :          
GR_NORM     .GAPI                                               :GammaRay Normalized
ILD         .OHMM                                               :          
SFL         .OHMM                                               :          
SP          .MV                                                 :          
SP_NORM     .MV                                                 :SP Normalized
VSH_GR      .V/V                                                :Volume of Shale from GR
VSH_SP      .V/V                                                :Volume of Shale from SP
~A        DEPTH           ASFL           CILD             DT             GR        GR_NORM            ILD            SFL             SP        SP_NORM         VSH_GR         VSH_SP
# ...
      6204.0000          1.045       1060.365       103.1182        -999.25        -999.25         0.8314         1.0306        -49.354        -9.1924        -999.25      0.8501583
      6204.5000         1.0326       1081.549       102.8113        -999.25        -999.25         0.8165         1.0205        -49.311        -9.1427        -999.25      0.8511937
      6205.0000         1.0338        1102.73       103.1364        -999.25        -999.25         0.8126          1.003       -49.2679        -9.0928        -999.25      0.8522334
      6205.5000          1.035       1116.791       104.1648        -999.25        -999.25         0.8086         0.9885       -49.3696        -9.1878        -999.25      0.8502542
      6206.0000         1.0362       1130.102        105.297        -999.25        -999.25         0.8047         0.9854       -49.5448        -9.3563        -999.25      0.8467438
      6206.5000         1.0375       1143.398       105.7949        -999.25        -999.25         0.8011         0.9867       -49.5627        -9.3675        -999.25      0.8465104
      6207.0000         1.0374       1156.709       105.7378        -999.25        -999.25         0.7984         0.9969       -48.7781        -8.5762        -999.25      0.8629959
      6207.5000         1.0353       1165.963       106.2988        -999.25        -999.25         0.7958         1.0157       -47.8671        -7.6585        -999.25      0.8821146
      6208.0000         1.0333       1168.607       108.2676        -999.25        -999.25         0.7931         1.0232        -47.035        -6.8197        -999.25      0.8995896
      6208.5000         1.0312       1171.252       106.7817        -999.25        -999.25         0.7904         1.0216       -46.9864        -6.7644        -999.25      0.9007417
      6209.0000         1.0316       1173.896       103.8098        -999.25        -999.25         0.7866         1.0143       -46.9378        -6.7091        -999.25      0.9018937
      6209.5000         1.0344       1177.166       102.0452        -999.25        -999.25         0.7801         1.0068       -46.8892        -6.6537        -999.25      0.9030479
      6210.0000         1.0373       1180.703       100.8923        -999.25        -999.25         0.7737         1.0074       -47.0249        -6.7827        -999.25      0.9003604
      6210.5000         1.0401       1184.238       100.3428        -999.25        -999.25         0.7672         1.0106       -47.4031        -7.1542        -999.25      0.8926209
      6211.0000         1.0429       1187.775       101.5067        -999.25        -999.25         0.7608         1.0193       -47.8203        -7.5647        -999.25      0.8840687
      6211.5000         1.0458       1191.309       105.1594        -999.25        -999.25         0.7547         1.0237       -48.2714        -8.0091        -999.25      0.8748104
      6212.0000         1.0476       1194.846       110.8665        -999.25        -999.25         0.7499          1.024        -48.722         -8.453        -999.25      0.8655625
      6212.5000         1.0484       1200.082       110.4271        -999.25        -999.25         0.7451         1.0206       -48.5688        -8.2931        -999.25      0.8688937
      6213.0000         1.0505       1208.707        103.793        -999.25        -999.25         0.7403          1.011       -48.1978        -7.9154        -999.25      0.8767625
      6213.5000         1.0529        1217.33       100.9395        -999.25        -999.25         0.7355         0.9883       -47.7482        -7.4591        -999.25      0.8862687
      6214.0000         1.0506       1225.939       100.2335        -999.25        -999.25         0.7307         0.9807       -47.1152        -6.8193        -999.25      0.8995979
      6214.5000         1.0445       1234.563       100.2339        -999.25        -999.25         0.7263         0.9777       -46.4822        -6.1796        -999.25       0.912925
      6215.0000         1.0384       1243.186       100.9081        -999.25        -999.25         0.7235         0.9988       -45.8493          -5.54        -999.25        0.92625
      6215.5000         1.0322        1249.73       102.2213        -999.25        -999.25         0.7206         1.0227       -45.5465        -5.2305        -999.25      0.9326979
      6216.0000         1.0261       1255.777       103.9668        -999.25        -999.25         0.7178         1.0393       -45.5345        -5.2118        -999.25      0.9330875
      6216.5000         1.0199       1257.486       106.0188        -999.25        -999.25         0.7149         1.0193       -45.5811        -5.2517        -999.25      0.9322563
      6217.0000         1.0162       1257.299       107.8149        -999.25        -999.25         0.7121         0.9903       -45.6277        -5.2916        -999.25       0.931425
      6217.5000         1.0332       1257.113       109.2888        -999.25        -999.25         0.7097         0.9526       -45.8141        -5.4713        -999.25      0.9276813
      6218.0000         1.0576       1256.928       110.8496        -999.25        -999.25         0.7107         0.9198       -47.2138        -6.8643        -999.25      0.8986604
      6218.5000         1.0408       1256.742       112.2885        -999.25        -999.25         0.7116         0.8988       -52.7065       -12.3503        -999.25      0.7843688
      6219.0000         1.0198       1256.555       112.5685        -999.25        -999.25         0.7126         0.8866       -57.9478       -17.5848        -999.25      0.6753166
      6219.5000         0.9989       1252.572       111.4386        -999.25        -999.25         0.7136         0.8946       -59.5256       -19.1559        -999.25      0.6425855
      6220.0000         0.9782       1246.594       109.9128        -999.25        -999.25         0.7145         0.9314       -51.9669       -11.5905        -999.25      0.8001979
      6220.5000         0.9575       1240.615       108.2181        -999.25        -999.25         0.7155         1.0062       -46.2918        -5.9087        -999.25      0.9185687
      6221.0000           0.94       1234.637       106.2603        -999.25        -999.25         0.7248         1.1199       -45.0123        -4.6225        -999.25      0.9453646
      6221.5000         0.9327       1228.658       102.6294        -999.25        -999.25         0.7386         1.2486       -44.6675         -4.271        -999.25      0.9526875
      6222.0000         0.9253       1201.215        99.6575        -999.25        -999.25         0.7524         1.3551       -44.5312         -4.128        -999.25      0.9556667
      6222.5000         0.9911       1165.049        97.2723        -999.25        -999.25         0.7788         1.4276       -44.3368        -3.9269        -999.25      0.9598563
      6223.0000         1.0904       1128.934        96.3368        -999.25        -999.25         0.8072         1.4466       -43.8234        -3.4067        -999.25      0.9706938
      6223.5000         1.1625        1091.93        96.7943        -999.25        -999.25         0.8357         1.4319       -43.3106        -2.8872        -999.25      0.9815167
      6224.0000         1.2437        1054.83        98.9236        -999.25        -999.25         0.8641         1.2652       -42.7972        -2.3671        -999.25      0.9923521
      6224.5000          1.325       1017.779       100.9128        -999.25        -999.25          0.894         1.0829       -42.2814        -1.8446        -999.25              1
      6225.0000         1.4062       990.4219       103.1954        -999.25        -999.25         0.9247         1.0394       -41.7655         -1.322        -999.25              1
      6225.5000         1.4875       967.0986       104.7394        -999.25        -999.25         0.9554         0.9937       -42.9291        -2.4789        -999.25      0.9900229
      6226.0000         1.4914        944.292       106.1051        -999.25        -999.25         0.9862         0.9703       -43.8511        -3.3942        -999.25      0.9709542
