#------------------------------------------------------------------------------
# Created by    : vladimir.rabinovich
# Created on    : 09/19/2023 17:20:12
#------------------------------------------------------------------------------
~Version Information Section
VERS.           2.0     :   CWLS log ASCII Standard - VERSION 2.0
WRAP.           NO      :   One line per depth step
~Well Information Section
#MNEM       .UNIT                                         VALUE :DESCRIPTION
#------------------------------------------------------------------------------
STRT        .FT                                             309 :START DEPTH
STOP        .FT                                            9124 :STOP DEPTH
STEP        .FT                                             0.5 :STEP      
NULL        .                                           -999.25 :NULL      
COMP        .                         SONAT EXPLORATION GOM INC :COMPANY   
WELL        .                               OCS G03084 ST00BP00 :WELL      
FLD         .                                           WILDCAT :FIELD     
LOC         .                                                   :LOCATION  
CNTY        .                      MATAGORDA ISLAND LARGE BLOCK :LOCATION  
STAT        .                                             TEXAS :STATE     
CTRY        .                                     UNITED STATES :COUNTRY   
SRVC        .                                                   :SERVICE COMPANY
DATE        .                             9/13/2023 11:12:09 AM :LOG DATE  
API         .                                    42703400260000 :API NUMBER
UWI         .                                    42703400260000 :UNIQUE WELL ID
XCOORD      .                                  563826.313549269 :SURFACE X 
YCOORD      .                                  10238444.2560225 :SURFACE Y 
LAT         .                                         28.172716 :LATITUDE  
LON         .                                        -96.341662 :LONGITUDE 
ELEV        .FT                                              97 :ELEVATION VALUE
ELEV_TYPE   .                                                KB :ELEVATION REFERENCE TYPE
~Curve Information Section
#MNEM       .UNIT                                      API CODE :CURVE DESCRIPTION
#------------------------------------------------------------------------------
DEPT        .FT                                                 :DEPTH     
ASFL        .OHMM                                               :          
CILD        .MMHO                                               :          
DT          .US/F                                               :          
GR          .GAPI                                               :          
GR_NORM     .GAPI                                               :GammaRay Normalized
ILD         .OHMM                                               :          
SP          .MV                                                 :          
SP_NORM     .MV                                                 :SP Normalized
VSH_GR      .V/V                                                :Volume of Shale from GR
VSH_SP      .V/V                                                :Volume of Shale from SP
~A        DEPTH           ASFL           CILD             DT             GR        GR_NORM            ILD             SP        SP_NORM         VSH_GR         VSH_SP
# ...
      8516.5000         0.8117       1346.891        94.8456        -999.25        -999.25         0.6392        -43.689      -2.725143        -999.25      0.9730446
      8517.0000         0.8219       1346.256         93.735        -999.25        -999.25         0.6384       -43.8578      -2.893944        -999.25      0.9704071
      8517.5000         0.8354       1337.467         93.606        -999.25        -999.25         0.6376       -44.0265      -3.062645        -999.25      0.9677712
      8518.0000         0.8494       1328.668        93.8927        -999.25        -999.25         0.6369       -44.0463      -3.082443        -999.25      0.9674618
      8518.5000         0.8634       1319.881        93.5627        -999.25        -999.25         0.6409       -43.9957      -3.031845        -999.25      0.9682524
      8519.0000         0.8773       1301.521        93.1571        -999.25        -999.25         0.6523       -43.9451      -2.981243        -999.25      0.9690431
      8519.5000         0.8913       1276.828        92.0895        -999.25        -999.25         0.6638       -43.8946      -2.930744        -999.25      0.9698321
      8520.0000         0.8984       1252.084         90.991        -999.25        -999.25         0.6752        -43.844      -2.880146        -999.25      0.9706227
      8520.5000          0.904       1227.391         90.832        -999.25        -999.25         0.6866       -43.8945      -2.930645        -999.25      0.9698337
      8521.0000           0.91       1203.816        90.5822        -999.25        -999.25         0.6999       -43.9596      -2.995743        -999.25      0.9688165
      8521.5000         0.9172       1181.039        90.2368        -999.25        -999.25         0.7253       -44.0247      -3.060844        -999.25      0.9677993
      8522.0000         0.9245       1158.262        89.6495        -999.25        -999.25         0.7507       -44.0955      -3.131645        -999.25       0.966693
      8522.5000         0.9318        1146.35        88.8184        -999.25        -999.25         0.7761       -44.1819      -3.218044        -999.25      0.9653431
      8523.0000         0.9391       1137.275        87.9872        -999.25        -999.25         0.8016       -44.2685      -3.304646        -999.25      0.9639899
      8523.5000         0.9477       1128.189        87.1586        -999.25        -999.25         0.8255        -44.355      -3.391144        -999.25      0.9626384
      8524.0000         0.9754       1119.117        87.0782        -999.25        -999.25         0.8492       -44.4414      -3.477543        -999.25      0.9612884
      8524.5000         1.0001       1110.043        87.0565        -999.25        -999.25         0.8729        -44.528      -3.564144        -999.25      0.9599352
      8525.0000         1.0099       1100.957        87.2068        -999.25        -999.25         0.8967       -44.6145      -3.650642        -999.25      0.9585837
      8525.5000         1.0197       1091.883        87.5048        -999.25        -999.25         0.9134       -44.5835      -3.619644        -999.25      0.9590681
      8526.0000         1.0175       1084.752        87.8027        -999.25        -999.25         0.9288       -44.3987      -3.434845        -999.25      0.9619555
      8526.5000         1.0129       1077.818        88.1011        -999.25        -999.25         0.9442       -44.2139      -3.250046        -999.25       0.964843
      8527.0000         1.0087       1070.898         88.399        -999.25        -999.25         0.9562       -44.0542      -3.090343        -999.25      0.9673384
      8527.5000         1.0045       1066.119        88.5347        -999.25        -999.25          0.955        -43.899      -2.935143        -999.25      0.9697634
      8528.0000         1.0003       1062.396        88.6604        -999.25        -999.25         0.9538        -43.744      -2.780144        -999.25      0.9721853
      8528.5000         0.9961       1058.676          88.67        -999.25        -999.25         0.9526       -43.5891      -2.625244        -999.25      0.9746056
      8529.0000         0.9999       1054.947        88.5671        -999.25        -999.25         0.9507       -43.4338      -2.469944        -999.25      0.9770321
      8529.5000         1.0073       1051.227        87.9661        -999.25        -999.25         0.9489       -43.2789      -2.315044        -999.25      0.9794524
      8530.0000         1.0147       1047.504        87.6687        -999.25        -999.25         0.9471       -43.2131      -2.249245        -999.25      0.9804806
      8530.5000          1.022       1043.658        87.9182        -999.25        -999.25         0.9454       -43.1965      -2.232643        -999.25        0.98074
      8531.0000         1.0294       1039.189        88.1963        -999.25        -999.25         0.9455       -43.1799      -2.216045        -999.25      0.9809993
      8531.5000         1.0367       1034.729        87.0927        -999.25        -999.25         0.9456       -43.1634      -2.199543        -999.25      0.9812571
      8532.0000         1.0357       1030.266        86.0325        -999.25        -999.25         0.9458       -43.2068      -2.242943        -999.25       0.980579
      8532.5000         1.0341       1026.395        85.4838        -999.25        -999.25         0.9459       -43.2617      -2.297844        -999.25      0.9797212
      8533.0000         1.0277       1022.587        85.4766        -999.25        -999.25         0.9431       -43.3165      -2.352646        -999.25      0.9788649
      8533.5000         1.0166       1018.778         88.251        -999.25        -999.25         0.9364       -43.3714      -2.407543        -999.25      0.9780071
      8534.0000         1.0055       1014.964        91.2695        -999.25        -999.25         0.9298       -43.4263      -2.462444        -999.25      0.9771493
      8534.5000         0.9945       1011.155        93.2952        -999.25        -999.25         0.9231       -43.4811      -2.517242        -999.25      0.9762931
      8535.0000         0.9834       1019.731        94.0492        -999.25        -999.25         0.9164       -43.4854      -2.521545        -999.25      0.9762259
      8535.5000         0.9723       1030.658        92.0684        -999.25        -999.25         0.9118       -43.4196      -2.455746        -999.25       0.977254
      8536.0000         0.9702         1041.6        90.1273        -999.25        -999.25         0.9078        -43.354      -2.390144        -999.25       0.978279
      8536.5000         0.9769       1052.527        89.3068        -999.25        -999.25         0.9039       -43.2883      -2.324444        -999.25      0.9793056
      8537.0000         0.9847       1063.455        89.6152        -999.25        -999.25            0.9       -43.2226      -2.258743        -999.25      0.9803321
      8537.5000         1.0004       1074.396         89.536        -999.25        -999.25         0.8961       -43.1692      -2.205345        -999.25      0.9811665
      8538.0000          1.016       1085.324        89.4504        -999.25        -999.25         0.8921       -43.1187      -2.154842        -999.25      0.9819556
      8538.5000         1.0317       1096.252        88.2373        -999.25        -999.25          0.898       -43.1761      -2.212246        -999.25      0.9810587
      8539.0000         1.0474       1098.928        86.9097        -999.25        -999.25         0.9056        -43.387      -2.423145        -999.25      0.9777634
      8539.5000         1.0459       1090.377        85.1354        -999.25        -999.25         0.9132       -43.5977      -2.633842        -999.25      0.9744712
      8540.0000         1.0348       1081.838        84.8044        -999.25        -999.25         0.9208       -43.9132      -2.949345        -999.25      0.9695415
      8540.5000         1.0238       1073.287        86.9072        -999.25        -999.25         0.9254       -44.3001      -3.336243        -999.25      0.9634962
