#------------------------------------------------------------------------------
# Created by    : vladimir.rabinovich
# Created on    : 09/19/2023 17:22:29
#------------------------------------------------------------------------------
~Version Information Section
VERS.           2.0     :   CWLS log ASCII Standard - VERSION 2.0
WRAP.           NO      :   One line per depth step
~Well Information Section
#MNEM       .UNIT                                         VALUE :DESCRIPTION
#------------------------------------------------------------------------------
STRT        .FT                                            1202 :START DEPTH
STOP        .FT                                           11047 :STOP DEPTH
STEP        .FT                                             0.5 :STEP      
NULL        .                                           -999.25 :NULL      
COMP        .                                 MESA PETROLEUM CO :COMPANY   
WELL        .                               OCS G03305 ST00BP00 :WELL      
FLD         .                                           WILDCAT :FIELD     
LOC         .                                                   :LOCATION  
CNTY        .                      MATAGORDA ISLAND LARGE BLOCK :LOCATION  
STAT        .                                             TEXAS :STATE     
CTRY        .                                     UNITED STATES :COUNTRY   
SRVC        .                                                   :SERVICE COMPANY
DATE        .                             9/13/2023 11:12:09 AM :LOG DATE  
API         .                                    42703400870000 :API NUMBER
UWI         .                                    42703400870000 :UNIQUE WELL ID
XCOORD      .                                  540264.325087739 :SURFACE X 
YCOORD      .                                   10226560.637492 :SURFACE Y 
LAT         .                                         28.138272 :LATITUDE  
LON         .                                        -96.413655 :LONGITUDE 
ELEV        .FT                                              80 :ELEVATION VALUE
ELEV_TYPE   .                                                KB :ELEVATION REFERENCE TYPE
~Curve Information Section
#MNEM       .UNIT                                      API CODE :CURVE DESCRIPTION
#------------------------------------------------------------------------------
DEPT        .FT                                                 :DEPTH     
CILD        .MMHO                                               :          
DPHI        .%                                                  :          
GR          .GAPI                                               :          
GR_NORM     .GAPI                                               :GammaRay Normalized
ILD         .OHMM                                               :          
ILM         .OHMM                                               :          
SFL         .OHMM                                               :          
SP          .MV                                                 :          
SP_NORM     .MV                                                 :SP Normalized
VSH_GR      .V/V                                                :Volume of Shale from GR
VSH_SP      .V/V                                                :Volume of Shale from SP
~A        DEPTH           CILD           DPHI             GR        GR_NORM            ILD            ILM            SFL             SP        SP_NORM         VSH_GR         VSH_SP
# ...
      5139.5000       2816.891        -999.25        35.8459       42.91263         0.4279          0.411         0.5954      -157.9502      -61.93786       0.210907     0.04784596
      5140.0000       2275.934        -999.25        34.3889       40.36983         0.5361         0.4924         0.8561      -156.7524      -60.73843      0.1568049     0.06658709
      5140.5000       1844.918        -999.25        33.3687       38.58936         0.6408          0.668         1.3183      -155.5769       -59.5613      0.1189225     0.08497965
      5141.0000       1552.471        -999.25         33.439       38.71206         0.7353         0.8293         1.9006      -155.0613      -59.04406      0.1215332     0.09306157
      5141.5000       1314.695        -999.25        34.2042        40.0475         0.8121         0.9344         2.3874      -154.7708      -58.75192      0.1499468     0.09762621
      5142.0000       1181.693        -999.25        35.4018       42.13758         0.8517         1.0008         2.3783      -154.7014      -58.68089      0.1944166     0.09873605
      5142.5000       1144.814        -999.25        36.5921        44.2149         0.8057         1.0058         1.8182       -154.877      -58.85486      0.2386149     0.09601784
      5143.0000       1186.066        -999.25        37.6711         46.098         0.7296         0.9231         1.4789      -155.4141      -59.39032      0.2786808     0.08765125
      5143.5000       1300.779        -999.25         38.364       47.30724         0.6565         0.8225         1.1642      -156.0869      -60.06149      0.3044094     0.07716417
      5144.0000       1480.502        -999.25         38.538       47.61091          0.613         0.7695          1.011      -156.1335      -60.10645      0.3108704     0.07646167
      5144.5000       1573.543        -999.25        38.4399       47.43972         0.5975         0.7301         0.9482      -155.6528      -59.62412      0.3072281     0.08399808
      5145.0000       1595.549        -999.25        37.6466       46.05523         0.6073         0.7227         0.9892       -154.707      -58.67669      0.2777708     0.09880173
      5145.5000        1567.58        -999.25        37.4101       45.64249         0.6215         0.7444         1.0549      -153.7014      -57.66946      0.2689891      0.1145397
      5146.0000       1499.936        -999.25        37.5491       45.88508         0.6564         0.7841         1.1335      -152.5417      -56.50812      0.2741506      0.1326857
      5146.5000       1434.775        -999.25        37.8372       46.38787         0.6956         0.8325          1.235      -151.1509      -55.11568      0.2848483      0.1544425
      5147.0000       1368.771        -999.25        38.4932       47.53273         0.7446         0.8857         1.3411      -149.3906      -53.35374       0.309207      0.1819727
      5147.5000       1286.961        -999.25        39.3048       48.94915         0.8078         0.9475          1.425       -148.238      -52.19952      0.3393436      0.2000074
      5148.0000       1191.037        -999.25        40.1401       50.40693         0.8721         1.0039         1.4703      -147.9641      -51.92397      0.3703602      0.2043129
      5148.5000       1101.871        -999.25        40.3997       50.85999          0.929         1.0564         1.4492      -148.5789      -52.53715      0.3799998      0.1947321
      5149.0000       1031.145        -999.25        40.0838       50.30868         0.9791         1.1209         1.5257      -149.0217      -52.97831      0.3682698      0.1878389
      5149.5000        984.748        -999.25         37.265       45.38926         1.0142          1.187         1.7618      -149.4331      -53.38808      0.2636013      0.1814362
      5150.0000       975.3486        -999.25        34.8574       41.18748         0.9888         1.2408         2.0601      -150.8745      -54.82784      0.1742017        0.15894
      5150.5000       997.5713        -999.25        31.8896       36.00802         0.9565          1.224         2.3172      -153.1548      -57.10651     0.06400039      0.1233358
      5151.0000       1044.068        -999.25        29.4295       31.71462         0.9226         1.1386         2.0584      -155.1877      -59.13777              0     0.09159732
      5151.5000       1125.031        -999.25        28.2001       29.56904         0.8644         1.0054         1.6349      -157.0645      -61.01294              0     0.06229782
      5152.0000       1310.322        -999.25        27.1615       27.75646         0.7498         0.8483         1.3093      -158.6133       -62.5601              0     0.03812337
      5152.5000       1487.063        -999.25         26.663       26.88646         0.6399         0.7297         1.0874      -159.7527      -63.69787              0     0.02034581
      5153.0000       1745.314        -999.25          26.58       26.74162          0.532         0.6599         0.9808      -160.4463      -64.38984              0    0.009533763
      5153.5000       2016.289        -999.25        26.8606       27.23132          0.457         0.5857         0.8575      -160.9434      -64.88531              0    0.001792073
      5154.0000       2321.262        -999.25        27.8576       28.97131         0.4125         0.5127         0.7307      -161.0701      -65.01037              0              0
      5154.5000       2548.398        -999.25        29.2668       31.43067         0.3798         0.4597         0.6397      -160.2402      -64.17883              0     0.01283073
      5155.0000       2597.977        -999.25        30.6932       33.92006         0.3773         0.4424          0.549      -158.1802       -62.1172     0.01957573     0.04504371
      5155.5000       2558.938        -999.25        32.5233       37.11396         0.4056         0.4483          0.491      -155.3518      -59.28717     0.08753107     0.08926296
      5156.0000       2416.293        -999.25        33.9436       39.59269         0.4484         0.4914         0.4569      -151.8115      -55.74522        0.14027      0.1446059
      5156.5000       2175.535        -999.25        34.5626       40.67299         0.5209         0.5649         0.5123      -147.7524      -51.68449      0.1632551      0.2080549
      5157.0000        1956.25        -999.25        33.2879       38.44835         0.6008         0.6712           0.62      -142.4285      -46.35896      0.1159223      0.2912663
      5157.5000       1531.992        -999.25        32.2365       36.61343         0.7063         0.8269         0.7898      -140.3647      -44.29353     0.07688149      0.3235387
      5158.0000       1199.982        -999.25        31.1508       34.71865         0.8755         1.0454         1.0241      -138.8162      -42.74339     0.03656704      0.3477596
      5158.5000       977.3184        -999.25        29.6033       32.01793         1.0683         1.3586         1.7594      -138.2742      -42.19976              0      0.3562537
      5159.0000       786.0645        -999.25         27.986       29.19539         1.3432         1.6594         2.7822      -141.4304      -45.35432              0      0.3069637
      5159.5000       627.8135        -999.25        26.4361       26.49049         1.7043         2.0695         3.0614       -144.699      -48.62129              0      0.2559173
      5160.0000       516.4805        -999.25        26.0175       25.75994         2.0523         2.3526         2.7446      -146.9829      -50.90355              0       0.220257
      5160.5000       433.5278        -999.25        26.1831       26.04895         2.3593         2.6561         2.4293      -147.3286      -51.24762              0      0.2148809
      5161.0000       399.2832        -999.25        26.4211       26.46431         2.5283         2.9971          2.873      -147.6819      -51.59928              0      0.2093862
      5161.5000       386.3169        -999.25        26.7786       27.08821         2.4289         3.1909         4.1139      -148.0381      -51.95385              0      0.2038461
