#------------------------------------------------------------------------------
# Created by    : vladimir.rabinovich
# Created on    : 09/19/2023 17:20:49
#------------------------------------------------------------------------------
~Version Information Section
VERS.           2.0     :   CWLS log ASCII Standard - VERSION 2.0
WRAP.           NO      :   One line per depth step
~Well Information Section
#MNEM       .UNIT                                         VALUE :DESCRIPTION
#------------------------------------------------------------------------------
STRT        .FT                                             507 :START DEPTH
STOP        .FT                                            6530 :STOP DEPTH
STEP        .FT                                             0.5 :STEP      
NULL        .                                           -999.25 :NULL      
COMP        .                                      SHELL OIL CO :COMPANY   
WELL        .                                ST TR 00692-L SE/4 :WELL      
FLD         .                                           WILDCAT :FIELD     
LOC         .                                                   :LOCATION  
CNTY        .                      MATAGORDA ISLAND LARGE BLOCK :LOCATION  
STAT        .                                             TEXAS :STATE     
CTRY        .                                     UNITED STATES :COUNTRY   
SRVC        .                                                   :SERVICE COMPANY
DATE        .                             9/13/2023 11:12:05 AM :LOG DATE  
API         .                                    42703000180000 :API NUMBER
UWI         .                                    42703000180000 :UNIQUE WELL ID
XCOORD      .                                  399042.886430441 :SURFACE X 
YCOORD      .                                  10159669.4462586 :SURFACE Y 
LAT         .                                        27.9430215 :LATITUDE  
LON         .                                       -96.8445442 :LONGITUDE 
ELEV        .FT                                              84 :ELEVATION VALUE
ELEV_TYPE   .                                                DF :ELEVATION REFERENCE TYPE
~Curve Information Section
#MNEM       .UNIT                                      API CODE :CURVE DESCRIPTION
#------------------------------------------------------------------------------
DEPT        .FT                                                 :DEPTH     
ASN         .OHMM                                               :          
CILD        .MMHO                                               :          
ILD         .OHMM                                               :          
SP          .MV                                                 :          
SP_NORM     .MV                                                 :SP Normalized
VSH_SP      .V/V                                                :Volume of Shale from SP
~A        DEPTH            ASN           CILD            ILD             SP        SP_NORM         VSH_SP
# ...
      3319.0000         0.8815       1294.549         0.7792       -49.8642        -9.5049      0.8941365
      3319.5000         0.8738       1291.859         0.7715       -49.8126        -9.4566      0.8950654
      3320.0000         0.8664       1296.779         0.7638       -49.9835        -9.6308      0.8917154
      3320.5000         0.8627       1304.783         0.7561       -50.1799        -9.8305       0.887875
      3321.0000         0.8592       1344.021         0.7315       -50.5351        -10.189      0.8809808
      3321.5000         0.8557       1393.764         0.7062       -50.9091       -10.5663       0.873725
      3322.0000         0.8518       1449.746         0.6809       -51.4467       -11.1072      0.8633231
      3322.5000         0.8454       1499.488         0.6555       -52.2322        -11.896      0.8481538
      3323.0000          0.839       1532.508         0.6341       -53.1519       -12.8191      0.8304019
      3323.5000         0.8241       1567.809         0.6129       -53.5959       -13.2664         0.8218
      3324.0000         0.8086        1625.65         0.6004       -53.1584       -12.8322        0.83015
      3324.5000         0.7931       1725.826         0.5908       -52.7209        -12.398         0.8385
      3325.0000         0.7836       1708.375         0.5811       -52.2833       -11.9637      0.8468519
      3325.5000         0.7918       1693.115         0.5838       -51.9414       -11.6251      0.8533635
      3326.0000         0.8067       1677.906          0.587       -51.8397       -11.5267      0.8552558
      3326.5000         0.8215       1662.689         0.5901        -51.738       -11.4283      0.8571481
      3327.0000         0.8449       1656.377         0.5933       -52.3881       -12.0817      0.8445827
      3327.5000          0.875       1653.688         0.6166       -54.5934       -14.2903      0.8021096
      3328.0000         0.9051       1652.246         0.6401       -58.2647       -17.9649      0.7314442
      3328.5000         0.9352       1635.855         0.6636       -60.9754       -20.6789      0.6792519
      3329.0000         0.9652        1531.32         0.6885       -63.4618       -23.1686       0.631373
      3329.5000         0.9953       1469.068         0.7142       -65.9469        -25.657      0.5835192
      3330.0000         1.0339       1415.811         0.7399       -69.9243       -29.6377      0.5069673
      3330.5000         1.0749       1363.393         0.7077       -71.1713        -30.888      0.4829231
      3331.0000         1.1099       1367.307         0.6654       -74.3281       -34.0481      0.4221519
      3331.5000         1.1316       1482.568         0.6231       -79.3628       -39.0861      0.3252673
      3332.0000         0.9937       1586.313         0.5808       -77.7422       -37.4689      0.3563673
      3332.5000         0.7957       1708.238         0.5385        -76.183        -35.913      0.3862885
      3333.0000         0.7312       1830.164         0.4962       -74.7074       -34.4407      0.4146019
      3333.5000         0.7149       1952.041         0.4534       -73.2324        -32.969      0.4429038
      3334.0000         0.7017        2262.25         0.4099       -70.1362       -29.8761      0.5023827
      3334.5000         0.7061        2696.25         0.3325       -78.2993       -38.0425      0.3453366
      3335.0000         0.7285         3130.5         0.3043       -79.8921       -39.6386      0.3146423
      3335.5000         0.7509       3535.281         0.2881       -82.3103       -42.0601       0.268075
      3336.0000         0.7806       3378.133           0.28       -86.5518       -46.3049      0.1864442
      3336.5000         0.8106        3220.98         0.2838       -90.7932       -50.5496      0.1048154
      3337.0000         0.8405       3063.828         0.2935       -95.0347       -54.7944     0.02318463
      3337.5000         0.8772       2906.676         0.3243       -93.4431       -53.2061     0.05372884
      3338.0000         0.9206       2749.527         0.3552       -90.0396       -49.8059      0.1191173
      3338.5000         0.9536       2592.375          0.386       -86.6385       -46.4081      0.1844596
      3339.0000         0.9796       2435.223         0.4169        -83.235       -43.0079      0.2498481
      3339.5000         0.9653        2278.07         0.4477       -79.8313       -39.6075      0.3152404
      3340.0000         0.8595       2120.922         0.4785       -76.4303       -36.2098      0.3805808
      3340.5000         0.7935        2007.15         0.5204       -73.0267       -32.8095      0.4459711
      3341.0000         0.7958       1922.613         0.5878       -69.6256       -29.4118      0.5113115
      3341.5000         0.8637       1753.473         0.6552        -66.222       -26.0115      0.5767019
      3342.0000         0.9379        1584.43          0.747        -62.821       -22.6138      0.6420423
      3342.5000         1.0125       1415.289         0.8583       -59.4174       -19.2135      0.7074327
      3343.0000         1.1615       1246.248         0.8955       -56.0138       -15.8132      0.7728231
      3343.5000         1.3804       1077.107         0.8995       -52.6127       -12.4154      0.8381654
      3344.0000         1.5004       1069.439         0.8831       -52.1665       -11.9725      0.8466827
      3344.5000          1.558       1099.551         0.8667       -56.9112       -16.7205       0.755375
      3345.0000         1.5797       1189.992         0.8504       -61.6559       -21.4685      0.6640673
      3345.5000         1.5928       1218.615         0.8249       -66.4005       -26.2164      0.5727615
      3346.0000         1.5764       1245.121         0.7975       -71.1451       -30.9643      0.4814558
      3346.5000         1.5537       1259.178         0.7702       -75.8899       -35.7124      0.3901462
      3347.0000         1.5265       1273.242         0.7428       -80.6345       -40.4603      0.2988404
      3347.5000         1.5219       1286.998         0.7154       -85.3792       -45.2083      0.2075327
      3348.0000         1.5397       1300.447         0.6881       -89.5221       -49.3545      0.1277981
      3348.5000         1.5558       1320.463         0.6607        -89.624       -49.4597       0.125775
      3349.0000         1.5675       1359.033         0.6333       -89.0735       -48.9125      0.1362981
      3349.5000          1.561       1684.211         0.6086       -88.6666       -48.5089      0.1440596
      3350.0000         1.5593       1853.648         0.5875       -88.5863        -48.432      0.1455385
      3350.5000         1.5512       1884.176         0.5664       -89.7607       -49.6096      0.1228923
      3351.0000         1.5449       1891.602         0.5453        -91.499       -51.3513     0.08939809
      3351.5000         1.5398       1899.135         0.5242       -92.5117       -52.3673     0.06985965
      3352.0000         1.5369        1908.84         0.5134       -94.0145       -53.8734     0.04089612
      3352.5000         1.5349       1925.201          0.509       -94.3428        -54.205      0.0345192
      3353.0000         1.5487       1950.977         0.5046       -94.2557       -54.1212     0.03613076
      3353.5000         1.5696       1975.018         0.5001       -94.4879       -54.3567     0.03160191
      3354.0000         1.5953       1971.277         0.4957       -94.7235       -54.5956     0.02700769
      3354.5000         1.6414       1947.311         0.4913        -95.201       -55.0764     0.01776152
      3355.0000         1.6976        1922.34         0.4997       -95.6835       -55.5622    0.008419257
      3355.5000         1.7036       1894.262         0.5153       -96.1876       -56.0696              0
      3356.0000         1.7108       1866.184         0.5309       -96.6918       -56.5771              0
      3356.5000          1.836       1839.641         0.5452       -97.0731       -56.9617              0
