#------------------------------------------------------------------------------
# Created by    : vladimir.rabinovich
# Created on    : 09/19/2023 17:22:44
#------------------------------------------------------------------------------
~Version Information Section
VERS.           2.0     :   CWLS log ASCII Standard - VERSION 2.0
WRAP.           NO      :   One line per depth step
~Well Information Section
#MNEM       .UNIT                                         VALUE :DESCRIPTION
#------------------------------------------------------------------------------
STRT        .FT                                            3420 :START DEPTH
STOP        .FT                                           11707 :STOP DEPTH
STEP        .FT                                             0.5 :STEP      
NULL        .                                           -999.25 :NULL      
COMP        .                        TRI-UNION DEVELOPMENT CORP :COMPANY   
WELL        .                               OCS G08154 ST00BP00 :WELL      
FLD         .                                           WILDCAT :FIELD     
LOC         .                                                   :LOCATION  
CNTY        .                           HIGH ISLAND LARGE BLOCK :LOCATION  
STAT        .                                             TEXAS :STATE     
CTRY        .                                     UNITED STATES :COUNTRY   
SRVC        .                                                   :SERVICE COMPANY
DATE        .                             9/13/2023 11:19:57 AM :LOG DATE  
API         .                                    42708403520000 :API NUMBER
UWI         .                                    42708403520000 :UNIQUE WELL ID
XCOORD      .                                  1180527.91159004 :SURFACE X 
YCOORD      .                                  10524923.1623167 :SURFACE Y 
LAT         .                                        28.9940426 :LATITUDE  
LON         .                                       -94.4389714 :LONGITUDE 
ELEV        .FT                                             100 :ELEVATION VALUE
ELEV_TYPE   .                                                KB :ELEVATION REFERENCE TYPE
~Curve Information Section
#MNEM       .UNIT                                      API CODE :CURVE DESCRIPTION
#------------------------------------------------------------------------------
DEPT        .FT                                                 :DEPTH     
DCAL        .IN                                                 :          
DPHI        .%                                                  :          
DRHO        .G/C3                                               :          
GR          .GAPI                                               :          
GR_NORM     .GAPI                                               :GammaRay Normalized
ILD         .OHMM                                               :          
ILM         .OHMM                                               :          
NPHI        .%                                                  :          
SFL         .OHMM                                               :          
SP          .MV                                                 :          
SP_NORM     .MV                                                 :SP Normalized
VSH_GR      .V/V                                                :Volume of Shale from GR
VSH_SP      .V/V                                                :Volume of Shale from SP
~A        DEPTH           DCAL           DPHI           DRHO             GR        GR_NORM            ILD            ILM           NPHI            SFL             SP        SP_NORM         VSH_GR         VSH_SP
# ...
      7866.0000        11.4834        24.2497         0.0036        72.1996        73.2942         0.9472         0.8002        34.1703         0.7747       -37.8129        -3.8506      0.8573233      0.9439212
      7866.5000        11.5106        24.2212         0.0043        72.5975       73.74587         0.9123         0.7847        34.4884         0.7668       -37.6442        -3.6819      0.8669335      0.9490333
      7867.0000        11.5378        23.9861         0.0013        72.1337       73.21972         0.8805         0.7766        34.0325         0.7652       -37.4608        -3.4985      0.8557387      0.9545909
      7867.5000        11.5598        23.5423         0.0033        71.5059       72.50748         0.8532         0.7726        32.8428         0.7661       -37.1927        -3.2304      0.8405848      0.9627151
      7868.0000        11.5753        23.1759         0.0068        70.7623       71.66385         0.8267         0.7762         32.092         0.7753        -37.012        -3.0497      0.8226351      0.9681909
      7868.5000        11.5657        23.0797         0.0112        70.7324       71.63007         0.8051         0.7738        32.5747         0.7831       -36.9028        -2.9405      0.8219165         0.9715
      7869.0000        11.5377        23.2308         0.0111         72.364        73.4817         0.7876         0.7611        33.6519         0.7913       -36.8042        -2.8419      0.8613127      0.9744879
      7869.5000        11.5523        23.5532         0.0094        74.4391       75.83658         0.7704         0.7286        34.9972         0.7764       -36.8572        -2.8949      0.9114166      0.9728818
      7870.0000        11.5791          24.11         0.0073        75.8444        77.4314         0.7532         0.7067        36.2397         0.6892       -36.9102        -2.9479       0.945349      0.9712757
      7870.5000         11.611        24.7413        -0.0002        76.1666       77.79719         0.7363         0.6892        37.1383         0.6871       -36.9561        -2.9938      0.9531317      0.9698849
      7871.0000        11.6818        25.1992        -0.0079        76.5266       78.20585         0.7253         0.6737        37.1368         0.6952       -36.9984        -3.0361      0.9618266       0.968603
      7871.5000        11.7702        25.2689        -0.0161        77.0403       78.78893         0.7161         0.6607         37.102         0.7033       -37.0409        -3.0786      0.9742326      0.9673151
      7872.0000        11.8534        25.2923        -0.0116        77.4956       79.30575         0.7078         0.6589        36.9266         0.7087       -36.9857        -3.0234      0.9852287      0.9689879
      7872.5000        11.9045         25.217         -0.008        77.7061       79.54476            0.7         0.6705        36.3152         0.7088       -36.8684        -2.9061      0.9903141      0.9725424
      7873.0000        11.9325        25.0841        -0.0069        78.0399       79.92371         0.6922         0.6837        36.4344          0.704       -36.7512        -2.7889      0.9983769      0.9760939
      7873.5000        11.9419         24.692        -0.0058        78.6776       80.64749         0.6849         0.6704        36.8766         0.7021       -36.5696        -2.6073              1      0.9815969
      7874.0000        11.9254        24.2438        -0.0043        79.0874       81.11268         0.6777         0.6388        37.4808         0.6897       -36.4152        -2.4529              1      0.9862757
      7874.5000        11.9179         23.834        -0.0028        75.9735       77.57934         0.6711         0.6279        38.8098         0.6535       -36.8586        -2.8963      0.9484966      0.9728394
      7875.0000        11.9312        23.7605        -0.0006        74.6433       76.07005         0.6714         0.6245        39.2999         0.6317       -37.5001        -3.5378      0.9163839         0.9534
      7875.5000        11.9353        23.8514         0.0023        76.1554       77.78606         0.6717         0.6149        39.2131         0.6409       -37.9967        -4.0344       0.952895      0.9383515
      7876.0000        11.8813        23.8344         0.0045        76.3373       77.99264         0.6673         0.6117        39.4225         0.6431       -37.8454        -3.8831      0.9572902      0.9429364
      7876.5000        11.8274        23.7552         0.0035        74.9722       76.44373          0.655         0.6128        39.9897         0.6378       -37.6642        -3.7019      0.9243348      0.9484273
      7877.0000        11.7763        24.2004          0.003        73.4701        74.7394         0.6313         0.6078        40.9059         0.6253       -37.4474        -3.4851      0.8880723      0.9549969
      7877.5000         11.708        24.6023         0.0052        73.4108       74.67226         0.6037         0.5891        40.9656         0.6059       -37.3204        -3.3581      0.8866438      0.9588454
      7878.0000        11.6087        24.8746         0.0069        76.8704       78.59821         0.6028         0.5934        39.6486         0.5894       -37.1467        -3.1844      0.9701747      0.9641091
      7878.5000        11.5565        24.6888         0.0064        81.0951       83.39235         0.6132         0.6035        36.5675         0.5935       -36.8773         -2.915              1      0.9722728
      7879.0000         11.595         24.503          0.006        83.6232       86.26127         0.6267         0.6124        35.8077         0.6302       -36.8211        -2.8588              1      0.9739758
      7879.5000        11.5657        24.2695         0.0055        83.5457       86.17349         0.6397         0.6204        35.5751         0.6481       -36.8798        -2.9175              1       0.972197
      7880.0000        11.4575         24.069         0.0052        81.6481       84.02036         0.6494         0.6214         35.747         0.6558       -37.3419        -3.3796              1       0.958194
      7880.5000        11.4742         24.143         0.0046        77.4532       79.26034         0.6601         0.6224        36.5765         0.6629       -37.4698        -3.5075      0.9842625      0.9543182
      7881.0000        11.4817        23.9468         0.0024        75.1346       76.62946         0.6721         0.6479        37.3065         0.6809       -37.2516        -3.2893      0.9282864      0.9609303
      7881.5000        11.4803        23.6548        -0.0004        75.0967       76.58662         0.6853         0.6728        37.6238         0.6955        -36.957        -2.9947      0.9273748      0.9698576
      7882.0000        11.4789        23.6306        -0.0045        77.5504       79.37112         0.7024         0.6941        39.3596         0.6945       -36.8655        -2.9032      0.9866195      0.9726303
      7882.5000        11.4985        23.7031        -0.0051         77.835       79.69422         0.7193         0.7173        39.1346         0.6734       -36.8212        -2.8589      0.9934941      0.9739727
      7883.0000        11.5242        23.7081        -0.0049        77.3037       79.09148         0.7264         0.7367        38.2451         0.6533       -36.9122        -2.9499      0.9806699      0.9712151
      7883.5000        11.5477         23.136        -0.0046        76.9183        78.6543         0.7436         0.7532        36.0431         0.6709       -37.0872        -3.1249      0.9713682      0.9659121
      7884.0000        11.5685        22.4853        -0.0042        76.6337       78.33151         0.7745         0.7866        31.8953         0.7027       -37.3671        -3.4048      0.9645002      0.9574303
      7884.5000        11.5799        21.8444        -0.0038        76.6898       78.39533         0.8357          0.825        29.1838           0.78       -37.6629        -3.7006      0.9658582      0.9484667
