#------------------------------------------------------------------------------
# Created by    : vladimir.rabinovich
# Created on    : 09/19/2023 17:22:42
#------------------------------------------------------------------------------
~Version Information Section
VERS.           2.0     :   CWLS log ASCII Standard - VERSION 2.0
WRAP.           NO      :   One line per depth step
~Well Information Section
#MNEM       .UNIT                                         VALUE :DESCRIPTION
#------------------------------------------------------------------------------
STRT        .FT                                              96 :START DEPTH
STOP        .FT                                            7107 :STOP DEPTH
STEP        .FT                                             0.5 :STEP      
NULL        .                                           -999.25 :NULL      
COMP        .                                  XTO OFFSHORE INC :COMPANY   
WELL        .                               OCS G23162 ST00BP00 :WELL      
FLD         .                                 BRAZOS BLOCK 0398 :FIELD     
LOC         .                                                   :LOCATION  
CNTY        .                                BRAZOS LARGE BLOCK :LOCATION  
STAT        .                                             TEXAS :STATE     
CTRY        .                                     UNITED STATES :COUNTRY   
SRVC        .                                                   :SERVICE COMPANY
DATE        .                             9/13/2023 11:18:28 AM :LOG DATE  
API         .                                    42704403370000 :API NUMBER
UWI         .                                    42704403370000 :UNIQUE WELL ID
XCOORD      .                                  864551.184430364 :SURFACE X 
YCOORD      .                                  10381025.1526549 :SURFACE Y 
LAT         .                                        28.5842785 :LATITUDE  
LON         .                                       -95.4179199 :LONGITUDE 
ELEV        .FT                                             100 :ELEVATION VALUE
ELEV_TYPE   .                                                KB :ELEVATION REFERENCE TYPE
~Curve Information Section
#MNEM       .UNIT                                      API CODE :CURVE DESCRIPTION
#------------------------------------------------------------------------------
DEPT        .FT                                                 :DEPTH     
DCAL        .IN                                                 :          
DPHI        .FRAC                                               :          
DT          .US/F                                               :          
GR          .GAPI                                               :          
GR_NORM     .GAPI                                               :GammaRay Normalized
HT01        .OHMM                                               :          
HT02        .OHMM                                               :          
HT03        .OHMM                                               :          
HT06        .OHMM                                               :          
HT09        .OHMM                                               :          
HT12        .OHMM                                               :          
NPHI        .FRAC                                               :          
RWA         .OHMM                                               :          
SP          .MV                                                 :          
TENS        .LB                                                 :          
VSH_GR      .V/V                                                :Volume of Shale from GR
~A        DEPTH           DCAL           DPHI             DT             GR        GR_NORM           HT01           HT02           HT03           HT06           HT09           HT12           NPHI            RWA             SP           TENS         VSH_GR
# ...
      1968.0000        -999.25        -999.25        -999.25        76.2469       73.65428         0.8363         0.9178         0.9291          0.963         0.9687         0.9693        -999.25        -999.25       116.0422       1489.337      0.8649847
      1968.5000        -999.25        -999.25        -999.25         78.899       76.59677         0.8439         0.9266         0.9386         0.9729         0.9786         0.9791        -999.25        -999.25       116.0659       1494.634      0.9275909
      1969.0000        -999.25        -999.25        -999.25        84.3591       82.65926         0.8475         0.9305         0.9432          0.978         0.9837         0.9841        -999.25        -999.25       116.1132       1498.062              1
      1969.5000        -999.25        -999.25        -999.25        93.9144       93.27198         0.8447         0.9269           0.94         0.9753          0.981         0.9814        -999.25        -999.25       116.2374       1498.062              1
      1970.0000        -999.25        -999.25        -999.25       100.4275       100.5045         0.8341         0.9141         0.9272         0.9627         0.9684         0.9688        -999.25        -999.25       116.5863       1498.685              1
      1970.5000        -999.25        -999.25        -999.25        99.0625       98.98354          0.817         0.8938         0.9065          0.942         0.9477         0.9481        -999.25        -999.25       116.8347       1505.228              1
      1971.0000        -999.25        -999.25        -999.25        89.7802       88.66558         0.7968         0.8699          0.882         0.9173         0.9229         0.9234        -999.25        -999.25       116.8997       1513.329              1
      1971.5000        -999.25        -999.25        -999.25         80.693       78.56441         0.7778         0.8476          0.859          0.894         0.8997         0.9002        -999.25        -999.25       116.6691       1516.134      0.9694557
      1972.0000        -999.25        -999.25        -999.25         82.019       80.03348         0.7634         0.8308         0.8416         0.8764         0.8822         0.8828        -999.25        -999.25       116.2906       1515.199              1
      1972.5000        -999.25        -999.25        -999.25        83.0721        81.1993         0.7552         0.8216         0.8319         0.8665         0.8724         0.8732        -999.25        -999.25       116.0422       1505.228              1
      1973.0000        -999.25        -999.25        -999.25         79.367       77.07825          0.752         0.8183         0.8283          0.863         0.8689         0.8699        -999.25        -999.25       115.8234       1498.685       0.937835
      1973.5000        -999.25        -999.25        -999.25        83.2281       81.36409         0.7512         0.8179         0.8278         0.8623         0.8683         0.8695        -999.25        -999.25       115.6342       1508.655              1
      1974.0000        -999.25        -999.25        -999.25        88.3372       87.03658         0.7507         0.8179         0.8279         0.8621         0.8682         0.8696        -999.25        -999.25       115.6164       1524.547              1
      1974.5000        -999.25        -999.25        -999.25        92.2373       91.36574         0.7502         0.8179         0.8282         0.8619          0.868         0.8695        -999.25        -999.25       115.8471       1546.358              1
      1975.0000        -999.25        -999.25        -999.25        91.9253       91.01479         0.7496         0.8178         0.8285         0.8616         0.8676         0.8693        -999.25        -999.25        116.125       1564.118              1
      1975.5000        -999.25        -999.25        -999.25        83.9691        82.1703         0.7494         0.8182         0.8291         0.8617         0.8675         0.8694        -999.25        -999.25       116.2906       1570.973              1
      1976.0000        -999.25        -999.25        -999.25        74.0238       71.11568         0.7491         0.8184         0.8296         0.8615         0.8671         0.8691        -999.25        -999.25       116.2374       1572.531       0.810972
      1976.5000        -999.25        -999.25        -999.25        77.5339       75.01151          0.748         0.8176         0.8289         0.8601         0.8655         0.8675        -999.25        -999.25       115.9831       1569.415      0.8938619
      1977.0000        -999.25        -999.25        -999.25        88.9612       87.70423          0.746         0.8157         0.8271         0.8575         0.8627         0.8646        -999.25        -999.25         115.51       1558.198              1
      1977.5000        -999.25        -999.25        -999.25        89.1952       87.95995          0.746         0.8161         0.8275         0.8572         0.8622         0.8641        -999.25        -999.25       115.0664       1543.553              1
      1978.0000        -999.25        -999.25        -999.25        82.9161       80.97889         0.7516         0.8233         0.8347          0.864         0.8687         0.8705        -999.25        -999.25       114.7353       1539.503              1
      1978.5000        -999.25        -999.25        -999.25        84.0081       82.18795         0.7647         0.8394         0.8512         0.8804         0.8849         0.8866        -999.25        -999.25       114.5933       1535.452              1
      1979.0000        -999.25        -999.25        -999.25        92.3153       91.41389         0.7845         0.8637         0.8761         0.9057         0.9101         0.9116        -999.25        -999.25       114.8121        1529.22              1
      1979.5000        -999.25        -999.25        -999.25        95.0454       94.44305         0.8073         0.8917         0.9052         0.9352         0.9396         0.9408        -999.25        -999.25       115.4982       1527.039              1
      1980.0000        -999.25        -999.25        -999.25        94.3044       93.61543         0.8265         0.9155         0.9302         0.9608          0.965          0.966        -999.25        -999.25       116.2965       1519.873              1
      1980.5000        -999.25        -999.25        -999.25        93.2123       92.39772         0.8372         0.9289         0.9448         0.9757         0.9798         0.9805        -999.25        -999.25       116.8524       1518.626              1
      1981.0000        -999.25        -999.25        -999.25        90.6383       89.53342         0.8391         0.9315         0.9485         0.9797         0.9836          0.984        -999.25        -999.25       117.1658       1525.793              1
      1981.5000        -999.25        -999.25        -999.25        83.4231       81.51227         0.8368         0.9289         0.9467         0.9782         0.9821          0.982        -999.25        -999.25       117.1658       1537.322              1
      1982.0000        -999.25        -999.25        -999.25        74.9599       72.10443          0.835         0.9269         0.9452         0.9772         0.9811         0.9807        -999.25        -999.25       116.8642       1552.901      0.8320092
      1982.5000        -999.25        -999.25        -999.25        74.5179       71.60904         0.8337         0.9255          0.944         0.9768         0.9807         0.9799        -999.25        -999.25       116.3379       1561.938      0.8214689
      1983.0000        -999.25        -999.25        -999.25         79.159       76.76154         0.8321         0.9237         0.9424          0.976           0.98         0.9789        -999.25        -999.25       115.8944       1560.691      0.9310965
      1983.5000        -999.25        -999.25        -999.25         80.563       78.31726         0.8297          0.921         0.9397         0.9742         0.9782         0.9769        -999.25        -999.25       115.5928       1550.409       0.964197
