#------------------------------------------------------------------------------
# Created by    : vladimir.rabinovich
# Created on    : 09/19/2023 17:20:02
#------------------------------------------------------------------------------
~Version Information Section
VERS.           2.0     :   CWLS log ASCII Standard - VERSION 2.0
WRAP.           NO      :   One line per depth step
~Well Information Section
#MNEM       .UNIT                                         VALUE :DESCRIPTION
#------------------------------------------------------------------------------
STRT        .FT                                             994 :START DEPTH
STOP        .FT                                           14137 :STOP DEPTH
STEP        .FT                                             0.5 :STEP      
NULL        .                                           -999.25 :NULL      
COMP        .                                   MARATHON OIL CO :COMPANY   
WELL        .                                     ST TR 00841-L :WELL      
FLD         .                                           WILDCAT :FIELD     
LOC         .                                                   :LOCATION  
CNTY        .                        MUSTANG ISLAND LARGE BLOCK :LOCATION  
STAT        .                                             TEXAS :STATE     
CTRY        .                                     UNITED STATES :COUNTRY   
SRVC        .                                                   :SERVICE COMPANY
DATE        .                             9/13/2023 11:18:55 AM :LOG DATE  
API         .                                    42702301400000 :API NUMBER
UWI         .                                    42702301400000 :UNIQUE WELL ID
XCOORD      .                                  272565.632686387 :SURFACE X 
YCOORD      .                                  9953986.84876921 :SURFACE Y 
LAT         .                                         27.367086 :LATITUDE  
LON         .                                       -97.2136853 :LONGITUDE 
ELEV        .FT                                              88 :ELEVATION VALUE
ELEV_TYPE   .                                                KB :ELEVATION REFERENCE TYPE
~Curve Information Section
#MNEM       .UNIT                                      API CODE :CURVE DESCRIPTION
#------------------------------------------------------------------------------
DEPT        .FT                                                 :DEPTH     
ASFL        .OHMM                                               :          
CILD        .MMHO                                               :          
GR          .GAPI                                               :          
GR_NORM     .GAPI                                               :GammaRay Normalized
ILD         .OHMM                                               :          
SP          .MV                                                 :          
SP_NORM     .MV                                                 :SP Normalized
VSH_GR      .V/V                                                :Volume of Shale from GR
VSH_SP      .V/V                                                :Volume of Shale from SP
~A        DEPTH           ASFL           CILD             GR        GR_NORM            ILD             SP        SP_NORM         VSH_GR         VSH_SP
# ...
      6241.0000         0.8773       1417.363        56.8444         68.264          0.903       -57.1836      -15.21494      0.7502978      0.7939863
      6241.5000         0.9487       1359.271        59.2295        72.6914         0.9623       -49.6528      -7.689568      0.8444979      0.9030498
      6242.0000         1.0232       1289.324        60.9157       75.82124         1.0282       -47.1713      -5.213493      0.9110903      0.9389349
      6242.5000         1.0771       1067.023        60.8896       75.77197         1.1024         -46.59      -4.637619      0.9100418      0.9472809
      6243.0000         1.1362       1017.302        59.7344        73.6264          1.171       -47.5475      -5.600548      0.8643914      0.9333254
      6243.5000         1.1475       973.3105         57.593       69.64984         1.2258       -48.5037      -6.562172      0.7797838      0.9193888
      6244.0000         1.1127       929.3682        56.3507       67.34257         1.2807       -49.6005      -7.664398      0.7306929      0.9034145
      6244.5000         1.0786       868.4375        55.3705        65.5219         1.2871        -50.716      -8.785328      0.6919553      0.8871692
      6245.0000         1.0462       871.0781        55.0478       64.92195         1.2765       -52.0229      -10.09765      0.6791905      0.8681499
      6245.5000         1.0139       910.0381        54.8258       64.50899         1.2658       -53.2289      -11.30908       0.670404       0.850593
      6246.0000          0.978        948.001        54.4655       63.83924         1.2473       -52.8719       -10.9575      0.6561542      0.8556883
      6246.5000         0.9544       968.8262        53.6721       62.36539         1.2163       -52.3488      -10.43983      0.6247956      0.8631908
      6247.0000         0.9723       989.6768         52.982       61.08332         1.1854       -50.8453      -8.941757      0.5975174      0.8849021
      6247.5000         1.0016       1006.093        52.4243       60.04712         1.1703       -49.3406      -7.442486      0.5754707      0.9066306
      6248.0000          1.031       964.4922        51.2908       57.94184         1.1774       -47.7477      -5.855011      0.5306776      0.9296376
      6248.5000         1.0763       922.8916        49.9689       55.48675         1.1845       -46.2667       -4.37944      0.4784415      0.9510226
      6249.0000         1.1935       874.9639        48.6458       53.02948         1.1916        -45.135      -3.253162      0.4261591      0.9673455
      6249.5000         1.2479       824.8691        47.6758       51.22777         1.1987       -43.6142      -1.737793      0.3878249      0.9893073
      6250.0000         1.2786       804.4424        46.9191       49.82206         1.2453        -40.968      0.9029808      0.3579161              1
      6250.5000          1.311       784.0156        46.4932       49.03051         1.2971       -39.8351       2.030457      0.3410748              1
      6251.0000         1.3306       766.8027        47.0112       49.99144         1.3452       -40.6993       1.160828      0.3615199              1
      6251.5000         1.3341       759.9092        47.5297       50.95328         1.3812       -41.5822      0.2725029      0.3819846              1
      6252.0000          1.326       753.0215        48.0476       51.91402         1.3975       -42.4639     -0.6146278       0.402426              1
      6252.5000         1.3172        750.374          48.54        52.8274         1.4138       -43.3443       -1.50045      0.4218597      0.9927471
      6253.0000         1.3081        761.584        48.2568       52.30079         1.4301       -44.0575      -2.219078      0.4106552      0.9823322
      6253.5000          1.299       772.7939        47.9733       51.77364         1.4289       -44.7707      -2.937702      0.3994392      0.9719173
      6254.0000          1.309       784.0039        47.6901       51.24706         1.4024       -45.8351       -4.00753      0.3882352      0.9564126
      6254.5000         1.3289       801.8271        47.4066        50.7199         1.3759       -47.3361      -5.513958      0.3770191      0.9345803
      6255.0000         1.3487       839.9893        46.4932       49.02326         1.3373       -48.9725      -7.155785      0.3409204      0.9107857
      6255.5000         1.3717       878.1523        43.9315       44.26637         1.2612       -50.6091      -8.797813      0.2397101      0.8869882
      6256.0000         1.3982       919.0557        42.1533       40.96413         1.1758       -54.6866      -12.88074      0.1694497      0.8278154
      6256.5000         1.4233       994.8828        40.7207       38.30354         1.0792       -58.8947      -17.09426      0.1128413      0.7667498
      6257.0000         1.4461       1114.354        39.8763       36.73502         0.9869       -63.0978      -21.30279     0.07946842      0.7057567
      6257.5000         1.5008       1245.381        38.5793       34.32618         0.8863       -67.3059      -25.51632      0.0282165      0.6446911
      6258.0000         1.4492       1486.416        35.9008       29.35243         0.7797       -72.2303      -30.44614              0      0.5732443
      6258.5000         1.3794       1715.193         34.605       26.94582         0.6328        -84.606      -42.82727              0      0.3938076
      6259.0000         1.3159       1822.209        34.0684       25.94876          0.578       -95.9906       -54.2173              0      0.2287348
      6259.5000         1.1931       1914.676        34.3389       26.45017          0.564       -97.6183      -55.85043              0      0.2050663
      6260.0000         1.1759       2013.719        34.6094       26.95158         0.5788       -99.7634      -58.00095              0      0.1738993
      6260.5000         1.1881       2064.363        34.8795       27.45224         0.5979      -100.8938      -59.13678              0       0.157438
      6261.0000         1.2004         2019.1          35.15       27.95366         0.6256      -101.8899      -60.13831              0      0.1429231
      6261.5000         1.2166       1963.352        35.5234       28.64611         0.6532      -102.4159      -60.66973              0      0.1352213
      6262.0000         1.2484       1907.551        36.1619       29.83075         0.6809      -101.2644      -59.52365              0      0.1518311
      6262.5000         1.2777       1851.402        36.8011       31.01668         0.7086       -99.3096      -57.57428              0      0.1800828
      6263.0000         1.2679       1788.279        37.4396       32.20132         0.7473       -93.9524      -52.22251              0      0.2576448
      6263.5000         1.2394       1725.156        38.8181       34.75987         0.8017       -88.5156      -46.79114      0.0374441      0.3363603
      6264.0000         1.2475       1660.391        40.3265       37.55958          0.856        -83.079      -41.35997      0.0970123      0.4150729
      6264.5000         1.2688       1505.348        41.8076        40.3086           0.91       -77.6422      -35.92859      0.1555021      0.4937886
      6265.0000         1.3339        1098.51        43.2488       42.98354         0.9639       -72.2054      -30.49722      0.2124157      0.5725041
      6265.5000          1.467        1064.01         44.817       45.89428         1.0177       -66.7688      -25.06604      0.2743464      0.6512168
      6266.0000            1.5       1037.902        46.6151       49.23186         1.0603        -61.332      -19.63467      0.3453587      0.7299323
      6266.5000         1.5488       1004.996         47.544       50.95566         1.0985       -55.8953       -14.2034      0.3820353      0.8086464
      6267.0000         1.6402       1010.054        48.3921       52.52945         1.1367       -55.2338      -13.54732      0.4155201      0.8181548
