#------------------------------------------------------------------------------
# Created by    : vladimir.rabinovich
# Created on    : 09/19/2023 17:22:30
#------------------------------------------------------------------------------
~Version Information Section
VERS.           2.0     :   CWLS log ASCII Standard - VERSION 2.0
WRAP.           NO      :   One line per depth step
~Well Information Section
#MNEM       .UNIT                                         VALUE :DESCRIPTION
#------------------------------------------------------------------------------
STRT        .FT                                             456 :START DEPTH
STOP        .FT                                           11667 :STOP DEPTH
STEP        .FT                                             0.5 :STEP      
NULL        .                                           -999.25 :NULL      
COMP        .                              PATRICK PETROLEUM CO :COMPANY   
WELL        .                                     ST TR 00693-L :WELL      
FLD         .                                           WILDCAT :FIELD     
LOC         .                                                   :LOCATION  
CNTY        .                      MATAGORDA ISLAND LARGE BLOCK :LOCATION  
STAT        .                                             TEXAS :STATE     
CTRY        .                                     UNITED STATES :COUNTRY   
SRVC        .                                                   :SERVICE COMPANY
DATE        .                             9/13/2023 11:12:01 AM :LOG DATE  
API         .                                    42703302660000 :API NUMBER
UWI         .                                    42703302660000 :UNIQUE WELL ID
XCOORD      .                                  384413.417453263 :SURFACE X 
YCOORD      .                                  10143960.4717662 :SURFACE Y 
LAT         .                                        27.8986234 :LATITUDE  
LON         .                                       -96.8882217 :LONGITUDE 
ELEV        .FT                                              92 :ELEVATION VALUE
ELEV_TYPE   .                                                KB :ELEVATION REFERENCE TYPE
~Curve Information Section
#MNEM       .UNIT                                      API CODE :CURVE DESCRIPTION
#------------------------------------------------------------------------------
DEPT        .FT                                                 :DEPTH     
CILD        .MMHO                                               :          
DPHI        .%                                                  :          
DT          .US/F                                               :          
GR          .GAPI                                               :          
GR_NORM     .GAPI                                               :GammaRay Normalized
ILD         .OHMM                                               :          
SN          .OHMM                                               :          
SP          .MV                                                 :          
SP_NORM     .MV                                                 :SP Normalized
VSH_GR      .V/V                                                :Volume of Shale from GR
VSH_SP      .V/V                                                :Volume of Shale from SP
~A        DEPTH           CILD           DPHI             DT             GR        GR_NORM            ILD             SN             SP        SP_NORM         VSH_GR         VSH_SP
# ...
      4191.0000          587.6         26.088        -999.25        33.1909       40.95259         1.6958         1.6695         -20.77      -4.314236      0.1692041      0.9490117
      4191.5000          674.8         27.552        -999.25          36.16       44.52503         1.4346         1.6104         -21.58      -5.127031      0.2452134      0.9365072
      4192.0000       746.9091         29.004        -999.25        40.1437       49.31901         1.3202         1.5971          -21.8      -5.349827       0.347213      0.9330796
      4192.5000          783.6         29.136        -999.25        45.2323       55.44326         1.2612         1.5971          -21.9      -5.452623      0.4775161      0.9314981
      4193.0000       799.9763          28.14        -999.25        50.2444        61.4754         1.2442          1.584         -21.41       -4.96542      0.6058596      0.9389935
      4193.5000       811.8812         27.072        -999.25        56.2727       68.73103         1.2244         1.5648         -21.23      -4.788216      0.7602346      0.9417198
      4194.0000       814.0414         26.292        -999.25           58.9       71.89194         1.2205         1.5609         -21.63      -5.191011       0.827488      0.9355229
      4194.5000       804.7406         27.084        -999.25           56.7       69.24091         1.2341         1.5609       -22.2182      -5.782009      0.7710832      0.9264306
      4195.0000            774           27.6        -999.25           54.2        66.2287          1.295         1.5538         -22.65      -6.216604      0.7069936      0.9197446
      4195.5000            734         27.804        -999.25          51.53       63.01181         1.3509         1.5609         -22.71        -6.2794      0.6385491      0.9187785
      4196.0000       705.0909         28.188        -999.25        48.7235       59.63057         1.4007         1.5531       -21.7454      -5.317596       0.566608      0.9335755
      4196.5000            700         28.848        -999.25        46.0101       56.36143         1.4013         1.5389       -20.1816      -3.756594      0.4970517      0.9575909
      4197.0000          718.8         29.124        -999.25        44.4444       54.47409         1.3693         1.5153       -18.2475      -1.825289      0.4568955      0.9873033
      4197.5000            758         29.124        -999.25        43.3737        53.1827         1.3033         1.4978       -16.6337     -0.2142849      0.4294192              1
      4198.0000       790.5419          28.56        -999.25        42.8099       52.50162         1.2495         1.4671       -15.8866      0.5300188      0.4149281              1
      4198.5000       814.6534          29.16        -999.25        42.7273       52.39988         1.1937         1.4332       -15.5545      0.8593225      0.4127635              1
      4199.0000       844.3564         30.228        -999.25        42.7273       52.39761         1.1399         1.3842       -15.4654      0.9456263      0.4127151              1
      4199.5000       905.3466         30.936        -999.25        42.9091        52.6142         1.0868         1.3416       -15.4951      0.9131298      0.4173235              1
      4200.0000       952.4752          31.44        -999.25        43.5644       53.40088         1.0323         1.2932       -15.1845       1.220934      0.4340613              1
      4200.5000       998.8119         31.872        -999.25        44.6308       54.68251         0.9802         1.2638       -14.8416       1.561037      0.4613301              1
      4201.0000       1032.079         32.112        -999.25        44.2517       54.22381         0.9451          1.258       -14.6634       1.736442      0.4515704              1
      4201.5000       1046.337         32.364        -999.25        43.0782       52.80865         0.9392         1.2551       -14.3564       2.040646      0.4214607              1
      4202.0000       1045.185          32.58        -999.25        42.4409       52.03908         0.9376         1.2522       -14.9208       1.473449      0.4050868              1
      4202.5000       1036.436             33        -999.25          42.62       52.25243         0.9478         1.2501       -15.7921      0.5993528      0.4096261              1
      4203.0000        1022.97         32.928        -999.25          43.82       53.69491         0.9727         1.2465       -15.8812      0.5074568      0.4403172              1
      4203.5000       1021.782          32.88        -999.25           45.3        55.4745         0.9986         1.2638       -14.7525       1.633359      0.4781808              1
      4204.0000       1024.662         32.988        -999.25        46.7273       57.19064         0.9926         1.2488       -13.5247       2.858362      0.5146945              1
      4204.5000       1034.851          33.18        -999.25          47.52       58.14275         0.9634         1.2198       -12.4753       3.904966      0.5349522              1
      4205.0000       1056.238         33.552        -999.25          48.21       58.97121         0.9263         1.1873       -11.3861        4.99137      0.5525789              1
      4205.5000       1087.525         33.936        -999.25          48.92       59.82374          0.892         1.1593       -11.1089       5.265774      0.5707179              1
      4206.0000       1129.109         34.308        -999.25        50.6995       61.96392         0.8577         1.1445       -10.7129       5.658978      0.6162537              1
      4206.5000       1168.317          34.68        -999.25             55       67.13933         0.8322         1.1142        -10.198       6.171082      0.7263687              1
      4207.0000       1194.863          34.98        -999.25        59.5455       72.60969         0.8187         1.1017       -10.3564       6.009886      0.8427593              1
      4207.5000         1221.2         34.752        -999.25        63.7374       77.65434          0.808         1.0906       -10.2475       6.115989      0.9500923              1
      4208.0000       1239.636         34.596        -999.25         67.754       82.48793         0.8007         1.0861            -10       6.360693              1              1
      4208.5000         1240.4         34.368        -999.25        72.2683       87.92075         0.8007         1.0812            -10       6.357897              1              1
      4209.0000           1240         34.068        -999.25          72.25       87.89642         0.8058         1.0841        -10.229       6.126101              1              1
      4209.5000         1213.6         33.792        -999.25        72.3556       88.02127         0.8124         1.0922       -11.6262       4.726105              1              1
      4210.0000       1196.043         33.552        -999.25        73.2337       89.07621         0.8187         1.1012       -13.6171       2.732409              1              1
      4210.5000       1184.158           33.3        -999.25           74.6        90.7189          0.825         1.1012         -13.71       2.636712              1              1
      4211.0000       1177.822          33.18        -999.25          75.59       91.90854         0.8333         1.1012         -12.87       3.473916              1              1
      4211.5000       1172.277         33.456        -999.25           76.4       92.88148         0.8371         1.0962         -12.04        4.30112              1              1
      4212.0000       1174.653         33.408        -999.25        76.7818       93.33887         0.8371         1.1063         -11.88       4.458323              1              1
      4212.5000       1177.426          33.12        -999.25          76.74       93.28625         0.8277         1.1114         -13.22       3.115527              1              1
      4213.0000        1184.95         33.132        -999.25          76.58       93.09135         0.8209         1.0946          -15.1       1.232731              1              1
