#------------------------------------------------------------------------------
# Created by    : vladimir.rabinovich
# Created on    : 09/19/2023 17:22:34
#------------------------------------------------------------------------------
~Version Information Section
VERS.           2.0     :   CWLS log ASCII Standard - VERSION 2.0
WRAP.           NO      :   One line per depth step
~Well Information Section
#MNEM       .UNIT                                         VALUE :DESCRIPTION
#------------------------------------------------------------------------------
STRT        .FT                                            2432 :START DEPTH
STOP        .FT                                            8088 :STOP DEPTH
STEP        .FT                                             0.5 :STEP      
NULL        .                                           -999.25 :NULL      
COMP        .                                  XTO OFFSHORE INC :COMPANY   
WELL        .                               OCS G23162 ST00BP00 :WELL      
FLD         .                                 BRAZOS BLOCK 0398 :FIELD     
LOC         .                                                   :LOCATION  
CNTY        .                                BRAZOS LARGE BLOCK :LOCATION  
STAT        .                                             TEXAS :STATE     
CTRY        .                                     UNITED STATES :COUNTRY   
SRVC        .                                                   :SERVICE COMPANY
DATE        .                             9/13/2023 11:09:58 AM :LOG DATE  
API         .                                    42704403400000 :API NUMBER
UWI         .                                    42704403400000 :UNIQUE WELL ID
XCOORD      .                                  869002.191083907 :SURFACE X 
YCOORD      .                                  10369331.9113669 :SURFACE Y 
LAT         .                                        28.5523806 :LATITUDE  
LON         .                                       -95.4033279 :LONGITUDE 
ELEV        .FT                                             100 :ELEVATION VALUE
ELEV_TYPE   .                                                KB :ELEVATION REFERENCE TYPE
~Curve Information Section
#MNEM       .UNIT                                      API CODE :CURVE DESCRIPTION
#------------------------------------------------------------------------------
DEPT        .FT                                                 :DEPTH     
CO12        .MMHO                                               :          
DCAL        .IN                                                 :          
DPHI        .FRAC                                               :          
DRHO        .G/CC                                               :          
GR          .GAPI                                               :          
GR_NORM     .GAPI                                               :GammaRay Normalized
HO01        .OHMM                                               :          
HO02        .OHMM                                               :          
HO03        .OHMM                                               :          
HO06        .OHMM                                               :          
HO09        .OHMM                                               :          
HO12        .OHMM                                               :          
NPHI        .FRAC                                               :          
RWA         .OHMM                                               :          
SP          .MV                                                 :          
SP_NORM     .MV                                                 :SP Normalized
TENS        .LB/F                                               :          
VSH_GR      .V/V                                                :Volume of Shale from GR
VSH_SP      .V/V                                                :Volume of Shale from SP
~A        DEPTH           CO12           DCAL           DPHI           DRHO             GR        GR_NORM           HO01           HO02           HO03           HO06           HO09           HO12           NPHI            RWA             SP        SP_NORM           TENS         VSH_GR         VSH_SP
# ...
      5091.5000       1646.559         1.0056         0.2629         0.0291        87.6245       81.15555         0.6802         0.5542         0.5303         0.5165         0.5919         0.6196         0.4002         0.0599        59.4631      -8.965176       4057.795              1      0.7321087
      5092.0000       1793.875         1.1978         0.2617         0.0252        83.4319        76.4119         0.6293         0.5122          0.495         0.4932         0.5226         0.5406          0.378         0.0606        58.6863      -9.742764       4085.599      0.9236575      0.7022014
      5092.5000       1859.451         1.5667         0.2433         0.0193        78.6008       70.94565         0.5527         0.5208         0.5277         0.5245         0.5098         0.5214         0.3471         0.0455        59.9245      -8.505348       4095.545      0.8073542      0.7497943
      5093.0000       1692.769         1.2593           0.22         0.0145         76.001       68.00464         0.6745         0.5658         0.5721         0.5697         0.5462         0.5523         0.3173         0.0333        61.3586      -7.072033       4084.017      0.7447795      0.8049218
      5093.5000       1538.435         0.8903         0.2144         0.0058        76.6702       68.76325         1.1629         0.6918         0.6342         0.6454          0.742         0.7408         0.3179         0.0345        61.9927      -6.438721       4046.719      0.7609203        0.82928
      5094.0000        1475.05         0.9595         0.2258         0.0009         79.177       71.60155         1.1123         0.7905         0.6929         0.7162         0.6966         0.6874         0.3424          0.047        61.9761      -6.456104        3990.66      0.8213095      0.8286114
      5094.5000       1536.527         1.0056         0.2387          0.002        82.1591       74.97775         0.8115         0.6881         0.6452         0.6228         0.6281         0.6171         0.3686         0.0542        62.1487       -6.28429       3935.731      0.8931435      0.8352196
      5095.0000       1559.961         1.7435         0.2383         0.0108        84.2785       77.37762         0.6848         0.6434         0.6197          0.579         0.6647         0.6518         0.3913         0.0506        62.9222      -5.511578       3917.421      0.9442046      0.8649393
      5095.5000       1543.323         0.9134         0.2255         0.0224        86.8087       80.24239         0.7474         0.6161         0.5834         0.5953         0.6668         0.6557         0.3785          0.041        64.3164      -4.118164       3971.672              1      0.9185321
      5096.0000       1557.292         0.8442         0.2159         0.0275         89.667       83.47849         0.8499          0.638         0.6027         0.5848         0.6442         0.6367          0.377         0.0341         65.392       -3.04335       4077.688              1      0.9598712
      5096.5000       1639.975         0.8596         0.2202         0.0247        91.4377       85.48371         0.7604         0.6726         0.6264         0.5533         0.6397         0.6344         0.3937         0.0369        65.7638      -2.672333       4170.818              1      0.9741411
      5097.0000       1752.277          1.021         0.2427         0.0134        89.5081       83.30119         0.7739         0.6095         0.5528         0.5047         0.5681          0.564         0.4212         0.0448        65.1298      -3.307121       4202.238              1      0.9497261
      5097.5000       1844.935         0.9518         0.2705         0.0044        83.2693       76.24178         0.6811         0.5461          0.533         0.4965         0.5294         0.5243         0.4152         0.0609        62.6633      -5.774406       4162.454      0.9200379      0.8548305
      5098.0000       1857.791         0.7289         0.2888         0.0028        75.0928       66.98943         0.6012         0.5448         0.5354         0.5175         0.5475         0.5393         0.3961         0.0685        59.1876      -9.250893       4091.702      0.7231793      0.7211195
      5098.5000       1813.355         1.1747         0.2876         0.0101        71.1897       62.57341         0.4924         0.5571         0.5611         0.5222          0.563          0.552         0.3801         0.0654        59.0614      -9.377876       4035.417      0.6292215      0.7162355
      5099.0000        1751.83         2.1355         0.2665         0.0211        74.7778       66.63545         0.4739         0.5482          0.567         0.5303         0.5759         0.5636         0.3822         0.0552        62.5338      -5.906265        4000.38      0.7156479       0.849759
      5099.5000       1675.151         1.4591         0.2414         0.0284        82.9052       75.83476         0.5612         0.5625         0.5842          0.566         0.6117         0.5989         0.4019         0.0409          65.88      -2.560852       3978.454      0.9113779      0.9784288
      5100.0000       1606.864          1.413         0.2211         0.0288         89.002       82.73599         0.6607          0.625         0.6326         0.6125         0.6437         0.6322         0.3988         0.0373        67.3904      -1.051231       3957.883              1              1
      5100.5000       1529.003         1.4514         0.2116         0.0239        89.7782        83.6157         0.7107         0.6863         0.6748         0.6365          0.646         0.6372         0.3959         0.0375        68.1274     -0.3150177       3935.279              1              1
      5101.0000       1401.268         1.6128         0.2104         0.0172        88.5794       82.26024         0.8317         0.7357         0.7142         0.6907         0.7039         0.6964         0.3899         0.0396        68.3432     -0.1000061       3922.168              1              1
      5101.5000       1275.648         1.0287         0.2121         0.0137        88.4058       82.06504         1.1818         0.8442         0.8011         0.8325         0.8412         0.8344         0.3924         0.0442        68.3133     -0.1306915       3930.758              1              1
      5102.0000       1253.388         1.2362         0.2174         0.0121        90.1452       84.03484         0.8257         0.8481          0.839         0.7449         0.8406         0.8386         0.3775         0.0473        68.3863    -0.05847931       3958.109              1              1
      5102.5000       1297.019         1.0594         0.2186         0.0132        91.3167       85.36193         0.8586         0.7714         0.7511         0.6906         0.7276         0.7303         0.3882         0.0509        68.3232     -0.1223679       3987.496              1              1
      5103.0000       1320.613         1.0287         0.2199         0.0133        91.1373       85.16016          0.892         0.7875         0.7627         0.6949         0.7451         0.7522         0.3945         0.0467        67.8585     -0.5878525       4002.415              1              1
      5103.5000       1257.901         0.9749         0.2209         0.0123          89.14       82.90101         0.8661         0.8099         0.8027         0.7292         0.7804         0.7916         0.3691         0.0487        66.9356      -1.511536       4004.675              1              1
      5104.0000       1208.036         0.8903         0.2263         0.0121        87.8271       81.41642         0.9315           0.86         0.8497         0.7756         0.8324         0.8467         0.3559         0.0553        65.8999      -2.548019       4003.093              1      0.9789223
      5104.5000       1172.025          0.875         0.2312          0.017        88.1211       81.75041         0.8353          0.866         0.8619         0.8032         0.8344         0.8476         0.3728         0.0614        65.3057      -3.143005       3996.537              1      0.9560382
