#------------------------------------------------------------------------------
# Created by    : vladimir.rabinovich
# Created on    : 09/19/2023 17:22:39
#------------------------------------------------------------------------------
~Version Information Section
VERS.           2.0     :   CWLS log ASCII Standard - VERSION 2.0
WRAP.           NO      :   One line per depth step
~Well Information Section
#MNEM       .UNIT                                         VALUE :DESCRIPTION
#------------------------------------------------------------------------------
STRT        .FT                                            3496 :START DEPTH
STOP        .FT                                          7091.5 :STOP DEPTH
STEP        .FT                                             0.5 :STEP      
NULL        .                                           -999.25 :NULL      
COMP        .                          SEAGULL ENERGY E & P INC :COMPANY   
WELL        .                               OCS G07251 ST00BP00 :WELL      
FLD         .                              GALVESTON BLOCK 0349 :FIELD     
LOC         .                                                   :LOCATION  
CNTY        .                             GALVESTON LARGE BLOCK :LOCATION  
STAT        .                                             TEXAS :STATE     
CTRY        .                                     UNITED STATES :COUNTRY   
SRVC        .                                                   :SERVICE COMPANY
DATE        .                             9/13/2023 11:19:36 AM :LOG DATE  
API         .                                    42706402300000 :API NUMBER
UWI         .                                    42706402300000 :UNIQUE WELL ID
XCOORD      .                                  1015542.86720011 :SURFACE X 
YCOORD      .                                  10434819.2372955 :SURFACE Y 
LAT         .                                         28.739771 :LATITUDE  
LON         .                                        -94.950355 :LONGITUDE 
ELEV        .FT                                              93 :ELEVATION VALUE
ELEV_TYPE   .                                                KB :ELEVATION REFERENCE TYPE
~Curve Information Section
#MNEM       .UNIT                                      API CODE :CURVE DESCRIPTION
#------------------------------------------------------------------------------
DEPT        .FT                                                 :DEPTH     
DCAL        .IN                                                 :          
DPHI        .%                                                  :          
DRHO        .G/C3                                               :          
GR          .GAPI                                               :          
GR_NORM     .GAPI                                               :GammaRay Normalized
ILD         .OHMM                                               :          
ILM         .OHMM                                               :          
NPHI        .%                                                  :          
SGRD        .OHMM                                               :          
SP          .MV                                                 :          
SP_NORM     .MV                                                 :SP Normalized
VSH_GR      .V/V                                                :Volume of Shale from GR
VSH_SP      .V/V                                                :Volume of Shale from SP
~A        DEPTH           DCAL           DPHI           DRHO             GR        GR_NORM            ILD            ILM           NPHI           SGRD             SP        SP_NORM         VSH_GR         VSH_SP
# ...
      6118.0000         0.1075        17.4912        -0.0119        62.6812       70.84496         0.6367         0.7103        34.9374         0.8819       -55.9628      -6.983208      0.8052118       0.892566
      6118.5000         0.0922        17.6732        -0.0053        61.5226       69.29124          0.656         0.7242        34.8912         0.9182       -55.8698      -6.890209       0.772154      0.8939968
      6119.0000         0.1257        17.6397        -0.0017        60.2377       67.56782         0.6691         0.7249        35.1359         0.9219       -55.6266      -6.647007      0.7354855      0.8977383
      6119.5000         0.1843        17.8803        -0.0125        60.3607       67.73624         0.6732         0.7244        35.6951         0.8863       -56.8127      -7.833107      0.7390689      0.8794907
      6120.0000         0.2166        19.0077        -0.0216        60.4842       67.90534         0.6669          0.725        36.4794         0.8542       -57.8818       -8.90221      0.7426668      0.8630429
      6120.5000         0.2297        19.6961        -0.0258         56.265       62.23895          0.659         0.7233        36.9988         0.8677        -58.572      -9.592407      0.6221052      0.8524245
      6121.0000         0.2043        19.6974        -0.0297        56.3026       62.29262         0.6535          0.721        36.9782         0.9079       -58.5051      -9.525509      0.6232472      0.8534537
      6121.5000         0.1633        19.5637        -0.0335        55.1104       60.69376         0.6498         0.7216        36.9081          0.922       -59.1097      -10.13011      0.5892289      0.8441522
      6122.0000         0.1325        19.3428        -0.0332        53.6185       58.69217         0.6479         0.7216        36.9658         0.9211       -60.3227      -11.34311      0.5466418      0.8254907
      6122.5000         0.1025        19.0268        -0.0322        56.6284       62.73986         0.6509         0.7203        37.3182          0.905       -60.7586      -11.77901      0.6327631      0.8187845
      6123.0000         0.0866        18.8987        -0.0334        60.5611        68.0276         0.6538         0.7172        37.6923         0.8876       -60.6609      -11.68131      0.7452682      0.8202876
      6123.5000         0.0794        19.0923        -0.0342         61.629       69.46572         0.6564         0.7133         38.056         0.8901       -59.4549      -10.47531      0.7758664      0.8388414
      6124.0000         0.0735        18.8771        -0.0315        62.6587       70.85254         0.6594         0.7104        38.3187         0.8901       -57.6192       -8.63961      0.8053732      0.8670829
      6124.5000         0.0784        18.4448        -0.0291        61.4152       69.18473         0.6616         0.7109        38.6097         0.8883       -56.1487      -7.169109      0.7698879       0.889706
      6125.0000         0.1021        17.9666        -0.0185        60.6173        68.1157         0.6651         0.7158           38.7         0.8863       -55.2296      -6.250008      0.7471426       0.903846
      6125.5000         0.1356        17.6959        -0.0024        64.1011       72.80022         0.6719         0.7236        38.7236         0.8735       -54.8251      -5.845509      0.8468131      0.9100691
      6126.0000         0.1585         17.865         0.0046         66.667        76.2513         0.6784         0.7309        38.9555         0.8623       -54.4324      -5.452808      0.9202403      0.9161106
      6126.5000         0.1835        18.3247        -0.0031        69.7832       80.44185          0.683         0.7368        39.7068         0.8604       -54.0438      -5.064209              1      0.9220891
      6127.0000         0.2032        18.7855        -0.0152        70.4982       81.40578         0.6784         0.7408        40.1639         0.8678       -53.6962       -4.71661              1      0.9274368
      6127.5000         0.1989        19.5203        -0.0216        68.4952       78.71739         0.6702         0.7381         40.257         0.8704       -53.4846      -4.505009      0.9727105      0.9306922
      6128.0000          0.181        19.5564        -0.0258         66.849       76.50848           0.66         0.7351         39.976         0.8597       -53.9429       -4.96331      0.9257123      0.9236414
      6128.5000         0.1417        19.1698        -0.0294         66.528       76.08028         0.6485         0.7276         39.835         0.8417       -56.6013      -7.621708      0.9166016      0.8827429
      6129.0000         0.1098        19.1168        -0.0322        64.4938       73.34998         0.6411         0.7141        39.5853         0.8318       -59.5474      -10.56781      0.8585101      0.8374183
      6129.5000         0.0939        19.8851        -0.0323        60.9337       68.56924         0.6372         0.7032        38.9277         0.8919       -60.3333      -11.35371      0.7567924      0.8253275
      6130.0000         0.0896        20.9062        -0.0301        60.1047       67.45842         0.6369         0.6971        38.3569         0.9306       -58.5995      -9.619907      0.7331579      0.8520014
      6130.5000         0.0995        21.1003        -0.0272        60.0353       67.36832         0.6399         0.6958        38.1017         0.9266       -55.0533      -6.073708      0.7312408      0.9065583
      6131.0000          0.143        21.5529        -0.0224        60.4698       67.95531         0.6446         0.7002        38.3033         0.8926       -52.5342      -3.554607      0.7437301      0.9453138
      6131.5000         0.1862        21.3735         -0.019        62.7506       71.02332         0.6509         0.7058        38.7947         0.8483       -52.0369      -3.057308      0.8090067      0.9529645
      6132.0000         0.2158        19.2058        -0.0153        67.9075       77.95604         0.6613         0.7124        38.8196         0.8501       -51.7158       -2.73621      0.9565115      0.9579045
      6132.5000         0.2403        18.8773        -0.0115        73.2245       85.10392         0.6747         0.7197        39.3503         0.8819       -51.3141      -2.334507              1      0.9640845
      6133.0000         0.2555         18.644        -0.0093         76.123       89.00192         0.6909         0.7281        40.1437         0.8721       -51.0551      -2.075508              1      0.9680691
      6133.5000         0.2509        18.4892        -0.0027        77.8024       91.26176         0.7044         0.7399        40.6304         0.8575       -51.2772      -2.297607              1      0.9646522
      6134.0000         0.2299        18.4082         0.0036        77.9772        91.4998          0.719         0.7514        40.7631         0.8383       -51.9796      -3.000008              1       0.953846
      6134.5000           0.19        18.3351         0.0052        77.8727       91.36253         0.7286         0.7589         40.609          0.834       -53.2488      -4.269207              1      0.9343199
      6135.0000         0.1582        18.3862         0.0023        76.9083       90.06978         0.7332          0.766        40.0911         0.8747       -54.8057      -5.826107              1      0.9103676
      6135.5000         0.1135        18.7131        -0.0042        74.8726       87.33746         0.7374         0.7751        39.1942         0.9158       -56.4813      -7.501709              1      0.8845891
      6136.0000          0.059        18.8489        -0.0124        73.6577       85.70808         0.7403         0.7807        38.3521         0.9404       -58.3945      -9.414909              1      0.8551552
      6136.5000         0.0451         18.284        -0.0172        72.9219        84.7225          0.744         0.7844        38.0809         0.9424       -60.1026      -11.12301              1      0.8288768
