#------------------------------------------------------------------------------
# Created by    : vladimir.rabinovich
# Created on    : 09/19/2023 17:19:55
#------------------------------------------------------------------------------
~Version Information Section
VERS.           2.0     :   CWLS log ASCII Standard - VERSION 2.0
WRAP.           NO      :   One line per depth step
~Well Information Section
#MNEM       .UNIT                                         VALUE :DESCRIPTION
#------------------------------------------------------------------------------
STRT        .FT                                            1601 :START DEPTH
STOP        .FT                                            6340 :STOP DEPTH
STEP        .FT                                             0.5 :STEP      
NULL        .                                           -999.25 :NULL      
COMP        .                 FAIRWAYS OFFSHORE EXPLORATION INC :COMPANY   
WELL        .                                ST TR 00629-L SE/4 :WELL      
FLD         .                                       BLOCK 630-L :FIELD     
LOC         .                                                   :LOCATION  
CNTY        .                      MATAGORDA ISLAND LARGE BLOCK :LOCATION  
STAT        .                                             TEXAS :STATE     
CTRY        .                                     UNITED STATES :COUNTRY   
SRVC        .                                                   :SERVICE COMPANY
DATE        .                             9/13/2023 11:19:05 AM :LOG DATE  
API         .                                    42703302840100 :API NUMBER
UWI         .                                    42703302840100 :UNIQUE WELL ID
XCOORD      .                                  449566.970470722 :SURFACE X 
YCOORD      .                                  10204940.3648147 :SURFACE Y 
LAT         .                                        28.0716107 :LATITUDE  
LON         .                                       -96.6925833 :LONGITUDE 
ELEV        .FT                                              82 :ELEVATION VALUE
ELEV_TYPE   .                                                KB :ELEVATION REFERENCE TYPE
~Curve Information Section
#MNEM       .UNIT                                      API CODE :CURVE DESCRIPTION
#------------------------------------------------------------------------------
DEPT        .FT                                                 :DEPTH     
ASFL        .OHMM                                               :          
CILD        .MMHO                                               :          
GR          .GAPI                                               :          
GR_NORM     .GAPI                                               :GammaRay Normalized
ILD         .OHMM                                               :          
SP          .MV                                                 :          
SP_NORM     .MV                                                 :SP Normalized
VSH_GR      .V/V                                                :Volume of Shale from GR
VSH_SP      .V/V                                                :Volume of Shale from SP
~A        DEPTH           ASFL           CILD             GR        GR_NORM            ILD             SP        SP_NORM         VSH_GR         VSH_SP
# ...
      6000.0000           0.73        1308.26        77.3097       85.63649         0.8215       -54.5934      -13.73135              1      0.7946557
      6000.5000         0.8252       1303.461         78.406       87.38403         0.8235        -58.477      -17.63367              1       0.731715
      6001.0000         0.8465       1299.836        77.3618       85.62007          0.822       -61.5709      -20.74628              1      0.6815115
      6001.5000         0.8652       1303.299        75.8868        83.1494         0.8134       -63.7685      -22.96261              1      0.6457644
      6002.0000         0.8739        1306.76        73.9551       79.92947         0.8049       -65.5538      -24.76663      0.9984995      0.6166673
      6002.5000         0.8826       1346.229        72.0493       76.75208          0.794       -68.5533      -27.78484      0.9308952      0.5679864
      6003.0000         0.8986       1398.064        70.4414       74.06336         0.7393       -70.9694      -30.21966      0.8736886      0.5287151
      6003.5000         0.8779       1479.469        68.3507       70.58261         0.6846        -72.859      -32.12798        0.79963      0.4979357
      6004.0000         0.8534       1599.223        65.7583       66.27882         0.6454       -73.9368       -33.2245      0.7080601        0.48025
      6004.5000         0.8325       1640.316        63.5012       62.52509         0.6124       -72.9509      -32.25732      0.6281933      0.4958497
      6005.0000         0.8222       1674.203        65.9222        66.4458         0.6268       -70.4927      -29.81784      0.7116128      0.5351961
      6005.5000         0.8119       1702.816         68.969       71.39314         0.6412       -67.8481      -27.19196      0.8168752       0.577549
      6006.0000          0.804       1718.141        72.0256       76.35655         0.6555       -64.4811      -23.84368      0.9224798      0.6315535
      6006.5000         0.7965       1729.385        74.8365        80.9169         0.6883       -58.0375       -17.4188              1      0.7351806
      6007.0000         0.7978       1641.787        76.2271       83.14724         0.7366       -55.0851      -14.48512              1      0.7824981
      6007.5000         0.8084       1498.006        76.2065       83.06248         0.7849       -49.9873       -9.40604              1      0.8644187
      6008.0000         0.8419       1356.969        75.4971       81.84779         0.8339        -47.886       -7.32346              1      0.8980087
      6008.5000         0.8754       1248.199        74.7875       80.63273         0.8853       -47.0169      -6.473076              1      0.9117246
      6009.0000         0.9312       1174.543        74.0624       79.39225         0.9368       -46.1478        -5.6227      0.9870691      0.9254403
      6009.5000         0.9933        1109.42        73.3243       78.13046         0.9824       -45.5792      -5.072819      0.9602226      0.9343094
      6010.0000         1.0428       1054.594        74.3101       79.69672         1.0225       -46.2552      -5.767536      0.9935473      0.9231042
      6010.5000         1.0753       1028.896        77.4351       84.77233         1.0511       -46.7481      -6.279156              1      0.9148523
      6011.0000         1.0322       1010.453        78.3079       86.15321         1.0702       -47.1827      -6.732475              1      0.9075407
      6011.5000         0.9668       1012.325        79.1807       87.53412         1.0394       -47.3032      -6.871696              1      0.9052952
      6012.0000         0.9481       1018.796        80.0275       88.87233         1.0228       -47.2523      -6.839516              1      0.9058143
      6012.5000         0.9294        1033.58        80.7097       89.94054         1.0084       -47.2013      -6.807236              1      0.9063349
      6013.0000         0.9108       1048.354        79.6798       88.20005          0.994       -47.0715      -6.696152              1      0.9081266
      6013.5000         0.9138       1063.139         78.514       86.23661         0.9797       -46.8808       -6.52417              1      0.9109005
      6014.0000         0.9297       1077.924        76.5983       83.04293         0.9814       -46.6901      -6.352196              1      0.9136742
      6014.5000         0.9457       1087.229         77.897       85.12251          0.983       -46.2316      -5.912415              1      0.9207675
      6015.0000          0.961       1094.922        79.1956       87.20193         0.9846       -45.7313      -5.430832              1       0.928535
      6015.5000          0.971       1102.615        80.4979        89.2874         0.9862       -45.2316      -4.949852              1      0.9362927
      6016.0000         0.9791       1090.809        82.8346       93.06981         0.9896       -44.8796       -4.61657              1      0.9416682
      6016.5000         0.9768       1076.662        84.3977       95.58313         0.9936       -44.5717      -4.327393              1      0.9463324
      6017.0000         0.9745       1062.502        85.5001       97.34068         0.9975       -44.2803       -4.05471              1      0.9507305
      6017.5000         0.9721       1056.277        86.5009       98.93155         1.0014       -44.2266       -4.01973              1      0.9512947
      6018.0000         0.9698       1055.758         86.856       99.46317         1.0054       -44.1729      -3.984749              1      0.9518589
      6018.5000         0.9711        1055.24        86.6484       99.07162         1.0093       -44.1193      -3.949867              1      0.9524215
      6019.0000         0.9794       1053.443        84.9738        96.2735         1.0133        -44.123       -3.97229              1      0.9520599
      6019.5000         0.9876       1051.475        83.7557       94.22424         1.0177       -44.2106      -4.078609              1       0.950345
      6020.0000          0.996       1037.406        82.7986       92.60318          1.024       -44.2982      -4.184925              1      0.9486302
      6020.5000         1.0087       1013.966        81.8425       90.98375         1.0303       -44.3858      -4.291245              1      0.9469154
      6021.0000         1.0213       990.5244        80.9971       89.54594         1.0365       -44.3348      -4.258965              1       0.947436
      6021.5000          1.034       980.4365        80.3124       88.37173         1.0428       -44.2383      -4.181187              1      0.9486905
      6022.0000         1.0449        978.332        79.6271       87.19654         1.0464       -44.1419      -4.103504              1      0.9499435
      6022.5000         1.0274       976.2295        78.9038       85.95902         1.0462       -43.9596      -3.939922              1      0.9525819
      6023.0000          1.016       977.0205        77.9652       84.36831          1.046        -43.683      -3.682041              1      0.9567413
      6023.5000         1.0151       978.8945        77.3445       83.29909         1.0458       -43.4065      -3.424263              1       0.960899
      6024.0000         1.0142       987.6562        76.9093       82.53419         1.0456       -43.1299      -3.166386              1      0.9650583
      6024.5000         1.0124       996.4463        77.1042       82.80299         1.0454       -42.8534      -2.908604              1       0.969216
      6025.0000         1.0104       1005.775        77.5505       83.48419         1.0352       -42.6301      -2.704021              1      0.9725158
      6025.5000         1.0082       1023.602        77.9976       84.16671         1.0225       -42.4695      -2.562141              1      0.9748042
      6026.0000          1.003       1065.432         78.473       84.89565         1.0099       -42.3087      -2.420059              1      0.9770958
