#------------------------------------------------------------------------------
# Created by    : vladimir.rabinovich
# Created on    : 09/19/2023 17:20:33
#------------------------------------------------------------------------------
~Version Information Section
VERS.           2.0     :   CWLS log ASCII Standard - VERSION 2.0
WRAP.           NO      :   One line per depth step
~Well Information Section
#MNEM       .UNIT                                         VALUE :DESCRIPTION
#------------------------------------------------------------------------------
STRT        .FT                                             242 :START DEPTH
STOP        .FT                                            8116 :STOP DEPTH
STEP        .FT                                             0.5 :STEP      
NULL        .                                           -999.25 :NULL      
COMP        .                                       HUNT OIL CO :COMPANY   
WELL        .                                     ST TR 00005-L :WELL      
FLD         .                                           WILDCAT :FIELD     
LOC         .                                                   :LOCATION  
CNTY        .                           HIGH ISLAND LARGE BLOCK :LOCATION  
STAT        .                                             TEXAS :STATE     
CTRY        .                                     UNITED STATES :COUNTRY   
SRVC        .                                                   :SERVICE COMPANY
DATE        .                             9/13/2023 11:19:33 AM :LOG DATE  
API         .                                    42708000010000 :API NUMBER
UWI         .                                    42708000010000 :UNIQUE WELL ID
XCOORD      .                                  1328371.56215902 :SURFACE X 
YCOORD      .                                  10754892.1390607 :SURFACE Y 
LAT         .                                        29.6307718 :LATITUDE  
LON         .                                       -93.9824852 :LONGITUDE 
ELEV        .FT                                              11 :ELEVATION VALUE
ELEV_TYPE   .                                                KB :ELEVATION REFERENCE TYPE
~Curve Information Section
#MNEM       .UNIT                                      API CODE :CURVE DESCRIPTION
#------------------------------------------------------------------------------
DEPT        .FT                                                 :DEPTH     
ASN         .OHMM                                               :          
LAT         .OHMM                                               :          
LN          .OHMM                                               :          
SN          .OHMM                                               :          
SP          .MV                                                 :          
SP_NORM     .MV                                                 :SP Normalized
VSH_SP      .V/V                                                :Volume of Shale from SP
~A        DEPTH            ASN            LAT             LN             SN             SP        SP_NORM         VSH_SP
# ...
      6506.5000         0.5209          0.514         0.3795         0.4442      -116.3876      -68.71976      0.1089505
      6507.0000         0.5001         0.5239         0.3768         0.4423      -111.8916      -64.22543      0.1680865
      6507.5000         0.4973         0.5373         0.3776         0.4428      -110.3135      -62.64899      0.1888291
      6508.0000         0.5077         0.5518         0.3795         0.4578      -108.7354      -61.07256      0.2095716
      6508.5000         0.5247          0.575         0.3815         0.4729      -107.2756      -59.61442      0.2287576
      6509.0000         0.5506         0.5607         0.3831          0.488      -106.4757      -58.81619      0.2392606
      6509.5000         0.5761         0.5375          0.383         0.5088      -106.2927      -58.63486      0.2416466
      6510.0000         0.5999         0.5142          0.383         0.5339      -107.9681      -60.31192      0.2195799
      6510.5000         0.6203         0.4907         0.3829         0.5589      -114.5811      -66.92659      0.1325449
      6511.0000         0.6211         0.4673          0.384         0.5718      -117.0457      -69.39285       0.100094
      6511.5000         0.5942         0.4609         0.3866         0.5696      -118.8521      -71.20092     0.07630368
      6512.0000         0.5854         0.4565         0.3891         0.5577      -120.3429      -72.69339     0.05666592
      6512.5000         0.5731         0.4522         0.3916         0.5381      -121.3444      -73.69655     0.04346647
      6513.0000         0.5595         0.4464         0.3927         0.5185      -122.0646      -74.41842     0.03396817
      6513.5000         0.5464         0.4392         0.3904         0.4999      -122.6824      -75.03789     0.02581727
      6514.0000         0.5338          0.432         0.3881         0.4836      -123.2599      -75.61706     0.01819661
      6514.5000         0.5213         0.4249         0.3845         0.4674      -123.4023      -75.76112      0.0163011
      6515.0000          0.507         0.4177         0.3732         0.4511      -123.5151      -75.87558       0.014795
      6515.5000         0.4954         0.4073          0.362         0.4443      -123.6254      -75.98755     0.01332173
      6516.0000         0.4881         0.3968         0.3501         0.4406      -123.7336      -76.09741     0.01187616
      6516.5000         0.4868         0.3864         0.3379         0.4369      -123.8419      -76.20739     0.01042908
      6517.0000         0.4864         0.3759         0.3257         0.4332       -123.916      -76.28315     0.00943224
      6517.5000         0.4858          0.372         0.3169         0.4324      -123.9667      -76.33551    0.008743286
      6518.0000          0.485         0.3692         0.3102         0.4324      -124.0171      -76.38758    0.008058147
      6518.5000         0.4842         0.3736         0.3034         0.4323      -124.0123      -76.38445    0.008099405
      6519.0000         0.4815         0.3954         0.2966         0.4329      -123.9309      -76.30472    0.009148447
      6519.5000         0.4787         0.4343         0.3027         0.4342      -122.3508      -74.72629     0.02991726
      6520.0000         0.4759         0.5094         0.3105         0.4356      -109.7394      -62.11655      0.1958349
      6520.5000         0.4787         0.5735         0.3182         0.4438      -102.4834      -54.86221      0.2912867
      6521.0000         0.4854         0.6309         0.3259         0.4528      -100.0121      -52.39258      0.3237818
      6521.5000         0.4921         0.6775         0.3338         0.4629      -101.4492      -53.83135      0.3048506
      6522.0000         0.5042         0.6979         0.3418         0.4741      -104.5719      -56.95572      0.2637406
      6522.5000         0.5163         0.6275         0.3497         0.4852      -107.6945      -60.07998      0.2226318
      6523.0000         0.5273         0.5572         0.3576         0.4841      -110.8138      -63.20094      0.1815665
      6523.5000         0.5295         0.4869         0.3656         0.4824      -113.9364      -66.32521      0.1404577
      6524.0000         0.5148         0.4189         0.3659         0.4709      -117.0591      -69.44958     0.09934767
      6524.5000         0.5011         0.3915         0.3643         0.4566        -117.47      -69.86215     0.09391905
      6525.0000          0.488         0.3737         0.3639         0.4424      -117.6388      -70.03261     0.09167621
      6525.5000         0.4748         0.3664         0.3651         0.4333      -117.7743      -70.16978     0.08987135
      6526.0000         0.4811         0.3591         0.3663         0.4403      -118.7992      -71.19635     0.07636382
      6526.5000         0.4888         0.3518          0.365         0.4473      -119.8165      -72.21531     0.06295646
      6527.0000         0.4964         0.3447          0.361         0.4543      -120.8273      -73.22778     0.04963443
      6527.5000         0.5041         0.3378         0.3571         0.4594      -121.6155      -74.01764     0.03924159
      6528.0000         0.5117          0.331          0.354         0.4637      -122.3801      -74.78391     0.02915914
      6528.5000          0.519         0.3292         0.3512          0.468      -123.1063      -75.51178     0.01958185
      6529.0000         0.5262         0.3357         0.3484         0.4723      -123.6334      -76.04054     0.01262444
      6529.5000         0.5256         0.3417         0.3456         0.4731      -124.1602      -76.56902    0.005670849
      6530.0000         0.5197         0.3455         0.3423          0.471      -124.6537      -77.06418              0
      6530.5000         0.5137         0.3492         0.3387          0.469      -125.1003      -77.51244              0
      6531.0000         0.5078          0.353         0.3352         0.4669      -125.5284       -77.9422              0
      6531.5000         0.5018         0.3561         0.3317         0.4648      -125.8999      -78.31538              0
      6532.0000         0.4995         0.3583         0.3324         0.4628      -126.1962      -78.61334              0
      6532.5000         0.4977         0.3605         0.3355         0.4613      -125.6212      -78.04001              0
      6533.0000         0.4958         0.3627         0.3387         0.4598       -125.047      -77.46747              0
      6533.5000          0.494         0.3649         0.3422         0.4583      -124.4108      -76.83293     0.00219827
      6534.0000         0.4932         0.3674         0.3467         0.4568      -123.6107      -76.03451     0.01270385
      6534.5000         0.4924         0.3699         0.3512          0.456      -122.8099      -75.23537     0.02321886
      6535.0000         0.4917         0.3725         0.3527         0.4567      -122.0612      -74.48834     0.03304813
      6535.5000         0.4917          0.365         0.3538         0.4575      -121.3833       -73.8121     0.04194601
      6536.0000         0.4917          0.357          0.355         0.4583      -120.9301      -73.36057      0.0478873
      6536.5000         0.4917         0.3488          0.344          0.459      -120.8633      -73.29543      0.0487443
      6537.0000         0.4917         0.3325         0.3323         0.4659      -121.2175      -73.65131     0.04406176
      6537.5000         0.4919         0.3143         0.3197         0.4731      -121.5221      -73.95757     0.04003194
      6538.0000         0.4971         0.2982         0.3067         0.4804      -121.7711      -74.20824     0.03673373
      6538.5000         0.5023         0.2946         0.2938         0.4876       -122.007       -74.4458     0.03360789
      6539.0000         0.5075         0.3052         0.2865         0.4976        -122.13      -74.57047     0.03196757
      6539.5000         0.5184         0.3192         0.2865         0.5077      -122.2531      -74.69524     0.03032584
