#------------------------------------------------------------------------------
# Created by    : vladimir.rabinovich
# Created on    : 09/19/2023 17:20:04
#------------------------------------------------------------------------------
~Version Information Section
VERS.           2.0     :   CWLS log ASCII Standard - VERSION 2.0
WRAP.           NO      :   One line per depth step
~Well Information Section
#MNEM       .UNIT                                         VALUE :DESCRIPTION
#------------------------------------------------------------------------------
STRT        .FT                                             900 :START DEPTH
STOP        .FT                                            8286 :STOP DEPTH
STEP        .FT                                             0.5 :STEP      
NULL        .                                           -999.25 :NULL      
COMP        .                                       ALLIED CORP :COMPANY   
WELL        .                               OCS G04069 ST00BP00 :WELL      
FLD         .                                           WILDCAT :FIELD     
LOC         .                                                   :LOCATION  
CNTY        .                             GALVESTON LARGE BLOCK :LOCATION  
STAT        .                                             TEXAS :STATE     
CTRY        .                                     UNITED STATES :COUNTRY   
SRVC        .                                                   :SERVICE COMPANY
DATE        .                             9/13/2023 11:18:53 AM :LOG DATE  
API         .                                    42706400840000 :API NUMBER
UWI         .                                    42706400840000 :UNIQUE WELL ID
XCOORD      .                                  987200.391396966 :SURFACE X 
YCOORD      .                                   10401886.486665 :SURFACE Y 
LAT         .                                         28.647914 :LATITUDE  
LON         .                                        -95.037018 :LONGITUDE 
ELEV        .FT                                              83 :ELEVATION VALUE
ELEV_TYPE   .                                                KB :ELEVATION REFERENCE TYPE
~Curve Information Section
#MNEM       .UNIT                                      API CODE :CURVE DESCRIPTION
#------------------------------------------------------------------------------
DEPT        .FT                                                 :DEPTH     
ASFL        .OHMM                                               :          
CILD        .MMHO                                               :          
DPHI        .%                                                  :          
DT          .US/F                                               :          
GR          .GAPI                                               :          
GR_NORM     .GAPI                                               :GammaRay Normalized
ILD         .OHMM                                               :          
SP          .MV                                                 :          
SP_NORM     .MV                                                 :SP Normalized
VSH_GR      .V/V                                                :Volume of Shale from GR
VSH_SP      .V/V                                                :Volume of Shale from SP
~A        DEPTH           ASFL           CILD           DPHI             DT             GR        GR_NORM            ILD             SP        SP_NORM         VSH_GR         VSH_SP
# ...
      5310.0000         0.8673       1398.898        24.2409       119.0179        61.4908       78.37769         0.6755       -54.5764      -1.797184      0.9654828       0.972351
      5310.5000         0.8809         1418.6        22.8969       119.7488        61.7184       78.70429         0.6754        -54.282      -1.503998      0.9724318      0.9768616
      5311.0000         0.8867       1438.301        22.8255       120.7114        61.3851       78.22603         0.6754       -53.9874      -1.210609      0.9622559      0.9813752
      5311.5000         0.8854       1453.346        24.6942       121.5813        60.8988       77.52821         0.6754       -53.6629     -0.8873253      0.9474088      0.9863489
      5312.0000         0.8783       1453.736        26.2274       122.0206        60.4125        76.8304         0.6753       -53.3186      -0.544239      0.9325617      0.9916271
      5312.5000         0.8663       1454.127        26.7547       122.2393        59.9262       76.13258         0.6753        -52.974     -0.2008514      0.9177145        0.99691
      5313.0000         0.8543       1454.518         27.144       121.6523        59.4399       75.43477         0.6735       -52.6297       0.142231      0.9028674              1
      5313.5000         0.8423       1454.908        26.7906       119.8396        58.9536       74.73695         0.6709       -52.2854      0.4853172      0.8880203              1
      5314.0000         0.8303       1455.299         26.344       117.1019        59.0389       74.85935         0.6684       -52.4408      0.3287048      0.8906245              1
      5314.5000         0.8183       1455.445        26.6859       114.9666         59.415       75.39903         0.6659       -52.9246     -0.1563072      0.9021071      0.9975953
      5315.0000         0.8063       1454.117         27.442       115.7467        59.7913       75.93901         0.6633       -53.7711      -1.004025       0.913596      0.9845535
      5315.5000         0.8161       1452.789        29.2979       117.5298        60.1675       76.47884         0.6608       -54.7936      -2.027737      0.9250816      0.9688041
      5316.0000         0.8329       1451.461        29.1435        120.495        60.5439       77.01895         0.6574        -55.815       -3.05035      0.9365734      0.9530715
      5316.5000         0.8566       1450.545        27.9805       124.1626        61.0079       77.68475         0.6527       -56.8364      -4.072968      0.9507394      0.9373389
      5317.0000         0.8728       1451.145        25.8714       125.6316        61.7282       78.71837          0.648       -57.5895      -4.827282      0.9727312      0.9257341
      5317.5000         0.8642       1452.211        25.0483       126.1313        62.4485       79.75196         0.6433       -58.0993      -5.338295      0.9947225      0.9178724
      5318.0000         0.8556       1462.553         25.997        126.847        62.1335       79.29994         0.6385       -57.6343      -4.874512      0.9851052      0.9250075
      5318.5000         0.8471       1472.895        26.5545        125.817        61.5807        78.5067         0.6338       -57.1691      -4.410526      0.9682276      0.9321458
      5319.0000         0.8389        1483.25        26.5623       123.2104         61.028       77.71362          0.629       -56.7041      -3.946739      0.9513535      0.9392809
      5319.5000         0.8308       1493.592        26.8111       120.5815        61.3385       78.15916         0.6241       -56.2388      -3.482651      0.9608333      0.9464207
      5320.0000         0.8227       1503.936         27.157       118.5846        61.7172       78.70258         0.6192       -55.7589      -3.003967      0.9723952      0.9537851
      5320.5000         0.8226       1514.277        27.2276       118.2904        62.0957        79.2457         0.6143       -55.2678       -2.51408       0.983951      0.9613218
      5321.0000         0.8267       1524.621        27.0602       118.6937        62.4434       79.74464         0.6094       -54.7766      -2.024094      0.9945667      0.9688601
      5321.5000         0.8308       1529.197        26.4551       119.3834        62.7788       80.22591         0.6045       -54.2854      -1.534111              1      0.9763983
      5322.0000         0.8349       1531.068        26.1044       120.6051        63.1146       80.70778         0.5996       -53.7936      -1.043522              1      0.9839458
      5322.5000          0.839       1532.939        26.1096       122.9359        62.7487       80.18272         0.5946       -53.3025     -0.5536385              1      0.9914825
      5323.0000         0.8431       1534.809        26.1047       125.5796        62.3233       79.57229         0.5896       -52.8113    -0.06364822      0.9908997      0.9990208
      5323.5000         0.8451        1536.68         25.874       127.3899        61.8979       78.96187         0.5845       -52.5285      0.2179337      0.9779121              1
      5324.0000         0.8424       1538.549        26.2102       127.6558        61.3278        78.1438         0.5794       -52.3309      0.4143219      0.9605064              1
      5324.5000         0.8396       1545.748         27.252       126.0718        60.6746        77.2065         0.5744       -52.1334      0.6106071      0.9405638              1
      5325.0000         0.8322       1561.934        28.2131       123.2599        60.0213       76.26904         0.5705       -51.9359      0.8068886      0.9206179              1
      5325.5000         0.8233       1578.105        29.1356       122.5278         59.368       75.33159         0.5681       -51.7383       1.003277      0.9006721              1
      5326.0000         0.8143       1594.289        28.7927       121.3884        58.8428       74.57795         0.5657       -51.6674       1.072964      0.8846372              1
      5326.5000         0.8053       1610.461          27.43       121.0098         58.759        74.4577         0.5635       -51.7031       1.036053      0.8820788              1
      5327.0000         0.7963       1626.461        26.4667       121.1859          59.51       75.53536         0.5643        -51.739      0.9989357      0.9050077              1
      5327.5000         0.7929       1641.402        26.7408       121.6846        60.4064       76.82164          0.565       -51.8162      0.9205208      0.9323753              1
      5328.0000         0.8053       1656.344        27.3384       121.7847        61.3029       78.10806         0.5658       -51.9569      0.7786064       0.959746              1
      5328.5000         0.8192       1671.287        26.4892       121.2666        62.1913       79.38289         0.5665       -52.0978      0.6364899        0.98687              1
      5329.0000         0.8242        1686.24        24.7779       121.1924        63.0652       80.63689         0.5685       -52.2386      0.4944763              1              1
      5329.5000         0.8183       1691.209        23.7069       122.1754        63.9397       81.89175         0.5788       -52.3795      0.3523636              1              1
      5330.0000         0.8123       1678.002        25.7173       123.4392        63.7639       81.63949          0.589       -52.5203        0.21035              1              1
      5330.5000          0.808       1664.805        26.8033       124.5731        63.4824       81.23554         0.5993       -52.7747     -0.0452652              1      0.9993036
      5331.0000         0.8159       1651.598        26.4162       123.7842        63.2011        80.8319         0.6096       -53.0404     -0.3121796              1      0.9951972
      5331.5000         0.8245       1638.402        26.2432       122.6045        63.2898       80.95918         0.6199       -53.3058     -0.5787926              1      0.9910955
      5332.0000         0.8383       1601.201        26.0135       121.3062        63.6265       81.44233         0.6346       -53.5715     -0.8457069              1      0.9869891
