#------------------------------------------------------------------------------
# Created by    : vladimir.rabinovich
# Created on    : 09/19/2023 17:20:02
#------------------------------------------------------------------------------
~Version Information Section
VERS.           2.0     :   CWLS log ASCII Standard - VERSION 2.0
WRAP.           NO      :   One line per depth step
~Well Information Section
#MNEM       .UNIT                                         VALUE :DESCRIPTION
#------------------------------------------------------------------------------
STRT        .FT                                             994 :START DEPTH
STOP        .FT                                           14137 :STOP DEPTH
STEP        .FT                                             0.5 :STEP      
NULL        .                                           -999.25 :NULL      
COMP        .                                   MARATHON OIL CO :COMPANY   
WELL        .                                     ST TR 00841-L :WELL      
FLD         .                                           WILDCAT :FIELD     
LOC         .                                                   :LOCATION  
CNTY        .                        MUSTANG ISLAND LARGE BLOCK :LOCATION  
STAT        .                                             TEXAS :STATE     
CTRY        .                                     UNITED STATES :COUNTRY   
SRVC        .                                                   :SERVICE COMPANY
DATE        .                             9/13/2023 11:18:55 AM :LOG DATE  
API         .                                    42702301400000 :API NUMBER
UWI         .                                    42702301400000 :UNIQUE WELL ID
XCOORD      .                                  272565.632686387 :SURFACE X 
YCOORD      .                                  9953986.84876921 :SURFACE Y 
LAT         .                                         27.367086 :LATITUDE  
LON         .                                       -97.2136853 :LONGITUDE 
ELEV        .FT                                              88 :ELEVATION VALUE
ELEV_TYPE   .                                                KB :ELEVATION REFERENCE TYPE
~Curve Information Section
#MNEM       .UNIT                                      API CODE :CURVE DESCRIPTION
#------------------------------------------------------------------------------
DEPT        .FT                                                 :DEPTH     
ASFL        .OHMM                                               :          
CILD        .MMHO                                               :          
GR          .GAPI                                               :          
GR_NORM     .GAPI                                               :GammaRay Normalized
ILD         .OHMM                                               :          
SP          .MV                                                 :          
SP_NORM     .MV                                                 :SP Normalized
VSH_GR      .V/V                                                :Volume of Shale from GR
VSH_SP      .V/V                                                :Volume of Shale from SP
~A        DEPTH           ASFL           CILD             GR        GR_NORM            ILD             SP        SP_NORM         VSH_GR         VSH_SP
       994.0000        -999.25        -999.25        21.9386       73.40035        -999.25        -999.25        -999.25      0.8595819        -999.25
       994.5000        -999.25        -999.25        21.6245       72.66505        -999.25        -999.25        -999.25      0.8439372        -999.25
       995.0000        -999.25        -999.25        22.5589       73.97791        -999.25        -999.25        -999.25      0.8718703        -999.25
       995.5000        -999.25        -999.25        24.3021       76.61761        -999.25        -999.25        -999.25      0.9280342        -999.25
       996.0000        -999.25        -999.25        26.0565       79.27569        -999.25        -999.25        -999.25      0.9845891        -999.25
       996.5000        -999.25        -999.25        24.1494       75.92706        -999.25        -999.25        -999.25      0.9133416        -999.25
       997.0000        -999.25        -999.25        22.2291       72.55677        -999.25        -999.25        -999.25      0.8416334        -999.25
       997.5000        -999.25        -999.25        20.7334       69.88304        -999.25        -999.25        -999.25      0.7847456        -999.25
       998.0000        -999.25        -999.25        21.7802       71.38029        -999.25        -999.25        -999.25       0.816602        -999.25
       998.5000        -999.25        -999.25        22.8016       72.83588        -999.25        -999.25        -999.25       0.847572        -999.25
       999.0000        -999.25        -999.25        23.5203       73.79488        -999.25        -999.25        -999.25      0.8679762        -999.25
       999.5000        -999.25        -999.25        24.0516       74.44646        -999.25        -999.25        -999.25      0.8818397        -999.25
      1000.0000        -999.25        -999.25        23.5113        73.3401        -999.25        -999.25        -999.25      0.8582999        -999.25
      1000.5000        -999.25        -999.25        19.6049       66.71159        -999.25        -999.25        -999.25      0.7172679        -999.25
      1001.0000        -999.25        -999.25        18.1954       64.17928        -999.25        -999.25        -999.25      0.6633888        -999.25
      1001.5000        -999.25        -999.25        19.1366        65.5033        -999.25        -999.25        -999.25      0.6915595        -999.25
      1002.0000        -999.25        -999.25        20.0364        66.7594        -999.25        -999.25        -999.25      0.7182851        -999.25
      1002.5000        -999.25        -999.25        20.8806       67.92429        -999.25        -999.25        -999.25      0.7430701        -999.25
      1003.0000        -999.25        -999.25        21.3136       68.41459        -999.25        -999.25        -999.25      0.7535019        -999.25
      1003.5000        -999.25        -999.25        20.8242       67.39171        -999.25        -999.25        -999.25      0.7317384        -999.25
      1004.0000        -999.25        -999.25        19.8239        65.5307        -999.25        -999.25        -999.25      0.6921425        -999.25
      1004.5000        -999.25        -999.25        16.8502        60.4323        -999.25        -999.25        -999.25       0.583666        -999.25
      1005.0000        -999.25        -999.25        14.9317       57.06496        -999.25        -999.25        -999.25      0.5120205        -999.25
      1005.5000        -999.25        -999.25        13.6941       54.81467        -999.25        -999.25        -999.25      0.4641419        -999.25
      1006.0000        -999.25        -999.25        13.5348        54.3333        -999.25        -999.25        -999.25         0.4539        -999.25
      1006.5000        -999.25        -999.25        14.4303       55.58235        -999.25        -999.25        -999.25      0.4804756        -999.25
      1007.0000        -999.25        -999.25        15.2455       56.69966        -999.25        -999.25        -999.25       0.504248        -999.25
      1007.5000        -999.25        -999.25         15.861       57.48938        -999.25        -999.25        -999.25      0.5210506        -999.25
      1008.0000        -999.25        -999.25        15.3824       56.48421        -999.25        -999.25        -999.25      0.4996641        -999.25
      1008.5000        -999.25        -999.25         14.529       54.86417        -999.25        -999.25        -999.25      0.4651952        -999.25
      1009.0000         0.5814       2090.145        13.3725       52.74691          0.418       -74.2161      -9.930389       0.420147       0.313047
      1009.5000         0.5843       2070.762        17.3059       58.97966         0.4265       -73.8093       -9.52359      0.5527586      0.3443392
      1010.0000         0.5872        2113.25        19.6429       62.59349          0.435       -73.3876      -9.101891      0.6296486      0.3767776
      1010.5000         0.5858       2154.145        22.0699       66.35497         0.4436       -72.9817      -8.695984      0.7096803      0.4080012
      1011.0000         0.5806        2186.68        24.5744       70.24356         0.4515       -72.8147      -8.528984      0.7924162      0.4208474
      1011.5000         0.5755       2219.223        25.4305       71.42799         0.4546       -72.8944      -8.608688      0.8176167      0.4147163
      1012.0000         0.5703       2241.469        25.1386       70.72909         0.4577       -72.9741      -8.688385      0.8027465      0.4085858
      1012.5000         0.5549       2214.594        24.5783       69.58987         0.4609        -73.265      -8.979286      0.7785079      0.3862087
      1013.0000         0.5366       2187.723        24.0181       68.45086          0.464       -73.7749      -9.489189      0.7542736      0.3469855
      1013.5000         0.5296       2160.844        23.4578       67.31166         0.4712       -74.2849      -9.999184      0.7300354      0.3077551
      1014.0000         0.5348       2128.691        22.6507       65.76758         0.4828       -74.6646      -10.37888      0.6971825      0.2785474
      1014.5000         0.5435       2073.176        21.4445       63.56878         0.4944       -74.3673      -10.08159      0.6503996      0.3014162
      1015.0000         0.5521       2008.006        20.1315        61.1948          0.506       -73.9034       -9.60466      0.5998894      0.3381031
      1015.5000         0.5608       1887.309        18.6326       58.51581         0.5177        -73.431      -9.102844      0.5428895      0.3767043
      1016.0000         0.5694       1766.584        17.8069       56.94122          0.532       -72.9586      -8.601021      0.5093877      0.4153061
      1016.5000         0.5781       1645.887        17.0807       55.52985         0.5471       -72.6198      -8.232796      0.4793586      0.4436311
      1017.0000         0.5873       1525.162        16.5196       54.38935         0.5621       -72.3075      -7.891083      0.4550926      0.4699167
      1017.5000          0.598       1404.465        16.1482       53.56003         0.5811       -72.4025      -7.956657      0.4374475      0.4648725
      1018.0000         0.6087        1283.74         16.226       53.46764         0.6003       -72.9113      -8.436035      0.4354818      0.4279973
      1018.5000         0.6195       1163.043        16.3037       53.37509         0.6195       -73.8098      -9.305115      0.4335126       0.361145
      1019.0000         0.6302       1173.838        16.3814       53.28252         0.6373       -73.8521      -9.317993      0.4315431      0.3601544
      1019.5000          0.641       1196.951         17.189       54.38739         0.6535       -73.0728      -8.509277      0.4550508      0.4223633
      1020.0000         0.6547        1225.35        18.1208       55.69597         0.6697       -72.5242      -7.931252       0.482893      0.4668268
