#------------------------------------------------------------------------------
# Created by    : vladimir.rabinovich
# Created on    : 09/19/2023 17:22:15
#------------------------------------------------------------------------------
~Version Information Section
VERS.           2.0     :   CWLS log ASCII Standard - VERSION 2.0
WRAP.           NO      :   One line per depth step
~Well Information Section
#MNEM       .UNIT                                         VALUE :DESCRIPTION
#------------------------------------------------------------------------------
STRT        .FT                                             712 :START DEPTH
STOP        .FT                                            8940 :STOP DEPTH
STEP        .FT                                             0.5 :STEP      
NULL        .                                           -999.25 :NULL      
COMP        .                                      SHELL OIL CO :COMPANY   
WELL        .                               OCS G03086 ST00BP00 :WELL      
FLD         .                                           WILDCAT :FIELD     
LOC         .                                                   :LOCATION  
CNTY        .                      MATAGORDA ISLAND LARGE BLOCK :LOCATION  
STAT        .                                             TEXAS :STATE     
CTRY        .                                     UNITED STATES :COUNTRY   
SRVC        .                                                   :SERVICE COMPANY
DATE        .                             9/13/2023 11:19:05 AM :LOG DATE  
API         .                                    42703400050000 :API NUMBER
UWI         .                                    42703400050000 :UNIQUE WELL ID
XCOORD      .                                  597395.628989583 :SURFACE X 
YCOORD      .                                    10217429.66268 :SURFACE Y 
LAT         .                                         28.117488 :LATITUDE  
LON         .                                        -96.235866 :LONGITUDE 
ELEV        .FT                                              93 :ELEVATION VALUE
ELEV_TYPE   .                                                KB :ELEVATION REFERENCE TYPE
~Curve Information Section
#MNEM       .UNIT                                      API CODE :CURVE DESCRIPTION
#------------------------------------------------------------------------------
DEPT        .FT                                                 :DEPTH     
CALI        .IN                                                 :          
DRHO        .G/C3                                               :          
DT          .US/F                                               :          
GR          .GAPI                                               :          
GR_1        .GAPI                                               :          
GR_NORM     .GAPI                                               :GammaRay Normalized
ILD         .OHMM                                               :          
NPHI        .%                                                  :          
RHOB        .G/C3                                               :          
SFL         .OHMM                                               :          
SP          .MV                                                 :          
SP_NORM     .MV                                                 :SP Normalized
VSH_GR      .V/V                                                :Volume of Shale from GR
VSH_SP      .V/V                                                :Volume of Shale from SP
~A        DEPTH           CALI           DRHO             DT             GR           GR_1        GR_NORM            ILD           NPHI           RHOB            SFL             SP        SP_NORM         VSH_GR         VSH_SP
# ...
      5644.0000        10.5517         0.0733       126.8322        80.3877        74.0406       83.35014         0.7658        35.7859         2.2986         0.8752       -51.5386       1.150696              1              1
      5644.5000        10.5472         0.0639       124.9364         80.171        74.1111       83.50678         0.7607        35.5308          2.286         0.8793        -53.413     -0.7260284              1              1
      5645.0000        10.5264         0.0654       124.8815        80.5068        74.0038       83.26662         0.7564        34.9128         2.2782         0.8531       -54.2512      -1.566555              1      0.9871237
      5645.5000        10.5243         0.0638       126.1049        81.1599        73.9098       83.05612          0.752        36.4185         2.2755         0.8182       -53.4603      -0.777977              1              1
      5646.0000        10.5347         0.0621       126.9155        81.1461        73.9431       83.12975         0.7472         38.441         2.2792         0.7973       -53.1375     -0.4575005              1              1
      5646.5000        10.5363         0.0639       128.3213        80.8156        74.1415       83.57185         0.7436        39.6224         2.2748         0.8008       -52.4244       0.253273              1              1
      5647.0000        10.5374         0.0614       129.3591        80.7539        74.3938       84.13422         0.7414         39.074         2.2629         0.8084       -51.8642      0.8111496              1              1
      5647.5000        10.5374         0.0591        128.625         80.433        74.5225       84.42072         0.7399        38.6545         2.2515         0.8227       -52.6937    -0.02067184              1              1
      5648.0000        10.5504         0.0681         127.34        79.7462        74.5508       84.48318         0.7387        39.2823         2.2608         0.8303       -52.9512     -0.2804985              1              1
      5648.5000        10.5605         0.0827       126.5833        79.2581        74.0304       83.32109          0.738        39.7737         2.2874         0.8307       -53.3186     -0.6502228              1              1
      5649.0000        10.5785         0.0889       126.3473        79.0687        72.7986       80.57135         0.7374        40.3257         2.3005         0.8305       -53.7438      -1.077747              1       0.998233
      5649.5000        10.6073          0.088       125.8594        79.2975         71.995       78.77721         0.7379        41.7479         2.3063         0.8329       -54.3935      -1.729774      0.9739831      0.9834142
      5650.0000         10.627         0.0839       126.0132         79.863        70.8313       76.17942         0.7371        41.4921         2.3029         0.8346       -54.4975      -1.836098      0.9187111      0.9809978
      5650.5000        10.6143         0.0745       126.0383        80.5424        69.9956       74.31367         0.7359        39.5362         2.2944         0.8261       -53.8147      -1.155621      0.8790144      0.9964632
      5651.0000        10.5884         0.0666        125.844         81.353        69.5667       73.35577         0.7357        36.7706         2.2889         0.8149       -53.2873     -0.6305428      0.8586335              1
      5651.5000        10.5681         0.0604       125.6887        81.9891         68.698       71.41636         0.7366        35.3802         2.2847         0.8157       -52.1428       0.511631      0.8173693              1
      5652.0000        10.5558         0.0695        125.863        82.6554        68.8888       71.84147         0.7358        33.9398         2.2886         0.8227       -50.0468       2.605309      0.8264142              1
      5652.5000        10.5522         0.0774       126.1625        82.9102         71.381       77.40275         0.7345        33.9461         2.3013         0.8342       -49.5416       3.108185      0.9447393              1
      5653.0000        10.5539         0.0799       126.5752        82.7001        73.2715       81.62115         0.7317         34.572          2.303          0.831       -52.1898      0.4576569              1              1
      5653.5000        10.5651         0.0799       126.9216        82.1692        75.5829        86.7789          0.728        35.7758         2.3062         0.8054       -54.0432      -1.398067              1       0.990953
      5654.0000        10.5775          0.087        127.194        81.5093        74.5652       84.50695          0.724        39.4643         2.3041         0.7874         -53.71      -1.067188              1       0.998473
      5654.5000        10.5966         0.0892        127.343         81.408        72.4408       79.76514         0.7199        39.9662         2.2926         0.7802       -53.4056     -0.7651138       0.995003              1
      5655.0000        10.6162         0.0848       127.1797         81.921        71.1891         76.971         0.7158        39.3018         2.2794         0.7878       -51.8406      0.7975616      0.9355532              1
      5655.5000         10.652         0.0724       126.9543        82.6035        70.6575       75.78389         0.7114        38.8267         2.2741         0.7903         -49.58       3.055836      0.9102955              1
      5656.0000        10.7091         0.0577       126.6786         83.021        70.5593       75.56403          0.707        40.0381         2.2632         0.7902       -47.2351       5.398415      0.9056177              1
      5656.5000        10.7755         0.0546       126.4513        83.4694        71.1185       76.81132         0.7033        40.4726         2.2631         0.7876       -46.7597       5.871487      0.9321557              1
      5657.0000        10.8024         0.0574       126.3729        83.8584        71.5271       77.72251         0.7005        40.4321         2.2655         0.7843       -48.5153       4.113564      0.9515428              1
      5657.5000        10.7902         0.0606       126.4402        83.9379        71.7999       78.33063         0.6977        40.4186         2.2596         0.7725       -48.2153        4.41124      0.9644814              1
      5658.0000        10.8206         0.0645       126.6624        83.7203        71.6283       77.94696         0.6959        36.6732         2.2554         0.7593       -47.9869       4.637314      0.9563183              1
      5658.5000        10.9116        -999.25       126.9741         83.771        71.9349       78.63052         0.6953        35.5881         2.2495         0.7932       -48.7579       3.863991      0.9708622              1
      5659.0000         10.923        -999.25       127.2682        83.3229        72.4495       79.77833         0.6946        35.6079         2.2391          0.802       -50.1414       2.478168      0.9952835              1
      5659.5000        10.8759         0.0453       127.4302        82.3148        73.0876       81.20168         0.6934        35.8151         2.2385         0.7989       -48.1439       4.473343              1              1
      5660.0000        10.8307         0.0548        127.203         81.681        73.5934       82.32981         0.6922        36.1072          2.249         0.7999       -47.4902       5.124718              1              1
      5660.5000        10.7987         0.0655       126.9005        81.3846        74.3281       83.96877         0.6928        36.4507         2.2661         0.8027       -51.0731       1.539494              1              1
      5661.0000        10.8041         0.0732       126.7214        82.1055        75.6819       86.98941         0.6941        37.4942         2.2676          0.798       -53.3845     -0.7742271              1              1
      5661.5000        10.8018         0.0717       126.5137         83.999         75.877       87.42413         0.6955        38.7092         2.2646         0.8037       -54.0997      -1.491756              1      0.9888237
