#------------------------------------------------------------------------------
# Created by    : vladimir.rabinovich
# Created on    : 09/19/2023 17:20:24
#------------------------------------------------------------------------------
~Version Information Section
VERS.           2.0     :   CWLS log ASCII Standard - VERSION 2.0
WRAP.           NO      :   One line per depth step
~Well Information Section
#MNEM       .UNIT                                         VALUE :DESCRIPTION
#------------------------------------------------------------------------------
STRT        .FT                                            3071 :START DEPTH
STOP        .FT                                           14991 :STOP DEPTH
STEP        .FT                                             0.5 :STEP      
NULL        .                                           -999.25 :NULL      
COMP        .                                        TEXACO USA :COMPANY   
WELL        .                                     ST TR 00012-L :WELL      
FLD         .                                           WILDCAT :FIELD     
LOC         .                                                   :LOCATION  
CNTY        .                           HIGH ISLAND LARGE BLOCK :LOCATION  
STAT        .                                             TEXAS :STATE     
CTRY        .                                     UNITED STATES :COUNTRY   
SRVC        .                                                   :SERVICE COMPANY
DATE        .                             9/13/2023 11:19:15 AM :LOG DATE  
API         .                                    42708000680000 :API NUMBER
UWI         .                                    42708000680000 :UNIQUE WELL ID
XCOORD      .                                  1354682.00685938 :SURFACE X 
YCOORD      .                                  10733491.7088446 :SURFACE Y 
LAT         .                                        29.5724948 :LATITUDE  
LON         .                                       -93.8991324 :LONGITUDE 
ELEV        .FT                                              44 :ELEVATION VALUE
ELEV_TYPE   .                                                KB :ELEVATION REFERENCE TYPE
~Curve Information Section
#MNEM       .UNIT                                      API CODE :CURVE DESCRIPTION
#------------------------------------------------------------------------------
DEPT        .FT                                                 :DEPTH     
ASN         .OHMM                                               :          
CILD        .MMHO                                               :          
ILD         .OHMM                                               :          
SP          .MV                                                 :          
SP_NORM     .MV                                                 :SP Normalized
VSH_SP      .V/V                                                :Volume of Shale from SP
~A        DEPTH            ASN           CILD            ILD             SP        SP_NORM         VSH_SP
# ...
     11811.0000         0.8346       2055.426         0.5998        -47.745      -7.999889      0.8906267
     11811.5000         0.8128       2068.406         0.5826       -46.7418      -6.992954      0.9063601
     11812.0000         0.7909       1929.084         0.5654       -46.9998      -7.247223      0.9023871
     11812.5000         0.7691        1956.67         0.5482        -47.257      -7.500683      0.8984268
     11813.0000         0.7472       1957.461          0.531        -47.515      -7.754948      0.8944539
     11813.5000         0.7262        1890.84         0.5138       -48.4965      -8.732712      0.8791764
     11814.0000         0.7413       1814.053         0.5291       -49.7787      -10.01118      0.8592004
     11814.5000         0.7785       1655.543         0.5467        -51.061      -11.28974      0.8392228
     11815.0000         0.8152       1555.859         0.5643       -52.3433      -12.56831      0.8192452
     11815.5000          0.847       1500.488         0.5819       -53.6255      -13.84677      0.7992692
     11816.0000         0.8789       1519.734         0.5995       -53.2783      -13.49583      0.8047526
     11816.5000         0.8976       1607.971         0.6171       -52.7128       -12.9266      0.8136469
     11817.0000         0.8683       1862.217         0.6347       -52.1461      -12.35616        0.82256
     11817.5000         0.8311       1937.129         0.6523       -51.5793      -11.78563      0.8314746
     11818.0000         0.7939       1989.346         0.6478       -50.7696      -10.97219      0.8441845
     11818.5000         0.7567       1988.051         0.6271       -49.9449      -10.14376      0.8571288
     11819.0000         0.7196       2087.824         0.6064       -49.1215      -9.316616      0.8700529
     11819.5000         0.6702       2164.414         0.5858       -48.2981      -8.489483      0.8829768
     11820.0000         0.6157       2240.215         0.5651       -47.4734      -7.661049      0.8959211
     11820.5000         0.6111       2211.887         0.5444         -46.65      -6.833912      0.9088451
     11821.0000         0.6297       2183.512         0.5283       -47.4077      -7.587875      0.8970644
     11821.5000         0.6421       2155.137         0.5145       -48.3973      -8.573742      0.8816603
     11822.0000         0.6545       2126.762         0.5007       -49.3869      -9.559605      0.8662562
     11822.5000         0.6669        2182.18         0.4869       -50.3765      -10.54547      0.8508521
     11823.0000         0.6787       2237.945         0.4732       -52.2019      -12.36713      0.8223885
     11823.5000         0.6652         2309.5         0.4594       -54.9697       -15.1312         0.7792
     11824.0000         0.6517       2417.082         0.4456       -57.7426      -17.90036      0.7359319
     11824.5000         0.6382        2524.66         0.4318        -60.446      -20.60003      0.6937496
     11825.0000         0.6247       2632.242          0.418       -63.1394      -23.28969      0.6517236
     11825.5000         0.6112       2739.824         0.4042       -65.8279      -25.97446      0.6097741
     11826.0000         0.5976       2847.402         0.3938       -68.6553      -28.79811      0.5656545
     11826.5000         0.5854        2947.68         0.3885       -71.5273      -31.66638      0.5208378
     11827.0000         0.5741       3041.445         0.3833       -76.9639      -37.09924      0.4359493
     11827.5000         0.5627       3181.398          0.378       -87.7823      -47.91391      0.2669701
     11828.0000         0.5514       3321.352         0.3728       -90.5006      -50.62848       0.224555
     11828.5000           0.54       3461.504         0.3675        -92.574      -52.69814      0.1922166
     11829.0000         0.5287       3601.258         0.3639       -94.5333      -54.65371      0.1616609
     11829.5000         0.5174       3804.578         0.3621       -96.3091      -56.42577      0.1339724
     11830.0000         0.4992           3956         0.3604        -97.884      -57.99693      0.1094229
     11830.5000         0.4754       4086.246         0.3587       -99.4564      -59.56559      0.0849126
     11831.0000         0.4517         4301.5         0.3569       -100.969      -61.07446     0.06133652
     11831.5000         0.4431       4355.297         0.3552       -100.968      -61.06973     0.06141049
     11832.0000         0.4372       4384.555         0.3534       -100.967      -61.06499     0.06148452
     11832.5000         0.4313        4405.43          0.363      -100.9661      -61.06036     0.06155694
     11833.0000         0.4341       4311.469         0.3736       -100.965      -61.05552     0.06163257
     11833.5000         0.4454       4150.492         0.3841      -100.5725      -60.65928     0.06782371
     11834.0000         0.4566       4100.555         0.3947       -99.9996      -60.08265     0.07683361
     11834.5000         0.4678       4050.516         0.4052       -99.4254      -59.50471     0.08586389
     11835.0000          0.479       4006.004         0.4157       -98.8513      -58.92688     0.09489256
     11835.5000         0.4902       3985.063         0.4263       -98.2784      -58.35023      0.1039026
     11836.0000         0.5026        3975.25         0.4368       -97.7042       -57.7723      0.1129327
     11836.5000         0.5274       3965.438         0.4541       -97.1301      -57.19446      0.1219615
     11837.0000         0.5522       1940.176         0.4716       -96.5571      -56.61773       0.130973
     11837.5000         0.5771       1938.883         0.4891       -95.5006       -55.5575      0.1475391
     11838.0000         0.6019       1937.588         0.5066       -92.8369      -52.89006      0.1892179
     11838.5000         0.6267       1936.295         0.5241       -90.1732      -50.22263      0.2308965
     11839.0000         0.6744           1935         0.5416       -86.9937      -47.03939      0.2806346
     11839.5000         0.7227       1933.709          0.559       -81.1901      -41.23206      0.3713741
     11840.0000         0.8374       1932.412         0.5765       -70.2377      -30.27592      0.5425638
     11840.5000         0.9557       1926.766          0.594       -66.7753      -26.80978      0.5967222
     11841.0000         1.0738       1789.971           0.61       -63.3726      -23.40335      0.6499477
     11841.5000         1.1922       1613.301          0.624       -60.1979      -20.22491      0.6996108
     11842.0000         1.3063       1625.342         0.6381       -57.4896      -17.51287      0.7419863
     11842.5000         1.2731       1758.387         0.6521       -54.7862      -14.80574      0.7842853
     11843.0000         0.8568       1855.309         0.6441       -51.0809       -11.0967      0.8422391
     11843.5000         0.7479       1915.711         0.6096       -48.7805      -8.792564      0.8782412
     11844.0000         0.6971       1953.906         0.5752       -47.9695      -7.977833      0.8909714
     11844.5000         0.6642       2084.371         0.5488       -47.1584      -7.162994      0.9037032
     11845.0000          0.642       2147.438         0.5258       -47.0438      -7.044659      0.9055522
     11845.5000         0.6199       2209.172         0.5028       -47.4418      -7.438923      0.8993918
     11846.0000         0.6042       2237.301         0.4798       -47.8399      -7.833286      0.8932299
     11846.5000         0.6009       2265.383         0.4684        -48.238       -8.22765       0.887068
     11847.0000         0.5976       2293.461         0.4607        -48.636      -8.621918      0.8809075
     11847.5000         0.5943       2326.082          0.453       -49.0341      -9.016281      0.8747456
     11848.0000         0.6085       2360.824         0.4453       -49.4328      -9.411243      0.8685743
     11848.5000         0.6229       2381.305         0.4376       -51.7455      -11.72021      0.8324968
