#------------------------------------------------------------------------------
# Created by    : vladimir.rabinovich
# Created on    : 09/19/2023 17:22:38
#------------------------------------------------------------------------------
~Version Information Section
VERS.           2.0     :   CWLS log ASCII Standard - VERSION 2.0
WRAP.           NO      :   One line per depth step
~Well Information Section
#MNEM       .UNIT                                         VALUE :DESCRIPTION
#------------------------------------------------------------------------------
STRT        .FT                                             890 :START DEPTH
STOP        .FT                                            9058 :STOP DEPTH
STEP        .FT                                             0.5 :STEP      
NULL        .                                           -999.25 :NULL      
COMP        .                            COASTAL OIL & GAS CORP :COMPANY   
WELL        .                               OCS G01773 ST00BP00 :WELL      
FLD         .                                           WILDCAT :FIELD     
LOC         .                                                   :LOCATION  
CNTY        .                             GALVESTON LARGE BLOCK :LOCATION  
STAT        .                                             TEXAS :STATE     
CTRY        .                                     UNITED STATES :COUNTRY   
SRVC        .                                                   :SERVICE COMPANY
DATE        .                             9/13/2023 11:19:54 AM :LOG DATE  
API         .                                    42706403500000 :API NUMBER
UWI         .                                    42706403500000 :UNIQUE WELL ID
XCOORD      .                                  1074939.13305719 :SURFACE X 
YCOORD      .                                   10531967.363633 :SURFACE Y 
LAT         .                                         29.009472 :LATITUDE  
LON         .                                        -94.769566 :LONGITUDE 
ELEV        .FT                                              83 :ELEVATION VALUE
ELEV_TYPE   .                                                KB :ELEVATION REFERENCE TYPE
~Curve Information Section
#MNEM       .UNIT                                      API CODE :CURVE DESCRIPTION
#------------------------------------------------------------------------------
DEPT        .FT                                                 :DEPTH     
DCAL        .IN                                                 :          
DPSS        .V/V                                                :          
DRHO        .G/CM3                                              :          
DTLF        .US/FT                                              :          
DTLN        .US/FT                                              :          
GR          .GAPI                                               :          
GRS         .GAPI                                               :          
NPSS        .V/V                                                :Neutron Porosity Sandstone
SFL         .OHMM                                               :          
SP          .MV                                                 :          
SP_NORM     .MV                                                 :SP Normalized
SPHI_SAN    .V/V                                                :          
TENS        .LB                                                 :          
VSH_SP      .V/V                                                :Volume of Shale from SP
~A        DEPTH           DCAL           DPSS           DRHO           DTLF           DTLN             GR            GRS           NPSS            SFL             SP        SP_NORM       SPHI_SAN           TENS         VSH_SP
# ...
      4616.0000         1.2692        -999.25        -999.25        -999.25        -999.25         64.902        -999.25        -999.25         0.6335       -15.8824      -17.01234         0.3456       2156.863      0.7731687
      4616.5000         1.2692        -999.25        -999.25        -999.25        -999.25         65.098        -999.25        -999.25         0.6222       -13.4694      -14.59934         0.3468       2176.471      0.8053421
      4617.0000         1.2692        -999.25        -999.25        -999.25        -999.25        66.8627        -999.25        -999.25         0.5838       -11.6327      -12.76264         0.3492       2156.863      0.8298314
      4617.5000         1.2692        -999.25        -999.25        -999.25        -999.25        69.8039        -999.25        -999.25         0.5329        -9.1837      -10.31364          0.354       2176.471      0.8624848
      4618.0000         1.2308        -999.25        -999.25        -999.25        -999.25        71.3725        -999.25        -999.25         0.5092        -8.5714      -9.701344          0.354       2176.471      0.8706487
      4618.5000         1.2308        -999.25        -999.25        -999.25        -999.25        71.3725        -999.25        -999.25         0.5139        -9.7959      -10.92584         0.3516       2176.471      0.8543221
      4619.0000         1.2308        -999.25        -999.25        -999.25        -999.25        69.6078        -999.25        -999.25         0.5378        -12.551      -13.68094         0.3492       2156.863      0.8175874
      4619.5000         1.2308        -999.25        -999.25        -999.25        -999.25         65.098        -999.25        -999.25         0.6569       -16.7647      -17.89464         0.3456       2156.863      0.7614048
      4620.0000         1.2308        -999.25        -999.25        -999.25        -999.25        56.5306        -999.25        -999.25         0.9174       -21.7647      -22.89464         0.3432       2156.863      0.6947381
      4620.5000         1.2308        -999.25        -999.25        -999.25        -999.25             46        -999.25        -999.25         1.2412       -29.7059      -30.83584         0.3408       2156.863      0.5888554
      4621.0000         1.1923        -999.25        -999.25        -999.25        -999.25           43.2        -999.25        -999.25         1.5826       -37.9412      -39.07114         0.3396       2156.863      0.4790514
      4621.5000         1.1923        -999.25        -999.25        -999.25        -999.25             41        -999.25        -999.25          1.513        -49.898      -51.02794         0.3396       2156.863      0.3196274
      4622.0000         1.1923        -999.25        -999.25        -999.25        -999.25           40.4        -999.25        -999.25         1.3952       -56.6327      -57.76265         0.3396       2156.863      0.2298314
      4622.5000         1.0769        -999.25        -999.25        -999.25        -999.25        39.5918        -999.25        -999.25           1.31          -61.2      -62.32994         0.3396       2156.863      0.1689341
      4623.0000         1.0385        -999.25        -999.25        -999.25        -999.25        38.3673        -999.25        -999.25           1.23          -63.6      -64.72994         0.3396       2156.863      0.1369341
      4623.5000         1.0385        -999.25        -999.25        -999.25        -999.25        36.3265        -999.25        -999.25         1.1141          -64.8      -65.92995         0.3396       2156.863       0.120934
      4624.0000              1        -999.25        -999.25        -999.25        -999.25        36.5306        -999.25        -999.25          1.009          -65.4      -66.52995          0.342       2156.863      0.1129341
      4624.5000              1        -999.25        -999.25        -999.25        -999.25        38.3673        -999.25        -999.25         0.9087          -64.8      -65.92995         0.3468       2156.863       0.120934
      4625.0000              1        -999.25        -999.25        -999.25        -999.25        39.5918        -999.25        -999.25         0.8146          -63.9      -65.02995         0.3528       2156.863      0.1329341
      4625.5000              1        -999.25        -999.25        -999.25        -999.25        39.7959        -999.25        -999.25         0.6812          -62.7      -63.82994         0.3588       2156.863      0.1489341
      4626.0000         0.9615        -999.25        -999.25        -999.25        -999.25             40        -999.25        -999.25         0.5946          -60.3      -61.42994         0.3564       2156.863      0.1809341
      4626.5000         0.9231        -999.25        -999.25        -999.25        -999.25           42.2        -999.25        -999.25            0.5        -55.102      -56.23195          0.318       2156.863      0.2502407
      4627.0000         0.9231        -999.25        -999.25        -999.25        -999.25           44.8        -999.25        -999.25         0.6222       -49.2857      -50.41565         0.2568       2156.863      0.3277914
      4627.5000         0.8846        -999.25        -999.25        -999.25        -999.25             47        -999.25        -999.25         0.9442       -43.5294      -44.65934         0.2088       2156.863      0.4045421
      4628.0000         0.7692        -999.25        -999.25        -999.25        -999.25           48.2        -999.25        -999.25         1.3219       -36.7647      -37.89465          0.216       2156.863      0.4947381
      4628.5000         0.6923        -999.25        -999.25        -999.25        -999.25           49.4        -999.25        -999.25         1.3952       -32.6471      -33.77704         0.2664       2156.863      0.5496395
      4629.0000         0.6538        -999.25        -999.25        -999.25        -999.25        51.2245        -999.25        -999.25         1.0555       -30.8824      -32.01234         0.3084       2156.863      0.5731688
      4629.5000         0.6154        -999.25        -999.25        -999.25        -999.25        54.0816        -999.25        -999.25         0.7701       -30.8824      -32.01234         0.3312       2156.863      0.5731688
      4630.0000         0.6538        -999.25        -999.25        -999.25        -999.25        55.7143        -999.25        -999.25         0.6874       -31.4706      -32.60054         0.3492       2156.863      0.5653261
      4630.5000         0.7692        -999.25        -999.25        -999.25        -999.25        56.9388        -999.25        -999.25         0.6278       -31.1765      -32.30644          0.354       2156.863      0.5692474
      4631.0000         0.8462        -999.25        -999.25        -999.25        -999.25        56.9388        -999.25        -999.25         0.5733       -30.5882      -31.71814          0.348       2156.863      0.5770914
      4631.5000         0.8462        -999.25        -999.25        -999.25        -999.25        55.5102        -999.25        -999.25         0.5428       -30.2941      -31.42404          0.336       2156.863      0.5810127
      4632.0000         0.8462        -999.25        -999.25        -999.25        -999.25        53.2653        -999.25        -999.25         0.7272       -31.1765      -32.30644         0.3024       2156.863      0.5692474
      4632.5000         0.9231        -999.25        -999.25        -999.25        -999.25        50.8163        -999.25        -999.25         1.1041            -35      -36.12994         0.2724       2156.863      0.5182674
      4633.0000         0.9615        -999.25        -999.25        -999.25        -999.25           49.8        -999.25        -999.25         1.4206       -41.1765      -42.30644         0.2556       2176.471      0.4359141
      4633.5000         1.0769        -999.25        -999.25        -999.25        -999.25        50.8163        -999.25        -999.25         1.4079       -45.9184      -47.04834         0.2604       2176.471      0.3726887
