#------------------------------------------------------------------------------
# Created by    : vladimir.rabinovich
# Created on    : 09/19/2023 17:20:03
#------------------------------------------------------------------------------
~Version Information Section
VERS.           2.0     :   CWLS log ASCII Standard - VERSION 2.0
WRAP.           NO      :   One line per depth step
~Well Information Section
#MNEM       .UNIT                                         VALUE :DESCRIPTION
#------------------------------------------------------------------------------
STRT        .FT                                            3149 :START DEPTH
STOP        .FT                                           10186 :STOP DEPTH
STEP        .FT                                             0.5 :STEP      
NULL        .                                           -999.25 :NULL      
COMP        .                                  SAMEDAN OIL CORP :COMPANY   
WELL        .                                     ST TR 00817-L :WELL      
FLD         .                                           WILDCAT :FIELD     
LOC         .                                                   :LOCATION  
CNTY        .                        MUSTANG ISLAND LARGE BLOCK :LOCATION  
STAT        .                                             TEXAS :STATE     
CTRY        .                                     UNITED STATES :COUNTRY   
SRVC        .                                                   :SERVICE COMPANY
DATE        .                             9/13/2023 11:18:55 AM :LOG DATE  
API         .                                    42702300080000 :API NUMBER
UWI         .                                    42702300080000 :UNIQUE WELL ID
XCOORD      .                                  304914.569303086 :SURFACE X 
YCOORD      .                                  10013906.4088957 :SURFACE Y 
LAT         .                                        27.5345201 :LATITUDE  
LON         .                                       -97.1203623 :LONGITUDE 
ELEV        .FT                                              65 :ELEVATION VALUE
ELEV_TYPE   .                                                KB :ELEVATION REFERENCE TYPE
~Curve Information Section
#MNEM       .UNIT                                      API CODE :CURVE DESCRIPTION
#------------------------------------------------------------------------------
DEPT        .FT                                                 :DEPTH     
ASFL        .OHMM                                               :          
CILD        .MMHO                                               :          
DT          .US/F                                               :          
GR          .GAPI                                               :          
ILD         .OHMM                                               :          
SP          .MV                                                 :          
SP_NORM     .MV                                                 :SP Normalized
VSH_SP      .V/V                                                :Volume of Shale from SP
~A        DEPTH           ASFL           CILD             DT             GR            ILD             SP        SP_NORM         VSH_SP
# ...
      9226.0000         0.9195       2465.277       118.1066        37.4875         0.4115       -55.8041      -10.19007      0.8298135
      9226.5000         0.8806       2546.188       114.7809        36.3434         0.3786       -57.2687      -11.65467      0.8026913
      9227.0000         0.8498       2627.098        112.174        33.6083         0.3458       -58.2911      -12.67707       0.783758
      9227.5000         0.8322       2708.004       111.0898        28.5171         0.3129        -59.218      -13.60397      0.7665932
      9228.0000         0.8147       2788.914       111.1897         26.156         0.2881       -60.9183      -15.30427      0.7351062
      9228.5000         0.8014       2760.121       111.3707        23.7901         0.2642       -70.5133      -24.89927       0.557421
      9229.0000         0.8308       2548.137       111.0006         24.067          0.287         -80.79      -35.17597      0.3671117
      9229.5000         0.8602       2336.156       109.9188        26.0261         0.3388       -75.0184      -29.40437      0.4739932
      9230.0000         0.9067       2124.172       107.0839        27.1313         0.3907       -69.2468      -23.63277      0.5808746
      9230.5000         0.9794       1912.188       103.9565        27.9341         0.4433        -63.543      -17.92897      0.6865006
      9231.0000         1.0327       1727.529        102.145        28.5159         0.4959       -60.3056      -14.69157      0.7464525
      9231.5000         1.0931       1674.193       100.9729        28.6892         0.5471        -59.433      -13.81897      0.7626117
      9232.0000         1.1272       1634.568       103.1833        28.7899         0.5971       -58.5521      -12.93807      0.7789246
      9232.5000         1.1588       1598.455       106.7222        29.3551         0.6428       -57.6832      -12.06917      0.7950154
      9233.0000          1.179       1569.299       110.3302        30.3486         0.6474       -57.0343      -11.42027       0.807032
      9233.5000          1.179       1554.781       113.3188          33.55         0.6269       -56.4518      -10.83777      0.8178191
      9234.0000         1.1335       1542.643       116.9617        37.5677         0.6064         -55.85      -10.23597      0.8289636
      9234.5000          1.099       1535.713       119.7322        40.2543         0.5922       -55.1576      -9.543568      0.8417858
      9235.0000         1.0645       1795.264       121.8783        42.5813         0.5807       -54.3806      -8.766567      0.8561747
      9235.5000          1.025       1850.504       123.2653        45.7634         0.5691       -53.0803      -7.466267      0.8802543
      9236.0000         0.9015       1869.805         123.36        47.5098         0.5576       -51.7727      -6.158669      0.9044691
      9236.5000         0.8606       1887.775       123.4547        48.5944         0.5461       -50.8809      -5.266869      0.9209839
      9237.0000         0.8401       1893.912       123.5494        49.6911         0.5346       -50.2307      -4.616669      0.9330246
      9237.5000         0.8233       1900.049       123.6838        50.6105         0.5231       -49.6362      -4.022167      0.9440339
      9238.0000         0.8127       1906.184       123.8197        51.3392         0.5116       -49.0658      -3.451767      0.9545969
      9238.5000         0.8046       1912.541        123.976        51.7024         0.5044       -48.4966      -2.882568      0.9651376
      9239.0000         0.7964       1919.189       124.3571           51.4         0.5011       -48.1758      -2.561768      0.9710784
      9239.5000         0.7898       1925.852        124.738        51.0975         0.4979       -47.8833      -2.269268       0.976495
      9240.0000          0.784        1935.83       125.1754        50.5364         0.4946       -47.5909      -1.976868      0.9819099
      9240.5000         0.7781       1948.201       125.8606        49.8939         0.4914       -47.4496      -1.835567      0.9845265
      9241.0000         0.7723       1960.572       123.4098        49.2527         0.4903       -47.3631      -1.749065      0.9861284
      9241.5000         0.7665       1974.846       125.1816        48.2385         0.4908       -47.2765      -1.662468      0.9877321
      9242.0000         0.7607       2001.002       126.9733        49.3195         0.4913       -47.1992      -1.585167      0.9891636
      9242.5000         0.7547        2009.98       127.1332        50.6676         0.4918       -47.1622      -1.548168      0.9898487
      9243.0000         0.7486       1958.938        126.334        52.4286         0.4923       -47.1252      -1.511166      0.9905339
      9243.5000         0.7523       1909.648       123.9153          54.95         0.4928       -47.0881      -1.474068       0.991221
      9244.0000         0.7579       1860.361       121.5363        56.4512         0.4933       -47.0432      -1.429169      0.9920524
      9244.5000         0.7781       1811.074       119.1771        58.0276         0.5049       -46.8975      -1.283466      0.9947506
      9245.0000         0.8029       1774.963       116.9171        59.4899         0.5169       -46.7516      -1.137566      0.9974525
      9245.5000         0.8277        1744.17       114.8528        52.5938          0.529        -46.606     -0.9919662              1
      9246.0000         0.8484       1713.379       113.5061        50.1915          0.541       -46.4051      -0.791069              1
      9246.5000         0.8681       1682.537       113.4767        48.7899         0.5694       -46.1984     -0.5843658              1
      9247.0000         0.8878       1645.645       114.6322        47.4831         0.6017       -46.0699     -0.4558678              1
      9247.5000         0.9022       1598.406        116.476        46.1083         0.6276       -46.1325     -0.5184669              1
      9248.0000         0.9139       1565.516       121.0358        47.6677         0.6202       -46.1949     -0.5808678              1
      9248.5000         0.9255       1547.484       133.3469         51.117         0.6129       -46.2575     -0.6434669              1
      9249.0000         0.9372       1528.795        141.832        55.9945         0.6056         -46.32     -0.7059669              1
      9249.5000         0.8751       1580.156       148.6914        60.8867         0.5983       -46.3826     -0.7685661              1
      9250.0000         0.8563       1659.992       136.0828        63.3351         0.5909       -46.4702     -0.8561668              1
      9250.5000         0.8376       1731.727       130.8987         75.631         0.5836       -46.5702     -0.9561691              1
      9251.0000         0.8189       1804.145       130.5776        79.6097         0.5763         -46.67      -1.055965      0.9989636
      9251.5000         0.8041       1856.945       135.0024        80.3287          0.569         -46.77      -1.155968      0.9971117
      9252.0000         0.7947       1893.795       146.3521        80.6039         0.5616       -46.8699      -1.255867      0.9952617
      9252.5000         0.7854       1891.768       150.6516        80.5695         0.5568        -46.918      -1.303967       0.994371
      9253.0000          0.776       1889.736       148.2207         80.535         0.5547       -46.9334      -1.319366      0.9940858
      9253.5000         0.7666       1887.705       150.6145        79.9656         0.5527       -46.9487      -1.334667      0.9938025
      9254.0000         0.7637       1885.676       133.9517        77.0253         0.5506       -46.9641      -1.350067      0.9935173
      9254.5000         0.7608       1885.014       129.9619        66.0896         0.5485       -46.9794      -1.365368      0.9932339
      9255.0000         0.7579       1885.123       129.2705        60.1093         0.5465       -46.9748      -1.360767      0.9933191
