#------------------------------------------------------------------------------
# Created by    : vladimir.rabinovich
# Created on    : 09/19/2023 17:20:38
#------------------------------------------------------------------------------
~Version Information Section
VERS.           2.0     :   CWLS log ASCII Standard - VERSION 2.0
WRAP.           NO      :   One line per depth step
~Well Information Section
#MNEM       .UNIT                                         VALUE :DESCRIPTION
#------------------------------------------------------------------------------
STRT        .FT                                             495 :START DEPTH
STOP        .FT                                            8683 :STOP DEPTH
STEP        .FT                                             0.5 :STEP      
NULL        .                                           -999.25 :NULL      
COMP        .                                      SHELL OIL CO :COMPANY   
WELL        .                                OCS 00706 ST00BP00 :WELL      
FLD         .                                           WILDCAT :FIELD     
LOC         .                                                   :LOCATION  
CNTY        .                             GALVESTON LARGE BLOCK :LOCATION  
STAT        .                                             TEXAS :STATE     
CTRY        .                                     UNITED STATES :COUNTRY   
SRVC        .                                                   :SERVICE COMPANY
DATE        .                             9/13/2023 11:19:25 AM :LOG DATE  
API         .                                    42706000290000 :API NUMBER
UWI         .                                    42706000290000 :UNIQUE WELL ID
XCOORD      .                                  1097630.70361638 :SURFACE X 
YCOORD      .                                  10500448.3193905 :SURFACE Y 
LAT         .                                          28.92371 :LATITUDE  
LON         .                                        -94.697168 :LONGITUDE 
ELEV        .FT                                              92 :ELEVATION VALUE
ELEV_TYPE   .                                                KB :ELEVATION REFERENCE TYPE
~Curve Information Section
#MNEM       .UNIT                                      API CODE :CURVE DESCRIPTION
#------------------------------------------------------------------------------
DEPT        .FT                                                 :DEPTH     
ASN         .OHMM                                               :          
CILD        .MMHO                                               :          
ILD         .OHMM                                               :          
SP          .MV                                                 :          
SP_NORM     .MV                                                 :SP Normalized
VSH_SP      .V/V                                                :Volume of Shale from SP
~A        DEPTH            ASN           CILD            ILD             SP        SP_NORM         VSH_SP
# ...
      4295.0000         1.1489       1055.084         1.0329       -36.5762      -1.108528      0.9983042
      4295.5000         1.1514       1060.867         1.0381       -36.8043       -1.33889      0.9947048
      4296.0000         1.1462        1066.65         1.0433       -36.9734      -1.510254      0.9920273
      4296.5000          1.139       1077.432         1.0486       -37.1364      -1.675514      0.9894451
      4297.0000         1.1312       1089.033         1.0538        -37.295      -1.836376      0.9869316
      4297.5000         1.1235       1100.094          1.059       -36.9904      -1.534039      0.9916556
      4298.0000         1.1158       1108.648         1.0642       -36.5369      -1.082802      0.9987062
      4298.5000          1.112        1119.15         1.0694       -36.0803     -0.6284637              1
      4299.0000         1.1089        1128.58         1.0744       -35.6238     -0.1742249              1
      4299.5000         1.1057       1129.605         1.0795       -35.1675      0.2798157              1
      4300.0000         1.1026       1130.088         1.0846       -34.7488      0.6962547              1
      4300.5000         1.0995       1126.844         1.0896       -34.5313      0.9114914              1
      4301.0000         1.0972       1123.604         1.0947       -34.5572      0.8833275              1
      4301.5000         1.0973       1118.545         1.0998       -34.6697      0.7685661              1
      4302.0000         1.0974       1101.875         1.1048       -34.7822      0.6538048              1
      4302.5000         1.0975       1085.207          1.112       -34.8948      0.5389442              1
      4303.0000         1.1064       1061.246         1.1363       -34.9261      0.5053787              1
      4303.5000         1.1161       1028.084         1.1606        -34.942      0.4872169              1
      4304.0000         1.1402       971.9834         1.1853       -34.9578      0.4691544              1
      4304.5000         1.1694       935.6748         1.2108        -35.224       0.200695              1
      4305.0000         1.2054       908.1201         1.2364       -35.5234     -0.1009674              1
      4305.5000         1.2262       884.8525         1.2619       -36.3654     -0.9452286              1
      4306.0000         1.2467       868.2822         1.2874       -37.1677      -1.749794      0.9882845
      4306.5000         1.2641       851.9531          1.313       -37.8729      -2.457253      0.9772304
      4307.0000         1.2808       851.9092          1.315       -37.8767      -2.463318      0.9771357
      4307.5000         1.2932       859.2275         1.3166       -37.8806      -2.469479      0.9770394
      4308.0000         1.3056       866.5449         1.3182       -37.7566       -2.34774      0.9789416
      4308.5000         1.3156       873.8623         1.3197        -37.577      -2.170403      0.9817125
      4309.0000          1.321       881.1807         1.3213       -37.3973      -1.992962       0.984485
      4309.5000          1.315       889.7129         1.3229       -37.2177      -1.815624      0.9872559
      4310.0000         1.2846       914.2773          1.312        -37.017      -1.617184      0.9903565
      4310.5000          1.252       935.3125          1.287       -36.7601      -1.362549      0.9943352
      4311.0000         1.2232        951.168          1.262       -36.7114      -1.316109      0.9950608
      4311.5000         1.2048       945.8516         1.2371       -36.7753      -1.382271       0.994027
      4312.0000         1.1959       937.9736         1.2325       -36.8393      -1.448532      0.9929917
      4312.5000         1.1869       930.0889         1.2319       -36.9032      -1.514694      0.9919579
      4313.0000         1.1779       922.7988         1.2313       -36.9575      -1.571259      0.9910741
      4313.5000         1.1701       917.2412         1.2307       -37.0033       -1.61932      0.9903231
      4314.0000         1.2038       911.6826         1.2301       -37.0491      -1.667381      0.9895722
      4314.5000         1.2375       908.2246         1.2295       -37.0949      -1.715443      0.9888212
      4315.0000         1.2652       911.2979         1.2289       -37.1407      -1.763508      0.9880702
      4315.5000         1.2774        914.374         1.2283       -37.1866      -1.811668      0.9873177
      4316.0000         1.2671       917.4473          1.227       -37.1295      -1.756832      0.9881745
      4316.5000         1.2509       920.8223          1.223       -37.0155      -1.645092      0.9899204
      4317.0000         1.2301       924.4707         1.2189       -36.9016      -1.533455      0.9916648
      4317.5000         1.2068       928.1182         1.2148       -36.7877      -1.421818      0.9934091
      4318.0000         1.1875       931.7666         1.2107       -36.7925      -1.428875      0.9932988
      4318.5000          1.191       936.2109         1.2066       -36.9418      -1.580437      0.9909307
      4319.0000         1.2052       941.1699         1.2026       -37.0911      -1.731998      0.9885625
      4319.5000         1.2193       946.1299         1.1985       -37.4589      -2.102062      0.9827803
      4320.0000         1.2335       951.0889         1.1944       -38.0141      -2.659523        0.97407
      4320.5000         1.2345       956.0479         1.1903       -38.5859      -3.233585      0.9651002
      4321.0000          1.205       968.1016         1.1863       -39.1759      -3.825848      0.9558461
      4321.5000         1.1805       982.7588           1.18       -39.6399       -4.29211      0.9485608
      4322.0000         1.1652        997.416         1.1737       -39.7472      -4.401672      0.9468489
      4322.5000         1.1499       1014.493         1.1674       -39.4108      -4.067535      0.9520698
      4323.0000         1.1425       1033.934         1.1611       -39.0226      -3.681595      0.9581001
      4323.5000         1.1368       1053.715         1.1548       -38.6365       -3.29776      0.9640975
      4324.0000         1.1311       1074.484         1.1485       -38.3921      -3.055622      0.9678809
      4324.5000         1.1254       1093.178         1.1414       -38.1478      -2.813583      0.9716628
      4325.0000         1.1159       1108.584         1.1296       -37.9034      -2.571445      0.9754462
      4325.5000         1.1043       1123.977         1.1178       -37.6591      -2.329407       0.979228
      4326.0000         1.0913       1142.658         1.1061       -37.4149      -2.087471      0.9830083
      4326.5000         1.0746       1164.102         1.0943       -37.1705      -1.845333      0.9867917
      4327.0000         1.0513        1182.32         1.0825       -36.8978      -1.574894      0.9910173
      4327.5000         1.0265       1200.057         1.0713       -36.5667      -1.246052      0.9961554
      4328.0000         1.0171       1217.914         1.0645       -36.2353     -0.9169121              1
      4328.5000         1.0115       1238.268         1.0577       -35.9042     -0.5880775              1
      4329.0000         1.0059       1253.035         1.0508        -35.941       -0.62714              1
      4329.5000         1.0067       1235.529          1.044       -36.0406     -0.7290001              1
      4330.0000         1.0285       1190.887         1.0372       -36.1403     -0.8309631              1
      4330.5000          1.066       1164.729         1.0303       -36.3235      -1.016426      0.9997433
      4331.0000         1.0933       1143.561         1.0327       -36.5792      -1.274387      0.9957127
      4331.5000         1.1179       1123.527         1.0364        -36.835      -1.532448      0.9916805
      4332.0000         1.1374       1100.699         1.0402       -37.0906       -1.79031      0.9876514
      4332.5000         1.1315       1073.342         1.0439       -37.3464      -2.048374      0.9836192
