#------------------------------------------------------------------------------
# Created by    : vladimir.rabinovich
# Created on    : 09/19/2023 17:19:36
#------------------------------------------------------------------------------
~Version Information Section
VERS.           2.0     :   CWLS log ASCII Standard - VERSION 2.0
WRAP.           NO      :   One line per depth step
~Well Information Section
#MNEM       .UNIT                                         VALUE :DESCRIPTION
#------------------------------------------------------------------------------
STRT        .FT                                            4496 :START DEPTH
STOP        .FT                                            7801 :STOP DEPTH
STEP        .FT                                             0.5 :STEP      
NULL        .                                           -999.25 :NULL      
COMP        .                             HELIS WM G CO LLC THE :COMPANY   
WELL        .                               OCS G12508 ST00BP00 :WELL      
FLD         .                              GALVESTON BLOCK 0395 :FIELD     
LOC         .                                                   :LOCATION  
CNTY        .                             GALVESTON LARGE BLOCK :LOCATION  
STAT        .                                             TEXAS :STATE     
CTRY        .                                     UNITED STATES :COUNTRY   
SRVC        .                                                   :SERVICE COMPANY
DATE        .                             9/13/2023 11:19:03 AM :LOG DATE  
API         .                                    42706404300000 :API NUMBER
UWI         .                                    42706404300000 :UNIQUE WELL ID
XCOORD      .                                  908236.382466376 :SURFACE X 
YCOORD      .                                  10386259.9403327 :SURFACE Y 
LAT         .                                         28.601028 :LATITUDE  
LON         .                                        -95.282181 :LONGITUDE 
ELEV        .FT                                             103 :ELEVATION VALUE
ELEV_TYPE   .                                                KB :ELEVATION REFERENCE TYPE
~Curve Information Section
#MNEM       .UNIT                                      API CODE :CURVE DESCRIPTION
#------------------------------------------------------------------------------
DEPT        .FT                                                 :DEPTH     
AHT10       .OHMM                                               :          
AHT20       .OHMM                                               :          
AHT30       .OHMM                                               :          
AHT60       .OHMM                                               :          
AHT90       .OHMM                                               :          
CPCHM       .MMHO                                               :          
DCAL        .IN                                                 :          
DPHZ        .FRAC                                               :          
GR          .GAPI                                               :          
GR_NORM     .GAPI                                               :GammaRay Normalized
GRAM        .GAPI                                               :          
HDRA        .G/CC                                               :          
NPOR        .FRAC                                               :          
RACHM       .OHMM                                               :          
ROPS        .F/HR                                               :          
RPCHM       .OHMM                                               :          
RWA         .OHMM                                               :          
SP          .MV                                                 :          
SP_NORM     .MV                                                 :SP Normalized
TENS        .LB/F                                               :          
VSH_GR      .V/V                                                :Volume of Shale from GR
VSH_SP      .V/V                                                :Volume of Shale from SP
~A        DEPTH          AHT10          AHT20          AHT30          AHT60          AHT90          CPCHM           DCAL           DPHZ             GR        GR_NORM           GRAM           HDRA           NPOR          RACHM           ROPS          RPCHM            RWA             SP        SP_NORM           TENS         VSH_GR         VSH_SP
# ...
      7568.0000         0.9747         0.9798         0.9386         0.9221          0.947       1317.486         0.3464         0.1669        67.7942       74.69164         68.048         0.0676         0.3702          0.901          77.17          0.819         0.0325       -13.1875      -6.090015           3223      0.8870562      0.9129998
      7568.5000         0.9625         0.9608         0.9189          0.891         0.9091       1309.433         0.3223         0.1646        73.4564       82.81566         66.158         0.0787         0.3907          0.902          77.17          0.857         0.0303         -14.25      -7.613631           3208              1      0.8912339
      7569.0000          0.937         0.9333         0.9006         0.8671         0.8543       1269.678         0.2261         0.1623         69.876       77.69225         65.321         0.0908         0.3552          0.905          77.17          0.844         0.0276       -15.6875      -9.662247           3214      0.9508988      0.8619679
      7569.5000         1.0326         0.9719           0.92         0.8835         0.8286       1194.115         0.6109           0.14        74.9327       84.94839         60.719         0.0961         0.3968          0.913        115.854          0.813         0.0195         -16.75      -11.18586           3222              1       0.840202
      7570.0000         1.1739         1.1005         1.0346         0.9595          0.873       1191.548         0.4666         0.1034         68.428       75.63357         57.314         0.1005         0.3772          0.952        115.854          0.818         0.0107        -19.125      -14.54698           3219      0.9070972       0.792186
      7570.5000         1.2383         1.0743         0.9776          0.894          0.834       1239.473        -0.2547         0.0826         64.637        70.2083         52.403         0.0956          0.238          0.983        115.854          0.873         0.0063       -22.9375       -19.9206           3248      0.7916659      0.7154201
      7571.0000         0.9512         0.8768         0.8222         0.7446         0.6978       1150.367        -0.3269         0.1087        61.9644       66.38603         51.014         0.0775         0.2075              1        115.854          1.192         0.0095        -26.625      -25.11921           3230      0.7103411      0.6411541
      7571.5000         0.7516          0.693         0.6533          0.599         0.5681        929.467        -0.2547         0.1627        63.4387       68.50753         51.206         0.0561         0.2997          1.018        131.077          1.263         0.0185          -28.5      -27.78033           3239      0.7554794      0.6031382
      7572.0000         0.6219         0.5828          0.545         0.4957         0.4769        811.682         -0.375         0.2177        58.1734       60.96914         56.333         0.0367          0.392          1.025        131.077          1.211          0.029       -34.1875      -35.77895           3239      0.5950881      0.4888722
      7572.5000          0.529         0.5106         0.4843         0.4559          0.438         948.84        -0.4471         0.2636        56.0221       57.89404         57.207         0.0179         0.3465          0.994        131.077          0.962         0.0402       -37.3125      -40.19006           3250      0.5296605      0.4258564
      7573.0000         0.4964         0.5019         0.4787         0.4504         0.4327       1036.916        -0.4471         0.2941        53.2312       53.90223         64.587         0.0031         0.3077          0.949        131.077          0.874         0.0502         -39.25      -42.93867           3242      0.4447284      0.3865904
      7573.5000          0.521         0.5221         0.4963         0.4712         0.4516       1114.234        -0.4471         0.2838        54.9161       56.32556         69.352        -0.0003         0.3018          0.946        126.952          0.863         0.0486            -39      -42.62479           3237      0.4962884      0.3910744
      7574.0000         0.5768         0.5556         0.5292         0.5087         0.4868       1150.367         -0.423         0.2496        52.3723       52.68791         67.716         0.0035          0.309          0.931        126.952          0.878         0.0397            -37      -39.86091           3222      0.4188917      0.4305584
      7574.5000         0.6498         0.6085         0.5918         0.5706         0.5455       1150.367        -0.5433         0.2167        56.6374       58.80945         64.926         0.0147         0.2881          0.899        126.952          0.885         0.0328       -32.3125      -33.33452           3250      0.5491372      0.5237926
      7575.0000         0.7538         0.6804         0.6644         0.6483         0.6262       1126.146        -0.4952         0.1914        66.2457       72.58939         62.746         0.0378         0.2888          0.842        126.952          0.842         0.0289         -25.75      -24.18314           3239      0.8423275      0.6545266
      7575.5000         0.8099         0.7224         0.7193         0.7107         0.6934       1189.596        -0.4471          0.184        71.1062       79.56433         55.432         0.0618         0.3286          0.736         182.81          0.598         0.0294          -20.5      -16.86925           3267      0.9907305      0.7590107
      7576.0000         0.8265         0.7537         0.7644         0.7652         0.7533       1413.708         -0.375         0.1675        76.7927       87.72317         53.056         0.0858         0.3959          0.737         182.81          0.549         0.0261         -17.75      -13.05537           3276              1      0.8134947
      7576.5000         0.8595         0.8011         0.8149          0.819         0.8286       1840.243        -0.1105         0.1687        69.5486       77.34856         52.019         0.0899         0.3852          0.798         182.81          0.799         0.0291       -16.1875      -10.90399           3279      0.9435863      0.8442287
      7577.0000         0.8823         0.8603         0.8742         0.8794         0.8997       1685.473        -0.2307         0.1611        72.0759       80.97932         56.584         0.0889         0.4266          0.875         182.81          0.968         0.0287       -14.8125      -9.015102           3324              1      0.8712128
      7577.5000         0.8715         0.8734         0.8749         0.8861         0.9158       1502.806        -0.1826         0.1611        66.8106       73.44093          62.12          0.081          0.382           0.92        153.263          0.967         0.0291          -14.5      -8.613718           3317      0.8604454      0.8769469
      7578.0000         0.8679         0.8661         0.8635         0.8814         0.9111       1034.467        -0.1105         0.1661        74.0548       83.83241         62.205         0.0691         0.4068          0.932        153.263          0.914          0.031        -15.625      -10.22483           3335              1       0.853931
      7578.5000         0.8655         0.8741          0.864         0.8746         0.8987        1104.46        -0.1225         0.1794         69.632        77.5016          65.48         0.0525         0.3909           0.95        153.263          0.849         0.0361       -18.6875      -14.54845           3298      0.9468426       0.792165
      7579.0000         0.8628         0.8748         0.8644         0.8716         0.8876       1166.988         -0.375         0.1931        69.0001       76.60426         66.694         0.0292         0.3708          0.961        153.263          0.902         0.0417            -20      -16.42207           3276      0.9277503       0.765399
      7579.5000         0.8881          0.905         0.8763         0.8756         0.8785       1138.509        -0.5192         0.2059         63.795       69.15216         68.878         0.0081         0.3346          0.986        145.306          0.944         0.0474       -23.1875      -20.92068           3306      0.7691949      0.7011331
