#------------------------------------------------------------------------------
# Created by    : vladimir.rabinovich
# Created on    : 09/19/2023 17:22:54
#------------------------------------------------------------------------------
~Version Information Section
VERS.           2.0     :   CWLS log ASCII Standard - VERSION 2.0
WRAP.           NO      :   One line per depth step
~Well Information Section
#MNEM       .UNIT                                         VALUE :DESCRIPTION
#------------------------------------------------------------------------------
STRT        .FT                                             494 :START DEPTH
STOP        .FT                                            6854 :STOP DEPTH
STEP        .FT                                             0.5 :STEP      
NULL        .                                           -999.25 :NULL      
COMP        .                          HUMBLE OIL & REFINING CO :COMPANY   
WELL        .                                     ST TR 00247-L :WELL      
FLD         .                                           WILDCAT :FIELD     
LOC         .                                                   :LOCATION  
CNTY        .                             GALVESTON LARGE BLOCK :LOCATION  
STAT        .                                             TEXAS :STATE     
CTRY        .                                     UNITED STATES :COUNTRY   
SRVC        .                                                   :SERVICE COMPANY
DATE        .                             9/13/2023 11:19:42 AM :LOG DATE  
API         .                                    42706000180000 :API NUMBER
UWI         .                                    42706000180000 :UNIQUE WELL ID
XCOORD      .                                  979775.061814126 :SURFACE X 
YCOORD      .                                  10543201.0009156 :SURFACE Y 
LAT         .                                        29.0361078 :LATITUDE  
LON         .                                       -95.0678326 :LONGITUDE 
ELEV        .FT                                              11 :ELEVATION VALUE
ELEV_TYPE   .                                                KB :ELEVATION REFERENCE TYPE
~Curve Information Section
#MNEM       .UNIT                                      API CODE :CURVE DESCRIPTION
#------------------------------------------------------------------------------
DEPT        .FT                                                 :DEPTH     
LAT         .OHMM                                               :          
LN          .OHMM                                               :          
SN          .OHMM                                               :          
SP          .MV                                                 :          
SP_NORM     .MV                                                 :SP Normalized
VSH_SP      .V/V                                                :Volume of Shale from SP
~A        DEPTH            LAT             LN             SN             SP        SP_NORM         VSH_SP
# ...
      4712.0000          0.558          0.427         0.4805       -50.5256       1.742825              1
      4712.5000         0.5614         0.4319         0.4916       -51.4828      0.7767677              1
      4713.0000         0.5597         0.4369         0.5028       -52.4395     -0.1887856              1
      4713.5000         0.5522         0.4418         0.5129       -53.5428      -1.300941      0.9952978
      4714.0000         0.5448         0.4467         0.5122       -54.7722      -2.539196      0.9759501
      4714.5000         0.5373         0.4517         0.5116       -55.7885       -3.56435       0.959932
      4715.0000         0.5299         0.4402          0.511       -56.7316      -4.516304      0.9450577
      4715.5000         0.5224         0.4262         0.5103       -58.4963      -6.289856       0.917346
      4716.0000          0.515         0.4121         0.5044        -62.821      -10.62341      0.8496342
      4716.5000           0.51          0.398         0.4988       -64.4081      -12.21936      0.8246974
      4717.0000          0.508         0.3939         0.4955       -67.2526      -15.07272      0.7801137
      4717.5000         0.5059         0.3917         0.4922       -72.1791      -20.00808      0.7029988
      4718.0000         0.5039         0.3895          0.489       -77.7804      -25.61823      0.6153401
      4718.5000         0.5018         0.3873         0.4858        -82.074      -29.92068      0.5481144
      4719.0000         0.4998         0.3851         0.4826       -81.4742      -29.32973      0.5573479
      4719.5000         0.4977         0.3829           0.48       -78.1764      -26.04079      0.6087376
      4720.0000         0.4957         0.3807         0.4813       -62.0067      -9.879944      0.8612509
      4720.5000         0.5062         0.3804         0.4827       -64.6432      -12.52531      0.8199171
      4721.0000         0.5228         0.3822         0.4841       -68.2784      -16.16935      0.7629789
      4721.5000         0.5394         0.3839         0.4855       -63.7703      -11.67011      0.8332795
      4722.0000          0.556         0.3857         0.4869       -59.4535      -7.362164      0.9005912
      4722.5000         0.5727         0.3875         0.4882       -55.7496      -3.667118      0.9583263
      4723.0000         0.5893         0.3892         0.4896        -56.961      -4.887371      0.9392598
      4723.5000         0.6059          0.391          0.491       -58.1724      -6.107628      0.9201933
      4724.0000         0.6233         0.3928         0.4924       -55.8475       -3.79158      0.9563816
      4724.5000         0.6419         0.3946         0.4938       -51.2629      0.7841606              1
      4725.0000         0.6605          0.396         0.4951       -49.6635       2.374706              1
      4725.5000         0.6792         0.3951         0.4965       -48.0652       3.964153              1
      4726.0000         0.6978         0.3943         0.4953       -47.4977         4.5228              1
      4726.5000         0.7023         0.3934         0.4924       -47.1277       4.883945              1
      4727.0000         0.7044         0.3925         0.4896       -47.0037       4.999092              1
      4727.5000         0.7065         0.3916         0.4867       -46.9206       5.073338              1
      4728.0000         0.7086         0.3908         0.4838       -46.8376       5.147484              1
      4728.5000         0.6935         0.3899         0.4809       -46.7149       5.261326              1
      4729.0000         0.6759          0.389          0.478       -45.9748       5.992573              1
      4729.5000         0.6583         0.3882         0.4751       -45.2347        6.72382              1
      4730.0000         0.6407         0.3894         0.4722       -44.3118       7.637867              1
      4730.5000         0.6268         0.3942         0.4693       -41.9588        9.98201              1
      4731.0000         0.6181         0.3991         0.4664       -46.4309       5.501057              1
      4731.5000         0.6094          0.404         0.4635       -50.0774       1.845703              1
      4732.0000         0.5978         0.4088         0.4607       -51.9659      -0.051651              1
      4732.5000          0.576         0.4137         0.4578       -53.4596      -1.554207      0.9913405
      4733.0000         0.5542         0.4185         0.4549       -53.9365      -2.039963      0.9837506
      4733.5000         0.5324         0.4234         0.4551       -54.4072      -2.519516      0.9762576
      4734.0000         0.5106         0.4282         0.4571       -54.7562      -2.877369      0.9706661
      4734.5000         0.4955         0.4329          0.459       -55.1051      -3.235123      0.9650762
      4735.0000         0.4807         0.4324         0.4609       -57.9575      -6.096378      0.9203691
      4735.5000         0.4658         0.4319         0.4629       -59.8325      -7.980232      0.8909339
      4736.0000         0.4566         0.4314         0.4648       -59.3759      -7.532486      0.8979299
      4736.5000         0.4839         0.4309         0.4668       -58.0295      -6.194942       0.918829
      4737.0000         0.5111         0.4304         0.4687       -56.6821      -4.856396      0.9397438
      4737.5000         0.5384         0.4299         0.4707       -55.3357      -3.518852      0.9606429
      4738.0000         0.5656         0.4294         0.4726       -54.4797      -2.671703      0.9738796
      4738.5000         0.5912         0.4289         0.4745       -53.9168      -2.117661      0.9825366
      4739.0000         0.5821         0.4284         0.4765       -53.3539      -1.563614      0.9911935
      4739.5000         0.5729         0.4294         0.4784       -52.7903      -1.008865      0.9998615
      4740.0000         0.5638         0.4343         0.4804       -52.0845     -0.3119202              1
      4740.5000         0.5546         0.4392         0.4823       -51.2264       0.537323              1
      4741.0000         0.5307         0.4441         0.4882       -50.3676       1.387268              1
      4741.5000         0.5037          0.449         0.4944       -49.5094       2.236614              1
      4742.0000         0.4768         0.4539         0.5006       -48.0618       3.675362              1
      4742.5000         0.4498         0.4589         0.5068       -50.2506       1.477707              1
      4743.0000         0.4229         0.4638         0.5129        -54.248      -2.528549      0.9761164
      4743.5000          0.396         0.4687         0.5191       -56.2816      -4.571003      0.9442031
      4744.0000         0.3816         0.4736         0.5253       -58.3152      -6.613457      0.9122897
      4744.5000         0.3931         0.4785         0.5315       -58.8033      -7.110413      0.9045248
      4745.0000         0.4047         0.4834         0.5377       -55.3571      -3.673069      0.9582333
      4745.5000         0.4163         0.4883         0.5438       -51.9018     -0.2266197              1
      4746.0000         0.4304         0.4893           0.55       -51.2078      0.4585228              1
      4746.5000          0.457         0.4903         0.5562       -53.0187      -1.361229      0.9943558
      4747.0000         0.4835         0.4913         0.5602       -54.8296      -3.180984      0.9659221
      4747.5000           0.51         0.4922         0.5638        -56.258      -4.618237      0.9434651
      4748.0000         0.5366         0.4932         0.5675       -57.5864       -5.95549      0.9225705
      4748.5000         0.5621         0.4942         0.5711       -58.5447      -6.922649      0.9074586
      4749.0000         0.5756         0.4951         0.5747       -56.1782      -4.565002      0.9442968
      4749.5000         0.5892         0.4961         0.5783       -53.8184      -2.214058      0.9810303
