#------------------------------------------------------------------------------
# Created by    : vladimir.rabinovich
# Created on    : 09/19/2023 17:22:39
#------------------------------------------------------------------------------
~Version Information Section
VERS.           2.0     :   CWLS log ASCII Standard - VERSION 2.0
WRAP.           NO      :   One line per depth step
~Well Information Section
#MNEM       .UNIT                                         VALUE :DESCRIPTION
#------------------------------------------------------------------------------
STRT        .FT                                            3496 :START DEPTH
STOP        .FT                                          7091.5 :STOP DEPTH
STEP        .FT                                             0.5 :STEP      
NULL        .                                           -999.25 :NULL      
COMP        .                          SEAGULL ENERGY E & P INC :COMPANY   
WELL        .                               OCS G07251 ST00BP00 :WELL      
FLD         .                              GALVESTON BLOCK 0349 :FIELD     
LOC         .                                                   :LOCATION  
CNTY        .                             GALVESTON LARGE BLOCK :LOCATION  
STAT        .                                             TEXAS :STATE     
CTRY        .                                     UNITED STATES :COUNTRY   
SRVC        .                                                   :SERVICE COMPANY
DATE        .                             9/13/2023 11:19:36 AM :LOG DATE  
API         .                                    42706402300000 :API NUMBER
UWI         .                                    42706402300000 :UNIQUE WELL ID
XCOORD      .                                  1015542.86720011 :SURFACE X 
YCOORD      .                                  10434819.2372955 :SURFACE Y 
LAT         .                                         28.739771 :LATITUDE  
LON         .                                        -94.950355 :LONGITUDE 
ELEV        .FT                                              93 :ELEVATION VALUE
ELEV_TYPE   .                                                KB :ELEVATION REFERENCE TYPE
~Curve Information Section
#MNEM       .UNIT                                      API CODE :CURVE DESCRIPTION
#------------------------------------------------------------------------------
DEPT        .FT                                                 :DEPTH     
DCAL        .IN                                                 :          
DPHI        .%                                                  :          
DRHO        .G/C3                                               :          
GR          .GAPI                                               :          
GR_NORM     .GAPI                                               :GammaRay Normalized
ILD         .OHMM                                               :          
ILM         .OHMM                                               :          
NPHI        .%                                                  :          
SGRD        .OHMM                                               :          
SP          .MV                                                 :          
SP_NORM     .MV                                                 :SP Normalized
VSH_GR      .V/V                                                :Volume of Shale from GR
VSH_SP      .V/V                                                :Volume of Shale from SP
~A        DEPTH           DCAL           DPHI           DRHO             GR        GR_NORM            ILD            ILM           NPHI           SGRD             SP        SP_NORM         VSH_GR         VSH_SP
# ...
      3743.0000         0.0673        27.9351        -0.0039         64.323        59.2972         0.9206          0.999        44.3941         1.0404       -53.5554      -6.774754      0.5595149       0.895773
      3743.5000          0.075        28.9637        -0.0151        65.1951       60.46909         0.9385         1.0007        44.0942         1.0468       -53.6341      -6.859428      0.5844487      0.8944703
      3744.0000         0.0811        29.3281        -0.0224        67.8036       63.97426         0.9533         0.9963        43.7532         1.0488       -53.5934      -6.824696      0.6590268      0.8950047
      3744.5000         0.0905        28.5005        -0.0276        69.4631       66.20422         0.9608         0.9927        44.0131         1.0459       -53.5438      -6.781071      0.7064727      0.8956758
      3745.0000         0.1019        27.8677         -0.028        69.9233       66.82262         0.9624         0.9954        44.6236         1.0395       -53.3201      -6.563339      0.7196301      0.8990256
      3745.5000         0.1159        27.6378        -0.0238         70.116       67.08156         0.9455         0.9888        45.0093         1.0301       -52.6757      -5.924915      0.7251396      0.9088475
      3746.0000         0.1299        27.6625        -0.0158        70.2888       67.31376         0.9265         0.9752         45.202          1.022       -51.6291      -4.884285      0.7300799      0.9248571
      3746.5000         0.1293          27.73        -0.0061        70.4554       67.53761         0.9016         0.9471        45.2903         1.0177       -50.5649      -3.826054      0.7348428      0.9411376
      3747.0000         0.1283        27.8957         0.0038        70.8011       68.00216         0.8694         0.9092        45.4465          1.007       -50.0902      -3.357327      0.7447268      0.9483488
      3747.5000         0.1216        28.2677         0.0149        72.3062       70.02464           0.84         0.8741        45.7515         0.9744       -50.0093      -3.282398      0.7877582      0.9495016
      3748.0000         0.1129        29.5599         0.0218        74.7245       73.27422         0.8115         0.8459        46.4009         0.9206       -49.9089      -3.187973      0.8568984      0.9509543
      3748.5000         0.1037        29.8925         0.0259        77.7196       77.29889         0.7882         0.8208        47.2178         0.8712       -49.9439      -3.228943      0.9425296      0.9503239
      3749.0000          0.095        29.9222         0.0292        80.2179       80.65598         0.7684         0.8012        48.1567         0.8618       -49.9612      -3.252213              1       0.949966
      3749.5000         0.0904        29.7701         0.0307        81.4728       82.34225         0.7536         0.7839        48.7203         0.8771       -49.8748      -3.171787              1      0.9512033
      3750.0000         0.0865        29.2085         0.0336        81.5961       82.50794         0.7435         0.7712        49.0059         0.8973       -49.6815      -2.984455              1      0.9540853
      3750.5000         0.0858        28.9494         0.0348        80.8479       81.50254         0.7367         0.7627        48.8672         0.9025       -49.4147      -2.723629              1       0.958098
      3751.0000         0.0863        29.0352         0.0366        80.1154       80.51825         0.7315         0.7564        48.7407          0.888       -49.2077      -2.522598              1      0.9611908
      3751.5000         0.0886        29.1462         0.0386        79.3409        79.4775         0.7301         0.7564        48.7224         0.8793       -48.9783      -2.299171       0.988883      0.9646282
      3752.0000         0.0907        29.4015         0.0393        78.7974       78.74718         0.7318         0.7596        48.8115         0.8695       -48.5047      -1.831543      0.9733444      0.9718224
      3752.5000         0.0921        30.3794         0.0383        78.5216       78.37658         0.7359         0.7624        48.9249         0.8495       -48.4257      -1.758514      0.9654591      0.9729459
      3753.0000         0.0935        30.9365         0.0388        78.4561       78.28857         0.7388         0.7651        49.0458         0.8426       -48.7938      -2.132587      0.9635865       0.967191
      3753.5000         0.0851         31.182         0.0408        78.5055       78.35494         0.7428         0.7688        49.1432         0.8495       -48.9856      -2.330357      0.9649988      0.9641483
      3754.0000         0.0738        31.1228         0.0445        78.6921       78.60569         0.7479         0.7729        49.0886         0.8628       -48.8176      -2.168331      0.9703338      0.9666411
      3754.5000          0.065        30.9226         0.0439        78.9565       78.96096         0.7517          0.775        48.7526         0.8787        -48.562      -1.918701      0.9778928      0.9704815
      3755.0000         0.0678        30.6764         0.0433        79.1582       79.23202         0.7535         0.7784        48.5761         0.8925       -48.3307      -1.693371      0.9836599      0.9739481
      3755.5000         0.0713        30.3498         0.0429        79.3145       79.44203         0.7538         0.7817        48.6732         0.9031       -48.2384      -1.607044      0.9881284      0.9752762
      3756.0000          0.078         29.921         0.0425        79.3584       79.50103         0.7544         0.7775        49.5017         0.9015       -48.2465      -1.621113      0.9893836      0.9750598
      3756.5000         0.0841        29.5338         0.0431        79.3763       79.52507         0.7538         0.7674        50.4194         0.8926       -48.3193       -1.69989      0.9898951      0.9738479
      3757.0000         0.0858        29.3066         0.0449        79.3717       79.51889         0.7504         0.7615        50.4019         0.8856       -48.3936      -1.780159      0.9897636      0.9726129
      3757.5000         0.0875        29.3146         0.0481        79.4486       79.62223         0.7453          0.761        49.9557         0.8802       -48.5813      -1.973831      0.9919624      0.9696333
      3758.0000         0.0867        29.7551         0.0462        79.9808       80.33738         0.7427         0.7605        48.9564         0.8765       -48.7413      -2.139801              1        0.96708
      3758.5000         0.0853          30.56         0.0423        81.3064       82.11864         0.7417         0.7577        47.8399         0.8706       -48.8397      -2.244171              1      0.9654743
      3759.0000          0.089        30.8317         0.0393         82.839       84.17808         0.7416         0.7599        48.2326         0.8607       -48.6437      -2.054146              1      0.9683977
      3759.5000          0.096        30.8227         0.0356        84.6943       86.67114         0.7456         0.7684        48.5085         0.8489        -48.698      -2.114418              1      0.9674705
      3760.0000         0.1071        30.6435         0.0333        83.1686       84.62098         0.7544         0.7828        48.4044         0.8559       -49.0463      -2.468689              1      0.9620202
      3760.5000         0.1207        30.3019          0.032        82.1984       83.31728         0.7658         0.7961        47.9231          0.888       -49.0974      -2.525761              1      0.9611421
      3761.0000         0.1472        30.0704         0.0307        81.4462       82.30651         0.7776         0.8082        47.0964         0.9175       -49.5983      -3.032631              1      0.9533442
      3761.5000         0.1876        29.8698         0.0299        81.1366       81.89048          0.791         0.8226        46.3907         0.9346       -50.2194      -3.659702              1      0.9436969
