#------------------------------------------------------------------------------
# Created by    : vladimir.rabinovich
# Created on    : 09/19/2023 17:21:31
#------------------------------------------------------------------------------
~Version Information Section
VERS.           2.0     :   CWLS log ASCII Standard - VERSION 2.0
WRAP.           NO      :   One line per depth step
~Well Information Section
#MNEM       .UNIT                                         VALUE :DESCRIPTION
#------------------------------------------------------------------------------
STRT        .FT                                              40 :START DEPTH
STOP        .FT                                           13401 :STOP DEPTH
STEP        .FT                                             0.5 :STEP      
NULL        .                                           -999.25 :NULL      
COMP        .                                        TEXACO USA :COMPANY   
WELL        .                               OCS G01759 ST00BP00 :WELL      
FLD         .                                           WILDCAT :FIELD     
LOC         .                                                   :LOCATION  
CNTY        .                             GALVESTON LARGE BLOCK :LOCATION  
STAT        .                                             TEXAS :STATE     
CTRY        .                                     UNITED STATES :COUNTRY   
SRVC        .                                                   :SERVICE COMPANY
DATE        .                             9/13/2023 11:19:24 AM :LOG DATE  
API         .                                    42706001440000 :API NUMBER
UWI         .                                    42706001440000 :UNIQUE WELL ID
XCOORD      .                                   1131482.4965331 :SURFACE X 
YCOORD      .                                  10562344.6824913 :SURFACE Y 
LAT         .                                         29.095227 :LATITUDE  
LON         .                                        -94.593967 :LONGITUDE 
ELEV        .FT                                              83 :ELEVATION VALUE
ELEV_TYPE   .                                                KB :ELEVATION REFERENCE TYPE
~Curve Information Section
#MNEM       .UNIT                                      API CODE :CURVE DESCRIPTION
#------------------------------------------------------------------------------
DEPT        .FT                                                 :DEPTH     
CALI        .IN                                                 :          
DT          .US/F                                               :          
GR          .GAPI                                               :          
GR_NORM     .GAPI                                               :GammaRay Normalized
RHOB        .G/C3                                               :          
SP          .MV                                                 :          
SP_NORM     .MV                                                 :SP Normalized
VSH_GR      .V/V                                                :Volume of Shale from GR
VSH_SP      .V/V                                                :Volume of Shale from SP
~A        DEPTH           CALI             DT             GR        GR_NORM           RHOB             SP        SP_NORM         VSH_GR         VSH_SP
# ...
      6559.0000        10.6004       106.1058        58.2063       82.08885         2.3104       -29.8299      -2.641151              1       0.947177
      6559.5000        10.5965       110.7197        57.3783       81.06623         2.2744       -29.8162      -2.616627              1      0.9476675
      6560.0000        10.5867       116.7603        56.2271       79.64458          2.258       -29.7431        -2.5327      0.9924378       0.949346
      6560.5000         10.577        116.334        55.3541       78.56641          2.263       -29.5752      -2.353975       0.969498      0.9529205
      6561.0000        10.5705       114.5127        54.9017       78.00748         2.2683       -29.4837      -2.251652      0.9576059       0.954967
      6561.5000        10.5642        114.019        55.3157       78.51819          2.274       -29.4347      -2.191828      0.9684721      0.9561635
      6562.0000        10.5639        115.031        56.9382       80.52086         2.2669       -29.4745      -2.220802              1      0.9555839
      6562.5000        10.5693       116.7239         59.972       84.26588          2.284       -29.5158      -2.251278              1      0.9549744
      6563.0000        10.5747       117.9083        63.4616       88.57363          2.305        -29.561      -2.285654              1      0.9542869
      6563.5000        10.5834       119.3494        63.0227       88.03137         2.3057       -29.6063      -2.320129              1      0.9535974
      6564.0000        10.5936       120.3013        59.9049       84.18182         2.3022       -29.7388      -2.441803              1      0.9511639
      6564.5000        10.5968        119.181        58.1901       82.06438         2.3232       -29.8901      -2.582279              1      0.9483544
      6565.0000        10.5984       119.1606        56.7379       80.27113         2.3429       -29.9102      -2.591555              1      0.9481689
      6565.5000        10.6012       119.1353         55.209       78.38319         2.3514       -29.9197      -2.590231      0.9655997      0.9481954
      6566.0000        10.6051       119.5555        54.2646       77.21687         2.3464       -29.8807      -2.540403      0.9407844      0.9491919
      6566.5000        10.6089       119.0167          53.77       76.60584         2.3142       -29.8416       -2.49048      0.9277839      0.9501904
      6567.0000         10.608        118.802        53.5862       76.37852         2.3022       -29.8133      -2.451355      0.9229473      0.9509729
      6567.5000        10.6038       117.8962        53.6226       76.42305         2.2993       -29.8136      -2.440832      0.9238947      0.9511834
      6568.0000         10.601       116.7572        54.6071       77.63808         2.2905        -29.814      -2.430405      0.9497463      0.9513919
      6568.5000        10.5993       116.6658        54.4595       77.45544         2.2764       -29.7605      -2.366081      0.9458603      0.9526784
      6569.0000        10.6034       115.2949        53.5251       76.30145         2.3017       -29.7061      -2.300858      0.9213075      0.9539828
      6569.5000        10.6065       114.8865        53.5458       76.32661         2.2969       -29.8183      -2.402233      0.9218427      0.9519553
      6570.0000        10.6064        114.245        53.6606       76.46793         2.2878       -29.9512      -2.524307      0.9248495      0.9495139
      6570.5000        10.6064       115.2295        53.9595       76.83653         2.2728       -30.0515      -2.613783      0.9326922      0.9477243
      6571.0000        10.6086       117.4191        54.9883       78.10625         2.2769       -30.0729      -2.624359      0.9597074      0.9475128
      6571.5000        10.6113       119.4451        57.2668       80.91881         2.2883       -30.0646      -2.605234              1      0.9478953
      6572.0000        10.6137       120.6028        59.9109       84.18272         2.2769       -30.0231       -2.55291              1      0.9489418
      6572.5000        10.6193       121.5752        59.4144       83.56935         2.2544       -29.9855      -2.504484              1      0.9499103
      6573.0000        10.6252       119.9246        57.9407       81.74957         2.2748         -29.95       -2.45816              1      0.9508368
      6573.5000         10.631       119.9355        56.1767       79.57138         2.2986       -30.0193      -2.516636      0.9908804      0.9496673
      6574.0000        10.6339       118.5707        55.6899       78.96997         2.2941       -30.1877      -2.674212      0.9780845      0.9465158
      6574.5000        10.6354       117.4105        56.5916       80.08277         2.2674        -30.264      -2.739685              1      0.9452063
      6575.0000        10.6369       118.8298        57.4457       81.13681         2.2725       -30.2611      -2.725962              1      0.9454808
      6575.5000        10.6386       118.2571        56.5616       80.04493         2.2945       -30.1872      -2.641237              1      0.9471753
      6576.0000        10.6402       119.6351        53.0361       75.69205         2.3193       -29.9751      -2.418312      0.9083414      0.9516338
      6576.5000        10.6386       121.9192        52.0978       74.53325         2.3267       -29.7137      -2.146086      0.8836861      0.9570783
      6577.0000        10.6367       120.5095        50.9592       73.12717         2.3159       -29.3206      -1.742163      0.8537695      0.9651567
      6577.5000        10.6307       119.5238        49.7259       71.60416         2.3149       -29.2088      -1.619537      0.8213652      0.9676092
      6578.0000        10.6246       118.1202        50.7361       72.85092         2.2879       -29.2308      -1.630714      0.8478919      0.9673857
      6578.5000        10.6216       118.0754        52.4114       74.91879          2.269       -29.3513      -1.740387      0.8918892      0.9651923
      6579.0000        10.6157        119.783        52.7316       75.31369         2.2423       -29.5712      -1.949463      0.9002913      0.9610108
      6579.5000        10.6093        120.231         53.752       76.57303         2.2206       -29.7243       -2.09174      0.9270857      0.9581652
      6580.0000        10.6055       118.3007        55.1539       78.30337         2.2443       -29.6623      -2.018915      0.9639015      0.9596217
      6580.5000        10.6017       115.7842         57.148        80.7648         2.2652       -29.5144      -1.860189              1      0.9627962
      6581.0000        10.5963       114.0161        55.9745       79.31564         2.2831        -29.495      -1.829966      0.9854391      0.9634007
      6581.5000        10.5927       113.1981        55.7963       79.09523         2.2906       -29.5122       -1.83634      0.9807495      0.9632732
      6582.0000        10.5903        114.532        55.5886        78.8384         2.3017       -29.6535      -1.966816      0.9752852      0.9606637
      6582.5000        10.5884       115.6619        56.3302       79.75356         2.2851       -29.6085       -1.91099      0.9947565      0.9617802
      6583.0000        10.5865       115.3495        57.7224       81.47191         2.2815       -29.6541      -1.945766              1      0.9610847
      6583.5000        10.5837       115.4735        59.6459        83.8462         2.2923        -29.764      -2.044842              1      0.9591032
      6584.0000        10.5808       115.8236        57.1469        80.7606         2.3035       -29.8057      -2.075718              1      0.9584857
      6584.5000        10.5781       116.6453         54.715       77.75784          2.305       -29.5815      -1.840693      0.9522945      0.9631861
      6585.0000        10.5758       118.4508        55.5352       78.77003         2.2992        -29.596      -1.844368      0.9738305      0.9631127
