#------------------------------------------------------------------------------
# Created by    : vladimir.rabinovich
# Created on    : 09/19/2023 17:20:30
#------------------------------------------------------------------------------
~Version Information Section
VERS.           2.0     :   CWLS log ASCII Standard - VERSION 2.0
WRAP.           NO      :   One line per depth step
~Well Information Section
#MNEM       .UNIT                                         VALUE :DESCRIPTION
#------------------------------------------------------------------------------
STRT        .FT                                             617 :START DEPTH
STOP        .FT                                           12396 :STOP DEPTH
STEP        .FT                                             0.5 :STEP      
NULL        .                                           -999.25 :NULL      
COMP        .                                        SUN OIL CO :COMPANY   
WELL        .                               OCS G01781 ST00BP00 :WELL      
FLD         .                                           WILDCAT :FIELD     
LOC         .                                                   :LOCATION  
CNTY        .                             GALVESTON LARGE BLOCK :LOCATION  
STAT        .                                             TEXAS :STATE     
CTRY        .                                     UNITED STATES :COUNTRY   
SRVC        .                                                   :SERVICE COMPANY
DATE        .                             9/13/2023 11:19:24 AM :LOG DATE  
API         .                                    42706001390000 :API NUMBER
UWI         .                                    42706001390000 :UNIQUE WELL ID
XCOORD      .                                  1010631.41746955 :SURFACE X 
YCOORD      .                                  10491097.5822315 :SURFACE Y 
LAT         .                                         28.894296 :LATITUDE  
LON         .                                        -94.968586 :LONGITUDE 
ELEV        .FT                                              65 :ELEVATION VALUE
ELEV_TYPE   .                                                KB :ELEVATION REFERENCE TYPE
~Curve Information Section
#MNEM       .UNIT                                      API CODE :CURVE DESCRIPTION
#------------------------------------------------------------------------------
DEPT        .FT                                                 :DEPTH     
ASN         .OHMM                                               :          
CILD        .MMHO                                               :          
DT          .US/F                                               :          
ILD         .OHMM                                               :          
SP          .MV                                                 :          
SP_NORM     .MV                                                 :SP Normalized
VSH_SP      .V/V                                                :Volume of Shale from SP
~A        DEPTH            ASN           CILD             DT            ILD             SP        SP_NORM         VSH_SP
# ...
     11605.0000         0.9026       1368.785       109.6393         0.7492       -47.3056      -4.242901      0.9576811
     11605.5000          0.895       1347.346        108.037         0.7738       -47.0851      -4.023132      0.9618277
     11606.0000         0.9081       1310.688       103.0498         0.8005       -47.0239      -3.962662      0.9629686
     11606.5000         0.9211       1254.281        98.9468         0.8329       -47.2017      -4.141193      0.9596002
     11607.0000         0.9457        1198.67        97.4021         0.8653       -47.3793      -4.319523      0.9562354
     11607.5000         0.9766       1162.061        97.6351         0.8978       -47.5568      -4.497753      0.9528726
     11608.0000         1.0076       1125.551       101.5701         0.9302       -47.7346      -4.676285      0.9495041
     11608.5000         1.0386       1096.553       103.1603         0.9626       -47.8787      -4.821114      0.9467714
     11609.0000         1.0718       1081.805       103.9026         0.9951       -47.7947      -4.737846      0.9483425
     11609.5000         1.1089       1091.527       105.5435           0.98       -47.7108      -4.654675      0.9499118
     11610.0000           1.13       1172.904       107.5709         0.9491        -47.627      -4.571606      0.9514791
     11610.5000         1.0619       1253.484       108.6808         0.9182       -47.5431      -4.488434      0.9530484
     11611.0000         0.9866       1333.768       111.3569         0.8872       -47.4592      -4.405266      0.9546176
     11611.5000         0.9452        1371.57       111.8744         0.8563       -47.3752      -4.321995      0.9561888
     11612.0000         0.9038       1409.373       111.8756         0.8254       -47.2914      -4.238926      0.9577561
     11612.5000         0.8738       1446.779        112.074         0.7997       -47.2075      -4.155758      0.9593253
     11613.0000         0.8555       1483.787       112.4073         0.7833       -47.1428      -4.091785      0.9605324
     11613.5000         0.8372       1512.586       112.5432         0.7669       -47.0788      -4.028519      0.9617261
     11614.0000         0.8189       1516.205       112.3118         0.7505       -47.0146      -3.965046      0.9629236
     11614.5000           0.82       1512.537       111.8926         0.7342       -46.9506      -3.901779      0.9641173
     11615.0000         0.8215       1491.795       111.5431         0.7323       -46.8865      -3.838409       0.965313
     11615.5000         0.8229       1471.102       110.8693         0.7381       -46.8223      -3.774937      0.9665107
     11616.0000          0.826       1450.359       109.9468         0.7439       -46.7582      -3.711571      0.9677062
     11616.5000         0.8357       1429.619       109.0027         0.7497       -46.6942      -3.648296      0.9689001
     11617.0000         0.8455       1408.877       107.9529         0.7555         -46.63      -3.584831      0.9700975
     11617.5000         0.8553       1391.592       106.9031         0.7613        -46.566      -3.521561      0.9712913
     11618.0000         0.8651       1376.943       106.6158         0.7671       -46.5553      -3.511593      0.9714794
     11618.5000         0.8749       1362.318       106.8025         0.7703       -46.6088      -3.565819      0.9704562
     11619.0000         0.8846        1347.67       106.7253         0.7667       -46.6623      -3.620049      0.9694331
     11619.5000         0.8944       1333.047       105.5914          0.763       -46.7158      -3.674282      0.9684098
     11620.0000         0.9042        1332.17       105.6293         0.7594       -46.7692      -3.728409      0.9673885
     11620.5000         0.9037       1336.242       106.5259         0.7558       -46.8227      -3.782642      0.9663652
     11621.0000         0.9026       1342.572       109.0603         0.7522       -46.8761      -3.836769       0.965344
     11621.5000         0.9014       1360.826         111.22         0.7486       -46.9296      -3.891003      0.9643207
     11622.0000         0.8965       1379.082       112.7178         0.7449        -46.983      -3.945133      0.9632994
     11622.5000         0.8856       1397.387       112.7719         0.7413       -47.0365      -3.999363      0.9622762
     11623.0000         0.8747       1415.641       111.6644         0.7377       -47.1152      -4.078793      0.9607775
     11623.5000         0.8638       1433.896       110.4585         0.7341          -47.2      -4.164322      0.9591637
     11624.0000         0.8529       1453.494        109.345         0.7363        -47.285      -4.250053      0.9575462
     11624.5000         0.8483       1473.291       110.6794         0.7401       -47.3701       -4.33588      0.9559268
     11625.0000         0.8519       1493.137       112.9424         0.7438       -47.4551      -4.421616      0.9543092
     11625.5000         0.8607       1512.934       114.3201         0.7476       -47.5402      -4.507442      0.9526898
     11626.0000         0.8883       1532.781       113.1202         0.7514        -47.625      -4.592976      0.9510759
     11626.5000         0.9158       1507.363        107.076         0.7551         -47.71      -4.678703      0.9494584
     11627.0000         0.9432       1319.592       101.7814         0.7589       -47.7951      -4.764534       0.947839
     11627.5000         0.9703       1294.422        94.8076         0.7627       -48.0533      -5.023464      0.9429535
     11628.0000         0.9973       1275.992        97.3612         0.7664       -48.3182      -5.289093      0.9379417
     11628.5000         1.0244       1270.982       102.0553         0.7774        -48.583      -5.554626      0.9329316
     11629.0000         1.0587       1259.703        107.028         0.7924       -48.8479      -5.820255      0.9279197
     11629.5000         1.0989       1233.787       114.1868         0.8074       -49.1694      -6.142487      0.9218399
     11630.0000         1.1391       1207.822       113.0433         0.8224        -49.517      -6.490814      0.9152676
     11630.5000         1.1918       1189.592       110.7611         0.8374       -49.8645      -6.839043      0.9086973
     11631.0000         1.2438       1174.645       103.5687         0.8524       -50.2121      -7.187378      0.9021249
     11631.5000         1.2725       1159.723        92.1531         0.8675       -50.5597      -7.535706      0.8955528
     11632.0000         1.3011       1144.775        87.5167         0.8825       -50.9539      -7.930637      0.8881012
     11632.5000         1.3311       1128.387          89.28         0.8975       -51.3997      -8.377167      0.8796761
     11633.0000          1.361        1108.49        94.1326         0.9118       -51.8455        -8.8237      0.8712509
     11633.5000         1.3881       1088.643       101.2001         0.9249       -52.2913      -9.270229      0.8628259
     11634.0000         1.4146       1068.746        107.422         0.9381       -52.7571      -9.736759      0.8540234
     11634.5000         1.3892        1045.17       107.6429         0.9512       -53.5069      -10.48729      0.8398625
     11635.0000         1.3197       1017.315       100.2825         0.9644       -54.2568      -11.23792      0.8256996
     11635.5000         1.2728         989.46        95.3529         0.9775       -55.0067      -11.98855      0.8115368
     11636.0000         1.2974       976.2539        89.8757         0.9907       -55.7565      -12.73908      0.7973759
     11636.5000          1.322       976.5273        93.6906         0.9871       -57.1693      -14.15261      0.7707055
     11637.0000         1.3523       993.2402       102.5693         0.9789       -58.8107      -15.79474      0.7397219
     11637.5000         1.3828       1009.929       105.0774         0.9708       -61.4272      -18.41197      0.6903402
     11638.0000         1.3683       1026.641       101.4115         0.9626       -61.9725        -18.958      0.6800377
