#------------------------------------------------------------------------------
# Created by    : vladimir.rabinovich
# Created on    : 09/19/2023 17:20:03
#------------------------------------------------------------------------------
~Version Information Section
VERS.           2.0     :   CWLS log ASCII Standard - VERSION 2.0
WRAP.           NO      :   One line per depth step
~Well Information Section
#MNEM       .UNIT                                         VALUE :DESCRIPTION
#------------------------------------------------------------------------------
STRT        .FT                                             945 :START DEPTH
STOP        .FT                                           12004 :STOP DEPTH
STEP        .FT                                             0.5 :STEP      
NULL        .                                           -999.25 :NULL      
COMP        .                                    EXXON CO U S A :COMPANY   
WELL        .                                     ST TR 00819-L :WELL      
FLD         .                                           WILDCAT :FIELD     
LOC         .                                                   :LOCATION  
CNTY        .                        MUSTANG ISLAND LARGE BLOCK :LOCATION  
STAT        .                                             TEXAS :STATE     
CTRY        .                                     UNITED STATES :COUNTRY   
SRVC        .                                                   :SERVICE COMPANY
DATE        .                             9/13/2023 11:18:55 AM :LOG DATE  
API         .                                    42702301310000 :API NUMBER
UWI         .                                    42702301310000 :UNIQUE WELL ID
XCOORD      .                                  274042.524369281 :SURFACE X 
YCOORD      .                                  9990401.22532542 :SURFACE Y 
LAT         .                                        27.4671591 :LATITUDE  
LON         .                                       -97.2129423 :LONGITUDE 
ELEV        .FT                                              93 :ELEVATION VALUE
ELEV_TYPE   .                                                KB :ELEVATION REFERENCE TYPE
~Curve Information Section
#MNEM       .UNIT                                      API CODE :CURVE DESCRIPTION
#------------------------------------------------------------------------------
DEPT        .FT                                                 :DEPTH     
ASFL        .OHMM                                               :          
CILD        .MMHO                                               :          
GR          .GAPI                                               :          
GR_NORM     .GAPI                                               :GammaRay Normalized
ILD         .OHMM                                               :          
SP          .MV                                                 :          
SP_NORM     .MV                                                 :SP Normalized
VSH_GR      .V/V                                                :Volume of Shale from GR
VSH_SP      .V/V                                                :Volume of Shale from SP
~A        DEPTH           ASFL           CILD             GR        GR_NORM            ILD             SP        SP_NORM         VSH_GR         VSH_SP
# ...
      1687.0000         0.8147       794.9424        55.4026       78.28358         1.1001       -33.2286      -1.469042      0.9634805              1
      1687.5000         0.8223       793.0625        56.1844       79.71484         1.1047       -33.1957      -1.438129      0.9939327              1
      1688.0000         0.8299       792.0635        56.9662        81.1461         1.1093       -33.1628      -1.407211              1              1
      1688.5000         0.8376       791.0645         57.748       82.57737         1.1138       -33.1299      -1.376299              1              1
      1689.0000         0.8452       790.0645        58.5298       84.00862         1.1184        -33.097      -1.345383              1              1
      1689.5000         0.8446       789.0654        59.2816       85.38417          1.123       -33.0641      -1.314465              1              1
      1690.0000         0.8426       788.0654        57.9636        82.9169         1.1265       -33.0313      -1.283651              1              1
      1690.5000         0.8406       787.0654        56.6452       80.44889         1.1178       -32.9984      -1.252739              1              1
      1691.0000         0.8376       788.4092        55.3272       77.98167         1.1092       -32.9655      -1.221823      0.9570568              1
      1691.5000         0.8334       791.7666        54.1049       75.69209         1.1005       -32.9326      -1.190905      0.9083422              1
      1692.0000         0.8292        795.124        52.9725       73.56941         1.0919       -32.8997      -1.159992       0.863179              1
      1692.5000         0.8249       798.4805          51.84       71.44654         1.0804       -32.8668      -1.129076      0.8180115              1
      1693.0000         0.8311       801.8389        50.7072       69.32314         1.0673       -32.8357      -1.099962      0.7728328              1
      1693.5000         0.8461       778.1582         49.882       67.77081         1.0543       -32.8209      -1.087147      0.7398044              1
      1694.0000         0.8611       752.4434        49.4979       67.03745         1.0412       -32.8062       -1.07443      0.7242011              1
      1694.5000          0.876       726.7236        49.1136       66.30372         1.0439       -32.7914      -1.061619      0.7085897              1
      1695.0000         0.8913       701.0098        49.3557       66.73297         1.1139       -32.7766      -1.048801      0.7177228              1
      1695.5000          0.908       681.0039        49.6426       67.24535          1.184       -32.7618      -1.035986      0.7286245              1
      1696.0000         0.9246       671.7207        49.9294       67.75761         1.2541       -32.7471      -1.023273      0.7395237              1
      1696.5000         0.9413       662.4404        50.2163       68.27002         1.2747       -32.7323      -1.010456      0.7504259              1
      1697.0000          0.958       653.1572        50.5032       68.78245         1.2931       -32.7175     -0.9976406      0.7613287              1
      1697.5000         0.9666       644.5664        50.7902       69.29504         1.3114       -32.7028     -0.9849281      0.7722348              1
      1698.0000          0.953       656.7422        50.7808       69.25732         1.3297        -32.688     -0.9721127      0.7714325              1
      1698.5000         0.9393       668.9199        50.2925       68.33054          1.348       -32.6732     -0.9592953      0.7517135              1
      1699.0000         0.9257       681.0947        49.8044       67.40408         1.3648       -32.6751     -0.9631805      0.7320016              1
      1699.5000          0.912       693.2705        49.3162       66.47742          1.324       -32.7442      -1.034269      0.7122856              1
      1700.0000         0.8984        717.084        49.2151       66.26949         1.2832       -32.8133      -1.105352      0.7078614              1
      1700.5000         0.8877         744.54        49.3287       66.46015         1.2424       -32.8824      -1.176437      0.7119181              1
      1701.0000         0.8803       771.9961        49.4422       66.65062         1.2016       -32.9515      -1.247522      0.7159706              1
      1701.5000          0.873       799.4521        49.8698       67.42426         1.1625       -33.0206      -1.318607      0.7324311              1
      1702.0000         0.8656       826.9072        50.8223       69.17245         1.1371       -33.0897       -1.38969      0.7696267              1
      1702.5000         0.8582        852.665         51.775       70.92101         1.1118       -33.1588      -1.460775      0.8068299              1
      1703.0000         0.8509       870.1895        52.7275       72.66918         1.0865       -33.2279      -1.531864      0.8440251              1
      1703.5000         0.8435       887.7207        53.6803       74.41792         1.0611       -33.3671      -1.673046      0.8812324              1
      1704.0000         0.8361       905.2461        54.6331       76.16666         1.0358       -33.5067      -1.814631      0.9184395              1
      1704.5000         0.8288       922.7773        55.7776       78.27131         1.0228       -33.6463      -1.956219      0.9632193              1
      1705.0000         0.8229       937.6855        57.1898       80.87297         1.0097       -33.7859      -2.097801              1      0.9860284
      1705.5000         0.8174       949.9287        58.6024        83.4754         0.9966       -33.9255      -2.239386              1      0.9658021
      1706.0000         0.8119       953.7852        60.0146       86.07705         0.9835       -34.0651      -2.380974              1      0.9455752
      1706.5000         0.8064       957.6406        61.9686       89.68464         0.9892       -34.2048      -2.522657              1      0.9253346
      1707.0000         0.8008        944.709        65.4415       96.11222         1.0096       -34.3444       -2.66424              1      0.9051086
      1707.5000         0.8223       905.4199        67.8258       100.5187           1.03        -34.484      -2.805828              1      0.8848817
      1708.0000          0.853       866.1299        66.3119       97.68774         1.0684       -34.6237      -2.947512              1      0.8646412
      1708.5000         0.8836       826.8398        62.3342       90.28245         1.1067       -34.7632      -3.088995              1      0.8444293
      1709.0000         0.9143       787.5498        59.5073       85.01373          1.145       -34.9028      -3.230583              1      0.8242024
      1709.5000         0.9382        761.873        57.1889       80.68911         1.1834       -34.9476      -3.277369              1      0.8175188
      1710.0000         0.9532       742.2334        54.9933        76.5925         1.2217       -34.9117      -3.243454      0.9274999      0.8223637
      1710.5000         0.9682       722.5947        54.3809       75.43526         1.2532       -34.8759      -3.209637      0.9028778      0.8271948
      1711.0000         0.9767       702.9502        53.7686       74.27821         1.2521         -34.84      -3.175722      0.8782598      0.8320397
      1711.5000         0.9759       683.3115        53.1562       73.12098         1.2511       -34.8041      -3.141808      0.8536379      0.8368846
      1712.0000          0.975       663.6729        52.5438       71.96373         1.2501       -34.7683       -3.10799      0.8290156      0.8417157
      1712.5000         0.9659        659.708        51.9314        70.8065          1.249       -34.7325      -3.074175      0.8043935      0.8465465
      1713.0000         0.9546       662.9102        51.6621       70.28629          1.248       -34.6965      -3.040161      0.7933254      0.8514056
