#------------------------------------------------------------------------------
# Created by    : vladimir.rabinovich
# Created on    : 09/19/2023 17:20:03
#------------------------------------------------------------------------------
~Version Information Section
VERS.           2.0     :   CWLS log ASCII Standard - VERSION 2.0
WRAP.           NO      :   One line per depth step
~Well Information Section
#MNEM       .UNIT                                         VALUE :DESCRIPTION
#------------------------------------------------------------------------------
STRT        .FT                                            3149 :START DEPTH
STOP        .FT                                           10186 :STOP DEPTH
STEP        .FT                                             0.5 :STEP      
NULL        .                                           -999.25 :NULL      
COMP        .                                  SAMEDAN OIL CORP :COMPANY   
WELL        .                                     ST TR 00817-L :WELL      
FLD         .                                           WILDCAT :FIELD     
LOC         .                                                   :LOCATION  
CNTY        .                        MUSTANG ISLAND LARGE BLOCK :LOCATION  
STAT        .                                             TEXAS :STATE     
CTRY        .                                     UNITED STATES :COUNTRY   
SRVC        .                                                   :SERVICE COMPANY
DATE        .                             9/13/2023 11:18:55 AM :LOG DATE  
API         .                                    42702300080000 :API NUMBER
UWI         .                                    42702300080000 :UNIQUE WELL ID
XCOORD      .                                  304914.569303086 :SURFACE X 
YCOORD      .                                  10013906.4088957 :SURFACE Y 
LAT         .                                        27.5345201 :LATITUDE  
LON         .                                       -97.1203623 :LONGITUDE 
ELEV        .FT                                              65 :ELEVATION VALUE
ELEV_TYPE   .                                                KB :ELEVATION REFERENCE TYPE
~Curve Information Section
#MNEM       .UNIT                                      API CODE :CURVE DESCRIPTION
#------------------------------------------------------------------------------
DEPT        .FT                                                 :DEPTH     
ASFL        .OHMM                                               :          
CILD        .MMHO                                               :          
DT          .US/F                                               :          
GR          .GAPI                                               :          
ILD         .OHMM                                               :          
SP          .MV                                                 :          
SP_NORM     .MV                                                 :SP Normalized
VSH_SP      .V/V                                                :Volume of Shale from SP
~A        DEPTH           ASFL           CILD             DT             GR            ILD             SP        SP_NORM         VSH_SP
# ...
      8754.0000         0.6009        2513.59       132.4338        46.4407         0.3488       -47.1398      -1.525768      0.9902635
      8754.5000         0.5948       2573.418        132.325        45.8558         0.3369       -46.9818      -1.367767      0.9931895
      8755.0000         0.5886        2647.59       133.0857        45.2709         0.3257       -46.8407      -1.226665      0.9958025
      8755.5000         0.5825       2732.406       134.3491        45.3441         0.3188       -46.7141      -1.100067      0.9981469
      8756.0000         0.5761       2816.633        135.873        45.7556         0.3119       -46.5875     -0.9734688              1
      8756.5000         0.5691       2861.527        136.979        46.1918          0.305       -46.4634      -0.849369              1
      8757.0000         0.5621       2899.785       138.0322        46.6274         0.2981       -46.3419     -0.7278671              1
      8757.5000         0.5551       2936.387       139.0193        47.0957         0.2912       -46.2205     -0.6064682              1
      8758.0000         0.5481       2971.863        139.939        48.0891         0.2854       -46.0991     -0.4850655              1
      8758.5000         0.5418       2959.125       140.3887        49.2178         0.2918       -46.1537      -0.539669              1
      8759.0000         0.5369       2899.199       139.5698        50.7114         0.2981       -46.2958     -0.6817665              1
      8759.5000          0.532       2821.707       138.5427        52.2461         0.3067        -46.438      -0.823967              1
      8760.0000         0.5418       2742.652       136.8889          53.95          0.317       -46.5801     -0.9660683              1
      8760.5000         0.5524       2636.172       135.0574        53.1718         0.3273       -46.7374      -1.123367      0.9977154
      8761.0000         0.5651       2550.188       133.1731        51.9005         0.3359       -46.9054      -1.291367      0.9946043
      8761.5000         0.5797       2492.898       131.7271        50.6317         0.3428       -47.0671      -1.453068      0.9916099
      8762.0000         0.5943       2440.684       130.7981        49.6927         0.3499       -47.1055      -1.491467      0.9908988
      8762.5000          0.609        2389.93       130.5129        48.8129         0.3581       -47.1439      -1.529869      0.9901876
      8763.0000         0.6236       2383.441       130.6348        51.0691         0.3664       -47.1822      -1.568169      0.9894783
      8763.5000         0.6362       2388.289       131.2441        52.3513         0.3746       -47.2205      -1.606468      0.9887691
      8764.0000         0.6343       2393.141       133.1458        53.3217         0.3835       -47.2037      -1.589668      0.9890802
      8764.5000         0.6231       2397.984       134.6682        54.2401         0.3937       -47.1864      -1.572369      0.9894006
      8765.0000         0.6127       2380.855       134.5945        53.9464          0.404       -47.1691      -1.555069      0.9897209
      8765.5000         0.6061       2353.477        132.863        52.9325         0.4131       -47.1518      -1.537766      0.9900414
      8766.0000         0.5995       2326.102        131.074        51.9199         0.4216       -47.1318      -1.517769      0.9904117
      8766.5000         0.6065       2298.727       129.7178        50.8467           0.43       -47.1096      -1.495567      0.9908229
      8767.0000         0.6145       2273.227       128.6794        49.7108         0.4384       -47.0874      -1.473366      0.9912339
      8767.5000         0.6226       2254.488       127.9771        48.5869         0.4413       -47.0721      -1.458069      0.9915172
      8768.0000         0.6306       2235.773       128.1421        47.4836         0.4345       -47.1124      -1.498367       0.990771
      8768.5000         0.6315       2274.961       128.3547        47.9465         0.4277       -47.1526      -1.538567      0.9900265
      8769.0000         0.6284       2316.684        128.084        50.0468         0.4209       -47.1987      -1.584667      0.9891728
      8769.5000         0.6252       2339.496       128.9922        51.8014         0.4108       -47.2655      -1.651466      0.9879358
      8770.0000         0.6221       2337.129       130.3484        53.2104         0.3986       -47.3323      -1.718266      0.9866988
      8770.5000          0.619       2308.633       131.3992        54.4866         0.4048       -47.3992      -1.785168      0.9854599
      8771.0000         0.6158       2289.574        131.772        55.5766         0.4113        -47.466      -1.851967      0.9842228
      8771.5000         0.6127       2270.789        131.426        54.3174         0.4195       -47.5258      -1.911766      0.9831154
      8772.0000         0.6274       2251.977       130.7285        53.0485         0.4278       -47.5806      -1.966568      0.9821006
      8772.5000         0.6475       2233.188        128.822        51.3978          0.436       -47.5834      -1.969368      0.9820487
      8773.0000         0.6679       2214.375       125.7245        49.5368         0.4424       -47.5214      -1.907368      0.9831969
      8773.5000         0.6937       2193.758       122.9246        48.1422         0.4442       -47.4595      -1.845467      0.9843432
      8774.0000         0.7196        2175.75       121.1281        47.4413         0.4461       -47.4219      -1.807869      0.9850395
      8774.5000         0.7454       2162.309       119.9283        46.7392         0.4415       -47.3856      -1.771568      0.9857117
      8775.0000         0.7525       2171.676       120.4651        47.3168         0.4366       -47.3981      -1.784069      0.9854802
      8775.5000         0.7405        2184.68       123.1423        48.3066         0.4293       -47.4197      -1.805668      0.9850802
      8776.0000          0.728       2216.598       127.1807        49.2963         0.4205       -47.4414      -1.827366      0.9846784
      8776.5000         0.7154       2269.594       130.5635         50.286         0.4118       -47.4631      -1.849068      0.9842765
      8777.0000         0.7027       2324.344       131.8545        51.2661          0.403       -47.4848      -1.870766      0.9838747
      8777.5000         0.6902       2347.793       130.9338        52.1724         0.4006       -47.5059      -1.891869      0.9834839
      8778.0000         0.6775       2339.105       129.6128        52.0902         0.4008       -47.5261      -1.912067      0.9831099
      8778.5000         0.6642       2330.422       128.9722         51.486          0.401       -47.5508      -1.936768      0.9826524
      8779.0000         0.6503       2321.441       128.4036        50.8818         0.4047       -47.5796      -1.965569      0.9821191
      8779.5000         0.6512       2305.777       127.8475        50.2775         0.4084       -47.6084      -1.994366      0.9815858
      8780.0000         0.6571       2290.113       127.2013        49.6733         0.4122       -47.6373      -2.023266      0.9810506
      8780.5000          0.663       2274.473       126.7528        49.0703         0.4168       -47.6528      -2.038769      0.9807636
      8781.0000         0.6689       2258.809       126.6265        48.4576         0.4218        -47.653      -2.038967      0.9807599
      8781.5000         0.6737       2243.145       126.7878         47.845         0.4268       -47.6532      -2.039165      0.9807562
      8782.0000         0.6761         2225.5       127.0455        47.2322         0.4318       -47.6636      -2.049568      0.9805636
      8782.5000         0.6647       2238.652       127.4115        46.6196         0.4368       -47.6772      -2.063168      0.9803117
      8783.0000         0.6537       2295.652       127.9176        46.1211         0.4376       -47.6908      -2.076767      0.9800599
