#------------------------------------------------------------------------------
# Created by    : vladimir.rabinovich
# Created on    : 09/19/2023 17:20:39
#------------------------------------------------------------------------------
~Version Information Section
VERS.           2.0     :   CWLS log ASCII Standard - VERSION 2.0
WRAP.           NO      :   One line per depth step
~Well Information Section
#MNEM       .UNIT                                         VALUE :DESCRIPTION
#------------------------------------------------------------------------------
STRT        .FT                                             520 :START DEPTH
STOP        .FT                                           11478 :STOP DEPTH
STEP        .FT                                             0.5 :STEP      
NULL        .                                           -999.25 :NULL      
COMP        .                                      SHELL OIL CO :COMPANY   
WELL        .                                OCS 00730 ST00BP00 :WELL      
FLD         .                                           WILDCAT :FIELD     
LOC         .                                                   :LOCATION  
CNTY        .                             GALVESTON LARGE BLOCK :LOCATION  
STAT        .                                             TEXAS :STATE     
CTRY        .                                     UNITED STATES :COUNTRY   
SRVC        .                                                   :SERVICE COMPANY
DATE        .                             9/13/2023 11:19:42 AM :LOG DATE  
API         .                                    42706000260000 :API NUMBER
UWI         .                                    42706000260000 :UNIQUE WELL ID
XCOORD      .                                  961416.888637646 :SURFACE X 
YCOORD      .                                  10353223.2377546 :SURFACE Y 
LAT         .                                         28.512881 :LATITUDE  
LON         .                                        -95.114699 :LONGITUDE 
ELEV        .FT                                              72 :ELEVATION VALUE
ELEV_TYPE   .                                                KB :ELEVATION REFERENCE TYPE
~Curve Information Section
#MNEM       .UNIT                                      API CODE :CURVE DESCRIPTION
#------------------------------------------------------------------------------
DEPT        .FT                                                 :DEPTH     
ASN         .OHMM                                               :          
CILD        .MMHO                                               :          
ILD         .OHMM                                               :          
LAT         .OHMM                                               :          
LN          .OHMM                                               :          
SP          .MV                                                 :          
SP_NORM     .MV                                                 :SP Normalized
VSH_SP      .V/V                                                :Volume of Shale from SP
~A        DEPTH            ASN           CILD            ILD            LAT             LN             SP        SP_NORM         VSH_SP
# ...
      4148.5000         0.6185       1844.551         0.5234        -999.25        -999.25       -48.2214      -4.318962      0.9108092
      4149.0000         0.6319       1804.547         0.5222        -999.25        -999.25       -48.1226      -4.220161      0.9146092
      4149.5000         0.6582       1764.545         0.5299        -999.25        -999.25       -48.0239       -4.12146      0.9184054
      4150.0000         0.6844        1724.52         0.5437        -999.25        -999.25       -47.9252      -4.022762      0.9222015
      4150.5000         0.7061       1684.518         0.5575        -999.25        -999.25       -47.8265      -3.924061      0.9259977
      4151.0000         0.7077       1644.516         0.5712        -999.25        -999.25       -47.7278      -3.825359      0.9297939
      4151.5000         0.7055       1613.588          0.585        -999.25        -999.25       -47.6349       -3.73246      0.9333669
      4152.0000         0.7033       1612.732         0.5988        -999.25        -999.25       -47.5475      -3.645061      0.9367284
      4152.5000         0.7011        1616.24         0.6119        -999.25        -999.25       -47.4602      -3.557762      0.9400861
      4153.0000         0.6989       1619.748          0.619        -999.25        -999.25       -47.3728       -3.47036      0.9434477
      4153.5000         0.6966       1623.258         0.6262        -999.25        -999.25       -47.2855       -3.38306      0.9468054
      4154.0000         0.6952       1626.766         0.6334        -999.25        -999.25       -47.1981      -3.295662      0.9501668
      4154.5000         0.7059       1630.271         0.6406        -999.25        -999.25       -47.1172       -3.21476      0.9532785
      4155.0000         0.7166       1631.326          0.638        -999.25        -999.25       -47.0874      -3.184959      0.9544246
      4155.5000         0.7273       1626.459         0.6304        -999.25        -999.25       -47.0576      -3.155159      0.9555708
      4156.0000         0.7311       1621.592         0.6228        -999.25        -999.25       -47.0278      -3.125362      0.9567168
      4156.5000          0.718       1616.725         0.6152        -999.25        -999.25       -47.0272       -3.12476        0.95674
      4157.0000         0.7048       1611.857         0.6076        -999.25        -999.25       -47.0375      -3.135059      0.9563439
      4157.5000         0.6917       1606.992            0.6        -999.25        -999.25       -47.0479      -3.145462      0.9559438
      4158.0000         0.6786       1601.738         0.5874        -999.25        -999.25       -47.0582      -3.155762      0.9555476
      4158.5000         0.6654       1609.164          0.574        -999.25        -999.25       -47.1708       -3.26836      0.9512169
      4159.0000         0.6508         1624.4         0.5606        -999.25        -999.25       -47.3632      -3.460762      0.9438168
      4159.5000         0.6294       1639.637         0.5472        -999.25        -999.25       -47.5555      -3.653061      0.9364207
      4160.0000         0.6079       1654.873         0.5338        -999.25        -999.25       -47.7479      -3.845459      0.9290208
      4160.5000          0.609       1670.109         0.5205        -999.25        -999.25       -47.9942      -4.091763      0.9195476
      4161.0000         0.6265       1685.346         0.5071        -999.25        -999.25       -48.3962      -4.493759      0.9040862
      4161.5000         0.6475       1674.375         0.5106        -999.25        -999.25       -48.7985      -4.896061       0.888613
      4162.0000         0.6686       1651.594         0.5298        -999.25        -999.25       -49.2005      -5.298061      0.8731515
      4162.5000         0.6897       1628.813         0.5491        -999.25        -999.25       -49.6025      -5.700062      0.8576899
      4163.0000         0.7108       1606.033         0.5684        -999.25        -999.25       -49.9699      -6.067459      0.8435593
      4163.5000         0.7261       1583.252         0.5868        -999.25        -999.25       -49.4927       -5.59026      0.8619131
      4164.0000         0.7389       1560.471         0.6023        -999.25        -999.25       -48.8726      -4.970161       0.885763
      4164.5000         0.7517       1537.689         0.6178        -999.25        -999.25       -48.4132      -4.510761      0.9034323
      4165.0000         0.7644        1514.91         0.6334        -999.25        -999.25       -47.9538      -4.051361      0.9211015
      4165.5000         0.7766       1492.129         0.6489        -999.25        -999.25       -47.4944      -3.591961      0.9387707
      4166.0000          0.785       1469.348         0.6645        -999.25        -999.25        -47.035      -3.132561        0.95644
      4166.5000         0.7818       1460.232           0.68        -999.25        -999.25        -46.902      -2.999561      0.9615554
      4167.0000         0.7787       1459.285         0.6926        -999.25        -999.25       -46.9398      -3.037361      0.9601015
      4167.5000         0.7755       1476.666         0.6992        -999.25        -999.25       -46.9776      -3.075161      0.9586477
      4168.0000         0.7727       1495.182         0.6963        -999.25        -999.25       -46.9996       -3.09716      0.9578015
      4168.5000         0.7767       1513.695         0.6896        -999.25        -999.25       -47.0146       -3.11216      0.9572246
      4169.0000         0.7808       1532.211         0.6828        -999.25        -999.25       -47.0295       -3.12706      0.9566516
      4169.5000         0.7787       1550.715         0.6761        -999.25        -999.25       -47.0445      -3.142059      0.9560747
      4170.0000          0.767       1569.229         0.6693        -999.25        -999.25       -47.0594       -3.15696      0.9555016
      4170.5000         0.7553       1589.117         0.6626        -999.25        -999.25       -47.0743       -3.17186      0.9549285
      4171.0000         0.7435       1609.301         0.6552        -999.25        -999.25       -47.0893      -3.186859      0.9543515
      4171.5000         0.7322       1629.482         0.6476        -999.25        -999.25       -47.1042      -3.201759      0.9537785
      4172.0000         0.7209       1645.297           0.64        -999.25        -999.25       -47.0977      -3.195259      0.9540285
      4172.5000         0.7097       1658.242         0.6324        -999.25        -999.25       -47.0739      -3.171459      0.9549439
      4173.0000         0.6984       1671.188         0.6248        -999.25        -999.25       -47.0501      -3.147659      0.9558592
      4173.5000         0.6871       1684.121         0.6172        -999.25        -999.25       -47.2972       -3.39476      0.9463554
      4174.0000         0.6758       1697.064         0.6096        -999.25        -999.25       -47.6265       -3.72406        0.93369
      4174.5000         0.6845       1685.051         0.6021        -999.25        -999.25       -47.9557      -4.053261      0.9210284
      4175.0000         0.6938       1672.605         0.5945        -999.25        -999.25       -48.2853      -4.382862      0.9083515
      4175.5000          0.703        1660.16         0.5928        -999.25        -999.25       -48.6146      -4.712162      0.8956861
      4176.0000         0.7123       1647.715         0.5963        -999.25        -999.25       -48.9439      -5.041462      0.8830207
      4176.5000         0.7216        1635.27         0.5998        -999.25        -999.25       -49.2734       -5.37096      0.8703477
      4177.0000         0.7308       1626.867         0.6034        -999.25        -999.25        -49.576      -5.673561      0.8587092
      4177.5000         0.7401       1624.369         0.6069        -999.25        -999.25       -49.8719       -5.96946      0.8473285
