#------------------------------------------------------------------------------
# Created by    : vladimir.rabinovich
# Created on    : 09/19/2023 17:20:39
#------------------------------------------------------------------------------
~Version Information Section
VERS.           2.0     :   CWLS log ASCII Standard - VERSION 2.0
WRAP.           NO      :   One line per depth step
~Well Information Section
#MNEM       .UNIT                                         VALUE :DESCRIPTION
#------------------------------------------------------------------------------
STRT        .FT                                             523 :START DEPTH
STOP        .FT                                           11863 :STOP DEPTH
STEP        .FT                                             0.5 :STEP      
NULL        .                                           -999.25 :NULL      
COMP        .                                      SHELL OIL CO :COMPANY   
WELL        .                                OCS 00727 ST00BP00 :WELL      
FLD         .                                           WILDCAT :FIELD     
LOC         .                                                   :LOCATION  
CNTY        .                             GALVESTON LARGE BLOCK :LOCATION  
STAT        .                                             TEXAS :STATE     
CTRY        .                                     UNITED STATES :COUNTRY   
SRVC        .                                                   :SERVICE COMPANY
DATE        .                             9/13/2023 11:19:42 AM :LOG DATE  
API         .                                    42706000240000 :API NUMBER
UWI         .                                    42706000240000 :UNIQUE WELL ID
XCOORD      .                                  977080.798970248 :SURFACE X 
YCOORD      .                                   10388448.113324 :SURFACE Y 
LAT         .                                         28.610486 :LATITUDE  
LON         .                                        -95.067834 :LONGITUDE 
ELEV        .FT                                              76 :ELEVATION VALUE
ELEV_TYPE   .                                                KB :ELEVATION REFERENCE TYPE
~Curve Information Section
#MNEM       .UNIT                                      API CODE :CURVE DESCRIPTION
#------------------------------------------------------------------------------
DEPT        .FT                                                 :DEPTH     
ASN         .OHMM                                               :          
ILD         .OHMM                                               :          
LN          .OHMM                                               :          
SP          .MV                                                 :          
SP_NORM     .MV                                                 :SP Normalized
VSH_SP      .V/V                                                :Volume of Shale from SP
~A        DEPTH            ASN            ILD             LN             SP        SP_NORM         VSH_SP
# ...
      8807.0000         0.8918         0.7446        -999.25       -41.0486      -4.463234      0.8717321
      8807.5000         0.8899         0.7415        -999.25       -40.9037      -4.318336      0.8770986
      8808.0000          0.888         0.7384        -999.25       -40.7584      -4.173035      0.8824802
      8808.5000         0.8861         0.7353        -999.25       -40.6133      -4.027935      0.8878543
      8809.0000         0.8842         0.7322        -999.25       -40.4683      -3.882935      0.8932247
      8809.5000         0.8636         0.7283        -999.25       -40.3234      -3.738033      0.8985913
      8810.0000         0.8419         0.7237        -999.25       -40.2017      -3.616333      0.9030988
      8810.5000         0.8293          0.719        -999.25       -40.1832      -3.597836      0.9037839
      8811.0000          0.823         0.7144        -999.25       -40.1648      -3.579433      0.9044654
      8811.5000          0.824         0.7097        -999.25       -40.1464      -3.561035      0.9051468
      8812.0000         0.8249         0.7051        -999.25       -40.1279      -3.542534      0.9058321
      8812.5000         0.8256         0.7005        -999.25       -40.1095      -3.524136      0.9065135
      8813.0000         0.8262         0.6958        -999.25       -40.0952      -3.509834      0.9070432
      8813.5000         0.8269         0.6912        -999.25       -40.1434      -3.558033      0.9052581
      8814.0000         0.8276         0.6865        -999.25       -40.1916      -3.606236      0.9034728
      8814.5000         0.8282         0.6872        -999.25       -40.2397      -3.654335      0.9016913
      8815.0000         0.8289           0.69        -999.25       -40.2878      -3.702435      0.8999099
      8815.5000         0.8296         0.6927        -999.25        -40.336      -3.750633      0.8981247
      8816.0000         0.8302         0.6954        -999.25       -40.3842      -3.798836      0.8963394
      8816.5000         0.8309         0.6982        -999.25       -40.4324      -3.847034      0.8945543
      8817.0000         0.8316         0.7002        -999.25       -40.4805      -3.895134      0.8927728
      8817.5000         0.8319         0.7014        -999.25        -40.515      -3.929634       0.891495
      8818.0000         0.8318         0.7026        -999.25       -40.5341      -3.948734      0.8907876
      8818.5000         0.8318         0.7038        -999.25       -40.5533      -3.967934      0.8900765
      8819.0000         0.8317         0.7049        -999.25       -40.5724      -3.987034      0.8893691
      8819.5000         0.8316         0.7061        -999.25       -40.5917      -4.006336      0.8886542
      8820.0000         0.8315         0.7073        -999.25       -40.6108      -4.025436      0.8879468
      8820.5000         0.8315         0.7085        -999.25         -40.63      -4.044636      0.8872357
      8821.0000         0.8314         0.7096        -999.25       -40.6274      -4.042034      0.8873321
      8821.5000         0.8312         0.7108        -999.25       -40.6055      -4.020134      0.8881432
      8822.0000         0.8306         0.7106        -999.25       -40.5836      -3.998234      0.8889543
      8822.5000           0.83         0.7103        -999.25       -40.5616      -3.976234      0.8897691
      8823.0000         0.8295         0.7099        -999.25       -40.5398      -3.954433      0.8905765
      8823.5000         0.8289         0.7095        -999.25       -40.5268      -3.941433       0.891058
      8824.0000         0.8283         0.7092        -999.25       -40.5256      -3.940235      0.8911024
      8824.5000         0.8282         0.7088        -999.25       -40.5245      -3.939137      0.8911431
      8825.0000         0.8298         0.7085        -999.25       -40.5233      -3.937935      0.8911876
      8825.5000         0.8314         0.7081        -999.25       -40.5222      -3.936836      0.8912283
      8826.0000          0.833         0.7073        -999.25       -40.5945      -4.009136      0.8885505
      8826.5000         0.8346         0.7061        -999.25       -40.6718      -4.086433      0.8856876
      8827.0000         0.8301         0.7049        -999.25        -40.749      -4.163635      0.8828283
      8827.5000         0.8235         0.7037        -999.25       -40.8264      -4.241035      0.8799617
      8828.0000          0.817         0.7026        -999.25       -40.9035      -4.318134      0.8771061
      8828.5000         0.8104         0.7014        -999.25       -40.9807      -4.395336      0.8742468
      8829.0000         0.8047         0.7017        -999.25       -41.0632      -4.477837      0.8711913
      8829.5000         0.8021         0.7023        -999.25       -41.1682      -4.582836      0.8673024
      8830.0000         0.8028          0.703        -999.25       -41.2732      -4.687836      0.8634135
      8830.5000         0.8056         0.7036        -999.25        -41.254      -4.668636      0.8641246
      8831.0000         0.8085         0.7042        -999.25       -41.1231      -4.537735      0.8689728
      8831.5000         0.8088         0.7048        -999.25       -41.0258      -4.440434      0.8725765
      8832.0000         0.8045         0.7028        -999.25       -40.9326      -4.347233      0.8760284
      8832.5000         0.8001         0.6986        -999.25       -40.8394      -4.254036      0.8794801
      8833.0000         0.7958         0.6943        -999.25       -40.7462      -4.160835       0.882932
      8833.5000         0.7914           0.69        -999.25       -40.6531      -4.067734      0.8863803
      8834.0000         0.7872         0.6857        -999.25         -40.56      -3.974636      0.8898283
      8834.5000         0.7831         0.6814        -999.25       -40.4791      -3.893734      0.8928246
      8835.0000          0.779         0.6773        -999.25       -40.4183      -3.832935      0.8950765
      8835.5000         0.7786         0.6815        -999.25       -40.3574      -3.772034      0.8973321
      8836.0000         0.7843         0.6858        -999.25       -40.2966      -3.711235      0.8995839
      8836.5000         0.7901         0.6901        -999.25       -40.2357      -3.650333      0.9018395
      8837.0000         0.7946         0.6944        -999.25       -40.1749      -3.589535      0.9040913
      8837.5000          0.798         0.6987        -999.25       -40.1321      -3.546734      0.9056765
      8838.0000         0.8014          0.703        -999.25       -40.1103      -3.524933      0.9064839
      8838.5000         0.8049         0.7068        -999.25       -40.0884      -3.503036      0.9072949
      8839.0000         0.8083         0.7094        -999.25       -40.0665      -3.481136      0.9081061
      8839.5000         0.8117          0.712        -999.25       -40.0446      -3.459236      0.9089172
      8840.0000         0.8151         0.7147        -999.25       -40.0488      -3.463436      0.9087616
      8840.5000         0.8185         0.7173        -999.25       -40.0988      -3.513435      0.9069098
      8841.0000         0.8191           0.72        -999.25       -40.1487      -3.563335      0.9050617
      8841.5000         0.8191         0.7125        -999.25       -40.1987      -3.613335      0.9032098
      8842.0000         0.8191         0.7028        -999.25       -40.2488      -3.663433      0.9013543
      8842.5000         0.8179         0.6931        -999.25       -40.2987      -3.713333      0.8995062
      8843.0000         0.8167         0.6879        -999.25       -40.3339      -3.748535      0.8982024
      8843.5000         0.8155         0.6863        -999.25       -40.3663      -3.780933      0.8970025
      8844.0000         0.8148         0.6847        -999.25       -40.3987      -3.813335      0.8958024
      8844.5000         0.8147         0.6831        -999.25       -40.4312      -3.845833      0.8945988
