#------------------------------------------------------------------------------
# Created by    : vladimir.rabinovich
# Created on    : 09/19/2023 17:22:54
#------------------------------------------------------------------------------
~Version Information Section
VERS.           2.0     :   CWLS log ASCII Standard - VERSION 2.0
WRAP.           NO      :   One line per depth step
~Well Information Section
#MNEM       .UNIT                                         VALUE :DESCRIPTION
#------------------------------------------------------------------------------
STRT        .FT                                            1705 :START DEPTH
STOP        .FT                                           10298 :STOP DEPTH
STEP        .FT                                             0.5 :STEP      
NULL        .                                           -999.25 :NULL      
COMP        .                            STANOLIND OIL & GAS CO :COMPANY   
WELL        .                                       ST TR 00219 :WELL      
FLD         .                                           WILDCAT :FIELD     
LOC         .                                                   :LOCATION  
CNTY        .                             GALVESTON LARGE BLOCK :LOCATION  
STAT        .                                             TEXAS :STATE     
CTRY        .                                     UNITED STATES :COUNTRY   
SRVC        .                                                   :SERVICE COMPANY
DATE        .                             9/13/2023 11:19:42 AM :LOG DATE  
API         .                                    42706000170000 :API NUMBER
UWI         .                                    42706000170000 :UNIQUE WELL ID
XCOORD      .                                  1024804.26554262 :SURFACE X 
YCOORD      .                                  10549089.4715911 :SURFACE Y 
LAT         .                                        29.0543948 :LATITUDE  
LON         .                                       -94.9272588 :LONGITUDE 
ELEV        .FT                                              60 :ELEVATION VALUE
ELEV_TYPE   .                                                GL :ELEVATION REFERENCE TYPE
~Curve Information Section
#MNEM       .UNIT                                      API CODE :CURVE DESCRIPTION
#------------------------------------------------------------------------------
DEPT        .FT                                                 :DEPTH     
LAT         .OHMM                                               :          
LN          .OHMM                                               :          
SN          .OHMM                                               :          
SP          .MV                                                 :          
SP_NORM     .MV                                                 :SP Normalized
VSH_SP      .V/V                                                :Volume of Shale from SP
~A        DEPTH            LAT             LN             SN             SP        SP_NORM         VSH_SP
# ...
      3415.0000         0.9649         0.6783         0.8751       -82.7311      -6.266685      0.9372546
      3415.5000         0.9497         0.6572         0.8821       -85.4714      -9.010391       0.896906
      3416.0000         0.9345         0.6361         0.8839       -88.5012      -12.04361      0.8522999
      3416.5000         0.8952         0.6441         0.8857       -89.3337      -12.87952       0.840007
      3417.0000         0.8449         0.6575         0.8876       -86.0677      -9.616943      0.8879861
      3417.5000         0.7944          0.671         0.8894       -81.1791       -4.73175      0.9598272
      3418.0000          0.747         0.6844         0.8876       -79.9624      -3.518471      0.9776695
      3418.5000         0.7205         0.6979         0.8853       -82.3376      -5.897079        0.94269
      3419.0000         0.6948         0.7113         0.8831       -85.0278      -8.590698       0.903078
      3419.5000         0.6857         0.7247         0.8987       -90.2551       -13.8214      0.8261558
      3420.0000         0.6766         0.7382         0.9215       -93.9225      -17.49223      0.7721732
      3420.5000         0.6676         0.7516          0.946       -90.6565      -14.22964      0.8201524
      3421.0000         0.6724          0.765         0.9813       -87.3906      -10.96716      0.8681301
      3421.5000         0.6799         0.7785         1.0167       -84.9639      -8.543861      0.9037668
      3422.0000         0.6874         0.7919          1.052       -82.8623      -6.445679      0.9346223
      3422.5000         0.7283         0.8054         1.0874       -80.7606      -4.347389      0.9654796
      3423.0000         0.7828         0.8187         1.1218       -78.4047      -1.994904              1
      3423.5000         0.8579          0.831         1.1563       -75.9106      0.4957809              1
      3424.0000          0.933         0.8455         1.1933       -74.4226        1.98037              1
      3424.5000         0.9897         0.8641         1.2404       -73.1442       3.255348              1
      3425.0000         1.0395         0.8826         1.2875       -74.6825       1.713638              1
      3425.5000         1.0785         0.8683         1.3262        -76.693     -0.3002777              1
      3426.0000         1.0981         0.8599         1.3386       -79.1271      -2.737785      0.9891502
      3426.5000         1.1176         0.8572         1.3338       -78.2211      -1.835205              1
      3427.0000         1.1372         0.8545         1.3082       -77.3156     -0.9331131              1
      3427.5000         1.1691         0.8518         1.2647       -76.4095    -0.03043365              1
      3428.0000         1.2098         0.8491         1.1984       -75.6265      0.7491531              1
      3428.5000           1.22         0.8464          1.131       -74.9747       1.397537              1
      3429.0000         1.1863         0.8437         1.0635        -74.323        2.04583              1
      3429.5000         1.1525          0.841         1.0185       -73.6714       2.694008              1
      3430.0000         1.1188         0.8383         0.9872       -73.0197         3.3423              1
      3430.5000          1.085         0.8356         0.9559       -72.5814       3.777184              1
      3431.0000         1.0513         0.8329          0.969       -72.3246       4.030571              1
      3431.5000         1.0175         0.8441         0.9861       -72.0679       4.283852              1
      3432.0000         0.9838         0.8554         0.9825        -71.811       4.537346              1
      3432.5000         0.9504         0.8666         0.9789       -71.5542       4.790726              1
      3433.0000         0.9188         0.8779         0.9753       -71.3595       4.982018              1
      3433.5000         0.8873         0.8891          0.973       -71.2655       5.072601              1
      3434.0000         0.8589         0.9004         0.9747       -71.1715       5.163185              1
      3434.5000         0.8554         0.9067         0.9764       -71.1085       5.222778              1
      3435.0000         0.8625         0.9068         0.9782       -71.1675       5.160355              1
      3435.5000         0.8696         0.9069         0.9799       -71.2266       5.097847              1
      3436.0000         0.8768         0.9069          0.982       -71.1649       5.156128              1
      3436.5000         0.8873          0.907         0.9841       -71.0763       5.241318              1
      3437.0000         0.9157         0.9071         0.9862       -70.9877         5.3265              1
      3437.5000         0.9442         0.9072         0.9972        -70.894       5.416794              1
      3438.0000         0.9727         0.9072         1.0315       -70.7938       5.513573              1
      3438.5000         0.9752         0.9062         1.0657       -70.6937        5.61026              1
      3439.0000         0.9707         0.9039         1.1053       -70.7881       5.512444              1
      3439.5000         0.9662         0.9016         1.1471       -71.1115       5.185631              1
      3440.0000         0.9766         0.8993         1.1888       -71.4347       4.859016              1
      3440.5000         0.9972          0.897         1.2306       -71.7579        4.53241              1
      3441.0000          1.045         0.8947         1.2724        -72.614        3.67289              1
      3441.5000         1.0994         0.8931         1.3152       -73.5491       2.734375              1
      3442.0000         1.1458         0.8932          1.358       -74.5035       1.776558              1
      3442.5000         1.1878         0.8932         1.3939        -75.726      0.5506516              1
      3443.0000         1.2298         0.8933         1.4186       -76.9484     -0.6751709              1
      3443.5000         1.2726         0.8934         1.4433       -78.1703      -1.900482              1
      3444.0000         1.3165         0.8962           1.43       -79.0383      -2.771896      0.9886486
      3444.5000         1.3604         0.9018         1.3622       -78.8611      -2.598106      0.9912043
      3445.0000         1.4014         0.9073         1.2944       -78.6838      -2.424217      0.9937615
      3445.5000           1.42         0.9128          1.234       -78.5065      -2.250336      0.9963186
      3446.0000         1.4362         0.9184         1.1854       -78.3544      -2.101646      0.9985052
      3446.5000         1.4363         0.9239         1.1369       -78.4744      -2.225067      0.9966902
      3447.0000         1.4364         0.9294         1.0883       -78.5945      -2.348572      0.9948739
      3447.5000         1.4195         0.9349         1.0638       -76.8708     -0.6282883              1
      3448.0000         1.4012         0.9405         1.0464       -75.5082       0.730896              1
      3448.5000         1.3872          0.946          1.029       -75.4138      0.8218765              1
      3449.0000         1.3495         0.9515         1.0116       -75.4116      0.8206711              1
      3449.5000         1.2621         0.9305         1.0108        -76.132     0.09684753              1
      3450.0000         1.1618         0.9013         1.0224       -77.4513      -1.225861              1
      3450.5000         1.0979         0.8866          1.034       -78.4813      -2.259277      0.9961871
      3451.0000         1.0589         0.8764         1.0657       -78.9443      -2.725685      0.9893281
      3451.5000         1.1276         0.8661         1.1285       -79.5472      -3.332008      0.9804116
      3452.0000         1.2116         0.8559         1.1912       -80.2577      -4.045914       0.969913
      3452.5000         1.2955         0.8457          1.254       -79.5171      -3.308731       0.980754
