#------------------------------------------------------------------------------
# Created by    : vladimir.rabinovich
# Created on    : 09/19/2023 17:22:17
#------------------------------------------------------------------------------
~Version Information Section
VERS.           2.0     :   CWLS log ASCII Standard - VERSION 2.0
WRAP.           NO      :   One line per depth step
~Well Information Section
#MNEM       .UNIT                                         VALUE :DESCRIPTION
#------------------------------------------------------------------------------
STRT        .FT                                             996 :START DEPTH
STOP        .FT                                            8436 :STOP DEPTH
STEP        .FT                                             0.5 :STEP      
NULL        .                                           -999.25 :NULL      
COMP        .                                    TDC ENERGY LLC :COMPANY   
WELL        .                               OCS G03738 ST00BP00 :WELL      
FLD         .                              GALVESTON BLOCK 0255 :FIELD     
LOC         .                                                   :LOCATION  
CNTY        .                             GALVESTON LARGE BLOCK :LOCATION  
STAT        .                                             TEXAS :STATE     
CTRY        .                                     UNITED STATES :COUNTRY   
SRVC        .                                                   :SERVICE COMPANY
DATE        .                             9/13/2023 11:18:53 AM :LOG DATE  
API         .                                    42706400460000 :API NUMBER
UWI         .                                    42706400460000 :UNIQUE WELL ID
XCOORD      .                                   1080542.6436948 :SURFACE X 
YCOORD      .                                  10548065.2081286 :SURFACE Y 
LAT         .                                        29.0539695 :LATITUDE  
LON         .                                       -94.7527854 :LONGITUDE 
ELEV        .FT                                              94 :ELEVATION VALUE
ELEV_TYPE   .                                                KB :ELEVATION REFERENCE TYPE
~Curve Information Section
#MNEM       .UNIT                                      API CODE :CURVE DESCRIPTION
#------------------------------------------------------------------------------
DEPT        .FT                                                 :DEPTH     
CALI        .IN                                                 :          
CILD        .MMHO                                               :          
DT          .US/F                                               :          
GR          .GAPI                                               :          
GR_NORM     .GAPI                                               :GammaRay Normalized
ILD         .OHMM                                               :          
ILM         .OHMM                                               :          
RHOB        .G/C3                                               :          
SFL         .OHMM                                               :          
SP          .MV                                                 :          
SP_NORM     .MV                                                 :SP Normalized
VSH_GR      .V/V                                                :Volume of Shale from GR
VSH_SP      .V/V                                                :Volume of Shale from SP
~A        DEPTH           CALI           CILD             DT             GR        GR_NORM            ILD            ILM           RHOB            SFL             SP        SP_NORM         VSH_GR         VSH_SP
# ...
      6943.0000        15.3696           1111       118.0234        78.0522       79.55869         0.8875         0.8782         1.9946         0.7284       -48.2314      -3.647789      0.9906103      0.9270442
      6943.5000        15.5107       1148.813       112.8945        77.5576       78.87358         0.8711         0.8562         1.9917         0.7425       -47.6968      -3.115639      0.9760336      0.9376872
      6944.0000        15.5161       1180.594       110.6074         76.959        78.0444         0.8579         0.8359         1.9972         0.7859       -47.1504      -2.571686      0.9583914      0.9485663
      6944.5000        15.4705         1197.5       110.7363         76.397       77.26592         0.8413         0.8156         1.9991         0.8325        -46.731      -2.154736      0.9418281      0.9569053
      6945.0000        15.4103       1207.453       112.0469        75.8613       76.52386         0.8199          0.811         2.0054         0.8461       -46.3228      -1.748985      0.9260397      0.9650203
      6945.5000        15.3358       1209.428       113.5625        75.2012        75.6095         0.8076         0.8079         2.0138         0.8468       -45.9771      -1.405735      0.9065852      0.9718853
      6946.0000        15.2045       1210.813       115.0879        74.5557       74.71535         0.8008         0.8047         2.0191         0.8361       -45.6963      -1.127384      0.8875607      0.9774523
      6946.5000        15.1597       1204.125       116.5742         74.043       74.00517         0.8024         0.8016         2.0221         0.8253       -45.5429     -0.9764328      0.8724505      0.9804714
      6947.0000        15.1632       1197.445       117.9375        73.6704       73.48905         0.8069         0.7996         2.0247          0.827       -45.6882      -1.124184      0.8614692      0.9775164
      6947.5000        15.1767       1187.938       119.4199        73.5236        73.2857         0.8112         0.8092         2.0277         0.8387       -46.1377       -1.57613      0.8571425      0.9684774
      6948.0000        15.1794       1175.859       118.4199        73.7104       73.54445         0.8125          0.819          2.022         0.8504       -46.7354      -2.176281      0.8626478      0.9564744
      6948.5000        15.1597       1161.766       116.5625         74.123       74.11598         0.8177         0.8367           2.02         0.8748       -47.5684       -3.01173      0.8748081      0.9397654
      6949.0000        15.1375         1145.5       114.2227        74.6909       74.90264         0.8271         0.8558         2.0143         0.9315       -48.4277      -3.873478      0.8915455      0.9225304
      6949.5000        15.1075       1135.391       111.8516        75.0973       75.46558          0.839         0.8711         2.0071         0.9929       -49.1592      -4.607426      0.9035229      0.9078515
      6950.0000         15.019       1128.178       111.8594        74.8413       75.11097         0.8474         0.8853         2.0045         1.0653       -49.0176      -4.468277      0.8959781      0.9106345
      6950.5000        14.9511        1126.67       113.0977        74.6813       74.88934         0.8474         0.8843         2.0095         1.1204        -48.166      -3.619125      0.8912625      0.9276175
      6951.0000        14.8972       1130.766        114.041        74.8158       75.07565         0.8275         0.8634         2.0069         1.0973       -47.3145      -2.770073      0.8952265      0.9445986
      6951.5000        14.8734       1138.609       114.7041        75.0715       75.42984         0.8128         0.8431         2.0081         0.9839       -46.7642      -2.222221      0.9027625      0.9555556
      6952.0000        14.8731       1153.578       115.3477        75.2506       75.67794         0.8002         0.8229         2.0126         0.9037        -46.249      -1.709473      0.9080413      0.9658105
      6952.5000        14.9294       1171.344       116.7461        74.0391       73.99977         0.7914         0.8104         2.0161         0.8519       -45.9473      -1.410221      0.8723356      0.9717956
      6953.0000        14.9687       1195.844       118.2559        72.1523       71.38618         0.7826         0.8011         2.0174         0.8376        -45.781      -1.246368      0.8167272      0.9750726
      6953.5000        14.9973       1220.344       119.7656        70.6035        69.2408         0.7744          0.794         2.0211         0.8233       -45.9456      -1.413418      0.7710809      0.9717317
      6954.0000        15.0194       1244.844       121.6191        70.7441       69.43555         0.7684         0.7882         2.0213         0.8091       -46.1104      -1.580669      0.7752246      0.9683866
      6954.5000        15.0157       1254.938       123.1953         71.334       70.25267         0.7688         0.7863         2.0083         0.7948       -46.2749      -1.747616        0.79261      0.9650477
      6955.0000        14.9818        1261.59       120.1797        71.8735       70.99998         0.7693         0.7875         2.0015         0.7999       -46.4397      -1.914867      0.8085103      0.9617026
      6955.5000        14.9622       1265.734        119.308        71.9618        71.1223         0.7689         0.7855         2.0005         0.8261       -46.6987      -2.176315      0.8111128      0.9564737
      6956.0000        14.9426       1261.719       120.1367        71.7793        70.8695         0.7677         0.7847         2.0048         0.8522       -47.0137      -2.493763       0.805734      0.9501247
      6956.5000        14.9443        1255.93       122.5313        72.3164       71.61349         0.7656         0.7864         2.0076         0.8633       -47.4009      -2.883419      0.8215637      0.9423316
      6957.0000        15.0001        1239.75       124.9883        73.6953       73.52354         0.7633         0.7881         2.0076         0.8742       -48.0322      -3.517166      0.8622029      0.9296567
      6957.5000        15.1462       1219.938       127.2012        74.9941       75.32263         0.7623         0.7949          2.012         0.8626        -48.917      -4.404415      0.9004815      0.9119117
      6958.0000        15.3167       1188.656       127.2031        76.0371        76.7674         0.7654         0.8052          2.012         0.8474       -50.0244      -5.514263      0.9312212      0.8897147
      6958.5000        15.3254       1147.813       123.6836        76.5774       77.51581         0.7881         0.8342          2.007         0.8604       -51.0469      -6.539215      0.9471449      0.8692157
      6959.0000        15.2458       1088.875       122.1826        76.6105       77.56165         0.8292         0.8933         2.0001         0.9052       -52.1133      -7.608063      0.9481203      0.8478388
      6959.5000        15.2056         1035.5       118.2578        75.8555       76.51583         0.8885         0.9323         1.9963         0.9767       -53.2969      -8.794113      0.9258687      0.8241177
      6960.0000        14.9985       981.0625       112.1563        74.8574       75.13326         0.9402         0.9523         1.9938         1.0411        -54.457      -9.956661      0.8964524      0.8008668
      6960.5000         14.963        940.375       107.7852        73.0195       72.58743         0.9507         0.9755         1.9941         1.1035       -55.5527      -11.05481      0.8422856      0.7789038
      6961.0000        14.8079       908.4687        105.209        69.6719       67.95034          0.983          1.024         1.9984         1.1877       -56.4854      -11.98996      0.7436243      0.7602008
      6961.5000        14.5923       884.8437       104.2373        66.3594       63.36188         1.0549         1.0997         1.9994         1.2761       -56.7109      -12.21791      0.6459975      0.7556419
