#------------------------------------------------------------------------------
# Created by    : vladimir.rabinovich
# Created on    : 09/19/2023 17:20:40
#------------------------------------------------------------------------------
~Version Information Section
VERS.           2.0     :   CWLS log ASCII Standard - VERSION 2.0
WRAP.           NO      :   One line per depth step
~Well Information Section
#MNEM       .UNIT                                         VALUE :DESCRIPTION
#------------------------------------------------------------------------------
STRT        .FT                                             400 :START DEPTH
STOP        .FT                                           11002 :STOP DEPTH
STEP        .FT                                             0.5 :STEP      
NULL        .                                           -999.25 :NULL      
COMP        .                            STANOLIND OIL & GAS CO :COMPANY   
WELL        .                                     ST TR 00245-L :WELL      
FLD         .                              GALVESTON BLOCK 0245 :FIELD     
LOC         .                                                   :LOCATION  
CNTY        .                             GALVESTON LARGE BLOCK :LOCATION  
STAT        .                                             TEXAS :STATE     
CTRY        .                                     UNITED STATES :COUNTRY   
SRVC        .                                                   :SERVICE COMPANY
DATE        .                             9/13/2023 11:19:42 AM :LOG DATE  
API         .                                    42706000160000 :API NUMBER
UWI         .                                    42706000160000 :UNIQUE WELL ID
XCOORD      .                                  1024804.26554262 :SURFACE X 
YCOORD      .                                  10549089.4715911 :SURFACE Y 
LAT         .                                        29.0543948 :LATITUDE  
LON         .                                       -94.9272588 :LONGITUDE 
ELEV        .FT                                              11 :ELEVATION VALUE
ELEV_TYPE   .                                                KB :ELEVATION REFERENCE TYPE
~Curve Information Section
#MNEM       .UNIT                                      API CODE :CURVE DESCRIPTION
#------------------------------------------------------------------------------
DEPT        .FT                                                 :DEPTH     
ASN         .OHMM                                               :          
LAT         .OHMM                                               :          
LN          .OHMM                                               :          
SP          .MV                                                 :          
SP_NORM     .MV                                                 :SP Normalized
VSH_SP      .V/V                                                :Volume of Shale from SP
~A        DEPTH            ASN            LAT             LN             SP        SP_NORM         VSH_SP
# ...
      7430.0000         1.0498         0.5844         0.5469       -51.9459      -0.726387              1
      7430.5000         1.0331         0.5837         0.5563       -50.6549      0.5646133              1
      7431.0000         1.0177          0.583         0.5686       -51.0383      0.1812134              1
      7431.5000         1.0034         0.5822         0.5808       -52.7372      -1.517689              1
      7432.0000          0.983         0.5815         0.5901       -54.7297      -3.510185      0.9828388
      7432.5000         0.9572         0.5957         0.5984       -56.6543      -5.434788      0.9609683
      7433.0000         0.9269         0.6184          0.607        -57.548      -6.328487      0.9508126
      7433.5000         0.9002         0.6055         0.6158        -58.717      -7.497486      0.9375286
      7434.0000         0.8816         0.5882         0.6247       -59.2263      -8.006786      0.9317411
      7434.5000         0.8671         0.6222         0.6306       -58.1888      -6.969288      0.9435308
      7435.0000         0.8535         0.6686         0.6358       -56.7245      -5.504986      0.9601706
      7435.5000         0.8405         0.7174         0.6347       -55.3761      -4.156586      0.9754934
      7436.0000          0.829         0.7648         0.6294       -53.9831      -2.763588      0.9913229
      7436.5000         0.8193          0.811         0.6176       -52.7974      -1.577888              1
      7437.0000          0.821         0.8736         0.6043       -51.6896      -0.470089              1
      7437.5000         0.8333         0.8582         0.5927       -50.4125      0.8070145              1
      7438.0000         0.8556         0.8425         0.5811       -49.1989       2.020615              1
      7438.5000         0.8706         0.8221         0.5733       -48.1982       3.021313              1
      7439.0000          0.882         0.8018         0.5745       -47.6237       3.595814              1
      7439.5000         0.8892         0.7828         0.5757       -47.3212       3.898312              1
      7440.0000         0.8867         0.7712          0.577         -48.81       2.409512              1
      7440.5000         0.8842           0.76         0.5782       -50.3434      0.8761139              1
      7441.0000         0.8816         0.7507         0.5794        -51.718     -0.4984856              1
      7441.5000         0.8813         0.7415         0.5813       -52.0679     -0.8483887              1
      7442.0000         0.8811         0.7322         0.5834       -52.3405      -1.120987              1
      7442.5000         0.8864         0.7305         0.5855       -52.0061     -0.7865868              1
      7443.0000         0.8931         0.7298         0.5875        -51.606     -0.3864861              1
      7443.5000         0.9139         0.7171          0.591       -50.5262      0.6933136              1
      7444.0000         0.9351         0.6928         0.5956       -49.8823       1.337212              1
      7444.5000         0.9596         0.6837         0.6018       -49.9001       1.319412              1
      7445.0000         0.9728         0.6981         0.6162       -50.0888       1.130714              1
      7445.5000         0.9541         0.6958         0.6305       -50.5223      0.6972122              1
      7446.0000         0.9374         0.6932         0.6449       -50.8722      0.3473129              1
      7446.5000         0.9396         0.6906         0.6592       -51.2221   -0.002586365              1
      7447.0000         0.9608          0.689         0.6734       -51.4511     -0.2315865              1
      7447.5000         0.9837         0.6909         0.6876       -51.6667     -0.4471855              1
      7448.0000         1.0015         0.6927         0.7019       -51.4606     -0.2410889              1
      7448.5000         1.0085         0.6934         0.7161       -51.1001      0.1194115              1
      7449.0000         0.9973         0.6927         0.7268       -50.7101      0.5094147              1
      7449.5000         0.9862          0.692         0.7344        -50.037       1.182514              1
      7450.0000         0.9671         0.6913         0.7419       -49.9679       1.251614              1
      7450.5000         0.9422         0.6906         0.7495       -50.2278      0.9917145              1
      7451.0000         0.9276         0.6899         0.7493       -50.7385      0.4810143              1
      7451.5000         0.9249         0.6904          0.742       -51.3987     -0.1791878              1
      7452.0000         0.9254         0.6937         0.7347       -52.1633     -0.9437866              1
      7452.5000         0.9407         0.6927         0.7274       -53.0536      -1.834087              1
      7453.0000         0.9482         0.6879         0.7119       -53.5139      -2.294388      0.9966547
      7453.5000         0.9516         0.6847         0.6962       -53.3501      -2.130589       0.998516
      7454.0000         0.9513          0.682         0.6889       -52.3076      -1.088085              1
      7454.5000         0.9517         0.6793         0.6816       -51.8289     -0.6093864              1
      7455.0000         0.9526         0.6809         0.6819       -52.7661      -1.546589              1
      7455.5000         0.9537         0.6979         0.6866       -53.5852      -2.365688      0.9958444
      7456.0000          0.956         0.7148          0.689        -54.119      -2.899487      0.9897786
      7456.5000          0.955         0.7453         0.6849       -54.6534      -3.433887      0.9837058
      7457.0000         0.9505         0.7887         0.6809       -55.1872      -3.967686      0.9776399
      7457.5000         0.9446         0.8322         0.6713        -55.697      -4.477486      0.9718468
      7458.0000         0.9312         0.8511         0.6592       -56.1746      -4.955086      0.9664195
      7458.5000         0.9215         0.8596         0.6471       -56.5707      -5.351189      0.9619183
      7459.0000         0.9139         0.8416         0.6349       -56.9547      -5.735188      0.9575547
      7459.5000         0.9071         0.8236         0.6264       -57.0751      -5.855587      0.9561865
      7460.0000         0.9007         0.8056         0.6191       -56.9633      -5.743786       0.957457
      7460.5000         0.8942         0.7848         0.6116       -56.7624      -5.542889      0.9597399
      7461.0000         0.8876          0.764         0.6038        -56.379      -5.159489      0.9640967
      7461.5000         0.8811         0.7628         0.5959       -55.7327      -4.513187       0.971441
      7462.0000         0.8743         0.7648         0.5881        -54.655      -3.435486      0.9836876
      7462.5000         0.8672         0.7701         0.5803       -53.5217      -2.302189      0.9965661
      7463.0000         0.8601         0.7836          0.573       -52.3939      -1.174389              1
      7463.5000         0.8526         0.7986         0.5657       -51.3018    -0.08228683              1
      7464.0000          0.845         0.8177         0.5584       -50.3022      0.9173126              1
      7464.5000         0.8397         0.8368         0.5516       -49.3394       1.880112              1
      7465.0000         0.8551         0.8557         0.5454       -48.5715       2.648014              1
      7465.5000         0.8704         0.8708         0.5392       -48.1759       3.043613              1
      7466.0000         0.8858         0.8836          0.533        -47.944       3.275513              1
      7466.5000         0.9113         0.8889         0.5278       -47.8521       3.367413              1
      7467.0000         0.9244         0.8941         0.5289       -47.7601       3.459412              1
      7467.5000         0.9299         0.8737         0.5299        -47.378       3.841515              1
