#------------------------------------------------------------------------------
# Created by    : vladimir.rabinovich
# Created on    : 09/19/2023 17:21:33
#------------------------------------------------------------------------------
~Version Information Section
VERS.           2.0     :   CWLS log ASCII Standard - VERSION 2.0
WRAP.           NO      :   One line per depth step
~Well Information Section
#MNEM       .UNIT                                         VALUE :DESCRIPTION
#------------------------------------------------------------------------------
STRT        .FT                                            3683 :START DEPTH
STOP        .FT                                            9328 :STOP DEPTH
STEP        .FT                                             0.5 :STEP      
NULL        .                                           -999.25 :NULL      
COMP        .                                SHELL OFFSHORE INC :COMPANY   
WELL        .                               OCS G11316 ST00BP00 :WELL      
FLD         .                                           WILDCAT :FIELD     
LOC         .                                                   :LOCATION  
CNTY        .                             GALVESTON LARGE BLOCK :LOCATION  
STAT        .                                             TEXAS :STATE     
CTRY        .                                     UNITED STATES :COUNTRY   
SRVC        .                                                   :SERVICE COMPANY
DATE        .                             9/13/2023 11:19:34 AM :LOG DATE  
API         .                                    42706402670000 :API NUMBER
UWI         .                                    42706402670000 :UNIQUE WELL ID
XCOORD      .                                  1097534.45360284 :SURFACE X 
YCOORD      .                                  10461685.9172371 :SURFACE Y 
LAT         .                                         28.817107 :LATITUDE  
LON         .                                        -94.695737 :LONGITUDE 
ELEV        .FT                                              91 :ELEVATION VALUE
ELEV_TYPE   .                                                KB :ELEVATION REFERENCE TYPE
~Curve Information Section
#MNEM       .UNIT                                      API CODE :CURVE DESCRIPTION
#------------------------------------------------------------------------------
DEPT        .FT                                                 :DEPTH     
CALI        .IN                                                 :          
CALI_1      .IN                                                 :          
CILD        .MMHO                                               :          
DRHO        .G/C3                                               :          
DT          .US/F                                               :          
GR          .GAPI                                               :          
GR_1        .GAPI                                               :          
GR_NORM     .GAPI                                               :GammaRay Normalized
ILD         .OHMM                                               :          
ILM         .OHMM                                               :          
NPHI        .%                                                  :          
RHOB        .G/C3                                               :          
SFL         .OHMM                                               :          
SP          .MV                                                 :          
SP_NORM     .MV                                                 :SP Normalized
VSH_GR      .V/V                                                :Volume of Shale from GR
VSH_SP      .V/V                                                :Volume of Shale from SP
~A        DEPTH           CALI         CALI_1           CILD           DRHO             DT             GR           GR_1        GR_NORM            ILD            ILM           NPHI           RHOB            SFL             SP        SP_NORM         VSH_GR         VSH_SP
# ...
      5738.0000        13.1383        13.1168       1704.305        -0.0425       121.1338        70.9679        70.5699       83.74493         0.6696         0.5833        43.0773         2.2159         0.7367       -28.5694      -3.489617              1      0.9418397
      5738.5000        13.1681        13.1497       1463.861        -0.0328       118.9094        71.3251        71.0835       84.54788         0.7175         0.6555        43.9462          2.227         0.7416       -28.4942      -3.367804              1      0.9438699
      5739.0000        13.2231        13.2289       1353.037        -0.0307       117.2006        69.9906        69.4712       82.02911         0.7588         0.6681        44.0975         2.2317         0.7502       -28.7565      -3.792688              1      0.9367886
      5739.5000        13.2872        13.3087       1331.975         -0.035       115.9382        68.3533        66.6636       77.64268         0.7083           0.63        43.2554         2.2223         0.7589       -28.8965      -4.019463      0.9498444       0.933009
      5740.0000        13.3363        13.3425       1556.377        -0.0439        114.168        66.1241        65.5648       75.92627         0.6416         0.5638        42.2404         2.2105         0.7396       -29.0985       -4.34667      0.9133249      0.9275555
      5740.5000        13.3643        13.3057        1661.59        -0.0485       115.1743        65.0541        65.2284       75.40109         0.6034         0.5271        41.1601         2.2023         0.7237       -29.3357      -4.730894      0.9021509      0.9211518
      5741.0000        13.2699        13.2536       1713.422        -0.0481       117.2264        65.5051        65.2355       75.41264         0.5862         0.5312        40.3173         2.2002         0.7124       -29.5365      -5.056159      0.9023965      0.9157307
      5741.5000        13.1725        13.1631       1685.408        -0.0437       118.7845        67.2535        66.2092        76.9345         0.6192         0.5361        39.3787         2.2014         0.7201       -29.3471       -4.74936      0.9347766       0.920844
      5742.0000        13.0805        13.0737       1530.787        -0.0387       118.1306           69.5        68.8711       81.09417         0.6877         0.5877        38.4215         2.2019          0.739       -28.9468      -4.100942              1      0.9316509
      5742.5000        13.0001        12.9942         1386.6        -0.0396       117.0566        71.1459        70.4613       83.57932         0.7252         0.6782        37.3954         2.2009         0.7552       -28.3781       -3.17974              1      0.9470043
      5743.0000        12.9504        12.9497       1321.246        -0.0425       115.9113        71.1039        70.5999       83.79633         0.7506         0.7089        36.3507         2.1973         0.7702       -27.8134      -2.265021              1      0.9622496
      5743.5000        12.9426        12.9557       1419.227        -0.0468       114.8003        69.8608        70.3947       83.47615         0.7489         0.6658        35.5242         2.1918         0.7609       -27.6404      -1.984789              1      0.9669202
      5744.0000        12.9674         12.995       1491.025        -0.0495       113.6586        68.4299        68.9501       81.21942         0.6766         0.5919        35.0499         2.1849          0.723       -27.6862      -2.058977              1      0.9656837
      5744.5000         12.987        13.0264       1588.365        -0.0515       114.6821        66.5122        66.5155       77.41582         0.6289         0.5437         35.345         2.1789         0.7004       -27.7711        -2.1965      0.9450174      0.9633917
      5745.0000         13.006        13.0407       1680.684        -0.0539       117.4971        64.7836        64.5352       74.32205          0.594         0.5344        35.8414         2.1721          0.717        -27.847      -2.319448      0.8791926      0.9613425
      5745.5000        13.0192        13.0351       1690.625        -0.0519       120.0671        64.1176         64.116        73.6675         0.6214         0.5424        36.5266           2.17         0.7486        -27.808      -2.256275      0.8652658      0.9623954
      5746.0000        13.0327        13.0261       1474.293        -0.0468       121.8522        65.7485        65.2092       75.37607            0.7         0.5812         37.799         2.1748         0.7736       -27.9489      -2.484509      0.9016185      0.9585915
      5746.5000        13.0481        13.0173       1290.834        -0.0383       121.0181        67.3488        67.6316       79.16153          0.764         0.6837        39.5233         2.1857         0.7968       -28.0996      -2.728617      0.9821602       0.954523
      5747.0000        13.0545        12.9988       1269.822        -0.0353       118.6018        68.6487        68.3436       80.27448         0.7765         0.7186        40.9612         2.1942         0.8047       -27.9221      -2.441097              1      0.9593151
      5747.5000        13.0529         12.993       1334.041        -0.0375       115.7722        67.9332         66.976       78.13805         0.7485         0.6878        42.0593         2.1979         0.8142       -27.4872      -1.736631      0.9603841      0.9710562
      5748.0000        13.0726        13.0202       1457.955        -0.0424       112.5563        65.2074        64.9932        75.0404         0.7198         0.6262        42.7694         2.1931         0.8177       -27.0284     -0.9934513      0.8944765      0.9834425
      5748.5000        13.1563        13.1231       1456.578         -0.051       109.8792        63.4775        63.1042       72.08927         0.7153          0.649        42.0875         2.1788         0.7697       -27.4118      -1.614496      0.8316866      0.9730917
      5749.0000        13.2892        13.2994       1387.484        -0.0598       109.5596        63.2501        63.0018       71.92972         0.7301         0.6673        40.6348         2.1659         0.7775       -27.9972      -2.562747      0.8282919      0.9572875
      5749.5000         13.388        13.4307       1354.391        -0.0651       109.8091        65.7313        66.1426       76.83768         0.7285         0.6577         39.093         2.1588         0.8292       -28.1101      -2.745625      0.9327165      0.9542395
      5750.0000        13.4783        13.4875       1404.611        -0.0551       110.4641        68.0518        67.6487        79.1914         0.6987         0.6285        37.5037         2.1695         0.8589       -28.1507      -2.811391      0.9827957      0.9531435
      5750.5000        13.4777        13.4903       1452.246        -0.0396       111.2927        67.2882        67.5034       78.96484         0.6873         0.5894        36.2438         2.1894         0.8398       -28.2854      -3.029583      0.9779752      0.9495069
      5751.0000        13.4073        13.3774       1395.064        -0.0257        112.261         64.335         64.682       74.55685         0.7143         0.6093         36.093         2.2086         0.8317       -28.3345      -3.109116      0.8841882      0.9481814
      5751.5000        13.3223        13.2526       1319.377        -0.0196       112.5962        62.2974         63.061        72.0245         0.7456         0.6531        36.5021         2.2196         0.8606       -28.2394      -2.955072      0.8303085      0.9507488
      5752.0000        13.1745        13.1452       1262.686         -0.021       111.7886         61.797        62.0474       70.44119         0.7747         0.6804        38.9313         2.2231          0.867       -27.8931      -2.394123      0.7966211       0.960098
      5752.5000        13.1112        13.1239       1204.469        -0.0244       110.6887        61.4797        61.4724        69.5432         0.8065         0.7071        40.7668         2.2168         0.8524       -28.1174      -2.757449      0.7775148      0.9540425
