#------------------------------------------------------------------------------
# Created by    : vladimir.rabinovich
# Created on    : 09/19/2023 17:20:10
#------------------------------------------------------------------------------
~Version Information Section
VERS.           2.0     :   CWLS log ASCII Standard - VERSION 2.0
WRAP.           NO      :   One line per depth step
~Well Information Section
#MNEM       .UNIT                                         VALUE :DESCRIPTION
#------------------------------------------------------------------------------
STRT        .FT                                            1664 :START DEPTH
STOP        .FT                                            5300 :STOP DEPTH
STEP        .FT                                             0.5 :STEP      
NULL        .                                           -999.25 :NULL      
COMP        .                       CORPUS CHRISTI OIL & GAS CO :COMPANY   
WELL        .                                ST TR 00597-L NE/4 :WELL      
FLD         .                                           WILDCAT :FIELD     
LOC         .                                                   :LOCATION  
CNTY        .                      MATAGORDA ISLAND LARGE BLOCK :LOCATION  
STAT        .                                             TEXAS :STATE     
CTRY        .                                     UNITED STATES :COUNTRY   
SRVC        .                                                   :SERVICE COMPANY
DATE        .                             9/13/2023 11:12:01 AM :LOG DATE  
API         .                                    42703301570000 :API NUMBER
UWI         .                                    42703301570000 :UNIQUE WELL ID
XCOORD      .                                   499677.54355151 :SURFACE X 
YCOORD      .                                  10240770.6634848 :SURFACE Y 
LAT         .                                        28.1741034 :LATITUDE  
LON         .                                       -96.5406837 :LONGITUDE 
ELEV        .FT                                              79 :ELEVATION VALUE
ELEV_TYPE   .                                                KB :ELEVATION REFERENCE TYPE
~Curve Information Section
#MNEM       .UNIT                                      API CODE :CURVE DESCRIPTION
#------------------------------------------------------------------------------
DEPT        .FT                                                 :DEPTH     
ASFL        .OHMM                                               :          
CILD        .MMHO                                               :          
ILD         .OHMM                                               :          
SP          .MV                                                 :          
SP_NORM     .MV                                                 :SP Normalized
VSH_SP      .V/V                                                :Volume of Shale from SP
~A        DEPTH           ASFL           CILD            ILD             SP        SP_NORM         VSH_SP
# ...
      3336.0000         0.8203       1460.637         0.6846       -75.2135      -5.407318      0.9103338
      3336.5000         0.8477       1508.549         0.6629       -76.9151      -7.105904      0.8656341
      3337.0000         0.8751       1532.513         0.6525       -78.1953      -8.383087       0.832024
      3337.5000         0.8883       1524.546         0.6559       -77.8971      -8.081886      0.8399504
      3338.0000         0.8763       1516.579         0.6594       -68.3759       1.442329              1
      3338.5000         0.8643       1508.613         0.6629       -63.5333       6.287945              1
      3339.0000         0.8603       1420.838         0.7038       -63.5345       6.289749              1
      3339.5000         0.8603       1349.012         0.7413       -63.8349       5.992363              1
      3340.0000         0.8801       1309.116         0.7639       -64.4347       5.395576              1
      3340.5000            0.9       1285.185         0.7781       -67.1294        2.70388              1
      3341.0000         0.9163       1237.307         0.8082       -70.4281     -0.5918045              1
      3341.5000         0.8771       1261.271         0.7929       -73.7269      -3.887589      0.9503266
      3342.0000         0.8379       1444.882         0.6921       -77.0256      -7.183273       0.863598
      3342.5000         0.7988       1540.686         0.6491       -80.3244      -10.47907      0.7768665
      3343.0000         0.7596       1644.472         0.6081       -83.6231      -13.77476       0.690138
      3343.5000         0.7205       1812.116         0.5518       -85.4221      -15.57074      0.6428753
      3344.0000         0.6882       1979.759         0.5051       -86.6202      -16.76584      0.6114253
      3344.5000         0.6922       2243.189         0.4458       -93.5965      -23.73912      0.4279179
      3345.0000         0.7042       2227.238          0.449       -96.5016      -26.64121       0.351547
      3345.5000         0.7242       2370.932         0.4218       -99.4067       -29.5433      0.2751762
      3346.0000         0.7402       2658.306         0.3762      -102.3119      -32.44549      0.1988029
      3346.5000         0.7642       2666.301         0.3751      -104.5515      -34.68208      0.1399454
      3347.0000         0.8002       2674.296         0.3739      -103.9539      -34.08147      0.1557507
      3347.5000         0.8598       2187.399         0.4572      -103.3563      -33.48086      0.1715564
      3348.0000         0.9193       2075.663         0.4818       -103.058      -33.17954      0.1794857
      3348.5000         0.9789       2003.839          0.499       -103.601      -33.71954      0.1652754
      3349.0000         1.0384       1916.051         0.5219      -104.1439      -34.25942      0.1510678
      3349.5000         1.0979       1924.048         0.5197      -104.6869      -34.79941      0.1368577
      3350.0000         1.1363       1932.045         0.5176      -105.2298       -35.3393      0.1226499
      3350.5000         1.0299        2051.79         0.4874      -105.7727      -35.87919      0.1084424
      3351.0000         0.9235        2115.66         0.4727      -106.3157      -36.41917     0.09423226
      3351.5000         0.7642       2243.387         0.4458      -106.6558      -36.75627     0.08536128
      3352.0000         0.7602       2347.167          0.426      -101.5014      -31.59886      0.2210826
      3352.5000         0.7522       2363.144         0.4232       -96.3469      -26.44135      0.3568067
      3353.0000         0.7482       2379.122         0.4203       -91.1924      -21.28384      0.4925306
      3353.5000         0.7522       2379.136         0.4203       -86.0379      -16.12633      0.6282545
      3354.0000         0.8232       2099.784         0.4762       -80.8835      -10.96891       0.763976
      3354.5000         0.9242       2011.998          0.497        -75.242      -5.324402      0.9125158
      3355.0000         0.9482       1541.083         0.6489       -81.1411      -11.22049      0.7573555
      3355.5000         1.0869       1445.318         0.6919       -87.0401      -17.11648      0.6021979
      3356.0000         1.2256       1389.461         0.7197       -94.6958      -24.76917      0.4008114
      3356.5000         1.3643       1333.605         0.7498       -95.2943      -25.36465      0.3851407
      3357.0000         1.5031       1285.731         0.7778       -95.8938      -25.96114      0.3694436
      3357.5000         1.6418       1229.875         0.8131       -97.3909      -27.45523      0.3301255
      3358.0000         1.7805        1174.02         0.8518       -98.2896      -28.35092      0.3065547
      3358.5000         1.9724       1118.164         0.8943       -98.5898      -28.64811      0.2987339
      3359.0000         2.3546       1070.291         0.9343        -94.671       -24.7263      0.4019396
      3359.5000         2.4743       1054.345         0.9485       -90.7522      -20.80449       0.505145
      3360.0000         2.4743       1046.397         0.9557       -86.8334      -16.88268      0.6083506
      3360.5000         2.4544       982.5445         1.0178       -82.9146      -12.96086      0.7115563
      3361.0000         1.7946       974.5802         1.0261       -78.9958      -9.039055      0.8147617
      3361.5000         1.5769       934.7069         1.0699        -75.077      -5.117249      0.9179671
      3362.0000         1.3591       934.7193         1.0698       -70.7702     -0.8074341              1
      3362.5000         1.0962       934.7243         1.0698       -69.2753      0.6904755              1
      3363.0000         1.0842       1054.465         0.9483       -68.3788       1.589989              1
      3363.5000         1.0512       1094.389         0.9138       -67.7815         2.1903              1
      3364.0000         1.0182       1150.277         0.8694       -67.4834       2.491409              1
      3364.5000         0.9853       1182.219         0.8459       -66.8861       3.091721              1
      3365.0000         0.9482       1206.181         0.8291       -66.2888       3.692032              1
      3365.5000         0.9002       1214.179         0.8236       -68.0852       1.898643              1
      3366.0000         0.9002       1222.177         0.8182       -69.8816      0.1052551              1
      3366.5000         0.8641       1238.156         0.8077       -70.1819     -0.1920319              1
      3367.0000         0.8601       1270.099         0.7873       -69.8839      0.1089706              1
      3367.5000         0.8521       1302.041          0.768       -68.2379       1.757988              1
      3368.0000         0.8361       1333.982         0.7496       -66.5919       3.406998              1
      3368.5000         0.7921       1373.905         0.7279       -64.2036       5.798317              1
      3369.0000         0.7481       1421.809         0.7033       -63.9044       6.100521              1
      3369.5000         0.7241       1477.695         0.6767       -63.9055       6.102436              1
      3370.0000         0.7201       1525.598         0.6555       -66.4038       3.607147              1
      3370.5000         0.7081       1597.445          0.626        -68.902       1.111954              1
      3371.0000         0.7448       1629.386         0.6137       -72.5867      -2.569733       0.985007
      3371.5000         0.7814       1637.382         0.6107       -72.3817      -2.361717      0.9904811
      3372.0000          0.818       1629.417         0.6137       -71.9895      -1.966515              1
      3372.5000         0.8547       1597.508          0.626       -69.6774      0.3486023              1
      3373.0000         0.8913       1557.618          0.642       -66.6075       3.421516              1
      3373.5000          0.928       1485.804          0.673       -66.6075       3.424522              1
