#------------------------------------------------------------------------------
# Created by    : vladimir.rabinovich
# Created on    : 09/19/2023 17:19:43
#------------------------------------------------------------------------------
~Version Information Section
VERS.           2.0     :   CWLS log ASCII Standard - VERSION 2.0
WRAP.           NO      :   One line per depth step
~Well Information Section
#MNEM       .UNIT                                         VALUE :DESCRIPTION
#------------------------------------------------------------------------------
STRT        .FT                                            1054 :START DEPTH
STOP        .FT                                           13910 :STOP DEPTH
STEP        .FT                                             0.5 :STEP      
NULL        .                                           -999.25 :NULL      
COMP        .                                            MTS LP :COMPANY   
WELL        .                                ST TR 00061-L SW/4 :WELL      
FLD         .                                           WILDCAT :FIELD     
LOC         .                                                   :LOCATION  
CNTY        .                           HIGH ISLAND LARGE BLOCK :LOCATION  
STAT        .                                             TEXAS :STATE     
CTRY        .                                     UNITED STATES :COUNTRY   
SRVC        .                                                   :SERVICE COMPANY
DATE        .                             9/13/2023 11:19:15 AM :LOG DATE  
API         .                                    42708302730000 :API NUMBER
UWI         .                                    42708302730000 :UNIQUE WELL ID
XCOORD      .                                  1164861.29381137 :SURFACE X 
YCOORD      .                                   10674042.082625 :SURFACE Y 
LAT         .                                        29.4036169 :LATITUDE  
LON         .                                       -94.4939126 :LONGITUDE 
ELEV        .FT                                              78 :ELEVATION VALUE
ELEV_TYPE   .                                                KB :ELEVATION REFERENCE TYPE
~Curve Information Section
#MNEM       .UNIT                                      API CODE :CURVE DESCRIPTION
#------------------------------------------------------------------------------
DEPT        .FT                                                 :DEPTH     
ASFL        .OHMM                                               :          
CILD        .MMHO                                               :          
ILD         .OHMM                                               :          
SP          .MV                                                 :          
SP_NORM     .MV                                                 :SP Normalized
VSH_SP      .V/V                                                :Volume of Shale from SP
~A        DEPTH           ASFL           CILD            ILD             SP        SP_NORM         VSH_SP
# ...
      2764.0000         0.6288        4064.75         0.3135      -112.0161      -16.48651      0.6480339
      2764.5000         0.6427       4527.805         0.2927      -117.6705      -22.13831      0.5195838
      2765.0000         0.7333       4951.852         0.2733       -123.325       -27.7902      0.3911318
      2765.5000          0.796        4982.32         0.2538      -126.1152       -30.5778      0.3277774
      2766.0000         0.8091       5001.273         0.2346      -128.2705      -32.73048      0.2788526
      2766.5000         0.8117       4613.109         0.2335      -129.8818       -34.3392       0.242291
      2767.0000         0.8068       4016.656         0.2323      -130.3074      -34.76218      0.2326776
      2767.5000         0.8012       3775.344         0.2312      -130.2502      -34.70238      0.2340369
      2768.0000          0.795       3349.234          0.231      -129.0139      -33.46348      0.2621937
      2768.5000         0.8004       2962.625         0.2311      -125.7694      -30.21637      0.3359916
      2769.0000         0.8141        2575.82         0.2853      -121.9514      -26.39577      0.4228235
      2769.5000         0.8233         1871.4         0.3759      -116.0139      -20.45566       0.557826
      2770.0000         0.7921       1571.557         0.4373      -111.1422      -15.58135      0.6686056
      2770.5000         0.7427       1543.131         0.4911      -106.2682      -10.70475      0.7794375
      2771.0000         0.7182       1528.906         0.5286      -101.3965      -5.830444      0.8902172
      2771.5000         0.6995       1533.352         0.5607       -96.5225     -0.9538345              1
      2772.0000         0.6875         1543.5         0.5929       -92.9277        2.64357              1
      2772.5000          0.677       1544.568         0.6141       -90.8434       4.730476              1
      2773.0000         0.6728       1534.809         0.6259       -89.4445       6.131973              1
      2773.5000         0.6882       1525.043         0.6378       -88.5614       7.017685              1
      2774.0000         0.7066       1515.434         0.6497       -87.9659       7.615791              1
      2774.5000         0.7243       1506.383         0.6602       -87.5552       8.029091              1
      2775.0000         0.7368       1497.477         0.6642       -87.3164         8.2705              1
      2775.5000         0.7384       1489.695         0.6682       -87.2922       8.297302              1
      2776.0000         0.7382        1481.91         0.6722       -87.3107        8.28141              1
      2776.5000         0.7374       1474.133         0.6762       -87.6865       7.908211              1
      2777.0000         0.7365       1466.469         0.6802       -88.1478       7.449524              1
      2777.5000         0.7357       1458.803         0.6839       -88.6796       6.920319              1
      2778.0000          0.735       1450.771          0.684       -89.2113       6.391228              1
      2778.5000         0.7352       1442.475         0.6841       -89.7439       5.861237              1
      2779.0000         0.7355       1434.963         0.6842        -90.319       5.288742              1
      2779.5000         0.7357       1433.027         0.6843       -90.8997       4.710648              1
      2780.0000         0.7417       1453.309         0.6844       -91.4963       4.116653              1
      2780.5000         0.7597       1473.578         0.6845       -92.1542       3.461357              1
      2781.0000         0.7896       1493.559         0.6827       -92.8795       2.738655              1
      2781.5000         0.8036       1507.477         0.6802       -93.6143       2.006462              1
      2782.0000         0.8128       1516.395         0.6778       -94.4232       1.200165              1
      2782.5000         0.8189       1516.791         0.6754        -94.874       0.751976              1
      2783.0000         0.8235       1511.889          0.673       -94.8978      0.7307816              1
      2783.5000         0.8165       1506.988         0.6706       -94.9218      0.7093887              1
      2784.0000         0.8014       1500.535         0.6674       -95.0736      0.5601883              1
      2784.5000         0.7825         1490.4         0.6634       -95.3857      0.2507019              1
      2785.0000         0.7586       1481.322         0.6593       -96.1937     -0.5547028              1
      2785.5000         0.7384       1473.021         0.6553       -97.0083      -1.366692      0.9905977
      2786.0000         0.7211       1477.695         0.6513       -97.8729      -2.228691      0.9684951
      2786.5000         0.7106       1484.453         0.6484       -98.6855      -3.038689       0.947726
      2787.0000          0.709       1491.209          0.646       -99.6539      -4.004478      0.9229621
      2787.5000         0.7073       1505.492         0.6436      -100.3894      -4.737373      0.9041699
      2788.0000         0.7046        1530.43         0.6412      -100.8236      -5.168968      0.8931034
      2788.5000         0.6984        1544.93         0.6388       -101.069      -5.411766      0.8868778
      2789.0000         0.6905       1559.426         0.6357      -101.1213      -5.461456      0.8856037
      2789.5000         0.6827       1570.086         0.6325      -101.1178      -5.455353      0.8857602
      2790.0000         0.6769       1573.424         0.6294      -101.1143      -5.449249      0.8859167
      2790.5000         0.6896       1550.857          0.628      -101.1107      -5.443047      0.8860757
      2791.0000         0.7946       1520.971         0.6313      -101.1595      -5.489235      0.8848914
      2791.5000         0.9012       1485.824         0.6346      -101.2267      -5.553833       0.883235
      2792.0000         1.0016       1446.836         0.6437      -101.3461      -5.670624      0.8802404
      2792.5000          1.023       1412.428         0.6542      -101.4696      -5.791519      0.8771405
      2793.0000         1.0387           1372          0.669      -101.6252      -5.944519      0.8732175
      2793.5000         1.0149       1341.695         0.6876      -101.9128      -6.229515      0.8659099
      2794.0000         0.9228       1326.285         0.7051      -102.4941      -6.808212      0.8510715
      2794.5000         0.8306       1361.854         0.7222      -103.1453      -7.456802      0.8344409
      2795.0000         0.7385       1403.582         0.7194      -103.7134      -8.022301       0.819941
      2795.5000         0.6814       1437.535         0.7091      -104.1578      -8.464088      0.8086131
      2796.0000         0.6632       1462.289         0.6989      -104.4071      -8.710785      0.8022876
      2796.5000         0.6524       1474.783         0.6887      -104.5609      -8.861977      0.7984108
      2797.0000         0.6514        1479.27         0.6807      -104.6932      -8.991676      0.7950853
      2797.5000         0.6532       1483.758         0.6749      -104.7191      -9.014969       0.794488
      2798.0000         0.6565       1487.223         0.6691       -104.745      -9.038269      0.7938905
      2798.5000         0.6599        1484.42         0.6633      -104.6824      -8.973068      0.7955623
      2799.0000         0.6658       1474.855         0.6621      -104.5277      -8.815758       0.799596
      2799.5000         0.6725       1455.324         0.6655      -104.3048      -8.590256      0.8053781
      2800.0000         0.6792       1430.092         0.6688      -103.9817      -8.264542      0.8137297
      2800.5000         0.6858       1404.859         0.6722      -103.6881      -7.968346      0.8213245
      2801.0000         0.6923       1372.762         0.6755      -103.4071      -7.684731      0.8285967
      2801.5000         0.6971       1337.973         0.6871      -103.1136      -7.388634      0.8361889
