#------------------------------------------------------------------------------
# Created by    : vladimir.rabinovich
# Created on    : 09/19/2023 17:21:52
#------------------------------------------------------------------------------
~Version Information Section
VERS.           2.0     :   CWLS log ASCII Standard - VERSION 2.0
WRAP.           NO      :   One line per depth step
~Well Information Section
#MNEM       .UNIT                                         VALUE :DESCRIPTION
#------------------------------------------------------------------------------
STRT        .FT                                            1924 :START DEPTH
STOP        .FT                                            6497 :STOP DEPTH
STEP        .FT                                             0.5 :STEP      
NULL        .                                           -999.25 :NULL      
COMP        .                                ATP OIL & GAS CORP :COMPANY   
WELL        .                               OCS G12451 ST00BP00 :WELL      
FLD         .                                           WILDCAT :FIELD     
LOC         .                                                   :LOCATION  
CNTY        .                                BRAZOS LARGE BLOCK :LOCATION  
STAT        .                                             TEXAS :STATE     
CTRY        .                                     UNITED STATES :COUNTRY   
SRVC        .                                                   :SERVICE COMPANY
DATE        .                             9/13/2023 11:09:51 AM :LOG DATE  
API         .                                    42704402900000 :API NUMBER
UWI         .                                    42704402900000 :UNIQUE WELL ID
XCOORD      .                                  861130.254262163 :SURFACE X 
YCOORD      .                                  10349158.9913488 :SURFACE Y 
LAT         .                                        28.4964901 :LATITUDE  
LON         .                                       -95.4265639 :LONGITUDE 
ELEV        .FT                                              91 :ELEVATION VALUE
ELEV_TYPE   .                                                KB :ELEVATION REFERENCE TYPE
~Curve Information Section
#MNEM       .UNIT                                      API CODE :CURVE DESCRIPTION
#------------------------------------------------------------------------------
DEPT        .FT                                                 :DEPTH     
CALI        .IN                                                 :          
DPHI        .G/C3                                               :          
DRHO        .G/C3                                               :          
GR          .GAPI                                               :          
GR_NORM     .GAPI                                               :GammaRay Normalized
ILD         .OHMM                                               :          
ILM         .OHMM                                               :          
NPHI        .%                                                  :          
SFL         .OHMM                                               :          
SP          .MV                                                 :          
SP_NORM     .MV                                                 :SP Normalized
VSH_GR      .V/V                                                :Volume of Shale from GR
VSH_SP      .V/V                                                :Volume of Shale from SP
~A        DEPTH           CALI           DPHI           DRHO             GR        GR_NORM            ILD            ILM           NPHI            SFL             SP        SP_NORM         VSH_GR         VSH_SP
# ...
      6161.0000         9.5554        18.0453         0.0712       107.4574        84.8718          0.898         0.8593        36.4037         1.1925       -43.7531      -1.892635              1      0.9848706
      6161.5000         9.5358        18.5928         0.0889       106.7601       84.16783         0.8982          0.859        36.4206         1.1628       -43.2178      -1.357334              1      0.9939435
      6162.0000         9.5268        17.8705         0.1036       102.4039       79.80495         0.9003         0.8576        35.9328         1.1237       -43.1029      -1.242435      0.9958501      0.9958909
      6162.5000         9.5234        17.4171         0.0697        99.2332       76.62758         0.9021         0.8558        35.4114         1.0907       -43.2705      -1.410034      0.9282464      0.9930503
      6163.0000         9.5202        17.2539         0.0637        98.6246       76.01231         0.9039          0.857        35.3256         1.0724       -43.4923      -1.631832      0.9151555       0.989291
      6163.5000          9.517        17.2038         0.0824        97.8311       75.21213         0.9059         0.8619        35.6135         1.0746       -43.4157      -1.555233      0.8981304      0.9905893
      6164.0000         9.5139        17.1718         0.0835        96.9397       74.31405         0.9078         0.8749        35.8552          1.072       -43.1595      -1.299034      0.8790223      0.9949316
      6164.5000         9.5208        17.1447         0.0709         96.756       74.12367         0.9094         0.8841        35.9103         1.1219       -42.8913      -1.030834      0.8749717      0.9994774
      6165.0000         9.5267        17.1436         0.0652        97.5122        74.8732         0.9099         0.8851        35.9218         1.1682       -42.7195     -0.8590355      0.8909191              1
      6165.5000         9.5325        17.1705         0.0679        98.9321       76.28642         0.9085         0.8867        35.9842         1.1882        -42.737     -0.8765335      0.9209877              1
      6166.0000         9.5515         17.022         0.0771       100.7867       78.13435         0.9098         0.8849        35.8275         1.1338       -43.0405      -1.180035      0.9603052      0.9969485
      6166.5000         9.5753        16.8355         0.0798       101.7833       79.12428         0.9118         0.8815        35.9634         1.1287       -43.7787      -1.918236      0.9813675      0.9844367
      6167.0000         9.5902        16.6258         0.0811       101.8718        79.2061         0.9123         0.8751        36.2562         1.1667       -44.1168      -2.256332      0.9831085      0.9787062
      6167.5000         9.5979        16.4445         0.0821        101.286       78.61362         0.9067         0.8665        35.9747          1.149       -44.0557      -2.195232      0.9705027      0.9797418
      6168.0000         9.6052        16.3183         0.0826       101.5833       78.90424         0.9002         0.8575        35.6636          1.087       -43.8151      -1.954636      0.9766861      0.9838197
      6168.5000         9.6164        16.1328         0.0789       103.5613       80.87557         0.8941         0.8475        35.5476         1.0819       -43.7736      -1.913136              1      0.9845231
      6169.0000         9.6335        15.9874         0.0749       104.2487        81.5563         0.8873         0.8372        35.4313         1.1005       -43.8071      -1.946632              1      0.9839554
      6169.5000         9.6748        15.9111         0.0725       104.1437       81.44462         0.8836         0.8301        35.0291         1.1145       -43.7665      -1.906033              1      0.9846435
      6170.0000         9.7095        16.0252         0.0733       103.8931       81.18734         0.8822         0.8327        34.4599         1.0794       -43.4547      -1.594234              1      0.9899282
      6170.5000         9.6957        16.5208         0.0743       103.5071       80.79467         0.8861         0.8458        34.3882         1.0498       -43.1939      -1.333435              1      0.9943486
      6171.0000         9.6855        16.6809         0.0747       102.8246       80.10549         0.8919         0.8644        35.0134         1.0482       -43.1711      -1.310635              1       0.994735
      6171.5000          9.639        16.6827         0.0724       101.5814       78.85561         0.8956         0.8777        35.3599         1.0926       -43.0629      -1.202435      0.9756514      0.9965689
      6172.0000         9.5226        16.5406         0.0648       101.8085       79.07604         0.8995         0.8802         35.396         1.1101        -42.881      -1.020535      0.9803413       0.999652
      6172.5000         9.4432        16.2475         0.0549        103.049       80.30987         0.9022         0.8803         35.258         1.0991       -42.5364     -0.6759338              1              1
      6173.0000         9.4165        15.8789         0.0497       103.8604       81.11459         0.9037         0.8795        35.1573         1.1744       -42.3563     -0.4958344              1              1
      6173.5000         9.4133        15.5674         0.0547        100.295       77.54251         0.9048          0.878        35.0437          1.257       -42.4645     -0.6040344       0.947713              1
      6174.0000         9.4393        15.4431         0.0674        98.9088       76.14964         0.9059         0.8751        35.0967         1.2599       -42.6674     -0.8069344      0.9180773              1
      6174.5000         9.4437        15.6525         0.0751       100.0371       77.27126         0.9066         0.8719        35.1937         1.1842       -42.6417     -0.7812347      0.9419418              1
      6175.0000         9.4568        16.1466         0.0714       102.3329       79.56039         0.9153          0.872        35.2358         1.1278        -42.356      -0.495533      0.9906465              1
      6175.5000          9.451        16.7703         0.0626       102.5105       79.73131         0.9234           0.88        35.5224         1.0929       -41.9587    -0.09823227      0.9942831              1
      6176.0000         9.4352        17.5725         0.0587          101.1       78.31413         0.9276         0.8896        36.3586         1.0677       -41.6523      0.2081642      0.9641305              1
      6176.5000         9.3942        18.0823         0.0608        100.856       78.06346         0.9602         0.8968        36.9078         1.0553       -41.5835      0.2769661       0.958797              1
      6177.0000         9.4003        18.0569         0.0651       100.8977       78.09848         0.9684         0.9063        36.6753          1.136       -41.8101     0.05036545      0.9595422              1
      6177.5000         9.4069         17.562         0.0669        99.8557        77.0498         0.9746         0.9155        35.8529         1.3521       -42.3802     -0.5197334      0.9372299              1
      6178.0000         9.4095        16.7897         0.0652        98.9768       76.16423         0.9921         0.9286        34.7318         1.6364       -42.5905     -0.7300339      0.9183879              1
      6178.5000         9.4111        16.0129         0.0575         99.895       77.07575         1.0094         0.9349        33.3858         1.3633       -42.5318     -0.6713333       0.937782              1
      6179.0000         9.4169        16.0202         0.0489       100.9167       78.09078         0.9957         0.9366        33.5524         1.1977       -42.6579     -0.7974358      0.9593784              1
      6179.5000         9.4297        16.3214         0.0508        99.4388        76.6062         0.9883         0.9354        34.1028         1.2011       -42.9801      -1.119633      0.9277915      0.9979723
