#------------------------------------------------------------------------------
# Created by    : vladimir.rabinovich
# Created on    : 09/19/2023 17:22:15
#------------------------------------------------------------------------------
~Version Information Section
VERS.           2.0     :   CWLS log ASCII Standard - VERSION 2.0
WRAP.           NO      :   One line per depth step
~Well Information Section
#MNEM       .UNIT                                         VALUE :DESCRIPTION
#------------------------------------------------------------------------------
STRT        .FT                                             712 :START DEPTH
STOP        .FT                                            8940 :STOP DEPTH
STEP        .FT                                             0.5 :STEP      
NULL        .                                           -999.25 :NULL      
COMP        .                                      SHELL OIL CO :COMPANY   
WELL        .                               OCS G03086 ST00BP00 :WELL      
FLD         .                                           WILDCAT :FIELD     
LOC         .                                                   :LOCATION  
CNTY        .                      MATAGORDA ISLAND LARGE BLOCK :LOCATION  
STAT        .                                             TEXAS :STATE     
CTRY        .                                     UNITED STATES :COUNTRY   
SRVC        .                                                   :SERVICE COMPANY
DATE        .                             9/13/2023 11:19:05 AM :LOG DATE  
API         .                                    42703400050000 :API NUMBER
UWI         .                                    42703400050000 :UNIQUE WELL ID
XCOORD      .                                  597395.628989583 :SURFACE X 
YCOORD      .                                    10217429.66268 :SURFACE Y 
LAT         .                                         28.117488 :LATITUDE  
LON         .                                        -96.235866 :LONGITUDE 
ELEV        .FT                                              93 :ELEVATION VALUE
ELEV_TYPE   .                                                KB :ELEVATION REFERENCE TYPE
~Curve Information Section
#MNEM       .UNIT                                      API CODE :CURVE DESCRIPTION
#------------------------------------------------------------------------------
DEPT        .FT                                                 :DEPTH     
CALI        .IN                                                 :          
DRHO        .G/C3                                               :          
DT          .US/F                                               :          
GR          .GAPI                                               :          
GR_1        .GAPI                                               :          
GR_NORM     .GAPI                                               :GammaRay Normalized
ILD         .OHMM                                               :          
NPHI        .%                                                  :          
RHOB        .G/C3                                               :          
SFL         .OHMM                                               :          
SP          .MV                                                 :          
SP_NORM     .MV                                                 :SP Normalized
VSH_GR      .V/V                                                :Volume of Shale from GR
VSH_SP      .V/V                                                :Volume of Shale from SP
~A        DEPTH           CALI           DRHO             DT             GR           GR_1        GR_NORM            ILD           NPHI           RHOB            SFL             SP        SP_NORM         VSH_GR         VSH_SP
# ...
      5104.0000        12.8968         0.0732       132.7551        87.5906        75.6643       87.72684         0.6358        38.1456         2.3205         0.7021       -58.2526      -2.425896              1      0.9675933
      5104.5000        13.0593         0.0842       132.7283        87.4568         75.136       86.54709         0.6458         39.746         2.3228         0.7023       -58.1502      -2.326935              1      0.9698424
      5105.0000        13.0754         0.0914       132.4016        87.4329        75.4684       87.28826          0.654        40.7171         2.3264         0.7003       -57.5866      -1.766777              1      0.9825733
      5105.5000        13.0263         0.0872       131.4785        87.7841        76.2417       89.01334         0.6604        40.1866         2.3195         0.7025        -57.431      -1.614613              1      0.9860315
      5106.0000        12.9649         0.0677       129.8774         88.082        76.8055       90.27091         0.6661        37.7501         2.3075         0.7146       -58.4604      -2.647453              1      0.9625579
      5106.5000        12.9462         0.0523       128.1951        88.4703        76.7794       90.21197          0.667        37.0394         2.2869         0.7337       -59.2078      -3.398293              1      0.9454933
      5107.0000        12.8982         0.0608       126.5424        88.7371        76.3063       89.15542         0.6661         37.531         2.2854         0.7365       -59.5294      -3.723331              1      0.9381061
      5107.5000        12.7087         0.0733       126.7048        88.6703        75.6885       87.77595         0.6639        36.9109         2.2956         0.7226       -59.0137      -3.211071              1      0.9497484
      5108.0000        12.4233           0.08       127.6882        88.2153        75.0708       86.39671         0.6602        35.9728         2.2992          0.716       -57.8031       -2.00391              1      0.9771839
      5108.5000        12.2957          0.082       128.6138        87.8455        74.2448       84.55257         0.6567        34.4338         2.2965         0.7139       -55.9103     -0.1145515              1              1
      5109.0000        12.2556         0.0846       128.1853        87.5477          73.72       83.38069         0.6537        33.6674         2.2954         0.7148       -53.0549       2.737411              1              1
      5109.5000        12.2956         0.0812       128.5388        87.4983        73.9576       83.91024         0.6516        34.4983         2.2845         0.7124        -54.201       1.587872              1              1
      5110.0000        12.4043         0.0834       130.4153        88.0184        75.6866       87.76821         0.6497        36.4913         2.2834         0.7058        -57.421      -1.635571              1      0.9855552
      5110.5000         12.635         0.0873       131.7219        87.9639        76.1881       88.88676         0.6477        38.6974         2.2848         0.6947       -57.6071      -1.825108              1      0.9812475
      5111.0000         12.901         0.0874       132.6387        87.8447        76.5103       89.60509         0.6459        38.8207         2.2831         0.6809       -57.1953      -1.416748              1      0.9905285
      5111.5000        13.1444         0.0885       133.0686        87.8676        75.9894       88.44189         0.6456        37.5762         2.2839         0.6815       -56.5175     -0.7423897              1              1
      5112.0000        13.3959         0.0859       132.7432        87.6128        75.7468       87.89979         0.6454        36.7438         2.2795         0.6871       -55.1016      0.6700745              1              1
      5112.5000        13.5293          0.082       132.3647        86.4657        76.5215       89.62801         0.6456        35.6716         2.2797          0.697       -55.8061    -0.03786469              1              1
      5113.0000        13.5197          0.088       132.3181        86.5872        77.4108       91.61201         0.6469        33.9273         2.2834         0.6932       -57.1624      -1.397602              1      0.9909636
      5113.5000        13.4651         0.0908       132.7036         87.421        77.4927       91.79409         0.6481        33.4909         2.2908          0.686       -57.7488      -1.987442              1      0.9775581
      5114.0000        13.3826          0.094       132.8914        87.9918        76.7242       90.07832         0.6498        33.6696         2.2927         0.6756       -58.2372      -2.479286              1      0.9663799
      5114.5000        13.3363         0.0867       132.7727        88.0728        76.3999       89.35385         0.6517        34.8751         2.2806         0.6697       -59.1135       -3.35902              1      0.9463859
      5115.0000         13.326         0.0716       132.5454        87.7115         75.799       88.01211         0.6531        35.2557         2.2785         0.6731       -59.3022      -3.551163              1       0.942019
      5115.5000        13.3182         0.0577       132.2639        87.2046        75.0544       86.34963         0.6542        36.4662         2.2813         0.6788       -59.4063      -3.658699              1       0.939575
      5116.0000        13.2964         0.0624       132.2085        87.4889        74.5769       85.28329         0.6537        36.8543         2.2874         0.6846        -58.925       -3.18084              1      0.9504355
      5116.5000        13.2604         0.0737       132.1309        88.5482        74.2311       84.51084         0.6523        37.0483         2.2865         0.6843       -58.4459      -2.705181              1      0.9612459
      5117.0000        13.2167          0.071       132.0437        89.5988        74.3638       84.80633         0.6517        36.8618          2.279         0.6876       -58.1016      -2.364319              1      0.9689928
      5117.5000        13.1009         0.0674       132.5867        89.4835        75.0883       86.42252         0.6518        36.4516         2.2689         0.6897       -58.1659       -2.43206              1      0.9674532
      5118.0000        12.9403         0.0661       133.1814          88.54        76.3564       89.25188         0.6529        36.1978         2.2578         0.6854       -58.5275      -2.797096              1      0.9591569
      5118.5000        12.8333         0.0686        133.512        88.2173        77.1212       90.95805         0.6548        37.3035         2.2553         0.6895       -58.8882      -3.161236              1       0.950881
      5119.0000        12.8554         0.0795       133.1621        88.2458        77.2035       91.14102          0.658        37.3374         2.2613         0.7005       -58.9839      -3.260376              1      0.9486278
      5119.5000        12.8063         0.0846       132.4971        87.8333        76.5475       89.67629         0.6609        37.2915         2.2701         0.6982       -59.2081      -3.488014              1      0.9434542
      5120.0000        12.7239         0.0901       132.3777        87.0966        75.5806       87.51771         0.6635        39.6861         2.2781         0.6913       -58.4121      -2.695457              1      0.9614668
      5120.5000        12.7137         0.0917        132.533        85.4108        74.5021       85.11009         0.6656        41.5694         2.2775         0.6935       -58.2446      -2.531391              1      0.9651957
      5121.0000         12.801          0.087        131.811         83.144         73.209       82.22353          0.668        41.0108         2.2786         0.7013       -59.3113      -3.601532              1      0.9408743
      5121.5000        12.9183         0.0773       129.2693        82.2638        72.3253       80.25063         0.6708        40.6106          2.273         0.7274       -61.2662      -5.559875              1      0.8963665
