#------------------------------------------------------------------------------
# Created by    : vladimir.rabinovich
# Created on    : 09/19/2023 17:19:46
#------------------------------------------------------------------------------
~Version Information Section
VERS.           2.0     :   CWLS log ASCII Standard - VERSION 2.0
WRAP.           NO      :   One line per depth step
~Well Information Section
#MNEM       .UNIT                                         VALUE :DESCRIPTION
#------------------------------------------------------------------------------
STRT        .FT                                            3460 :START DEPTH
STOP        .FT                                           13634 :STOP DEPTH
STEP        .FT                                             0.5 :STEP      
NULL        .                                           -999.25 :NULL      
COMP        .                                SHELL OFFSHORE INC :COMPANY   
WELL        .                               OCS G06107 ST00BP00 :WELL      
FLD         .                                           WILDCAT :FIELD     
LOC         .                                                   :LOCATION  
CNTY        .                             GALVESTON LARGE BLOCK :LOCATION  
STAT        .                                             TEXAS :STATE     
CTRY        .                                     UNITED STATES :COUNTRY   
SRVC        .                                                   :SERVICE COMPANY
DATE        .                             9/13/2023 11:19:27 AM :LOG DATE  
API         .                                    42706401270000 :API NUMBER
UWI         .                                    42706401270000 :UNIQUE WELL ID
XCOORD      .                                  941908.785460496 :SURFACE X 
YCOORD      .                                  10441108.8632451 :SURFACE Y 
LAT         .                                         28.753553 :LATITUDE  
LON         .                                        -95.180411 :LONGITUDE 
ELEV        .FT                                              90 :ELEVATION VALUE
ELEV_TYPE   .                                                KB :ELEVATION REFERENCE TYPE
~Curve Information Section
#MNEM       .UNIT                                      API CODE :CURVE DESCRIPTION
#------------------------------------------------------------------------------
DEPT        .FT                                                 :DEPTH     
ASFL        .OHMM                                               :          
CALI        .IN                                                 :          
CILD        .MMHO                                               :          
DT          .US/F                                               :          
GR          .GAPI                                               :          
GR_1        .GAPI                                               :          
GR_NORM     .GAPI                                               :GammaRay Normalized
ILD         .OHMM                                               :          
ILM         .OHMM                                               :          
RHOB        .G/C3                                               :          
SP          .MV                                                 :          
VSH_GR      .V/V                                                :Volume of Shale from GR
~A        DEPTH           ASFL           CALI           CILD             DT             GR           GR_1        GR_NORM            ILD            ILM           RHOB             SP         VSH_GR
# ...
     10922.0000        -999.25         9.4822       2882.238       126.3904        -999.25        51.5605       79.10331         0.3356         0.4108         2.3438        -999.25      0.9809215
     10922.5000        -999.25         9.4928       2834.074       127.2175        -999.25        51.1304       78.47417         0.3442         0.4137         2.3405        -999.25      0.9675354
     10923.0000        -999.25          9.506        2750.52       128.3938        -999.25          50.86       78.07848          0.354         0.4188         2.3369        -999.25      0.9591167
     10923.5000        -999.25         9.5221       2610.988       128.9927        -999.25        51.2925       78.71046         0.3661         0.4263         2.3426        -999.25      0.9725629
     10924.0000        -999.25         9.5319       2496.402       128.3076        -999.25        52.1741       79.99899         0.3855         0.4347         2.3556        -999.25      0.9999784
     10924.5000        -999.25         9.5405       2391.148       126.3657        -999.25         52.385       80.30696          0.408         0.4482         2.3609        -999.25              1
     10925.0000        -999.25         9.5504       2271.492       125.0652        -999.25        52.2034       80.04112         0.4281         0.4674          2.362        -999.25              1
     10925.5000        -999.25         9.5505       2168.672       124.1931        -999.25         51.901       79.59868         0.4466         0.4916          2.384        -999.25      0.9914612
     10926.0000        -999.25         9.5362       2100.883       122.2969        -999.25        51.4905       78.99818         0.4625         0.5138         2.4192        -999.25      0.9786846
     10926.5000        -999.25         9.5152       2079.195       113.6321        -999.25        50.6014       77.69798         0.4662         0.5304         2.4484        -999.25      0.9510208
     10927.0000        -999.25          9.482       2097.234       106.1688        -999.25        47.5821       73.28344         0.4659         0.5365         2.4476        -999.25      0.8570945
     10927.5000        -999.25         9.4507       2158.938       101.6311        -999.25        43.9801       68.01701         0.4592         0.5351         2.4146        -999.25      0.7450429
     10928.0000        -999.25         9.4281       2265.004       103.4209        -999.25        41.3669        64.1962         0.4424         0.5249         2.3744        -999.25      0.6637489
     10928.5000        -999.25         9.4098       2396.625       112.7499        -999.25         43.627       67.50008         0.4198         0.5052         2.3544        -999.25      0.7340443
     10929.0000        -999.25         9.3918       2536.152       124.5937        -999.25         47.234       72.77312          0.395         0.4922          2.342        -999.25      0.8462367
     10929.5000        -999.25         9.3841       2639.785       129.4509        -999.25        51.0932       78.41489         0.3782         0.4768         2.3392        -999.25      0.9662742
     10930.0000        -999.25         9.3787        2744.84       129.9375        -999.25        53.4567       81.86994         0.3608         0.4604         2.3379        -999.25              1
     10930.5000        -999.25         9.3956       2802.438       128.9463        -999.25        55.2451       84.48421         0.3559         0.4469         2.3422        -999.25              1
     10931.0000        -999.25         9.4191       2823.895       128.0579        -999.25        56.3524       86.10273          0.354         0.4379         2.3474        -999.25              1
     10931.5000        -999.25         9.4402       2813.566       126.5457        -999.25         56.807       86.76698         0.3536         0.4351         2.3476        -999.25              1
     10932.0000        -999.25         9.4594       2796.684       125.0449        -999.25        56.6689       86.56474          0.357         0.4352         2.3485        -999.25              1
     10932.5000        -999.25         9.4845       2787.211       123.6608        -999.25        55.7659       85.24422         0.3606         0.4356         2.3547        -999.25              1
     10933.0000        -999.25         9.5305        2795.77       122.0992        -999.25        54.8188       83.85923         0.3608         0.4375         2.3612        -999.25              1
     10933.5000        -999.25         9.5843       2820.031       123.2856        -999.25        53.7543       82.30258         0.3556         0.4378         2.3674        -999.25              1
     10934.0000        -999.25         9.6165       2860.742       125.1311        -999.25        53.4384       81.84039          0.349         0.4334         2.3705        -999.25              1
     10934.5000        -999.25         9.5781       2903.129       125.8892        -999.25        53.7114       82.23916         0.3413          0.428         2.3644        -999.25              1
     10935.0000        -999.25         9.5067       2945.516       126.2136        -999.25        54.1718       82.91191         0.3352         0.4203         2.3513        -999.25              1
     10935.5000        -999.25         9.4469       2970.332       126.7029        -999.25        53.8842        82.4911         0.3323         0.4126         2.3407        -999.25              1
     10936.0000        -999.25         9.4137       2974.477       128.5332        -999.25        52.7858        80.8849          0.332         0.4056         2.3301        -999.25              1
     10936.5000        -999.25         9.3846       2949.723       130.8628        -999.25        52.0045       79.74229         0.3336         0.4003          2.327        -999.25      0.9945169
     10937.0000        -999.25         9.3611       2896.234       132.5803        -999.25        53.6282       82.11578         0.3389         0.3962         2.3268        -999.25              1
     10937.5000        -999.25          9.353       2807.305       132.4727        -999.25        55.3056       84.56777         0.3465         0.3956         2.3339        -999.25              1
     10938.0000        -999.25         9.3471       2731.859       129.0654        -999.25        55.7344       85.19432         0.3551          0.399         2.3409        -999.25              1
     10938.5000        -999.25         9.3518        2659.66       124.1272        -999.25        53.3179       81.66108         0.3668         0.4042         2.3469        -999.25              1
     10939.0000        -999.25         9.3599       2584.828       121.9642        -999.25        50.9898       78.25706         0.3812         0.4098         2.3467        -999.25      0.9629163
     10939.5000        -999.25           9.37       2521.246       122.3413        -999.25        50.2697       77.20393          0.392         0.4157         2.3391        -999.25      0.9405092
     10940.0000        -999.25         9.3915        2465.68       123.5809        -999.25        50.9923       78.26003         0.3997         0.4185         2.3323        -999.25      0.9629794
     10940.5000        -999.25         9.3896       2432.039       123.5803        -999.25        51.9231        79.6205         0.4037         0.4198         2.3369        -999.25      0.9919255
     10941.0000        -999.25         9.3652        2418.77       119.6047        -999.25        52.6058       80.61826         0.4055         0.4191         2.3733        -999.25              1
     10941.5000        -999.25         9.3481        2414.23       116.7249        -999.25        52.3531       80.24844         0.4056         0.4154         2.3849        -999.25              1
     10942.0000        -999.25         9.3476       2414.699       113.0795        -999.25        50.6392       77.74239         0.4037         0.4134         2.3798        -999.25      0.9519658
