#------------------------------------------------------------------------------
# Created by    : vladimir.rabinovich
# Created on    : 09/19/2023 17:19:45
#------------------------------------------------------------------------------
~Version Information Section
VERS.           2.0     :   CWLS log ASCII Standard - VERSION 2.0
WRAP.           NO      :   One line per depth step
~Well Information Section
#MNEM       .UNIT                                         VALUE :DESCRIPTION
#------------------------------------------------------------------------------
STRT        .FT                                            3127 :START DEPTH
STOP        .FT                                           13892 :STOP DEPTH
STEP        .FT                                             0.5 :STEP      
NULL        .                                           -999.25 :NULL      
COMP        .                                       MONSANTO CO :COMPANY   
WELL        .                                     ST TR 00010-L :WELL      
FLD         .                                           WILDCAT :FIELD     
LOC         .                                                   :LOCATION  
CNTY        .                           HIGH ISLAND LARGE BLOCK :LOCATION  
STAT        .                                             TEXAS :STATE     
CTRY        .                                     UNITED STATES :COUNTRY   
SRVC        .                                                   :SERVICE COMPANY
DATE        .                             9/13/2023 11:19:15 AM :LOG DATE  
API         .                                    42708300750000 :API NUMBER
UWI         .                                    42708300750000 :UNIQUE WELL ID
XCOORD      .                                  1327265.43976741 :SURFACE X 
YCOORD      .                                  10725214.5969587 :SURFACE Y 
LAT         .                                        29.5491158 :LATITUDE  
LON         .                                       -93.9851741 :LONGITUDE 
ELEV        .FT                                              54 :ELEVATION VALUE
ELEV_TYPE   .                                                KB :ELEVATION REFERENCE TYPE
~Curve Information Section
#MNEM       .UNIT                                      API CODE :CURVE DESCRIPTION
#------------------------------------------------------------------------------
DEPT        .FT                                                 :DEPTH     
ASFL        .OHMM                                               :          
CILD        .MMHO                                               :          
ILD         .OHMM                                               :          
SP          .MV                                                 :          
SP_NORM     .MV                                                 :SP Normalized
VSH_SP      .V/V                                                :Volume of Shale from SP
~A        DEPTH           ASFL           CILD            ILD             SP        SP_NORM         VSH_SP
      3127.0000         0.3339        71.7451        -999.25      -129.1956      -4.667305      0.9166521
      3127.5000         0.3386        70.0518        -999.25      -128.4719      -3.943596      0.9331001
      3128.0000         0.3445        68.3584        -999.25      -127.7485      -3.231628      0.9492812
      3128.5000         0.3548        84.0063        -999.25      -127.0256      -3.838509      0.9354885
      3129.0000         0.3659       190.9614        -999.25      -125.6832       -3.82589      0.9357752
      3129.5000         0.3822       776.2217        -999.25      -124.1147      -3.587173      0.9412006
      3130.0000         0.4023       1341.219        -999.25      -122.5461      -19.52972      0.5788701
      3130.5000         0.4339       1636.033        -999.25       -47.3137     -0.9538078              1
      3131.0000          0.628        1930.65        -999.25       -45.3137      0.2566376              1
      3131.5000         0.7417       2225.266        -999.25       -44.1629      0.6178856              1
      3132.0000         0.7724       2520.082        -999.25       -43.0243       1.001217              1
      3132.5000         0.7963       2814.699        -999.25       -42.5529       1.480961              1
      3133.0000         0.8148       3150.836        -999.25       -42.0814       1.960804              1
      3133.5000         0.8308       3498.496        -999.25       -42.6142       1.436348              1
      3134.0000         0.8397       2992.105        -999.25       -43.6872      0.3716927              1
      3134.5000         0.8376       2379.332        -999.25       -46.2969      -2.229664      0.9720531
      3135.0000         0.8355       2300.211        -999.25       -49.5573       -5.48172      0.8981428
      3135.5000         0.8334       2240.391        -999.25       -51.4214      -7.337475      0.8559665
      3136.0000         0.8313       2213.051        -999.25        -49.806       -5.71373      0.8928698
      3136.5000         0.8291       2185.707        -999.25       -48.1905      -4.089886      0.9297753
      3137.0000         0.8287       2158.367        -999.25       -46.5538      -2.444843      0.9671627
      3137.5000         0.8294       2131.027        -999.25       -49.8815      -5.764198      0.8917227
      3138.0000         0.8327       2108.766        -999.25       -54.3392      -10.21355       0.790601
      3138.5000         0.8427       2086.859        -999.25       -57.0046      -12.87061      0.7302133
      3139.0000         0.8527       2064.957        -999.25       -54.9333      -10.79097       0.777478
      3139.5000         0.8627        2045.59        -999.25       -54.6505      -10.49982      0.7840949
      3140.0000         0.8791        2061.66        -999.25       -59.1009      -14.94188      0.6831391
      3140.5000         0.8959       2085.906        -999.25       -64.8241      -20.65673      0.5532561
      3141.0000         0.9263       2180.023        -999.25       -68.2972      -24.12149      0.4745115
      3141.5000         0.9682        2274.09        -999.25       -70.6698      -26.48574      0.4207785
      3142.0000         1.0622       2363.586        -999.25       -73.0699       -28.8775      0.3664204
      3142.5000         1.1254       2440.914        -999.25       -75.4913      -31.29056      0.3115782
      3143.0000         1.1499       2515.242        -999.25        -78.072      -33.86291      0.2531157
      3143.5000          1.165       2581.023        -999.25       -80.8756      -36.65817       0.189587
      3144.0000         1.1794       2636.438        -999.25       -83.5834      -39.35762      0.1282358
      3144.5000         1.1814       2661.977        -999.25       -86.3796      -42.14548     0.06487543
      3145.0000         1.1505       2687.531        -999.25       -89.7892      -45.54674              0
      3145.5000         1.1241        2713.07        -999.25       -90.2872       -46.0364              0
      3146.0000         1.1062       2738.625        -999.25       -90.7855      -46.52635              0
      3146.5000         1.0885       2764.164        -999.25       -90.6169       -46.3494              0
      3147.0000         1.0681       2789.719        -999.25       -90.1537      -45.87786              0
      3147.5000         1.0468       2772.012        -999.25       -89.6902      -45.40602              0
      3148.0000         1.0373       2701.809        -999.25        -87.168      -42.87547     0.04828471
      3148.5000         1.0623       2621.598        -999.25       -84.5283      -40.22743      0.1084675
      3149.0000         1.1059       2541.391        -999.25       -82.8052      -38.49598      0.1478186
      3149.5000         1.1619        2415.09        -999.25       -81.0829      -36.76534      0.1871513
      3150.0000         1.2092       2282.035        -999.25       -79.8257       -35.4998      0.2159137
      3150.5000         1.2409       2212.652        -999.25       -82.7266      -38.39235      0.1501738
      3151.0000           1.26       2149.652        -999.25       -83.2025      -38.85991      0.1395475
      3151.5000          1.267       2110.938        -999.25       -83.6787      -39.32777      0.1289143
      3152.0000         1.2674       2098.906        -999.25       -84.1547      -39.79542      0.1182859
      3152.5000         1.2511       2116.051        -999.25       -84.6309      -40.26328      0.1076528
      3153.0000         1.2042       2133.199        -999.25       -85.3545      -40.97853     0.09139694
      3153.5000         1.1621       2194.375        -999.25       -86.2576      -41.87329     0.07106166
      3154.0000         1.1103       2294.152        -999.25       -87.9224      -43.52975     0.03341484
      3154.5000         1.0536       2521.473        -999.25       -90.0573       -45.6563              0
      3155.0000          0.994       2703.051        -999.25       -92.5283      -48.11895              0
      3155.5000         0.9357       2833.227        -999.25       -98.3446      -53.92691              0
      3156.0000          0.873       2914.082        -999.25      -100.5366      -56.11057              0
      3156.5000          0.851       2994.887        -999.25      -100.0383      -55.60392              0
      3157.0000         0.8471       3075.742        -999.25       -96.7429      -52.30018              0
      3157.5000         0.8527       3156.598        -999.25       -93.4493      -48.99824              0
      3158.0000         0.8582       3237.453        -999.25       -88.5496      -44.09019     0.02067748
      3158.5000         0.8669        3119.25        -999.25       -69.7332      -25.26545      0.4485125
      3159.0000         0.8846       2929.727        -999.25       -67.5706      -23.09451      0.4978521
      3159.5000         0.9022       2740.199        -999.25       -65.5493      -21.06486      0.5439804
      3160.0000         0.9198       2550.777        -999.25       -66.0771      -21.58432      0.5321745
      3160.5000         0.9491        2361.25        -999.25       -68.1453      -23.64417      0.4853597
      3161.0000         0.9834       2171.828        -999.25       -70.8475      -26.33803      0.4241357
      3161.5000         1.0244        2028.84        -999.25       -73.7856      -29.26778      0.3575504
      3162.0000         1.0728       1925.336        -999.25       -76.8047      -32.27854       0.289124
      3162.5000         1.1285       1835.641        -999.25       -79.9858       -35.4513       0.217016
      3163.0000         1.2591        1766.17        -999.25       -83.6497      -39.10685      0.1339352
      3163.5000         1.3069       1788.482        -999.25       -87.6433      -43.09211     0.04336114
      3164.0000         1.3245       1859.928        -999.25       -90.1332      -45.57367              0
      3164.5000         1.3259       1943.018        -999.25       -91.0363      -46.46842              0
