#------------------------------------------------------------------------------
# Created by    : vladimir.rabinovich
# Created on    : 09/19/2023 17:22:43
#------------------------------------------------------------------------------
~Version Information Section
VERS.           2.0     :   CWLS log ASCII Standard - VERSION 2.0
WRAP.           NO      :   One line per depth step
~Well Information Section
#MNEM       .UNIT                                         VALUE :DESCRIPTION
#------------------------------------------------------------------------------
STRT        .FT                                            3600 :START DEPTH
STOP        .FT                                            7940 :STOP DEPTH
STEP        .FT                                             0.5 :STEP      
NULL        .                                           -999.25 :NULL      
COMP        .                          SEAGULL ENERGY E & P INC :COMPANY   
WELL        .                               OCS G09015 ST00BP00 :WELL      
FLD         .                                 BRAZOS BLOCK 0431 :FIELD     
LOC         .                                                   :LOCATION  
CNTY        .                                BRAZOS LARGE BLOCK :LOCATION  
STAT        .                                             TEXAS :STATE     
CTRY        .                                     UNITED STATES :COUNTRY   
SRVC        .                                                   :SERVICE COMPANY
DATE        .                             9/13/2023 11:09:51 AM :LOG DATE  
API         .                                    42704402370000 :API NUMBER
UWI         .                                    42704402370000 :UNIQUE WELL ID
XCOORD      .                                  876086.487249857 :SURFACE X 
YCOORD      .                                  10366258.6106956 :SURFACE Y 
LAT         .                                        28.5443209 :LATITUDE  
LON         .                                       -95.3810825 :LONGITUDE 
ELEV        .FT                                              90 :ELEVATION VALUE
ELEV_TYPE   .                                                KB :ELEVATION REFERENCE TYPE
~Curve Information Section
#MNEM       .UNIT                                      API CODE :CURVE DESCRIPTION
#------------------------------------------------------------------------------
DEPT        .FT                                                 :DEPTH     
DCAL        .IN                                                 :          
DPHI        .%                                                  :          
GR          .GAPI                                               :          
GR_NORM     .GAPI                                               :GammaRay Normalized
ILD         .OHMM                                               :          
ILM         .OHMM                                               :          
NPHI        .%                                                  :          
SGRD        .OHMM                                               :          
SP          .MV                                                 :          
SP_NORM     .MV                                                 :SP Normalized
VSH_GR      .V/V                                                :Volume of Shale from GR
VSH_SP      .V/V                                                :Volume of Shale from SP
~A        DEPTH           DCAL           DPHI             GR        GR_NORM            ILD            ILM           NPHI           SGRD             SP        SP_NORM         VSH_GR         VSH_SP
# ...
      6203.5000         0.5749        17.6153        43.7417        39.5616           0.51         0.5964        24.7741         1.5692         -72.65       -23.4919      0.1396085     0.02309556
      6204.0000          0.542        19.9121        41.7044       37.10875         0.4984         0.5659        26.5123         1.4995       -72.6892      -23.55202      0.0874202     0.02036268
      6204.5000         0.5344        26.9704        40.1113        35.1907         0.4662         0.5108        30.0975         1.1838       -72.7216      -23.60535     0.04661073     0.01793879
      6205.0000         0.5269        31.3022        38.6888       33.47805         0.4252         0.4519        36.1497         0.8766       -72.7344      -23.63906     0.01017136     0.01640615
      6205.5000         0.5193        32.7824        38.5612       33.32442         0.3759         0.3954        38.7274         0.6814       -72.7449       -23.6705    0.006902654     0.01497737
      6206.0000         0.4912        33.4961        40.7418        35.9498         0.3231         0.3491        38.8387         0.6424       -72.7773      -23.72382     0.06276175     0.01255382
      6206.5000         0.5081        33.8581        42.0848       37.56675         0.2773         0.3251        37.0324         0.6149       -72.8098      -23.77724      0.0971648     0.01012542
      6207.0000         0.5406        33.3727        44.2184       40.13554         0.2704         0.3192        34.7496          0.595       -72.8423      -23.83067      0.1518199    0.007697019
      6207.5000         0.5737        31.3759        44.8776        40.9292         0.2693         0.3288        31.8981         0.6275       -72.8754      -23.88469      0.1687063    0.005241394
      6208.0000          0.594        27.9428        43.6335       39.43133         0.2728         0.3396        29.7475         0.7244       -72.9036      -23.93382      0.1368368    0.003008235
      6208.5000         0.5936        26.7686        42.1863       37.68894         0.2783         0.3465        29.2024         0.8243       -72.9041      -23.95524     0.09976472    0.002034621
      6209.0000         0.5761        27.3741        41.1553       36.44765         0.2834         0.3426        29.6401          0.828       -72.9843      -24.05636     0.07335427              0
      6209.5000         0.5501        30.0591        40.4395       35.58585         0.2847          0.332        31.7732         0.7762       -73.0299      -24.12289       0.055018              0
      6210.0000         0.5369        32.4492         40.412       35.55274         0.2761         0.3211        35.7781         0.6791       -72.8892      -24.00311     0.05431358              0
      6210.5000         0.5762        33.9771        40.7997       36.01952         0.2677         0.3116        36.8182         0.6251       -72.7067      -23.84154      0.0642451    0.007202669
      6211.0000         0.6307        34.3139        40.2943       35.41103         0.2587         0.2988        36.7042         0.6139       -72.4438      -23.59956     0.05129851     0.01820165
      6211.5000          0.697        34.6487         40.067       35.13737         0.2515          0.291        36.5902         0.6061       -71.7883      -22.96499     0.04547598     0.04704597
      6212.0000         0.7067        34.8397        41.0569       36.32918         0.2656         0.3025         36.817         0.5982       -70.3411      -21.53872     0.07083357      0.1118766
      6212.5000         0.6734        33.9342        46.1672       42.48183         0.2979         0.3196        37.7197          0.593       -67.5378      -18.75634      0.2017412      0.2383482
      6213.0000         0.6315        32.3691        56.7081       55.17279         0.3235         0.3472        39.7158         0.5914       -63.5544      -14.79386      0.4717615      0.4184608
      6213.5000         0.6463        30.2256        61.6476        61.1198         0.3512         0.3755        42.1796         0.6144       -58.3283      -9.588688      0.5982937      0.6550596
      6214.0000         0.6992        27.0698        67.1655       67.76321         0.4413         0.4302        43.7367         0.6864       -54.5168      -5.798111      0.7396427      0.8273586
      6214.5000         0.8163        24.6043        71.8107        73.3559         0.5176         0.5113        43.9546          0.753       -53.9456      -5.247833      0.8586363      0.8523712
      6215.0000         0.8647        24.2209        72.2845       73.92635         0.5882         0.5894        42.7723         0.8038       -53.3978      -4.720959      0.8707733      0.8763201
      6215.5000         0.9206         24.654        72.7167       74.44669         0.6607         0.6733        41.8304         0.8324       -51.9167      -3.260784      0.8818445      0.9426916
      6216.0000         1.0356        24.6388        73.5524       75.45285         0.7725         0.7554        41.5947         0.8542       -49.6033     -0.9683075      0.9032521              1
      6216.5000         1.1737         22.581        74.4004       76.47382         0.7971          0.791        42.0418         0.8664       -48.2961      0.3179665       0.924975              1
      6217.0000         1.1702        21.4284        75.3135       77.57317         0.8115         0.8024        43.3522         0.8746        -48.315      0.2781448      0.9483654              1
      6217.5000         1.0729         21.104          76.14       78.56825         0.7953         0.8145        44.0903          0.864        -49.361      -0.788784      0.9695373              1
      6218.0000         0.9634         22.541          75.63       77.95422         0.7356         0.8235        44.3715         0.8535       -50.9775      -2.426208      0.9564728      0.9842145
      6218.5000          0.849        24.1678         73.241       75.07793         0.6737         0.8013        44.1941         0.8417       -54.3683      -5.837933      0.8952752      0.8578544
      6219.0000         0.7372        25.1033        68.1399       68.93636          0.624         0.7587        42.6537         0.8285        -57.802      -9.292553      0.7646033      0.7299054
      6219.5000         0.6597        25.2444        62.8929       62.61911         0.5924         0.7194        39.5075         0.8358       -60.4281      -11.93958      0.6301939      0.6318673
      6220.0000         0.6407        25.6143        59.0163        57.9518         0.5716         0.6651        38.4848         0.8633       -60.1246      -11.65701      0.5308893      0.6423331
      6220.5000          0.676        26.0553        60.8504          60.16         0.5621         0.6388        39.0429         0.8797        -57.901       -9.45433      0.5778723      0.7239137
      6221.0000         0.7692        26.1573        65.5555       65.82481         0.5585         0.6222        40.6593         0.8636       -53.3939      -4.968155      0.6984001      0.8900684
      6221.5000         0.8546        25.8891        70.8285       72.17336          0.559         0.6184        42.2341         0.8255       -50.6167       -2.21188      0.8334756      0.9921526
      6222.0000         0.9216        24.9311         77.326       79.99616         0.5586         0.6348        43.7952         0.8117          -49.6      -1.216103      0.9999183              1
      6222.5000         0.9009        23.9948        80.3663        83.6566          0.553         0.6491        44.2901         0.8225       -49.9302      -1.567226              1              1
      6223.0000         0.8386        23.7087        77.7168       80.46667         0.5456         0.6505         44.321          0.833       -51.7474       -3.40535              1        0.94795
      6223.5000         0.8031        24.3849        74.2805       76.32948         0.5409         0.6369        43.9518         0.8361       -54.4673      -6.146179      0.9219037      0.8464378
