#------------------------------------------------------------------------------
# Created by    : vladimir.rabinovich
# Created on    : 09/19/2023 17:20:28
#------------------------------------------------------------------------------
~Version Information Section
VERS.           2.0     :   CWLS log ASCII Standard - VERSION 2.0
WRAP.           NO      :   One line per depth step
~Well Information Section
#MNEM       .UNIT                                         VALUE :DESCRIPTION
#------------------------------------------------------------------------------
STRT        .FT                                            2653 :START DEPTH
STOP        .FT                                           10423 :STOP DEPTH
STEP        .FT                                             0.5 :STEP      
NULL        .                                           -999.25 :NULL      
COMP        .                                       MONSANTO CO :COMPANY   
WELL        .                                     ST TR 00150-L :WELL      
FLD         .                                           WILDCAT :FIELD     
LOC         .                                                   :LOCATION  
CNTY        .                             GALVESTON LARGE BLOCK :LOCATION  
STAT        .                                             TEXAS :STATE     
CTRY        .                                     UNITED STATES :COUNTRY   
SRVC        .                                                   :SERVICE COMPANY
DATE        .                             9/13/2023 11:19:24 AM :LOG DATE  
API         .                                    42706300340000 :API NUMBER
UWI         .                                    42706300340000 :UNIQUE WELL ID
XCOORD      .                                  1113316.22146511 :SURFACE X 
YCOORD      .                                  10612518.3672968 :SURFACE Y 
LAT         .                                         29.232517 :LATITUDE  
LON         .                                       -94.6530532 :LONGITUDE 
ELEV        .FT                                              81 :ELEVATION VALUE
ELEV_TYPE   .                                                KB :ELEVATION REFERENCE TYPE
~Curve Information Section
#MNEM       .UNIT                                      API CODE :CURVE DESCRIPTION
#------------------------------------------------------------------------------
DEPT        .FT                                                 :DEPTH     
ASN         .OHMM                                               :          
CILD        .MMHO                                               :          
ILD         .OHMM                                               :          
SP          .MV                                                 :          
SP_NORM     .MV                                                 :SP Normalized
VSH_SP      .V/V                                                :Volume of Shale from SP
~A        DEPTH            ASN           CILD            ILD             SP        SP_NORM         VSH_SP
# ...
      6757.0000         0.8258       1517.486         0.6742       -49.0294      0.6955261              1
      6757.5000          0.815       1546.738         0.6673       -48.9401      0.7832222              1
      6758.0000         0.8051        1594.15         0.6549        -48.851      0.8707161              1
      6758.5000         0.7951       1641.514         0.6426       -48.7627      0.9574165              1
      6759.0000         0.7851        1660.68         0.6305       -48.6807       1.037811              1
      6759.5000         0.7751       1650.791          0.619       -48.5987       1.118206              1
      6760.0000          0.779       1640.912         0.6074       -48.5167       1.198601              1
      6760.5000         0.8011       1606.273         0.6264       -48.7961      0.9175987              1
      6761.0000         0.8231       1568.188         0.6458       -49.1929      0.5191917              1
      6761.5000         0.8452       1530.102         0.6632       -49.5897      0.1207886              1
      6762.0000         0.8896       1492.014         0.6806       -50.4398     -0.7309151              1
      6762.5000         0.9314       1458.246         0.6977       -51.4154      -1.708122       0.983532
      6763.0000         0.9585        1441.73         0.6959       -53.0394      -3.333721      0.9457274
      6763.5000         0.9839       1425.191         0.6941        -53.115      -3.410931      0.9439318
      6764.0000         0.9435       1408.676         0.6848       -52.7469       -3.04443      0.9524551
      6764.5000         0.9092        1410.32         0.6739       -52.3732      -2.672337      0.9611084
      6765.0000          0.875       1470.615         0.6629       -51.8337      -2.134441      0.9736176
      6765.5000         0.8445       1546.789          0.652       -51.2936      -1.595943      0.9861408
      6766.0000         0.8214       1626.396         0.6411        -51.511      -1.814953      0.9810476
      6766.5000         0.7983       1709.049         0.6302       -51.8694      -2.174953      0.9726755
      6767.0000         0.7752        1779.43         0.6193       -52.2277      -2.534859      0.9643056
      6767.5000         0.7551       1835.824         0.6062       -52.5863      -2.895061      0.9559288
      6768.0000         0.7408       1881.568          0.588       -52.9446      -3.254967      0.9475589
      6768.5000         0.7433       1916.807         0.5697       -53.5844       -3.89637      0.9326426
      6769.0000         0.7474       1943.973         0.5515       -54.2278      -4.541374      0.9176425
      6769.5000         0.7526       1948.502         0.5332       -53.7474       -4.06258      0.9287772
      6770.0000         0.7578       1935.594          0.519       -52.8204      -3.137184      0.9502981
      6770.5000         0.7573       1922.672         0.5324       -51.7119      -2.030289      0.9760398
      6771.0000         0.7482       1909.764         0.5459       -50.6403     -0.9602928              1
      6771.5000         0.7392       1895.752         0.5593       -49.8492     -0.1707993              1
      6772.0000         0.7149       1878.695         0.5728       -49.0594      0.6174011              1
      6772.5000         0.7209       1861.641         0.5862       -48.6977      0.9774933              1
      6773.0000         0.7354       1844.586         0.5996       -48.4993       1.174294              1
      6773.5000           0.75       1766.965         0.6145       -48.8275      0.8444862              1
      6774.0000         0.7674       1654.863         0.6315       -49.3436      0.3267784              1
      6774.5000         0.7849       1550.666         0.6485       -49.8597     -0.1909218              1
      6775.0000         0.8023       1504.922         0.6655       -50.4927     -0.8255272              1
      6775.5000         0.8198        1459.18         0.6822       -51.1607      -1.495132      0.9884853
      6776.0000         0.8427       1439.916         0.6977        -51.491      -1.827038      0.9807665
      6776.5000         0.8712       1422.639         0.7027       -51.5832      -1.920837      0.9785852
      6777.0000         0.8983       1405.338         0.6943       -51.6753      -2.014545      0.9764059
      6777.5000         0.9147       1388.037         0.6858       -51.7914      -2.132252      0.9736686
      6778.0000         0.9138        1372.16         0.6773       -51.9233      -2.265755      0.9705638
      6778.5000         0.9041       1358.109         0.6689       -52.0551      -2.399158      0.9674614
      6779.0000         0.8924       1354.834         0.6604       -52.1985      -2.544163      0.9640892
      6779.5000         0.8807       1391.547         0.6527       -52.6678      -3.015068      0.9531379
      6780.0000          0.869       1428.258         0.6451       -53.1365      -3.485371      0.9422007
      6780.5000         0.8602       1464.971         0.6415       -53.7818      -4.132275      0.9271564
      6781.0000          0.865       1502.125         0.6472       -53.7598      -4.111877      0.9276308
      6781.5000         0.8699       1536.873         0.6529       -53.6188      -3.972485      0.9308724
      6782.0000         0.8747       1508.309         0.6617       -53.3709      -3.726189      0.9366003
      6782.5000         0.8796        1479.77         0.6735        -53.123      -3.479893      0.9423281
      6783.0000         0.8844       1451.203         0.6852       -52.8751      -3.233597      0.9480559
      6783.5000         0.8893       1426.197         0.6969       -52.6272      -2.987301      0.9537837
      6784.0000         0.8943       1404.773         0.7083       -52.3848      -2.746506      0.9593836
      6784.5000         0.9041       1383.375         0.7177        -52.156      -2.519306      0.9646673
      6785.0000         0.9138       1361.951          0.727       -51.9272      -2.292114      0.9699509
      6785.5000         0.9235       1340.527         0.7364       -52.0976      -2.464115      0.9659508
      6786.0000         0.9333       1320.943         0.7208       -52.4248      -2.792923      0.9583041
      6786.5000         0.9313       1311.986         0.6983       -52.7521       -3.12183      0.9506551
      6787.0000         0.9236       1379.324         0.6758       -53.0793       -3.45063      0.9430086
      6787.5000         0.9159       1475.229         0.6533       -55.7927      -6.165638      0.8798689
      6788.0000         0.9082        1634.84         0.6452       -58.8708      -9.245338      0.8082479
      6788.5000         0.9468       1725.834         0.6381       -61.6636      -12.03975      0.7432618
      6789.0000         1.0052       1773.443          0.603       -67.4016      -17.77935      0.6097826
      6789.5000          1.052       1814.867         0.5615       -76.8748      -27.25415      0.3894383
      6790.0000         1.1221        1946.25         0.5183       -80.8018      -31.18276      0.2980753
      6790.5000         1.1511         2225.5         0.4703       -84.4041      -34.78666      0.2142637
      6791.0000         1.1327           2505         0.4125       -88.3717      -38.75586      0.1219567
      6791.5000         1.1056       2824.027         0.3642       -89.8665      -40.25227     0.08715652
      6792.0000         1.0786       2980.691         0.3332       -90.3297      -40.71707     0.07634717
      6792.5000         1.0491       3137.355         0.3154       -90.7485      -41.13747     0.06657037
      6793.0000         1.0189       3276.992         0.3052       -91.1669      -41.55748      0.0568027
      6793.5000         0.9835       3310.855          0.303       -91.0229      -41.41509     0.06011422
      6794.0000         0.9445       3292.551         0.3141       -89.2267      -39.62049       0.101849
      6794.5000         0.8572       3183.785         0.3439       -84.2072       -34.6026      0.2185443
