#------------------------------------------------------------------------------
# Created by    : vladimir.rabinovich
# Created on    : 09/19/2023 17:20:54
#------------------------------------------------------------------------------
~Version Information Section
VERS.           2.0     :   CWLS log ASCII Standard - VERSION 2.0
WRAP.           NO      :   One line per depth step
~Well Information Section
#MNEM       .UNIT                                         VALUE :DESCRIPTION
#------------------------------------------------------------------------------
STRT        .FT                                            1092 :START DEPTH
STOP        .FT                                            8058 :STOP DEPTH
STEP        .FT                                             0.5 :STEP      
NULL        .                                           -999.25 :NULL      
COMP        .                                    EXXON CO U S A :COMPANY   
WELL        .                               OCS G03029 ST00BP00 :WELL      
FLD         .                                           WILDCAT :FIELD     
LOC         .                                                   :LOCATION  
CNTY        .                        MUSTANG ISLAND LARGE BLOCK :LOCATION  
STAT        .                                             TEXAS :STATE     
CTRY        .                                     UNITED STATES :COUNTRY   
SRVC        .                                                   :SERVICE COMPANY
DATE        .                             9/13/2023 11:19:13 AM :LOG DATE  
API         .                                    42702400190000 :API NUMBER
UWI         .                                    42702400190000 :UNIQUE WELL ID
XCOORD      .                                  486295.566528254 :SURFACE X 
YCOORD      .                                  10047803.1546112 :SURFACE Y 
LAT         .                                         27.643077 :LATITUDE  
LON         .                                        -96.564717 :LONGITUDE 
ELEV        .FT                                              70 :ELEVATION VALUE
ELEV_TYPE   .                                                KB :ELEVATION REFERENCE TYPE
~Curve Information Section
#MNEM       .UNIT                                      API CODE :CURVE DESCRIPTION
#------------------------------------------------------------------------------
DEPT        .FT                                                 :DEPTH     
ASN         .OHMM                                               :          
CALI        .IN                                                 :          
CIL         .MMHO                                               :          
DRHO        .G/C3                                               :          
DT          .US/F                                               :          
GR          .GAPI                                               :          
GR_NORM     .GAPI                                               :GammaRay Normalized
ILD         .OHMM                                               :          
NPHI        .%                                                  :          
RHOB        .G/C3                                               :          
SN          .OHMM                                               :          
SP          .MV                                                 :          
SP_NORM     .MV                                                 :SP Normalized
VSH_GR      .V/V                                                :Volume of Shale from GR
VSH_SP      .V/V                                                :Volume of Shale from SP
~A        DEPTH            ASN           CALI            CIL           DRHO             DT             GR        GR_NORM            ILD           NPHI           RHOB             SN             SP        SP_NORM         VSH_GR         VSH_SP
# ...
      1687.0000         0.7774        -999.25       1446.902        -999.25        -999.25        64.7363       72.75211         0.5821        -999.25        -999.25         0.7308        -98.776       -1.86216      0.8457897              1
      1687.5000         0.7741        -999.25       1437.268        -999.25        -999.25        66.4253       75.71799         0.5828        -999.25        -999.25         0.7293        -98.985      -2.080605      0.9088933      0.9972205
      1688.0000         0.7707        -999.25       1432.555        -999.25        -999.25        67.7635       78.07164         0.5852        -999.25        -999.25         0.7274       -98.7948      -1.899841      0.9589711              1
      1688.5000         0.7673        -999.25       1433.906        -999.25        -999.25        66.3075       75.54881         0.6065        -999.25        -999.25         0.7262       -98.3186       -1.43309      0.9052939              1
      1689.0000         0.7642        -999.25       1440.643        -999.25        -999.25        64.5897       72.56907         0.6098        -999.25        -999.25          0.724       -97.7515     -0.8754349      0.8418951              1
      1689.5000         0.7612        -999.25        1456.23        -999.25        -999.25        64.5604       72.53614         0.6044        -999.25        -999.25         0.7208       -97.2437     -0.3770752      0.8411945              1
      1690.0000         0.7581        -999.25       1471.816        -999.25        -999.25        64.9397       73.21632         0.5976        -999.25        -999.25         0.7177       -97.3878     -0.5306168      0.8556663              1
      1690.5000         0.7552        -999.25       1497.064        -999.25        -999.25        64.1812       71.91077         0.5834        -999.25        -999.25         0.7161       -98.0165      -1.168762      0.8278888              1
      1691.0000         0.7536        -999.25       1528.877        -999.25        -999.25        61.1854       66.70066         0.5681        -999.25        -999.25          0.715       -98.3889      -1.550606      0.7170354              1
      1691.5000          0.752        -999.25       1574.727        -999.25        -999.25        57.3115       59.95805         0.5497        -999.25        -999.25         0.7147         -97.84      -1.011147      0.5735756              1
      1692.0000         0.7504        -999.25       1629.443        -999.25        -999.25        56.3896       58.36737         0.5323        -999.25        -999.25         0.7144       -97.3275     -0.5080872      0.5397312              1
      1692.5000         0.7487        -999.25       1693.004        -999.25        -999.25        57.8129       60.86954         0.5161        -999.25        -999.25         0.7165        -98.526      -1.716034      0.5929691              1
      1693.0000         0.7476        -999.25       1757.525        -999.25        -999.25        58.9323       62.84133         0.4985        -999.25        -999.25         0.7188      -100.4456      -3.645081      0.6349218      0.9432731
      1693.5000         0.7469        -999.25       1819.811        -999.25        -999.25        58.5527       62.19707         0.4802        -999.25        -999.25         0.7181      -101.3534      -4.562317      0.6212143      0.9116442
      1694.0000         0.7462        -999.25       1862.975        -999.25        -999.25        58.1968       61.59414         0.4631        -999.25        -999.25         0.7171      -102.4869      -5.705261       0.608386      0.8722324
      1694.5000         0.7455        -999.25        1887.08        -999.25        -999.25        58.8615       62.77237         0.4539        -999.25        -999.25          0.721      -103.7565      -6.984306      0.6334547      0.8281274
      1695.0000         0.7449        -999.25       1882.213        -999.25        -999.25        59.1785       63.34382          0.455        -999.25        -999.25         0.7255      -104.4257      -7.662949      0.6456133      0.8047259
      1695.5000         0.7445        -999.25       1843.867        -999.25        -999.25        58.7677       62.64509         0.4646        -999.25        -999.25         0.7288      -104.4005      -7.647186      0.6307465      0.8052694
      1696.0000         0.7451        -999.25       1801.602        -999.25        -999.25         58.662       62.47883         0.4773        -999.25        -999.25         0.7318      -103.8361      -7.092232      0.6272092      0.8244058
      1696.5000         0.7456        -999.25       1762.246        -999.25        -999.25        58.9522       63.00351           0.49        -999.25        -999.25         0.7315      -103.4954      -6.760979      0.6383725      0.8358283
      1697.0000         0.7461        -999.25       1722.904        -999.25        -999.25        60.6465       65.97863         0.4999        -999.25        -999.25         0.7205      -103.5754      -6.850426       0.701673      0.8327439
      1697.5000         0.7467        -999.25       1703.516        -999.25        -999.25        62.0749       68.48971         0.5049        -999.25        -999.25         0.7078      -103.2526      -6.537064      0.7551002      0.8435495
      1698.0000         0.7473        -999.25       1712.355        -999.25        -999.25        64.9128       73.46065         0.5034        -999.25        -999.25         0.6935      -102.3734      -5.667305      0.8608648      0.8735412
      1698.5000         0.7508        -999.25         1741.9        -999.25        -999.25        68.3613       79.49723         0.4901        -999.25        -999.25         0.6784      -101.1827      -4.486053      0.9893028       0.914274
      1699.0000         0.7543        -999.25       1794.207        -999.25        -999.25        70.9729       84.07325         0.4733        -999.25        -999.25         0.6612       -98.2974      -1.610199              1              1
      1699.5000         0.7501        -999.25       1850.285        -999.25        -999.25        72.6278       86.97962         0.4564        -999.25        -999.25         0.6467       -95.2549       1.422867              1              1
      1700.0000         0.7338        -999.25       1907.764        -999.25        -999.25        73.2218       88.03449         0.4414        -999.25        -999.25         0.6412       -94.9109       1.757423              1              1
      1700.5000         0.7156        -999.25       1958.809        -999.25        -999.25        74.0613       89.51779         0.4302        -999.25        -999.25         0.6402       -95.8499      0.8089752              1              1
      1701.0000         0.6976        -999.25        1977.93        -999.25        -999.25        75.1017       91.35171         0.4255        -999.25        -999.25         0.6428       -95.4443       1.205132              1              1
      1701.5000         0.6864        -999.25       1965.322        -999.25        -999.25        75.1125       91.38879         0.4286        -999.25        -999.25         0.6461       -94.8182       1.821793              1              1
      1702.0000         0.6787        -999.25       1944.295        -999.25        -999.25        73.5199       88.62756         0.4338        -999.25        -999.25         0.6496       -94.2682       2.362343              1              1
      1702.5000         0.6721        -999.25         1917.5        -999.25        -999.25        72.9784       87.70072          0.442        -999.25        -999.25         0.6533       -93.8103       2.810799              1              1
      1703.0000         0.6666        -999.25        1874.99        -999.25        -999.25        72.8429       87.48246         0.4517        -999.25        -999.25         0.6573       -93.8114       2.800255              1              1
      1703.5000         0.6637        -999.25        1830.74        -999.25        -999.25        72.7368       87.31551         0.4625        -999.25        -999.25         0.6551       -94.3461       2.256119              1              1
