#------------------------------------------------------------------------------
# Created by    : vladimir.rabinovich
# Created on    : 09/19/2023 17:21:03
#------------------------------------------------------------------------------
~Version Information Section
VERS.           2.0     :   CWLS log ASCII Standard - VERSION 2.0
WRAP.           NO      :   One line per depth step
~Well Information Section
#MNEM       .UNIT                                         VALUE :DESCRIPTION
#------------------------------------------------------------------------------
STRT        .FT                                          2542.5 :START DEPTH
STOP        .FT                                            8214 :STOP DEPTH
STEP        .FT                                             0.5 :STEP      
NULL        .                                           -999.25 :NULL      
COMP        .                          SEAGULL ENERGY E & P INC :COMPANY   
WELL        .                               OCS G12505 ST00BP00 :WELL      
FLD         .                              GALVESTON BLOCK 0357 :FIELD     
LOC         .                                                   :LOCATION  
CNTY        .                             GALVESTON LARGE BLOCK :LOCATION  
STAT        .                                             TEXAS :STATE     
CTRY        .                                     UNITED STATES :COUNTRY   
SRVC        .                                                   :SERVICE COMPANY
DATE        .                             9/13/2023 11:19:54 AM :LOG DATE  
API         .                                    42706403610000 :API NUMBER
UWI         .                                    42706403610000 :UNIQUE WELL ID
XCOORD      .                                  1003713.76055251 :SURFACE X 
YCOORD      .                                  10412171.7759297 :SURFACE Y 
LAT         .                                          28.67696 :LATITUDE  
LON         .                                        -94.986081 :LONGITUDE 
ELEV        .FT                                              96 :ELEVATION VALUE
ELEV_TYPE   .                                                KB :ELEVATION REFERENCE TYPE
~Curve Information Section
#MNEM       .UNIT                                      API CODE :CURVE DESCRIPTION
#------------------------------------------------------------------------------
DEPT        .FT                                                 :DEPTH     
AT10        .OHMM                                               :          
AT20        .OHMM                                               :          
AT30        .OHMM                                               :          
AT60        .OHMM                                               :          
AT90        .OHMM                                               :          
DCAL        .IN                                                 :          
DPSS        .V/V                                                :          
DTLF        .US/FT                                              :          
DTLN        .US/FT                                              :          
GR          .GAPI                                               :          
GR_NORM     .GAPI                                               :GammaRay Normalized
NPSS        .V/V                                                :Neutron Porosity Sandstone
SP          .MV                                                 :          
SP_NORM     .MV                                                 :SP Normalized
TENS        .LB                                                 :          
VSH_GR      .V/V                                                :Volume of Shale from GR
VSH_SP      .V/V                                                :Volume of Shale from SP
~A        DEPTH           AT10           AT20           AT30           AT60           AT90           DCAL           DPSS           DTLF           DTLN             GR        GR_NORM           NPSS             SP        SP_NORM           TENS         VSH_GR         VSH_SP
# ...
      3487.5000            0.8         0.8569         0.8739            0.9         0.8912           4.04          0.294       139.6078          140.2           88.6       70.87235          0.462           -1.8      -1.275061       2387.755      0.8057947      0.9817848
      3488.0000         0.7859          0.832         0.8485         0.8739         0.8739           4.08         0.2976          140.4            141           89.8        72.3111          0.462           -1.4     -0.8732374       2387.755      0.8364063      0.9875252
      3488.5000          0.772         0.8159          0.832         0.8569         0.8569           4.28            0.3          141.4            142             92       74.94982         0.4632           -0.6     -0.0714137       2387.755      0.8925494      0.9989798
      3489.0000         0.7517         0.7929         0.8079          0.832         0.8485           4.44            0.3          142.2          142.8             94       77.34856         0.4644           -0.4      0.1304101       2387.755      0.9435863              1
      3489.5000          0.745          0.772         0.7859         0.8079         0.8239           4.36            0.3          142.6          143.2           94.6       78.06728          0.456            0.2      0.7322338       2387.755      0.9588784              1
      3490.0000          0.745         0.7652         0.7789            0.8         0.8159           4.12         0.3012          142.8          143.4           94.8       78.30602         0.4524            0.4      0.9340576       2387.755      0.9639579              1
      3490.5000          0.745         0.7789         0.7929         0.8159          0.832           3.96         0.3012          142.6          143.2           95.8       79.50477         0.4476            0.4      0.9358814       2387.755      0.9894632              1
      3491.0000          0.745         0.7859            0.8         0.8239         0.8402            3.8         0.3024          142.4            143           97.2       81.18349         0.4475            0.4       0.937705       2387.755              1              1
      3491.5000          0.745         0.7859            0.8         0.8239         0.8402           3.76         0.3085          142.2          142.8             98       82.14223         0.4487            0.4      0.9395288       2387.755              1              1
      3492.0000          0.745         0.7929         0.8079          0.832         0.8485            3.8         0.3098          141.6          142.2             98       82.14096         0.4535            0.2      0.7413526       2387.755              1              1
      3492.5000          0.745         0.7929         0.8079          0.832         0.8485           3.84         0.3024          141.2          141.8           96.8       80.69969         0.4643           -0.2      0.3431763       2387.755              1              1
      3493.0000          0.745         0.7929         0.8079          0.832         0.8485           3.84         0.3024          140.4            141             95       78.53842         0.4932           -0.4      0.1450001       2387.755      0.9689026              1
      3493.5000         0.7517            0.8         0.8159         0.8402         0.8569           3.84         0.3012            140          140.6           92.8       75.89716         0.4836             -1     -0.4531762       2387.755      0.9127056       0.993526
      3494.0000         0.7652            0.8         0.8159         0.8402         0.8569            3.8         0.3012       138.8235       139.4118           92.2       75.17589         0.4522             -1     -0.4513524       2387.755      0.8973593      0.9935521
      3494.5000         0.7859         0.8159          0.832         0.8569         0.8739            3.8         0.3012       138.0392       138.6275           92.6       75.65462         0.4437             -1     -0.4495287       2387.755      0.9075452      0.9935781
      3495.0000            0.8         0.8402         0.8569         0.8825            0.9           3.76         0.3012       138.0392       138.6275             93       76.13336         0.4231           -1.4     -0.8477049       2387.755      0.9177311      0.9878899
      3495.5000         0.8159         0.8485         0.8653         0.8912         0.9073           3.76            0.3       138.6275       139.2157           92.8        75.8921           0.41           -1.8      -1.245881       2387.755      0.9125978      0.9822017
      3496.0000         0.8159         0.8485         0.8653         0.8912         0.9073           3.72            0.3       139.2157       139.8039             92       74.93082         0.4099           -2.4      -1.844058       2387.755      0.8921452      0.9736563
      3496.5000         0.8079         0.8485         0.8653         0.8912         0.9073           3.72         0.2988       139.2157       139.8039           90.6       73.24956         0.4338           -2.4      -1.842234       2387.755      0.8563735      0.9736824
      3497.0000         0.7929         0.8402         0.8569         0.8825            0.9           3.72         0.2976       139.2157       139.8039             91       73.72829         0.4338           -2.2       -1.64041       2387.755      0.8665593      0.9765656
      3497.5000         0.7859          0.832         0.8485         0.8739         0.8912           3.84          0.294       138.8235       139.6078           93.2       76.36703         0.4313           -2.2      -1.638586       2387.755      0.9227027      0.9765916
      3498.0000         0.7789         0.8239         0.8485         0.8739         0.8912           3.92         0.2916       138.6275       139.6078           97.6       81.64576         0.4361             -2      -1.436762       2387.755              1      0.9794748
      3498.5000          0.772         0.8159         0.8485         0.8739         0.8912           3.96         0.2928       139.2157            140          100.2       84.76449          0.441           -1.8      -1.234939       2387.755              1       0.982358
      3499.0000          0.772         0.8159         0.8485         0.8739         0.8912           3.96          0.294            140          140.6           99.8       84.28323         0.4409           -1.8      -1.233115       2387.755              1      0.9823841
      3499.5000         0.7652         0.8159         0.8485         0.8739         0.8912           3.96         0.2952          140.8          141.4           97.2       81.16196         0.4409           -1.8      -1.231291       2387.755              1      0.9824101
      3500.0000         0.7652         0.8159         0.8485         0.8739         0.8912              4         0.2976          141.6          142.2           96.4        80.2007         0.4421             -2      -1.429467       2387.755              1       0.979579
      3500.5000         0.7584         0.8159         0.8402         0.8653         0.8825         4.0408         0.2988          142.2          142.8           96.6       80.43942         0.4457           -2.4      -1.827644       2386.931              1      0.9738908
      3501.0000         0.7584         0.8159          0.832         0.8569         0.8739         4.2449            0.3          143.2          143.8           97.2       81.15816         0.4518           -2.6       -2.02582       2385.559              1      0.9710597
      3501.5000         0.7517         0.8079         0.8239         0.8485         0.8653          4.449         0.3012          143.8          144.4           96.8        80.6769         0.4457             -3      -2.423996        2384.19              1      0.9653715
      3502.0000         0.7517            0.8         0.8159         0.8402         0.8569          4.449         0.3012            144          144.8           95.2       78.75562         0.4384           -3.6      -3.022172        2382.55      0.9735239      0.9568261
