#------------------------------------------------------------------------------
# Created by    : vladimir.rabinovich
# Created on    : 09/19/2023 17:19:48
#------------------------------------------------------------------------------
~Version Information Section
VERS.           2.0     :   CWLS log ASCII Standard - VERSION 2.0
WRAP.           NO      :   One line per depth step
~Well Information Section
#MNEM       .UNIT                                         VALUE :DESCRIPTION
#------------------------------------------------------------------------------
STRT        .FT                                             960 :START DEPTH
STOP        .FT                                            9172 :STOP DEPTH
STEP        .FT                                             0.5 :STEP      
NULL        .                                           -999.25 :NULL      
COMP        .                                ODECO OIL & GAS CO :COMPANY   
WELL        .                               OCS G06101 ST00BP00 :WELL      
FLD         .                                           WILDCAT :FIELD     
LOC         .                                                   :LOCATION  
CNTY        .                             GALVESTON LARGE BLOCK :LOCATION  
STAT        .                                             TEXAS :STATE     
CTRY        .                                     UNITED STATES :COUNTRY   
SRVC        .                                                   :SERVICE COMPANY
DATE        .                             9/13/2023 11:19:27 AM :LOG DATE  
API         .                                    42706401070000 :API NUMBER
UWI         .                                    42706401070000 :UNIQUE WELL ID
XCOORD      .                                  1041316.87817256 :SURFACE X 
YCOORD      .                                  10447909.9182991 :SURFACE Y 
LAT         .                                         28.776905 :LATITUDE  
LON         .                                        -94.870587 :LONGITUDE 
ELEV        .FT                                              92 :ELEVATION VALUE
ELEV_TYPE   .                                                KB :ELEVATION REFERENCE TYPE
~Curve Information Section
#MNEM       .UNIT                                      API CODE :CURVE DESCRIPTION
#------------------------------------------------------------------------------
DEPT        .FT                                                 :DEPTH     
ASFL        .OHMM                                               :          
GR          .GAPI                                               :          
GR_NORM     .GAPI                                               :GammaRay Normalized
ILD         .OHMM                                               :          
SP          .MV                                                 :          
SP_NORM     .MV                                                 :SP Normalized
VSH_GR      .V/V                                                :Volume of Shale from GR
VSH_SP      .V/V                                                :Volume of Shale from SP
~A        DEPTH           ASFL             GR        GR_NORM            ILD             SP        SP_NORM         VSH_GR         VSH_SP
# ...
      2582.5000          0.543        61.5201       66.22336         0.5437       -78.5068      -14.37945        0.70688      0.7603425
      2583.0000           0.55        61.8271       66.67275         0.5567       -78.0474      -13.73818      0.7164415      0.7710302
      2583.5000         0.5583        62.1342       67.12229         0.5696       -77.5878      -13.09663      0.7260062      0.7817228
      2584.0000         0.5723        62.4412        67.5717         0.5826       -77.1283      -12.45523      0.7355681      0.7924129
      2584.5000         0.5864        62.7483       68.02126         0.5956       -76.6688       -11.8138      0.7451331      0.8031033
      2585.0000         0.6004        63.0302       68.43377         0.6086       -76.2805      -11.27208        0.75391      0.8121321
      2585.5000         0.6145        63.3077       68.83981         0.6201       -76.1123      -11.03848      0.7625492      0.8160253
      2586.0000         0.6236        63.5852       69.24585         0.6258       -75.9438      -10.80448      0.7711883      0.8199254
      2586.5000         0.6319        63.8628       69.65205         0.6316       -75.7756      -10.57088      0.7798308      0.8238187
      2587.0000         0.6402        64.1403       70.05807         0.6374       -75.6073      -10.33714      0.7884697      0.8277143
      2587.5000         0.6485        64.4685       70.53864         0.6431       -75.5729      -10.29087      0.7986946      0.8284854
      2588.0000         0.6568         65.212       71.62957         0.6489       -75.6147      -10.35129      0.8219057      0.8274786
      2588.5000         0.6626        65.9559       72.72111         0.6547       -75.6566      -10.41184        0.84513      0.8264694
      2589.0000         0.6643        66.6998       73.81262         0.6604       -75.6985      -10.47239      0.8683537      0.8254602
      2589.5000         0.6659        67.4128       74.85873         0.6662       -75.7404      -10.53294      0.8906114       0.824451
      2590.0000         0.6667        67.8085       75.43849          0.672       -75.9254      -10.79382      0.9029467       0.820103
      2590.5000         0.6565        65.3539        71.8291         0.6777        -75.859      -10.70275      0.8261511      0.8216208
      2591.0000         0.6462         61.833       66.65255         0.6835       -75.2948      -9.914759      0.7160117       0.834754
      2591.5000          0.636        56.7994       59.25275         0.6886       -74.7308      -9.127045      0.5585691      0.8478826
      2592.0000         0.6304        56.5093       58.82457         0.6907       -74.1669       -8.33948       0.549459      0.8610086
      2592.5000         0.6249        57.4298       60.17564         0.6928       -73.6721      -7.648645      0.5782052      0.8725226
      2593.0000         0.6203        58.3506       61.52716         0.6949       -73.2733       -7.09221       0.606961      0.8817965
      2593.5000         0.6241        59.2714       62.87868          0.697       -72.8746      -6.535925      0.6357166      0.8910679
      2594.0000         0.6279        60.1921       64.23005         0.6991       -72.4758      -5.979491      0.6644691      0.9003418
      2594.5000         0.6317        61.1129       65.58157         0.7012       -72.2699      -5.693118      0.6932248      0.9051147
      2595.0000         0.6355        62.0337       66.93307         0.7033       -72.3324      -5.782509      0.7219803      0.9036248
      2595.5000         0.6393        62.7602       67.99903         0.7054       -72.3949      -5.871889      0.7446603      0.9021352
      2596.0000         0.6415        63.3906       68.92374         0.7075       -72.4574      -5.961279      0.7643348      0.9006453
      2596.5000         0.6404        64.0208       69.84815         0.7096       -72.5648      -6.113528      0.7840033      0.8981079
      2597.0000         0.6393        64.6509       70.77242         0.7117       -72.7024      -6.308064      0.8036686      0.8948656
      2597.5000         0.6382         65.281       71.69669         0.7138         -72.84      -6.502589      0.8233337      0.8916235
      2598.0000         0.6371        65.9111       72.62096         0.7136       -72.9775      -6.696986      0.8429991      0.8883836
      2598.5000         0.6361        65.8776       72.56992         0.7131       -73.1151      -6.891501      0.8419131      0.8851417
      2599.0000         0.6355         65.399        71.8647         0.7126       -73.2527      -7.086037      0.8269085      0.8818994
      2599.5000         0.6349        62.6528       67.82674          0.712       -73.3887      -7.278329      0.7409946      0.8786945
      2600.0000         0.6342        59.5493       63.26365         0.7115        -73.412       -7.31284      0.6439075      0.8781193
      2600.5000         0.6336         56.004       58.05124          0.711       -73.4353      -7.347351       0.533005      0.8775442
      2601.0000          0.633        54.0636       55.19757         0.7105       -73.4586      -7.381851      0.4722887      0.8769692
      2601.5000         0.6399        55.2531       56.94401           0.71       -73.4819      -7.416362       0.509447       0.876394
      2602.0000         0.6473        56.4432       58.69132         0.7095       -73.4773      -7.411812      0.5466238      0.8764698
      2602.5000         0.6547        57.6326        60.4376         0.7089       -73.3981      -7.302821      0.5837787      0.8782863
      2603.0000         0.6621        58.8221       62.18404         0.7084       -73.3188      -7.193692      0.6209371      0.8801051
      2603.5000         0.6689        60.0122       63.93134         0.7079       -73.2395      -7.084563      0.6581137       0.881924
      2604.0000         0.6743        61.3408       65.88223         0.7074       -73.1603      -6.975562       0.699622      0.8837407
      2604.5000         0.6797        62.6901       67.86352         0.7064       -73.0811      -6.866571       0.741777      0.8855572
      2605.0000          0.685        64.6572       70.75282         0.7019       -73.0018      -6.757442      0.8032514       0.887376
      2605.5000         0.6904        67.3204       74.66517         0.6974       -72.9309      -6.660072       0.886493      0.8889988
      2606.0000         0.6801        71.1702        80.3215         0.6929       -72.9427      -6.678487              1      0.8886919
      2606.5000         0.6686        72.4071        82.1376         0.6884       -72.9546      -6.697019              1       0.888383
      2607.0000         0.6557        71.5197       80.83157         0.6839       -72.9664      -6.715433              1      0.8880761
      2607.5000         0.6427        68.0299       75.70071         0.6794       -72.9783      -6.733986      0.9085258      0.8877669
      2608.0000         0.6298        66.7288       73.78664          0.675       -72.9921      -6.755198       0.867801      0.8874134
      2608.5000         0.6281        65.4282       71.87333         0.6705       -73.0059      -6.776401      0.8270921        0.88706
      2609.0000         0.6281        64.1278        69.9603          0.666       -73.0195      -6.797336      0.7863893      0.8867111
      2609.5000          0.628        62.8267       68.04623         0.6615       -73.0333      -6.818538      0.7456645      0.8863577
      2610.0000          0.628        61.5262       66.13305          0.657       -73.0471       -6.83974      0.7049585      0.8860043
      2610.5000         0.6292        61.2404       65.71119         0.6525       -73.0608      -6.860814      0.6959828      0.8856531
      2611.0000         0.6365        61.3575       65.88149         0.6501       -73.0789      -6.888051      0.6996062      0.8851991
      2611.5000         0.6437        61.5579       66.17422         0.6479       -73.1226      -6.951112      0.7058344      0.8841481
