#------------------------------------------------------------------------------
# Created by    : vladimir.rabinovich
# Created on    : 09/19/2023 17:22:48
#------------------------------------------------------------------------------
~Version Information Section
VERS.           2.0     :   CWLS log ASCII Standard - VERSION 2.0
WRAP.           NO      :   One line per depth step
~Well Information Section
#MNEM       .UNIT                                         VALUE :DESCRIPTION
#------------------------------------------------------------------------------
STRT        .FT                                             306 :START DEPTH
STOP        .FT                                           13139 :STOP DEPTH
STEP        .FT                                             0.5 :STEP      
NULL        .                                           -999.25 :NULL      
COMP        .                                    CITIES SERVICE :COMPANY   
WELL        .                                          SL 77337 :WELL      
FLD         .                                           WILDCAT :FIELD     
LOC         .                                                   :LOCATION  
CNTY        .                                BRAZOS LARGE BLOCK :LOCATION  
STAT        .                                             TEXAS :STATE     
CTRY        .                                     UNITED STATES :COUNTRY   
SRVC        .                                                   :SERVICE COMPANY
DATE        .                             9/13/2023 11:18:52 AM :LOG DATE  
API         .                                    42704301950000 :API NUMBER
UWI         .                                    42704301950000 :UNIQUE WELL ID
XCOORD      .                                   673900.18951543 :SURFACE X 
YCOORD      .                                   10333530.060148 :SURFACE Y 
LAT         .                                        28.4418955 :LATITUDE  
LON         .                                       -96.0077528 :LONGITUDE 
ELEV        .FT                                              82 :ELEVATION VALUE
ELEV_TYPE   .                                                KB :ELEVATION REFERENCE TYPE
~Curve Information Section
#MNEM       .UNIT                                      API CODE :CURVE DESCRIPTION
#------------------------------------------------------------------------------
DEPT        .FT                                                 :DEPTH     
DT          .US/F                                               :          
SP          .MV                                                 :          
SP_NORM     .MV                                                 :SP Normalized
VSH_SP      .V/V                                                :Volume of Shale from SP
~A        DEPTH             DT             SP        SP_NORM         VSH_SP
# ...
      9687.0000        119.178       -46.9335      -3.019527      0.9587852
      9687.5000       119.2516       -46.8224      -2.909203      0.9610367
      9688.0000       119.6238       -46.6832      -2.770782      0.9638616
      9688.5000       120.1356       -46.5361      -2.624454      0.9668479
      9689.0000       120.4847       -46.4362      -2.525333      0.9688708
      9689.5000       120.7578       -46.4661      -2.556007      0.9682447
      9690.0000         120.11       -46.2281      -2.318787       0.973086
      9690.5000       119.2223       -45.9342      -2.025665       0.979068
      9691.0000       118.3893       -45.6834      -1.775639      0.9841706
      9691.5000       117.8052       -45.4335      -1.526516      0.9892548
      9692.0000       118.1948       -45.2835      -1.377293      0.9923002
      9692.5000       118.7522       -45.3087      -1.403271        0.99177
      9693.0000       119.3732       -45.3851      -1.480446       0.990195
      9693.5000       119.9954       -45.5814      -1.677525       0.986173
      9694.0000       120.7135       -45.8729      -1.969799      0.9802082
      9694.5000        121.226       -46.0745      -2.172176       0.976078
      9695.0000       120.2197       -46.1379      -2.236355      0.9747683
      9695.5000       117.8407       -46.1803       -2.27953      0.9738871
      9696.0000        114.928       -46.1757      -2.275707      0.9739652
      9696.5000       112.3146       -46.2031      -2.303879      0.9733902
      9697.0000         110.12       -46.3758       -2.47736      0.9698498
      9697.5000       108.9243       -46.8974      -2.999733      0.9591891
      9698.0000       109.5552       -47.5304      -3.633511      0.9462549
      9698.5000       109.9346       -48.0917      -4.195591      0.9347839
      9699.0000       110.0945       -48.3732      -4.477863      0.9290232
      9699.5000        109.564       -48.2331      -4.338543      0.9318665
      9700.0000       108.9847       -48.0198      -4.126015      0.9362038
      9700.5000       108.5696       -47.6039      -3.710896      0.9446756
      9701.0000       108.4441       -47.5898      -3.697571      0.9449475
      9701.5000       108.1761       -47.9044      -4.012947      0.9385113
      9702.0000       108.8531        -48.205      -4.314327      0.9323606
      9702.5000       110.9729       -48.2461      -4.356201      0.9315061
      9703.0000       113.1575       -48.1501      -4.260979      0.9334494
      9703.5000       115.0353       -48.0361      -4.147751      0.9357602
      9704.0000       116.6561       -47.9988      -4.111229      0.9365056
      9704.5000       117.1375       -47.8719      -3.985104      0.9390795
      9705.0000       114.6537       -47.7354      -3.849384      0.9418493
      9705.5000       111.5415       -47.7285      -3.843262      0.9419742
      9706.0000       109.0652       -47.8203      -3.935837      0.9400849
      9706.5000       107.3844       -47.9064      -4.022713       0.938312
      9707.0000       107.7728       -47.9806      -4.097687      0.9367819
      9707.5000       108.2484       -47.9442      -4.062065      0.9375089
      9708.0000       108.5321       -47.7118      -3.830441      0.9422359
      9708.5000       107.7959       -47.3271      -3.446518       0.950071
      9709.0000       105.6711       -46.8442      -2.964397      0.9599103
      9709.5000       103.6188       -46.3989      -2.519871      0.9689822
      9710.0000        102.009       -46.2831       -2.40485      0.9713296
      9710.5000       103.2024       -46.3638      -2.486324      0.9696668
      9711.0000       104.5989       -46.4174      -2.540703      0.9685571
      9711.5000       106.1749       -47.1113      -3.235378        0.95438
      9712.0000       105.4418       -48.2497      -4.374554      0.9311315
      9712.5000       102.4642       -49.3004      -5.426033      0.9096728
      9713.0000        96.7634       -50.2562      -6.382607      0.8901509
      9713.5000        93.8477       -51.1631      -7.290287      0.8716268
      9714.0000        95.5266       -52.1942      -8.322159      0.8505682
      9714.5000        102.559       -51.8498      -7.978539      0.8575808
      9715.0000       112.7833        -50.734      -6.863514      0.8803365
      9715.5000       118.6686       -49.8533      -5.983589      0.8982941
      9716.0000       121.1499       -49.0078       -5.13887      0.9155332
      9716.5000       119.6013       -48.3172      -4.449043      0.9296114
      9717.0000       116.7335       -47.9938      -4.126423      0.9361954
      9717.5000       114.0477       -47.7625      -3.895897      0.9409001
      9718.0000       112.5714       -47.4053      -3.539474       0.948174
      9718.5000        113.191       -46.9024       -3.03735      0.9584214
      9719.0000        113.822       -46.5365      -2.672226      0.9658729
      9719.5000       114.8806        -46.291      -2.427505      0.9708672
      9720.0000       116.9729       -46.2144      -2.351681      0.9724147
      9720.5000       118.6387       -46.3004      -2.438457      0.9706437
      9721.0000       119.5951       -46.3477       -2.48653      0.9696627
      9721.5000       120.3413        -46.387      -2.526611      0.9688447
      9722.0000       120.1244       -46.4247      -2.565086      0.9680595
      9722.5000       119.8376       -46.4583      -2.599464      0.9673579
      9723.0000       119.5439        -46.407      -2.548943      0.9683889
      9723.5000        119.236       -46.2375      -2.380215      0.9718323
      9724.0000        118.746       -45.8704      -2.013893      0.9793083
      9724.5000       118.2456       -45.4945      -1.638767      0.9869639
      9725.0000       118.1439       -45.1118      -1.256847      0.9947582
      9725.5000        118.137       -44.8143     -0.9601212              1
      9726.0000        117.332       -44.5504     -0.6969986              1
      9726.5000       115.5688       -44.3151     -0.4624748              1
      9727.0000       113.9703       -44.2115     -0.3596497              1
      9727.5000       112.8531       -44.1371     -0.2860298              1
      9728.0000       112.5891       -44.1564     -0.3061028              1
      9728.5000       112.7472       -44.1846      -0.335083              1
      9729.0000       113.0496       -44.3412     -0.4924583              1
      9729.5000       113.7484       -44.6858     -0.8378334              1
      9730.0000       115.2971       -45.0016      -1.154408      0.9968488
      9730.5000       116.5764       -45.2209      -1.374489      0.9923574
      9731.0000       117.6387       -45.3911      -1.545467       0.988868
      9731.5000       118.4753       -45.3546      -1.509739      0.9895971
      9732.0000       119.0353       -45.2527      -1.408619      0.9916608
      9732.5000       118.0801       -45.0523      -1.208992      0.9957349
      9733.0000       116.8756       -44.7114     -0.8688698              1
      9733.5000       115.8008       -44.4253     -0.5835457              1
      9734.0000       114.5989          -44.3     -0.4590225              1
      9734.5000       113.3519       -44.4281     -0.5879021              1
      9735.0000       111.9454       -44.9847      -1.145275      0.9970352
      9735.5000        109.731       -45.4601      -1.621452      0.9873173
      9736.0000       106.5789       -45.5885      -1.750629       0.984681
      9736.5000       101.5714       -45.7122      -1.875107      0.9821407
      9737.0000        92.6837       -45.9492      -2.112881      0.9772881
      9737.5000        89.1176       -46.4634      -2.627861      0.9667783
      9738.0000        86.4817       -47.9169      -4.082138      0.9370992
      9738.5000        88.7834       -49.5031      -5.669113       0.904712
      9739.0000        91.2273       -50.6239      -6.790691      0.8818226
      9739.5000        94.6986       -51.5446      -7.712166       0.863017
