#------------------------------------------------------------------------------
# Created by    : vladimir.rabinovich
# Created on    : 09/19/2023 17:22:39
#------------------------------------------------------------------------------
~Version Information Section
VERS.           2.0     :   CWLS log ASCII Standard - VERSION 2.0
WRAP.           NO      :   One line per depth step
~Well Information Section
#MNEM       .UNIT                                         VALUE :DESCRIPTION
#------------------------------------------------------------------------------
STRT        .FT                                            3493 :START DEPTH
STOP        .FT                                            8566 :STOP DEPTH
STEP        .FT                                             0.5 :STEP      
NULL        .                                           -999.25 :NULL      
COMP        .                          SEAGULL ENERGY E & P INC :COMPANY   
WELL        .                               OCS G09038 ST00BP00 :WELL      
FLD         .                                           WILDCAT :FIELD     
LOC         .                                                   :LOCATION  
CNTY        .                             GALVESTON LARGE BLOCK :LOCATION  
STAT        .                                             TEXAS :STATE     
CTRY        .                                     UNITED STATES :COUNTRY   
SRVC        .                                                   :SERVICE COMPANY
DATE        .                             9/13/2023 11:19:36 AM :LOG DATE  
API         .                                    42706402070000 :API NUMBER
UWI         .                                    42706402070000 :UNIQUE WELL ID
XCOORD      .                                  986976.405819811 :SURFACE X 
YCOORD      .                                  10491452.3738699 :SURFACE Y 
LAT         .                                         28.894171 :LATITUDE  
LON         .                                        -95.042508 :LONGITUDE 
ELEV        .FT                                              93 :ELEVATION VALUE
ELEV_TYPE   .                                                KB :ELEVATION REFERENCE TYPE
~Curve Information Section
#MNEM       .UNIT                                      API CODE :CURVE DESCRIPTION
#------------------------------------------------------------------------------
DEPT        .FT                                                 :DEPTH     
DCAL        .IN                                                 :          
DPHI        .%                                                  :          
DRHO        .G/C3                                               :          
GR          .GAPI                                               :          
GR_NORM     .GAPI                                               :GammaRay Normalized
ILD         .OHMM                                               :          
ILM         .OHMM                                               :          
NPHI        .%                                                  :          
SGRD        .OHMM                                               :          
SP          .MV                                                 :          
SP_NORM     .MV                                                 :SP Normalized
VSH_GR      .V/V                                                :Volume of Shale from GR
VSH_SP      .V/V                                                :Volume of Shale from SP
~A        DEPTH           DCAL           DPHI           DRHO             GR        GR_NORM            ILD            ILM           NPHI           SGRD             SP        SP_NORM         VSH_GR         VSH_SP
# ...
      7882.0000          1.562        21.7814         0.0488        84.1483       78.39453         0.7203         0.7206        47.4094         0.9547       -38.6727       3.734959      0.9658411              1
      7882.5000         1.5535        21.7602         0.0495        83.8386       78.05042         0.7198         0.7232        46.9586         0.9677       -38.7621       3.643192      0.9585195              1
      7883.0000         1.5733        21.6171         0.0502         86.073       80.53308         0.7185         0.7255        46.4241         0.9835       -38.8716        3.53133              1              1
      7883.5000         1.6111        21.3244         0.0508        86.6198       81.14064         0.7167         0.7235        45.9736         0.9856       -38.9835       3.417065              1              1
      7884.0000         1.6449         21.111         0.0507        86.4822       80.98775         0.7141         0.7232        45.6984         0.9565       -39.0811       3.317101              1              1
      7884.5000         1.6674        21.4422         0.0505        85.7437       80.16719         0.7111         0.7238        46.1587         0.9292       -39.1785       3.217335              1              1
      7885.0000         1.6939        21.7767         0.0503        83.9534       78.17797         0.7072         0.7239        46.8173         0.9114       -39.3289       3.064575      0.9612334              1
      7885.5000         1.7143        22.0607         0.0501        82.9602       77.07442         0.7038         0.7213        47.3927         0.9038       -39.4693        2.92181      0.9377536              1
      7886.0000         1.7097        22.2762         0.0499        80.8583       74.73898         0.7005         0.7183        47.4587         0.9048       -39.5412       2.847546      0.8880633              1
      7886.5000         1.6751         22.516          0.049        80.8192       74.69553         0.6959         0.7146         47.488         0.9126       -39.6164       2.769981      0.8871388              1
      7887.0000         1.6208        22.6806         0.0475         82.299       76.33975         0.6919          0.711        47.7023         0.9193       -39.6768       2.707218      0.9221224              1
      7887.5000         1.5678         22.077         0.0483        83.6781       77.87209         0.6884         0.7075        47.9561         0.9248       -39.6292       2.752453      0.9547252              1
      7888.0000         1.5367        21.4236         0.0503        83.7498       77.95175          0.691         0.7069        47.9703         0.9294       -39.5765       2.802792      0.9564202              1
      7888.5000         1.5305        20.8624         0.0517        82.5793        76.6512          0.695         0.7065        47.7071         0.9338       -39.5881       2.788826      0.9287489              1
      7889.0000         1.5314        20.5903         0.0524        80.8054       74.68019            0.7          0.706        47.2522         0.9384       -39.7875       2.587063      0.8868126              1
      7889.5000         1.5355        20.9449         0.0528        77.9567       71.51498         0.7061         0.7047        46.4799         0.9393        -40.037       2.335201      0.8194676              1
      7890.0000          1.536        21.4764          0.053        79.7418       73.49841         0.7052         0.7011        46.7631         0.9331       -40.2677       2.102135      0.8616683              1
      7890.5000         1.5214        21.9492         0.0514         82.739       76.82864         0.6973         0.6982        47.3376         0.9223       -40.2244        2.14307      0.9325241              1
      7891.0000         1.4984         22.358         0.0499        85.1904       79.55241         0.6906         0.6957        47.8246          0.912       -40.1271       2.238007      0.9904769              1
      7891.5000         1.4704        22.7245         0.0485        87.7526       82.39931         0.6847         0.6918        47.9769         0.9049       -40.0026       2.360142              1              1
      7892.0000         1.4662        22.9495         0.0476        91.0564       86.07019         0.6795          0.688        47.4923          0.901        -39.976       2.384377              1              1
      7892.5000          1.503        22.7817         0.0484        90.0758       84.98064         0.6753         0.6876        46.7028         0.9065       -39.9975       2.360516              1              1
      7893.0000         1.5481        22.3573         0.0481        88.9218       83.69842         0.6724         0.6882        46.1074         0.9131       -40.0737       2.281952              1              1
      7893.5000         1.6356        21.7856         0.0482        87.7476       82.39375         0.6703         0.6879        45.7335         0.9207       -40.0885       2.264786              1              1
      7894.0000         1.6689        21.0958         0.0497        86.4904       80.99686         0.6693         0.6875        45.4781         0.9287       -40.0358       2.315125              1              1
      7894.5000         1.6974         20.649         0.0521        85.3174       79.69353         0.6703          0.687        45.9141          0.931        -39.816       2.532558      0.9934793              1
      7895.0000         1.7156        21.1129         0.0545        85.2434       79.61131         0.6739         0.6867        46.2825         0.9269       -39.5756       2.770596      0.9917299              1
      7895.5000         1.7271        21.6592         0.0545        85.2008       79.56397          0.679         0.6873        45.9602         0.9229       -39.3982       2.945633      0.9907228              1
      7896.0000         1.7273        21.8895         0.0516        84.9365       79.27031         0.6861         0.6915        45.6361         0.9257       -39.4191       2.922367      0.9844747              1
      7896.5000          1.749         21.705         0.0486         84.049        78.2842         0.6937         0.7008        45.6949         0.9308       -39.3851       2.954002      0.9634936              1
      7897.0000          1.779        21.8248         0.0458        83.1287       77.26164         0.7031         0.7112        46.1215         0.9385       -39.5307       2.806042      0.9417371              1
      7897.5000         1.8061        21.8325         0.0438         82.368       76.41641         0.7134         0.7211        46.6738         0.9538       -39.8359       2.498478      0.9237534              1
      7898.0000         1.8191        21.6124         0.0454        81.6188       75.58397         0.7286         0.7343        47.2054         0.9717       -40.1756       2.156414      0.9060419              1
      7898.5000         1.8237        21.2549         0.0481        80.9255       74.81364         0.7479         0.7531        47.6328         0.9906       -40.5289       1.800751      0.8896518              1
      7899.0000         1.8309        20.8661         0.0514        82.2814        76.3202         0.7712         0.7773        47.9628          1.009       -41.0098       1.317486      0.9217063              1
      7899.5000         1.8429        20.5208         0.0547        84.5216        78.8093         0.7952         0.8023        48.3035          1.024        -41.561      0.7639198       0.974666              1
      7900.0000         1.8651        20.2411         0.0545        82.3065       76.34809         0.8191         0.8219        48.1814         1.0346       -41.8701      0.4524612      0.9222998              1
      7900.5000         1.9006        20.1344          0.052        82.0588       76.07286         0.8421         0.8432        47.3555          1.048       -41.7735      0.5466957      0.9164438              1
