#------------------------------------------------------------------------------
# Created by    : vladimir.rabinovich
# Created on    : 09/19/2023 17:21:32
#------------------------------------------------------------------------------
~Version Information Section
VERS.           2.0     :   CWLS log ASCII Standard - VERSION 2.0
WRAP.           NO      :   One line per depth step
~Well Information Section
#MNEM       .UNIT                                         VALUE :DESCRIPTION
#------------------------------------------------------------------------------
STRT        .FT                                            4185 :START DEPTH
STOP        .FT                                            8075 :STOP DEPTH
STEP        .FT                                             0.5 :STEP      
NULL        .                                           -999.25 :NULL      
COMP        .                                         HESS CORP :COMPANY   
WELL        .                               OCS G07236 ST00BP00 :WELL      
FLD         .                              GALVESTON BLOCK 0210 :FIELD     
LOC         .                                                   :LOCATION  
CNTY        .                             GALVESTON LARGE BLOCK :LOCATION  
STAT        .                                             TEXAS :STATE     
CTRY        .                                     UNITED STATES :COUNTRY   
SRVC        .                                                   :SERVICE COMPANY
DATE        .                             9/13/2023 11:19:34 AM :LOG DATE  
API         .                                    42706402930000 :API NUMBER
UWI         .                                    42706402930000 :UNIQUE WELL ID
XCOORD      .                                   1127714.7472722 :SURFACE X 
YCOORD      .                                  10563055.4663979 :SURFACE Y 
LAT         .                                         29.097041 :LATITUDE  
LON         .                                        -94.605794 :LONGITUDE 
ELEV        .FT                                              89 :ELEVATION VALUE
ELEV_TYPE   .                                                KB :ELEVATION REFERENCE TYPE
~Curve Information Section
#MNEM       .UNIT                                      API CODE :CURVE DESCRIPTION
#------------------------------------------------------------------------------
DEPT        .FT                                                 :DEPTH     
CALI        .IN                                                 :          
DRHO        .G/CC                                               :          
DT          .US/F                                               :          
ILD         .OHMM                                               :          
ILM         .OHMM                                               :          
NPHI        .%                                                  :          
RFOC        .OHMM                                               :          
RHOB        .G/CC                                               :          
SP          .MV                                                 :          
SP_NORM     .MV                                                 :SP Normalized
VSH_SP      .V/V                                                :Volume of Shale from SP
~A        DEPTH           CALI           DRHO             DT            ILD            ILM           NPHI           RFOC           RHOB             SP        SP_NORM         VSH_SP
# ...
      4252.5000        -999.25        -999.25        -999.25        -999.25        -999.25         55.096        -999.25        -999.25        -999.25        -999.25        -999.25
      4253.0000        -999.25        -999.25        -999.25        -999.25        -999.25        54.4792        -999.25        -999.25        -999.25        -999.25        -999.25
      4253.5000        -999.25        -999.25        -999.25        -999.25        -999.25        52.5917        -999.25        -999.25        -999.25        -999.25        -999.25
      4254.0000        -999.25        -999.25        -999.25        -999.25        -999.25        48.9724        -999.25        -999.25        -999.25        -999.25        -999.25
      4254.5000        -999.25        -999.25        -999.25        -999.25        -999.25        44.5385        -999.25        -999.25        -999.25        -999.25        -999.25
      4255.0000        -999.25        -999.25        -999.25        -999.25        -999.25        44.1505        -999.25        -999.25        -999.25        -999.25        -999.25
      4255.5000        -999.25        -999.25        -999.25        -999.25        -999.25        46.4506        -999.25        -999.25        -999.25        -999.25        -999.25
      4256.0000        -999.25        -999.25        -999.25        -999.25        -999.25        49.4783        -999.25        -999.25        -999.25        -999.25        -999.25
      4256.5000        -999.25        -999.25        -999.25        -999.25        -999.25        50.4684        -999.25        -999.25        -999.25        -999.25        -999.25
      4257.0000         13.046         0.0071       143.6196         2.0241         0.7592          50.35         0.9041         2.1347      -104.4233       -28.9516      0.5864058
      4257.5000        14.4837          0.006       139.4827         1.0054         0.5321        49.3639         0.8846         2.1272       -99.9225       -24.4508      0.6507029
      4258.0000        16.3245         0.0048       136.5354         0.5784         0.4975        48.9352         0.8559         2.1316       -95.8013       -20.3296      0.7095772
      4258.5000        16.5249         0.0044       135.8501         0.5445         0.5169        48.7638          0.867         2.1524        -91.934       -16.4623      0.7648243
      4259.0000        16.6702         0.0049       136.2415         0.5649         0.5602        48.2181          0.889         2.1602       -90.6222       -15.1505      0.7835643
      4259.5000        16.9221         0.0054        137.834         0.6059         0.6052        47.8008         0.9084         2.1436       -89.2578      -13.78609      0.8030558
      4260.0000        17.1872         0.0049       139.9602         0.6438         0.6425        47.7744         0.9012         2.1256       -87.1024       -11.6307      0.8338472
      4260.5000        17.3123         0.0045       142.9385         0.6423         0.6724        48.3178         0.8801         2.1222       -84.1493      -8.677597      0.8760343
      4261.0000        17.3617         0.0042       147.3232         0.6252         0.6927        49.2004         0.8503         2.1235       -82.2771      -6.805397      0.9027801
      4261.5000        17.3809         0.0041       152.1775         0.6175         0.6978        50.0784         0.8432         2.1255       -81.0077      -5.535995      0.9209144
      4262.0000        17.4406         0.0046       155.8176         0.6236         0.6981        51.0031          0.856         2.1263       -80.1422      -4.670494      0.9332787
      4262.5000        17.7522         0.0057       157.4773         0.6248         0.6962        52.2913         0.8584         2.1176       -79.6123      -4.140594      0.9408486
      4263.0000        18.0728          0.007       158.2849         0.6186         0.6944        53.0922         0.8563         2.0997       -79.0974      -3.625694      0.9482043
      4263.5000        18.1471         0.0084       159.8591         0.6118         0.6923        52.8933         0.8544         2.0749       -78.6669      -3.195198      0.9543543
      4264.0000        17.8514         0.0091       160.2595         0.6167         0.6909        52.3812          0.854         2.0646       -78.6227      -3.151001      0.9549857
      4264.5000         17.375          0.009       163.0803         0.6327         0.6887        51.4802         0.8678         2.0655       -79.6484      -4.176697      0.9403329
      4265.0000        16.5966         0.0081       164.5942          0.655         0.6848        49.4394         0.8935          2.082       -81.7168      -6.245094      0.9107844
      4265.5000        16.5487         0.0067       163.6238         0.6719         0.6809        46.2886         0.9232         2.1098       -83.7787      -8.306999      0.8813286
      4266.0000        16.9236         0.0048       160.1973          0.685           0.68        44.1241         0.9624         2.1412       -85.9612      -10.48949      0.8501501
      4266.5000        17.2127         0.0034        158.303         0.6884         0.6819        43.0621         1.0074         2.1538       -87.6877        -12.216      0.8254858
      4267.0000        17.7314         0.0026       155.1379         0.6916         0.6859         43.399         1.0168         2.1569       -87.1478      -11.67609      0.8331987
      4267.5000          18.02         0.0024       151.5264         0.6958         0.6909        45.5165         0.9603         2.1605       -85.1417      -9.669998      0.8618572
      4268.0000        18.2231         0.0025       149.9573         0.7028         0.6965        48.2983         0.8965         2.1656       -83.2363      -7.764595      0.8890772
      4268.5000        18.3254         0.0025       151.0347         0.7107          0.701        49.8246          0.844         2.1692       -81.2937      -5.821999      0.9168286
      4269.0000        18.3513         0.0026       153.5994         0.7172         0.7049        50.8155         0.8085         2.1519       -80.1249      -4.653198      0.9335257
      4269.5000        18.3186         0.0028       155.5518         0.7148         0.7057        51.0511         0.8041         2.1359        -79.099      -3.627296      0.9481815
      4270.0000        18.3178         0.0029       156.9871         0.7069         0.7023        50.5189         0.8172         2.1303       -78.1501      -2.678398      0.9617372
      4270.5000        18.3372         0.0031       157.0823         0.6962         0.6987        49.6285         0.8382         2.1318       -77.5638      -2.092094      0.9701129
      4271.0000        18.3793         0.0034       155.2935          0.691         0.6961        48.2267         0.8663         2.1392       -77.0605      -1.588799      0.9773028
      4271.5000        18.4104         0.0037       153.2725         0.6897         0.6934        46.3151         0.8758          2.149       -76.6937         -1.222      0.9825429
      4272.0000        18.3484         0.0039       152.0063         0.6906         0.6923        44.4128         0.8756         2.1582       -76.6188      -1.147095       0.983613
      4272.5000        17.5976         0.0043        150.949         0.6914         0.6914        42.7067         0.8724         2.1666       -76.6987      -1.226997      0.9824715
      4273.0000        16.5779         0.0046       148.8254         0.6914         0.6907        41.8992         0.8654         2.1752       -76.8142      -1.342499      0.9808214
      4273.5000        16.0033         0.0041       146.1648         0.6917         0.6942        42.0922         0.8568         2.1808       -76.4498      -0.978096      0.9860272
      4274.0000        15.8688         0.0029       143.5586         0.6964         0.7004        42.5903         0.8455         2.1868       -76.0807     -0.6090012         0.9913
      4274.5000        15.3869         0.0021       141.5259         0.7036         0.7103        42.9498         0.8393          2.193       -76.0083     -0.5365982      0.9923343
