#------------------------------------------------------------------------------
# Created by    : vladimir.rabinovich
# Created on    : 09/19/2023 17:22:41
#------------------------------------------------------------------------------
~Version Information Section
VERS.           2.0     :   CWLS log ASCII Standard - VERSION 2.0
WRAP.           NO      :   One line per depth step
~Well Information Section
#MNEM       .UNIT                                         VALUE :DESCRIPTION
#------------------------------------------------------------------------------
STRT        .FT                                            4470 :START DEPTH
STOP        .FT                                            9513 :STOP DEPTH
STEP        .FT                                             0.5 :STEP      
NULL        .                                           -999.25 :NULL      
COMP        .                 FAIRWAYS SPEC SALES & SERVICE INC :COMPANY   
WELL        .                               OCS G11315 ST00BP00 :WELL      
FLD         .                              GALVESTON BLOCK 0319 :FIELD     
LOC         .                                                   :LOCATION  
CNTY        .                             GALVESTON LARGE BLOCK :LOCATION  
STAT        .                                             TEXAS :STATE     
CTRY        .                                     UNITED STATES :COUNTRY   
SRVC        .                                                   :SERVICE COMPANY
DATE        .                             9/13/2023 11:19:34 AM :LOG DATE  
API         .                                    42706402650000 :API NUMBER
UWI         .                                    42706402650000 :UNIQUE WELL ID
XCOORD      .                                  1065572.18570413 :SURFACE X 
YCOORD      .                                  10465680.9820926 :SURFACE Y 
LAT         .                                         28.826802 :LATITUDE  
LON         .                                        -94.795723 :LONGITUDE 
ELEV        .FT                                              86 :ELEVATION VALUE
ELEV_TYPE   .                                                KB :ELEVATION REFERENCE TYPE
~Curve Information Section
#MNEM       .UNIT                                      API CODE :CURVE DESCRIPTION
#------------------------------------------------------------------------------
DEPT        .FT                                                 :DEPTH     
DCAL        .IN                                                 :          
DPHI        .%                                                  :          
DRHO        .G/C3                                               :          
GR          .GAPI                                               :          
GR_NORM     .GAPI                                               :GammaRay Normalized
ILD         .OHMM                                               :          
ILM         .OHMM                                               :          
NPHI        .%                                                  :          
SFL         .OHMM                                               :          
SP          .MV                                                 :          
SP_NORM     .MV                                                 :SP Normalized
VSH_GR      .V/V                                                :Volume of Shale from GR
VSH_SP      .V/V                                                :Volume of Shale from SP
~A        DEPTH           DCAL           DPHI           DRHO             GR        GR_NORM            ILD            ILM           NPHI            SFL             SP        SP_NORM         VSH_GR         VSH_SP
# ...
      7187.0000         3.0119        17.5757        -0.0114       100.4695       84.75867         0.9195         0.9597        41.5259          0.816       -34.7047     -0.6839943              1       0.989477
      7187.5000         3.0856        17.0796        -0.0079          101.4       85.74532         0.9354         0.9728        40.9009         0.8196        -34.968     -0.9503441              1      0.9853793
      7188.0000         3.1505        16.4888        -0.0043       102.5042       86.91723         0.9523          0.986        38.3502         0.8411       -35.3026      -1.287998              1      0.9801846
      7188.5000         3.2104        15.7955        -0.0031        99.8809       84.11314          0.973         0.9994        36.1031         0.9031       -35.6371      -1.625549              1      0.9749916
      7189.0000         3.2491        15.0798        -0.0025         95.213       79.12814         0.9941         1.0102         34.683         0.9753       -35.9686      -1.960102      0.9814498      0.9698446
      7189.5000          3.263         14.338        -0.0018        92.3342       76.05154         1.0095         1.0209        33.3392         1.0279       -36.2991      -2.293652      0.9159901       0.964713
      7190.0000         3.2769        14.1064        -0.0018        90.9768       74.59775         1.0188         1.0314        32.4852          1.049       -36.6233      -2.620907      0.8850585      0.9596784
      7190.5000         3.2491         14.198        -0.0018        91.6755       75.33713         1.0283         1.0328        32.1401         1.0541       -36.9469      -2.947559        0.90079      0.9546529
      7191.0000          3.198        14.7745        -0.0018        92.7587       76.48665         1.0303         1.0341        32.7842         1.0417       -37.1417      -3.145412      0.9252478       0.951609
      7191.5000         3.1503        15.2738         -0.002        93.6361       77.41666         1.0202         1.0252        34.0198         1.0146       -37.3339      -3.340664      0.9450352      0.9486052
      7192.0000         3.1076        15.4798        -0.0024        94.7258        78.5731         1.0102         1.0129        35.2587          0.978       -37.3778      -3.387615      0.9696404      0.9478828
      7192.5000         3.0813        14.9017        -0.0029        96.1508       80.08721         1.0003         1.0041        36.1556         0.9589       -37.4065      -3.419369              1      0.9473943
      7193.0000         3.0709        14.2529        -0.0033        97.9425       81.99245         0.9848         0.9934        36.4019         0.9663       -37.0528      -3.068722              1      0.9527889
      7193.5000         3.0829        13.7951        -0.0036         99.962       84.14069         0.9785         0.9774        36.0888         0.9777       -36.0213      -2.040276              1      0.9686111
      7194.0000         3.1233        13.6868        -0.0038       102.2095       86.53213          0.975         0.9671        35.7715         0.9538       -35.3101      -1.332127              1      0.9795057
      7194.5000         3.1844        14.0951        -0.0038       104.1741        88.6218         0.9695         0.9592        37.0127         0.8636        -34.777     -0.8020782              1      0.9876603
      7195.0000         3.2692        14.2868        -0.0036       105.8688       90.42358          0.964         0.9557        38.5092         0.8083       -34.3381       -0.36623              1      0.9943657
      7195.5000         3.3824        14.3658        -0.0034       106.7568       91.36489          0.963         0.9522        39.9436         0.8368       -33.9771   -0.008281708              1      0.9998726
      7196.0000         3.5536        13.8068        -0.0036       103.7209        88.1207         0.9643         0.9499        39.1874         0.8939       -33.7512      0.2145615              1              1
      7196.5000         3.7086        13.3494        -0.0038        99.9987       84.14446         0.9656         0.9509        38.3326         0.9389         -33.67      0.2927132              1              1
      7197.0000         3.8353         13.118        -0.0041        98.2148       82.23573         0.9669          0.952        37.1368          0.976       -33.6468      0.3128586              1              1
      7197.5000         3.9194        13.1113        -0.0045        98.4061       82.43389         0.9673         0.9532        36.1953         0.9732       -33.7642      0.1924095              1              1
      7198.0000         3.9813        13.3218        -0.0048       100.3654       84.51792         0.9668         0.9549        36.1083         0.9557       -33.8942     0.05935669              1              1
      7198.5000         3.9914        13.6736        -0.0055       101.8663       86.11298         0.9662         0.9567        36.5559         0.9295       -34.0324    -0.08189392              1      0.9987401
      7199.0000         3.9926         14.076        -0.0065       100.8788       85.05376         0.9656         0.9585        37.0155         0.9376       -34.1891     -0.2416496              1      0.9962823
      7199.5000         3.9652        14.4053        -0.0075         99.281       83.34353         0.9583          0.959        37.3622          0.953       -34.3535     -0.4091034              1      0.9937061
      7200.0000         3.9438        14.5026        -0.0085        97.7683        81.7241         0.9476         0.9522        37.9359          0.955       -34.3708     -0.4294548              1       0.993393
      7200.5000         3.9445        14.5999        -0.0096        96.4493       80.31126         0.9369         0.9454        38.8049         0.9558        -34.335     -0.3967056              1      0.9938968
      7201.0000         3.9453        14.6659        -0.0108        98.0682        82.0322         0.9264         0.9387        39.9547          0.936       -34.2992     -0.3639565              1      0.9944007
      7201.5000          3.836        14.7188        -0.0119        99.3949       83.44144         0.9117         0.9302        40.6918         0.9166       -34.1569     -0.2247086              1      0.9965429
      7202.0000         3.7211        15.3462         -0.013        101.662       85.85379         0.8969          0.914        39.9658         0.8953       -33.9872    -0.05806732              1      0.9991066
      7202.5000         3.6194        15.6945        -0.0141       105.3711       89.80427         0.8837         0.8982        39.6332         0.8743       -33.8177      0.1083832              1              1
      7203.0000         3.6349        15.7228        -0.0152       109.1798       93.86099         0.8748         0.8866        40.0803         0.8682       -33.7497      0.1733322              1              1
      7203.5000         3.6198        15.5005        -0.0164       111.2832       96.09872         0.8661         0.8802        40.9232         0.8663        -33.685      0.2349777              1              1
      7204.0000         3.4913        15.4241        -0.0176       110.5785       95.34114         0.8649         0.8745        41.3633          0.874       -33.6182      0.2987289              1              1
      7204.5000         3.2987        15.8511        -0.0187       109.2662       93.93545         0.8692         0.8767        41.2584         0.8794       -33.5483      0.3655701              1              1
      7205.0000         3.0918          16.36        -0.0188       108.8826       93.52039         0.8735          0.879        41.1126          0.847       -33.4785      0.4323196              1              1
      7205.5000         2.9023        16.8033        -0.0187       109.2145       93.86851         0.8845         0.8848        40.9258         0.8155       -33.4559        0.45187              1              1
