#------------------------------------------------------------------------------
# Created by    : vladimir.rabinovich
# Created on    : 09/19/2023 17:22:38
#------------------------------------------------------------------------------
~Version Information Section
VERS.           2.0     :   CWLS log ASCII Standard - VERSION 2.0
WRAP.           NO      :   One line per depth step
~Well Information Section
#MNEM       .UNIT                                         VALUE :DESCRIPTION
#------------------------------------------------------------------------------
STRT        .FT                                             597 :START DEPTH
STOP        .FT                                            8696 :STOP DEPTH
STEP        .FT                                             0.5 :STEP      
NULL        .                                           -999.25 :NULL      
COMP        .                MURPHY EXPLORATION & PRODUCTION CO :COMPANY   
WELL        .                               OCS G13308 ST00BP00 :WELL      
FLD         .                                           WILDCAT :FIELD     
LOC         .                                                   :LOCATION  
CNTY        .                             GALVESTON LARGE BLOCK :LOCATION  
STAT        .                                             TEXAS :STATE     
CTRY        .                                     UNITED STATES :COUNTRY   
SRVC        .                                                   :SERVICE COMPANY
DATE        .                             9/13/2023 11:19:54 AM :LOG DATE  
API         .                                    42706403460000 :API NUMBER
UWI         .                                    42706403460000 :UNIQUE WELL ID
XCOORD      .                                  1110706.35492259 :SURFACE X 
YCOORD      .                                  10520329.8149831 :SURFACE Y 
LAT         .                                         28.978895 :LATITUDE  
LON         .                                        -94.657168 :LONGITUDE 
ELEV        .FT                                              71 :ELEVATION VALUE
ELEV_TYPE   .                                                KB :ELEVATION REFERENCE TYPE
~Curve Information Section
#MNEM       .UNIT                                      API CODE :CURVE DESCRIPTION
#------------------------------------------------------------------------------
DEPT        .FT                                                 :DEPTH     
DCAL        .IN                                                 :          
DPHI        .%                                                  :          
DRHO        .G/C3                                               :          
DTLN        .US/F                                               :          
GR          .GAPI                                               :          
GR_1        .GAPI                                               :          
GR_NORM     .GAPI                                               :GammaRay Normalized
ILD         .OHMM                                               :          
ILM         .OHMM                                               :          
NPHI        .%                                                  :          
SFL         .OHMM                                               :          
SP          .MV                                                 :          
VSH_GR      .V/V                                                :Volume of Shale from GR
~A        DEPTH           DCAL           DPHI           DRHO           DTLN             GR           GR_1        GR_NORM            ILD            ILM           NPHI            SFL             SP         VSH_GR
# ...
      1756.0000        -999.25        -999.25        -999.25       153.9741        68.6078        -999.25       65.37348         0.6803         0.7462        -999.25          0.709       -88.9503      0.6887975
      1756.5000        -999.25        -999.25        -999.25       153.9363        70.1805        -999.25       66.91594         0.6752         0.7423        -999.25         0.7135       -88.5441      0.7216157
      1757.0000        -999.25        -999.25        -999.25       154.1367        70.2036        -999.25        66.9352          0.669         0.7308        -999.25         0.6994       -87.7079      0.7220256
      1757.5000        -999.25        -999.25        -999.25       154.9209        68.7631        -999.25       65.51584         0.6598         0.7188        -999.25         0.6727       -86.9382      0.6918263
      1758.0000        -999.25        -999.25        -999.25       156.0295        66.3801        -999.25       63.17005         0.6492         0.7082        -999.25         0.6516       -87.1105      0.6419159
      1758.5000        -999.25        -999.25        -999.25       156.9922        63.9114        -999.25       60.74001         0.6387          0.701        -999.25         0.6385        -89.775      0.5902129
      1759.0000        -999.25        -999.25        -999.25       156.6855        61.9644        -999.25       58.82277         0.6353         0.6974        -999.25         0.6355       -95.0457      0.5494205
      1759.5000        -999.25        -999.25        -999.25       155.6282        60.6646        -999.25       57.54169         0.6357         0.6932        -999.25         0.6421       -98.2133      0.5221636
      1760.0000        -999.25        -999.25        -999.25       155.3057        59.4485        -999.25        56.3429         0.6345         0.6861        -999.25         0.6496      -100.5381      0.4966575
      1760.5000        -999.25        -999.25        -999.25       156.2551        57.2977        -999.25       54.22534         0.6289         0.6766        -999.25         0.6569       -98.9371       0.451603
      1761.0000        -999.25        -999.25        -999.25       156.8701        56.1931        -999.25       53.13614         0.6216         0.6637        -999.25         0.6302       -96.3456      0.4284285
      1761.5000        -999.25        -999.25        -999.25       156.4521        56.4969        -999.25       53.43133         0.6135         0.6509        -999.25         0.6118       -95.7595      0.4347091
      1762.0000        -999.25        -999.25        -999.25       156.1289        56.6517        -999.25       53.58006         0.6023         0.6425        -999.25         0.6097       -94.3849      0.4378736
      1762.5000        -999.25        -999.25        -999.25       156.4392        54.9471        -999.25       51.90109         0.5889         0.6329        -999.25           0.61       -93.3345      0.4021509
      1763.0000        -999.25        -999.25        -999.25       157.4844        54.1113        -999.25       51.07612         0.5775         0.6182        -999.25         0.5964       -90.2172      0.3845983
      1763.5000        -999.25        -999.25        -999.25       160.4504        54.5938        -999.25       51.54696           0.57         0.6064        -999.25         0.5783       -87.5127      0.3946161
      1764.0000        -999.25        -999.25        -999.25        163.749        55.1953        -999.25       52.13477          0.565         0.5994        -999.25         0.5609       -86.7637      0.4071227
      1764.5000        -999.25        -999.25        -999.25       166.1313        54.8595        -999.25       51.80127         0.5574         0.5936        -999.25         0.5451       -87.7393      0.4000269
      1765.0000        -999.25        -999.25        -999.25       166.2756        51.7557        -999.25       48.74695         0.5514         0.5838        -999.25         0.5342        -90.957      0.3350415
      1765.5000        -999.25        -999.25        -999.25       165.8728         49.595        -999.25       46.61966         0.5464         0.5759        -999.25         0.5353        -91.839        0.28978
      1766.0000        -999.25        -999.25        -999.25       164.6279        49.5989        -999.25       46.62006          0.542         0.5712        -999.25         0.5407       -88.2231      0.2897886
      1766.5000        -999.25        -999.25        -999.25       163.3411        49.9839        -999.25       46.99506         0.5367         0.5658        -999.25         0.5398       -86.2621      0.2977673
      1767.0000        -999.25        -999.25        -999.25       162.5691        48.9783        -999.25       46.00318         0.5348         0.5588        -999.25         0.5355       -86.2451      0.2766634
      1767.5000        -999.25        -999.25        -999.25       162.7651        45.6852        -999.25        42.7628          0.535         0.5522        -999.25         0.5347       -89.1797      0.2077191
      1768.0000        -999.25        -999.25        -999.25       163.3501         44.186        -999.25       41.28574         0.5368         0.5526        -999.25         0.5312       -90.2255      0.1762923
      1768.5000        -999.25        -999.25        -999.25       164.3125        44.5802        -999.25       41.66978         0.5372         0.5567        -999.25         0.5152       -92.0889      0.1844633
      1769.0000        -999.25        -999.25        -999.25       165.7017        45.1966        -999.25       42.27223         0.5389         0.5617        -999.25         0.5081       -90.4156      0.1972815
      1769.5000        -999.25        -999.25        -999.25       166.1958        46.2208        -999.25       43.27554         0.5416         0.5656        -999.25         0.5245       -87.6603      0.2186286
      1770.0000        -999.25        -999.25        -999.25       165.6973        48.6047        -999.25       45.61538         0.5457         0.5697        -999.25         0.5465       -87.4331      0.2684123
      1770.5000        -999.25        -999.25        -999.25         165.03        50.8733        -999.25       47.84187         0.5506          0.584        -999.25         0.5749       -87.0986      0.3157844
      1771.0000        -999.25        -999.25        -999.25       164.1587        50.2074        -999.25       47.18389         0.5568         0.5988        -999.25         0.5925       -86.0161      0.3017849
      1771.5000        -999.25        -999.25        -999.25       163.1541        48.5915        -999.25       45.59211         0.5642          0.615        -999.25         0.5953       -86.4324      0.2679173
      1772.0000        -999.25        -999.25        -999.25       162.1543         48.247        -999.25       45.25005         0.5723         0.6282        -999.25         0.6147       -86.0862      0.2606394
      1772.5000        -999.25        -999.25        -999.25       161.2742        51.7789        -999.25        48.7183         0.5811         0.6369        -999.25         0.6217       -86.6451       0.334432
      1773.0000        -999.25        -999.25        -999.25       161.1284        53.8799        -999.25       50.78006          0.588         0.6418        -999.25         0.6229       -86.3978      0.3782992
      1773.5000        -999.25        -999.25        -999.25       161.7034        53.7225        -999.25       50.62191         0.5951          0.643        -999.25         0.6153       -85.7612      0.3749343
      1774.0000        -999.25        -999.25        -999.25       162.6323        52.2842        -999.25        49.2047         0.6028         0.6421        -999.25         0.6127         -85.97       0.344781
      1774.5000        -999.25        -999.25        -999.25       163.4253        50.8003        -999.25       47.74267         0.6092         0.6441        -999.25         0.6181       -86.5293      0.3136739
