#------------------------------------------------------------------------------
# Created by    : vladimir.rabinovich
# Created on    : 09/19/2023 17:22:44
#------------------------------------------------------------------------------
~Version Information Section
VERS.           2.0     :   CWLS log ASCII Standard - VERSION 2.0
WRAP.           NO      :   One line per depth step
~Well Information Section
#MNEM       .UNIT                                         VALUE :DESCRIPTION
#------------------------------------------------------------------------------
STRT        .FT                                            3420 :START DEPTH
STOP        .FT                                           11707 :STOP DEPTH
STEP        .FT                                             0.5 :STEP      
NULL        .                                           -999.25 :NULL      
COMP        .                        TRI-UNION DEVELOPMENT CORP :COMPANY   
WELL        .                               OCS G08154 ST00BP00 :WELL      
FLD         .                                           WILDCAT :FIELD     
LOC         .                                                   :LOCATION  
CNTY        .                           HIGH ISLAND LARGE BLOCK :LOCATION  
STAT        .                                             TEXAS :STATE     
CTRY        .                                     UNITED STATES :COUNTRY   
SRVC        .                                                   :SERVICE COMPANY
DATE        .                             9/13/2023 11:19:57 AM :LOG DATE  
API         .                                    42708403520000 :API NUMBER
UWI         .                                    42708403520000 :UNIQUE WELL ID
XCOORD      .                                  1180527.91159004 :SURFACE X 
YCOORD      .                                  10524923.1623167 :SURFACE Y 
LAT         .                                        28.9940426 :LATITUDE  
LON         .                                       -94.4389714 :LONGITUDE 
ELEV        .FT                                             100 :ELEVATION VALUE
ELEV_TYPE   .                                                KB :ELEVATION REFERENCE TYPE
~Curve Information Section
#MNEM       .UNIT                                      API CODE :CURVE DESCRIPTION
#------------------------------------------------------------------------------
DEPT        .FT                                                 :DEPTH     
DCAL        .IN                                                 :          
DPHI        .%                                                  :          
DRHO        .G/C3                                               :          
GR          .GAPI                                               :          
GR_NORM     .GAPI                                               :GammaRay Normalized
ILD         .OHMM                                               :          
ILM         .OHMM                                               :          
NPHI        .%                                                  :          
SFL         .OHMM                                               :          
SP          .MV                                                 :          
SP_NORM     .MV                                                 :SP Normalized
VSH_GR      .V/V                                                :Volume of Shale from GR
VSH_SP      .V/V                                                :Volume of Shale from SP
~A        DEPTH           DCAL           DPHI           DRHO             GR        GR_NORM            ILD            ILM           NPHI            SFL             SP        SP_NORM         VSH_GR         VSH_SP
# ...
     11134.0000         9.2305        15.1504         0.0809        83.9906       88.33163          1.152         1.1388         32.623          1.007       -35.0652        -1.1029              1              1
     11134.5000         9.0818        15.2218         0.0711        84.4626       88.86723         1.1605         1.1563        31.2137          1.002        -34.317        -0.3547              1              1
     11135.0000          9.165        15.1932         0.0583         84.325       88.71109         1.1352         1.1484        29.0297         1.0015       -33.9703         -0.008              1              1
     11135.5000         9.5061        15.3559         0.0447        84.5094       88.92034         1.0966         1.1183        27.7998         1.0053       -34.4754        -0.5131              1              1
     11136.0000         9.7912        15.8735         0.0294        84.8461       89.30241         1.0802         1.0848        28.3146         1.0087       -35.0073         -1.045              1              1
     11136.5000         9.9875        16.8633         0.0185        84.9204       89.38673         1.0882         1.0823        30.3735           1.01       -35.1581        -1.1958              1              1
     11137.0000        10.0483        17.6331         0.0132        84.8324       89.28687         1.1082         1.0994        32.3638         1.0113       -35.2866        -1.3243              1              1
     11137.5000           9.81        17.1841         0.0057        84.4982       88.90763         1.1169         1.1079        33.3687         0.9952       -35.0989        -1.1366              1              1
     11138.0000         9.6285        15.8459         0.0093        83.4968       87.77129         1.1261         1.1155         33.289         0.9719       -34.9116        -0.9493              1              1
     11138.5000         9.6971        13.6441         0.0115         82.533       86.67761         1.1396         1.1198        32.2148         0.9878       -35.4543         -1.492              1              1
     11139.0000          9.737        13.4934         0.0121        81.9355       85.99961         1.1533         1.1223        30.1083          1.088       -36.6638        -2.7015              1      0.9787424
     11139.5000         9.6809        14.2318         0.0104         81.261       85.23422         1.1574         1.1407        28.6811         1.0878        -36.069        -2.1067              1      0.9967667
     11140.0000         9.4992        16.1145         0.0104        80.3619       84.21397         1.1614         1.1596        28.0058         1.0852       -35.5478        -1.5855              1              1
     11140.5000         8.9708        19.2293         0.0169        79.7222       83.48806         1.1681         1.1773        28.6319         1.0937       -36.0005        -2.0382              1      0.9988424
     11141.0000         8.3779        19.8701         0.0255        79.6449       83.40034         1.1788         1.1948        29.3686          1.112        -37.442        -3.4797              1      0.9551606
     11141.5000          7.989        19.9625         0.0366        80.6836       84.57901         1.1957           1.21        29.6733         1.1061       -37.7145        -3.7522              1       0.946903
     11142.0000         7.8701        19.8402         0.0452        83.5717       87.85629         1.2181         1.2176        29.6696         1.1029       -37.4423          -3.48              1      0.9551515
     11142.5000         8.0546        18.4804         0.0451        86.1305        90.7599          1.213         1.1996        29.3001         1.1022         -37.22        -3.2577              1      0.9618879
     11143.0000         8.3918        15.8012         0.0423        87.8575        92.7196         1.2128         1.1512        28.0315         1.1115       -36.6676        -2.7053              1      0.9786273
     11143.5000         8.6624        14.1185         0.0417        87.4604         92.269         1.2391          1.141        28.0985         1.1271       -35.9194        -1.9571              1              1
     11144.0000         8.9076        13.4442         0.0416        85.9784        90.5873         1.2536         1.1474        28.6036         1.1278        -35.546        -1.5837              1              1
     11144.5000         8.9499        13.4805         0.0376        84.5867       89.00806         1.2572         1.1825        29.0265         1.1285       -35.3439        -1.3816              1              1
     11145.0000         8.7843        13.4554         0.0331        83.7163       88.02038         1.2538         1.2138        29.0938         1.1412       -35.2041        -1.2418              1              1
     11145.5000         8.7542        13.1055          0.031        81.9855       86.05634         1.2493         1.2344        29.2815          1.159       -35.1183         -1.156              1              1
     11146.0000         8.7542        12.6416         0.0323        79.5588       83.30264         1.2441          1.251        29.8103         1.1594       -35.0433         -1.081              1              1
     11146.5000         8.8103        12.4357         0.0345        79.3151        83.0261         1.2455         1.2592        30.5001         1.1545       -34.9981        -1.0358              1              1
     11147.0000         8.9425        14.7211         0.0406        80.3245       84.17152         1.2583         1.2262        29.5362         1.1459       -35.0097        -1.0474              1              1
     11147.5000          9.044        19.0056         0.0494        81.7236       85.75916          1.267         1.2078        27.6769         1.1369       -35.0645        -1.1022              1              1
     11148.0000         8.9697        21.9921         0.0628        83.5143       87.79115         1.2287         1.2017        27.3242         1.1272        -35.081        -1.1187              1              1
     11148.5000         8.9641        22.8693         0.0746        85.1304       89.62503         1.2043         1.2011        27.3827         1.1053       -35.0073         -1.045              1              1
     11149.0000         9.0186        21.7385         0.0903        86.2754       90.92432          1.244         1.1898        27.7902         1.1131       -34.9736        -1.0113              1              1
     11149.5000         9.0007         20.924         0.1008        86.4114       91.07864          1.287         1.1933        28.0231         1.1212       -35.1114        -1.1491              1              1
     11150.0000         8.9806         21.072         0.0986         86.265       90.91251         1.3043         1.1832         28.137         1.1291       -35.6523          -1.69              1              1
     11150.5000         9.0872        20.0851         0.0945        87.4683       92.27796         1.2689         1.1837        28.5131          1.128       -35.6097        -1.6474              1              1
     11151.0000         9.1998        18.4134         0.0773        88.4429        93.3839         1.2303          1.183          28.71         1.1032       -35.4858        -1.5235              1              1
     11151.5000         9.3487        17.4549         0.0524        87.9232       92.79417         1.2072         1.1768        28.9072         1.0835       -35.3412        -1.3789              1              1
     11152.0000         9.5062        18.4134           0.03         87.572       92.39563          1.207         1.1773        29.4872         1.0912       -35.5541        -1.5918              1              1
     11152.5000         9.6956        21.7748          0.019        88.3285       93.25407         1.2192         1.1877        29.8359         1.1084       -35.6251        -1.6628              1              1
