#------------------------------------------------------------------------------
# Created by    : vladimir.rabinovich
# Created on    : 09/19/2023 17:22:10
#------------------------------------------------------------------------------
~Version Information Section
VERS.           2.0     :   CWLS log ASCII Standard - VERSION 2.0
WRAP.           NO      :   One line per depth step
~Well Information Section
#MNEM       .UNIT                                         VALUE :DESCRIPTION
#------------------------------------------------------------------------------
STRT        .FT                                            1000 :START DEPTH
STOP        .FT                                            7796 :STOP DEPTH
STEP        .FT                                             0.5 :STEP      
NULL        .                                           -999.25 :NULL      
COMP        .                                SHELL OFFSHORE INC :COMPANY   
WELL        .                               OCS G06060 ST00BP00 :WELL      
FLD         .                                           WILDCAT :FIELD     
LOC         .                                                   :LOCATION  
CNTY        .                                BRAZOS LARGE BLOCK :LOCATION  
STAT        .                                             TEXAS :STATE     
CTRY        .                                     UNITED STATES :COUNTRY   
SRVC        .                                                   :SERVICE COMPANY
DATE        .                             9/13/2023 11:19:08 AM :LOG DATE  
API         .                                    42704401260000 :API NUMBER
UWI         .                                    42704401260000 :UNIQUE WELL ID
XCOORD      .                                   881020.58603234 :SURFACE X 
YCOORD      .                                   10392321.681828 :SURFACE Y 
LAT         .                                         28.616238 :LATITUDE  
LON         .                                        -95.367327 :LONGITUDE 
ELEV        .FT                                              90 :ELEVATION VALUE
ELEV_TYPE   .                                                KB :ELEVATION REFERENCE TYPE
~Curve Information Section
#MNEM       .UNIT                                      API CODE :CURVE DESCRIPTION
#------------------------------------------------------------------------------
DEPT        .FT                                                 :DEPTH     
CALI        .IN                                                 :          
CILD        .MMHO                                               :          
DPHI        .%                                                  :          
DT          .US/F                                               :          
GR          .GAPI                                               :          
GR_NORM     .GAPI                                               :GammaRay Normalized
ILD         .OHMM                                               :          
ILM         .OHMM                                               :          
SFL         .OHMM                                               :          
SP          .MV                                                 :          
SP_NORM     .MV                                                 :SP Normalized
VSH_GR      .V/V                                                :Volume of Shale from GR
VSH_SP      .V/V                                                :Volume of Shale from SP
~A        DEPTH           CALI           CILD           DPHI             DT             GR        GR_NORM            ILD            ILM            SFL             SP        SP_NORM         VSH_GR         VSH_SP
# ...
      3261.0000        -999.25       2751.188        -999.25       123.5349        25.1788       37.12185          0.357         0.4681         0.6319       -133.489      -43.04049     0.08769891     0.04453434
      3261.5000        -999.25       2769.613        -999.25       120.6578        25.4838       37.43362         0.3556         0.4658         0.6323      -132.9985      -42.55647     0.09433227     0.05553488
      3262.0000        -999.25       2787.953        -999.25       118.6218        25.6201       37.57668         0.3542         0.4641         0.6369      -133.0481      -42.61253     0.09737623     0.05426078
      3262.5000        -999.25       2806.246        -999.25       117.7616         24.705       36.66835         0.3532         0.4624          0.635      -133.1648      -42.73569        0.07805     0.05146148
      3263.0000        -999.25       2824.141        -999.25       119.8748         22.279       34.24912         0.3556         0.4608         0.6226      -133.2759      -42.85326     0.02657708     0.04878946
      3263.5000        -999.25       2842.023        -999.25       124.7002        20.4542       32.43109         0.3541         0.4594         0.6173      -133.3801      -42.96394              0     0.04627419
      3264.0000        -999.25       2858.176        -999.25       131.7542        20.3673       32.35096         0.3506          0.458         0.6132      -134.6558      -44.24612              0     0.01713371
      3264.5000        -999.25       2874.031        -999.25       141.7258        20.2805       32.27093         0.3489         0.4569         0.6081      -137.0464      -46.64317              0              0
      3265.0000        -999.25       2889.605        -999.25       146.2935        21.1401       33.13729          0.348         0.4562         0.6096      -139.6538      -49.25703    0.002921084              0
      3265.5000        -999.25       2904.977        -999.25       141.8467        22.6535       34.65746         0.3467         0.4554         0.6198      -141.3381      -50.94781     0.03526509              0
      3266.0000        -999.25       2918.363        -999.25       133.9294        22.8372       34.84793          0.345         0.4558         0.6309      -140.2275      -49.84367      0.0393176              0
      3266.5000        -999.25       2931.148        -999.25       124.2267        22.3972        34.4147         0.3428         0.4569         0.6394      -138.7043      -48.32695     0.03010007              0
      3267.0000        -999.25       2933.223        -999.25       122.4669        21.9404       33.96467         0.3405          0.458         0.6438      -137.6003      -47.22942     0.02052486              0
      3267.5000        -999.25       2932.492        -999.25        122.244        21.6737       33.70473         0.3396         0.4594         0.6455      -137.1851      -46.82069     0.01499436              0
      3268.0000        -999.25       2918.695        -999.25       122.1519        22.3697        34.4075         0.3397         0.4609         0.6472      -136.9368      -46.57886     0.02994683              0
      3268.5000        -999.25       2896.129        -999.25       121.4822        24.9122       36.95677         0.3411         0.4636         0.6491      -136.4971      -46.14563     0.08418664              0
      3269.0000        -999.25       2858.238        -999.25       123.2549        30.6016       42.65294         0.3451         0.4663         0.6591      -135.0408       -44.6958      0.2053817    0.006913619
      3269.5000        -999.25        2803.32        -999.25        128.491        40.5805       52.63861         0.3504         0.4691         0.6745      -132.3057      -41.96716      0.4178429     0.06892812
      3270.0000        -999.25       2736.648        -999.25       138.5342        49.4855       61.55038         0.3582         0.4757         0.6899      -128.5618      -38.22974      0.6074549      0.1538696
      3270.5000        -999.25        2624.34        -999.25       141.5879        59.3369       71.40855         0.3724         0.4844         0.7079      -125.3721      -35.04651      0.8172031      0.2262157
      3271.0000        -999.25       2471.059        -999.25       139.3384        65.5228       77.60121         0.3953         0.4907         0.7269      -122.3416      -32.02248       0.948962      0.2949437
      3271.5000        -999.25       2360.133        -999.25       133.5645        69.5806       81.66578         0.4205         0.4977         0.7355      -117.9896      -27.67695              1      0.3937057
      3272.0000        -999.25       2258.488        -999.25       126.1948        69.4362       81.52815         0.4478         0.5103         0.6971      -110.2738      -19.96762              1      0.5689177
      3272.5000        -999.25       2161.086        -999.25       123.5416        68.9249       81.02362         0.4759         0.5259         0.6464      -103.0581      -12.75838              1       0.732764
      3273.0000        -999.25       2065.316        -999.25       129.3223        68.8784       80.98389         0.5047          0.541          0.603       -97.7302      -7.436958              1      0.8537055
      3273.5000        -999.25       1972.805        -999.25        134.783        69.0347       81.14696          0.532         0.5545         0.5636       -94.8788      -4.592026              1       0.918363
      3274.0000        -999.25        1889.82        -999.25       140.5149        69.0453       81.31771         0.5499         0.5631         0.5461       -93.9777      -3.697395              1      0.9386955
      3274.5000        -999.25       1831.641        -999.25       144.0801         67.765        79.8764         0.5619         0.5709         0.5513       -93.7322      -3.458366      0.9973703       0.944128
      3275.0000        -999.25       1821.061        -999.25       140.7712        65.0079       76.76376         0.5566         0.5721         0.5594       -93.5011      -3.233734      0.9311438      0.9492333
      3275.5000        -999.25       1839.182        -999.25       136.8767        60.7123       71.90994         0.5471         0.5709         0.5665       -93.2421      -2.981209      0.8278711      0.9549725
      3276.0000        -999.25       1897.027        -999.25       136.4971        56.2917       66.91467         0.5302         0.5667         0.5709       -93.0715      -2.817078      0.7215888      0.9587028
      3276.5000        -999.25       2026.268        -999.25       137.5903        52.4718       62.59922          0.508         0.5564         0.5699       -93.3173      -3.069344      0.6297706      0.9529695
      3277.0000        -999.25       2172.688        -999.25         135.54        48.8382       58.49461         0.4769         0.5446         0.5617       -97.9852      -7.743713      0.5424384      0.8467338
      3277.5000        -999.25       2323.254        -999.25       131.9194        44.7682       53.89611         0.4479         0.5233          0.544      -104.1786      -13.94358      0.4445981      0.7058277
      3278.0000        -999.25       2413.199        -999.25       129.5959        41.3087       49.98854         0.4227          0.493         0.5409      -108.4814      -18.25285      0.3614583      0.6078899
      3278.5000        -999.25        2587.66        -999.25        128.855        34.9536       42.80392         0.3993         0.4667         0.5553      -113.3655      -23.14342       0.208594      0.4967405
      3279.0000        -999.25       2767.996        -999.25       133.7075        32.7322       40.29755         0.3791          0.448         0.6111      -117.7665      -27.55089      0.1552669      0.3965707
      3279.5000        -999.25       2824.176        -999.25       138.0767        30.9915        38.3352         0.3629         0.4388         0.6576      -119.9032      -29.69405      0.1135148      0.3478624
