#------------------------------------------------------------------------------
# Created by    : vladimir.rabinovich
# Created on    : 09/19/2023 17:20:09
#------------------------------------------------------------------------------
~Version Information Section
VERS.           2.0     :   CWLS log ASCII Standard - VERSION 2.0
WRAP.           NO      :   One line per depth step
~Well Information Section
#MNEM       .UNIT                                         VALUE :DESCRIPTION
#------------------------------------------------------------------------------
STRT        .FT                                             880 :START DEPTH
STOP        .FT                                           10998 :STOP DEPTH
STEP        .FT                                             0.5 :STEP      
NULL        .                                           -999.25 :NULL      
COMP        .                        HUGHES TEXAS PETROLEUM LTD :COMPANY   
WELL        .                                ST TR 00564-L NE/4 :WELL      
FLD         .                       MATAGORDA ISLAND BLOCK 0565 :FIELD     
LOC         .                                                   :LOCATION  
CNTY        .                      MATAGORDA ISLAND LARGE BLOCK :LOCATION  
STAT        .                                             TEXAS :STATE     
CTRY        .                                     UNITED STATES :COUNTRY   
SRVC        .                                                   :SERVICE COMPANY
DATE        .                             9/13/2023 11:12:01 AM :LOG DATE  
API         .                                    42703303560000 :API NUMBER
UWI         .                                    42703303560000 :UNIQUE WELL ID
XCOORD      .                                  580856.659723482 :SURFACE X 
YCOORD      .                                  10268633.8274002 :SURFACE Y 
LAT         .                                         28.256926 :LATITUDE  
LON         .                                       -96.2914173 :LONGITUDE 
ELEV        .FT                                              25 :ELEVATION VALUE
ELEV_TYPE   .                                                KB :ELEVATION REFERENCE TYPE
~Curve Information Section
#MNEM       .UNIT                                      API CODE :CURVE DESCRIPTION
#------------------------------------------------------------------------------
DEPT        .FT                                                 :DEPTH     
ASFL        .OHMM                                               :          
GR          .GAPI                                               :          
GR_NORM     .GAPI                                               :GammaRay Normalized
ILD         .OHMM                                               :          
SP          .MV                                                 :          
SP_NORM     .MV                                                 :SP Normalized
VSH_GR      .V/V                                                :Volume of Shale from GR
VSH_SP      .V/V                                                :Volume of Shale from SP
~A        DEPTH           ASFL             GR        GR_NORM            ILD             SP        SP_NORM         VSH_GR         VSH_SP
# ...
      6308.0000         0.8719        -999.25        -999.25          0.567       -81.9625      -43.59914        -999.25      0.2111271
      6308.5000         0.8243        -999.25        -999.25          0.532       -80.1216      -41.76265        -999.25      0.2451361
      6309.0000         0.7744        -999.25        -999.25         0.4969       -77.9364      -39.58188        -999.25      0.2855207
      6309.5000         0.7136        -999.25        -999.25         0.4691       -75.7538       -37.4037        -999.25      0.3258574
      6310.0000          0.667        -999.25        -999.25         0.4498       -74.3269      -35.98122        -999.25      0.3521996
      6310.5000         0.6404        -999.25        -999.25         0.4305       -72.9712      -34.62994        -999.25      0.3772233
      6311.0000         0.6243        -999.25        -999.25         0.4112       -71.1914      -32.85456        -999.25      0.4101007
      6311.5000         0.6082        -999.25        -999.25         0.3919       -69.2058      -30.87339        -999.25      0.4467891
      6312.0000         0.5971        -999.25        -999.25         0.3726       -66.4719      -28.14391        -999.25       0.497335
      6312.5000         0.5912        -999.25        -999.25         0.3794       -64.7251      -26.40153        -999.25      0.5296013
      6313.0000         0.5853        -999.25        -999.25         0.3865       -63.8983      -25.57915        -999.25      0.5448306
      6313.5000         0.5978        -999.25        -999.25         0.3935       -63.0714      -24.75667        -999.25      0.5600616
      6314.0000         0.6123        -999.25        -999.25         0.4006       -62.0281       -23.7178        -999.25         0.5793
      6314.5000         0.6435        -999.25        -999.25         0.4653       -60.9442      -22.63832        -999.25      0.5992904
      6315.0000          0.679        -999.25        -999.25         0.5448       -59.8591      -21.55764        -999.25       0.619303
      6315.5000         0.7144        -999.25        -999.25         0.6243       -56.8408      -18.54376        -999.25      0.6751155
      6316.0000         0.7665        -999.25        -999.25         0.7037       -46.8181      -8.525482        -999.25      0.8606392
      6316.5000         0.8308        -999.25        -999.25         0.7314       -44.6292      -6.341003        -999.25      0.9010925
      6317.0000         0.8518        -999.25        -999.25         0.7583       -43.3546      -5.070824        -999.25      0.9246144
      6317.5000         0.8429        -999.25        -999.25         0.7851       -42.0786      -3.799248        -999.25      0.9481621
      6318.0000         0.8336        -999.25        -999.25          0.805       -41.5049      -3.229969        -999.25      0.9587043
      6318.5000         0.8234        -999.25        -999.25         0.8006       -40.9749      -2.704388        -999.25      0.9684373
      6319.0000         0.8132        -999.25        -999.25         0.7962        -40.552      -2.285912        -999.25      0.9761868
      6319.5000          0.803        -999.25        -999.25         0.7918       -40.8832      -2.621536        -999.25      0.9699715
      6320.0000         0.7928        -999.25        -999.25         0.7875       -41.2143      -2.957054        -999.25      0.9637582
      6320.5000         0.7826        -999.25        -999.25         0.7826       -41.5454      -3.292576        -999.25      0.9575449
      6321.0000         0.7728        -999.25        -999.25         0.7756       -44.0991      -5.850697        -999.25      0.9101723
      6321.5000         0.7679        -999.25        -999.25         0.7686       -46.8804      -8.636421        -999.25      0.8585848
      6322.0000          0.763        -999.25        -999.25         0.7616       -52.0266      -13.78704        -999.25       0.763203
      6322.5000         0.7593        -999.25        -999.25         0.7546       -59.4401      -21.20496        -999.25       0.625834
      6323.0000          0.769        -999.25        -999.25         0.7487        -65.312      -27.08128        -999.25      0.5170133
      6323.5000         0.7786        -999.25        -999.25          0.745         -70.73      -32.50371        -999.25       0.416598
      6324.0000         0.7882        -999.25        -999.25         0.7413       -74.2122      -35.99033        -999.25       0.352031
      6324.5000         0.7978        -999.25        -999.25         0.7376       -76.5969      -38.37945        -999.25      0.3077879
      6325.0000         0.8102        -999.25        -999.25         0.7118       -78.8182      -40.60517        -999.25      0.2665709
      6325.5000         0.8214        -999.25        -999.25         0.6725       -80.1228       -41.9142        -999.25      0.2423297
      6326.0000         0.7993        -999.25        -999.25         0.6333       -81.4287      -43.22452        -999.25      0.2180645
      6326.5000         0.7724        -999.25        -999.25          0.594       -82.4869      -44.28714        -999.25      0.1983864
      6327.0000         0.7406        -999.25        -999.25         0.5586       -83.0151      -44.81976        -999.25       0.188523
      6327.5000         0.7089        -999.25        -999.25         0.5252       -83.5433      -45.35238        -999.25      0.1786597
      6328.0000         0.6798        -999.25        -999.25         0.4919       -82.7196       -44.5331        -999.25      0.1938315
      6328.5000         0.6523        -999.25        -999.25         0.4586       -81.3364      -43.15433        -999.25      0.2193643
      6329.0000          0.644        -999.25        -999.25         0.4269        -79.246      -41.06835        -999.25      0.2579935
      6329.5000         0.6358        -999.25        -999.25         0.4177       -72.2416      -34.06837        -999.25      0.3876228
      6330.0000         0.6399        -999.25        -999.25         0.4086       -66.1451      -27.97629        -999.25       0.500439
      6330.5000         0.6537        -999.25        -999.25         0.3994        -58.093      -19.92861        -999.25      0.6494702
      6331.0000         0.6676        -999.25        -999.25         0.3902       -55.1945      -17.03453        -999.25      0.7030643
      6331.5000         0.6798        -999.25        -999.25         0.3836       -51.5226      -13.36705        -999.25      0.7709805
      6332.0000         0.6916        -999.25        -999.25         0.4177       -48.1552      -10.00407        -999.25      0.8332579
      6332.5000         0.7033        -999.25        -999.25         0.4518       -45.1917      -7.044994        -999.25      0.8880557
      6333.0000         0.7067        -999.25        -999.25         0.4859       -44.0817      -5.939415        -999.25      0.9085293
      6333.5000         0.7085        -999.25        -999.25           0.52        -43.064       -4.92614        -999.25      0.9272937
      6334.0000         0.7102        -999.25        -999.25          0.549       -42.0474      -3.913963        -999.25      0.9460377
      6334.5000         0.7121        -999.25        -999.25         0.5744       -41.0297      -2.900684        -999.25      0.9648021
      6335.0000         0.7169        -999.25        -999.25         0.5999       -40.7117      -2.587105        -999.25      0.9706092
      6335.5000         0.7216        -999.25        -999.25         0.6253       -40.4064      -2.286224        -999.25       0.976181
      6336.0000         0.7264        -999.25        -999.25         0.6507       -40.1011      -1.985348        -999.25      0.9817528
      6336.5000         0.7311        -999.25        -999.25         0.6761       -39.8925       -1.78117        -999.25      0.9855339
      6337.0000         0.7359        -999.25        -999.25         0.7016       -39.8189       -1.71199        -999.25       0.986815
