#------------------------------------------------------------------------------
# Created by    : vladimir.rabinovich
# Created on    : 09/19/2023 17:22:56
#------------------------------------------------------------------------------
~Version Information Section
VERS.           2.0     :   CWLS log ASCII Standard - VERSION 2.0
WRAP.           NO      :   One line per depth step
~Well Information Section
#MNEM       .UNIT                                         VALUE :DESCRIPTION
#------------------------------------------------------------------------------
STRT        .FT                                             890 :START DEPTH
STOP        .FT                                            9495 :STOP DEPTH
STEP        .FT                                             0.5 :STEP      
NULL        .                                           -999.25 :NULL      
COMP        .                                   MARATHON OIL CO :COMPANY   
WELL        .                               OCS G04138 ST00BP00 :WELL      
FLD         .                                           WILDCAT :FIELD     
LOC         .                                                   :LOCATION  
CNTY        .                      MATAGORDA ISLAND LARGE BLOCK :LOCATION  
STAT        .                                             TEXAS :STATE     
CTRY        .                                     UNITED STATES :COUNTRY   
SRVC        .                                                   :SERVICE COMPANY
DATE        .                             9/13/2023 11:12:11 AM :LOG DATE  
API         .                                    42703402070000 :API NUMBER
UWI         .                                    42703402070000 :UNIQUE WELL ID
XCOORD      .                                  590883.400226114 :SURFACE X 
YCOORD      .                                  10259990.6406746 :SURFACE Y 
LAT         .                                         28.233929 :LATITUDE  
LON         .                                        -96.259589 :LONGITUDE 
ELEV        .FT                                              90 :ELEVATION VALUE
ELEV_TYPE   .                                                KB :ELEVATION REFERENCE TYPE
~Curve Information Section
#MNEM       .UNIT                                      API CODE :CURVE DESCRIPTION
#------------------------------------------------------------------------------
DEPT        .FT                                                 :DEPTH     
SP          .MV                                                 :          
SP_NORM     .MV                                                 :SP Normalized
VSH_SP      .V/V                                                :Volume of Shale from SP
~A        DEPTH             SP        SP_NORM         VSH_SP
# ...
      7688.0000        17.3344     -0.6380749              1
      7688.5000        17.3994      -0.706192              1
      7689.0000        17.4488      -0.758707              1
      7689.5000        17.4941     -0.8071251              1
      7690.0000        17.5395     -0.8556404              1
      7690.5000        17.5828     -0.9020576              1
      7691.0000        17.6239     -0.9462719              1
      7691.5000        17.6651     -0.9905891              1
      7692.0000        17.6546     -0.9832058              1
      7692.5000        17.6242     -0.9559231              1
      7693.0000        17.5938     -0.9286385              1
      7693.5000        17.5502      -0.888155              1
      7694.0000        17.5062     -0.8472729              1
      7694.5000        17.4623      -0.806488              1
      7695.0000        17.4069     -0.7542057              1
      7695.5000        17.3191     -0.6695213              1
      7696.0000        17.2315     -0.5850391              1
      7696.5000        17.0916     -0.4482555              1
      7697.0000        16.9047     -0.2644711              1
      7697.5000        16.7175    -0.08038902              1
      7698.0000        16.3891      0.2448959              1
      7698.5000        16.0582      0.5726776              1
      7699.0000        16.4068      0.2209625              1
      7699.5000        16.8866     -0.2619553              1
      7700.0000          17.72      -1.098471       0.997762
      7700.5000        18.7666      -2.148188      0.9739048
      7701.0000        19.6122      -2.996902      0.9546158
      7701.5000         20.432      -3.819818      0.9359132
      7702.0000        20.7403      -4.131235      0.9288356
      7702.5000         20.133      -3.527052       0.942567
      7703.0000        19.5552       -2.95237       0.955628
      7703.5000         19.106      -2.506287      0.9657662
      7704.0000        18.7086      -2.112001      0.9747272
      7704.5000        18.3802      -1.786718        0.98212
      7705.0000        18.3932      -1.802835      0.9817538
      7705.5000        18.4581      -1.870852      0.9802079
      7706.0000        18.5231      -1.938969      0.9786598
      7706.5000         18.588      -2.006985       0.977114
      7707.0000         18.671      -2.093102      0.9751568
      7707.5000        18.8456      -2.270819      0.9711177
      7708.0000        19.0203      -2.448635      0.9670765
      7708.5000        19.1949      -2.626352      0.9630374
      7709.0000        19.3799      -2.814468      0.9587621
      7709.5000        19.5668      -3.004484      0.9544435
      7710.0000        19.7537      -3.194502       0.950125
      7710.5000        19.9394      -3.383318      0.9458337
      7711.0000        20.1208      -3.567833      0.9416401
      7711.5000        20.3021      -3.752249      0.9374489
      7712.0000        19.8904      -3.343666      0.9467348
      7712.5000        19.4424      -2.898783      0.9568458
      7713.0000        18.8046      -2.264099      0.9712705
      7713.5000         17.068     -0.5306168              1
      7714.0000        16.4102      0.1240673              1
      7714.5000         16.708     -0.1768494              1
      7715.0000        17.0141     -0.4860649              1
      7715.5000        17.3756     -0.8506832              1
      7716.0000        17.7378         -1.216      0.9950909
      7716.5000        18.0993      -1.580616      0.9868042
      7717.0000        18.4372      -1.921633      0.9790538
      7717.5000        18.3591      -1.846649       0.980758
      7718.0000        18.0165      -1.507166      0.9884735
      7718.5000        17.6624      -1.156181      0.9964504
      7719.0000        17.1428      -0.639698              1
      7719.5000        16.6225     -0.1225147              1
      7720.0000        16.1804      0.3164673              1
      7720.5000        15.8848      0.6089535              1
      7721.0000        15.5894      0.9012365              1
      7721.5000        15.4505       1.037021              1
      7722.0000        15.3485       1.135903              1
      7722.5000        15.2915       1.189787              1
      7723.0000         15.242       1.236171              1
      7723.5000        15.1925       1.282554              1
      7724.0000         15.143       1.328938              1
      7724.5000        15.0947       1.374121              1
      7725.0000        15.0468       1.418904              1
      7725.5000        14.9987       1.463887              1
      7726.0000        14.9507       1.508771              1
      7726.5000        14.9027       1.553654              1
      7727.0000        14.8655       1.587737              1
      7727.5000        14.8341       1.616021              1
      7728.0000        14.8027       1.644304              1
      7728.5000        14.7712       1.672688              1
      7729.0000        14.7397       1.701071              1
      7729.5000        14.7134       1.724255              1
      7730.0000        14.6956       1.738938              1
      7730.5000        14.6778       1.753623              1
      7731.0000          14.66       1.768307              1
      7731.5000        14.6422        1.78299              1
      7732.0000        14.6523       1.769773              1
      7732.5000        14.6927       1.726256              1
      7733.0000        14.7331        1.68274              1
      7733.5000        14.7735       1.639223              1
      7734.0000        14.8266       1.583007              1
      7734.5000        14.8837        1.52279              1
      7735.0000        14.9408       1.462574              1
      7735.5000        14.9784       1.421857              1
      7736.0000          14.99       1.407141              1
      7736.5000        15.0016       1.392424              1
      7737.0000        15.0355       1.355408              1
      7737.5000        15.0926       1.295191              1
      7738.0000        15.1497       1.234974              1
      7738.5000        15.2202       1.161358              1
      7739.0000        15.3612       1.017241              1
      7739.5000        15.5023       0.873024              1
      7740.0000        15.8143      0.5579081              1
      7740.5000        16.2898      0.0792923              1
      7741.0000        16.6461     -0.2801228              1
      7741.5000        16.7707     -0.4078407              1
      7742.0000        16.8952     -0.5354576              1
      7742.5000        17.0197     -0.6630726              1
      7743.0000        17.1465     -0.7929897              1
      7743.5000         17.278     -0.9276066              1
      7744.0000        17.4096      -1.062323      0.9985836
      7744.5000        17.5412      -1.197041      0.9955218
      7745.0000        17.6728      -1.331757      0.9924601
      7745.5000        17.7648      -1.426872      0.9902983
      7746.0000        17.8326      -1.497789      0.9886866
      7746.5000        17.9005      -1.568806      0.9870726
      7747.0000        17.9684      -1.639822      0.9854586
      7747.5000        18.0397      -1.714239      0.9837673
      7748.0000        18.1379      -1.815556      0.9814646
      7748.5000        18.1195      -1.800272       0.981812
      7749.0000         17.962      -1.645889      0.9853207
      7749.5000        17.6158      -1.302807       0.993118
      7750.0000        17.1997      -0.889822              1
      7750.5000        16.8205     -0.5137367              1
      7751.0000         16.508     -0.2043533              1
      7751.5000        16.2656     0.03492928              1
      7752.0000        16.1868      0.1106129              1
      7752.5000        16.1079      0.1863956              1
      7753.0000        15.9963      0.2948799              1
      7753.5000        15.8742      0.4138632              1
