#------------------------------------------------------------------------------
# Created by    : vladimir.rabinovich
# Created on    : 09/19/2023 17:20:24
#------------------------------------------------------------------------------
~Version Information Section
VERS.           2.0     :   CWLS log ASCII Standard - VERSION 2.0
WRAP.           NO      :   One line per depth step
~Well Information Section
#MNEM       .UNIT                                         VALUE :DESCRIPTION
#------------------------------------------------------------------------------
STRT        .FT                                            1590 :START DEPTH
STOP        .FT                                            8991 :STOP DEPTH
STEP        .FT                                             0.5 :STEP      
NULL        .                                           -999.25 :NULL      
COMP        .                                 C & K OFFSHORE CO :COMPANY   
WELL        .                                OCS 00507 ST00BP00 :WELL      
FLD         .                                           WILDCAT :FIELD     
LOC         .                                                   :LOCATION  
CNTY        .                           HIGH ISLAND LARGE BLOCK :LOCATION  
STAT        .                                             TEXAS :STATE     
CTRY        .                                     UNITED STATES :COUNTRY   
SRVC        .                                                   :SERVICE COMPANY
DATE        .                             9/13/2023 11:19:15 AM :LOG DATE  
API         .                                    42708300260000 :API NUMBER
UWI         .                                    42708300260000 :UNIQUE WELL ID
XCOORD      .                                  1287575.74118613 :SURFACE X 
YCOORD      .                                  10681645.7296129 :SURFACE Y 
LAT         .                                         29.428295 :LATITUDE  
LON         .                                        -94.108714 :LONGITUDE 
ELEV        .FT                                              73 :ELEVATION VALUE
ELEV_TYPE   .                                                KB :ELEVATION REFERENCE TYPE
~Curve Information Section
#MNEM       .UNIT                                      API CODE :CURVE DESCRIPTION
#------------------------------------------------------------------------------
DEPT        .FT                                                 :DEPTH     
ASN         .OHMM                                               :          
CALI        .IN                                                 :          
CILD        .MMHO                                               :          
DT          .US/F                                               :          
GR          .GAPI                                               :          
GR_NORM     .GAPI                                               :GammaRay Normalized
ILD         .OHMM                                               :          
SP          .MV                                                 :          
SP_NORM     .MV                                                 :SP Normalized
VSH_GR      .V/V                                                :Volume of Shale from GR
VSH_SP      .V/V                                                :Volume of Shale from SP
~A        DEPTH            ASN           CALI           CILD             DT             GR        GR_NORM            ILD             SP        SP_NORM         VSH_GR         VSH_SP
# ...
      3547.5000         0.8375        11.3114       2744.949       132.1055        53.3727       57.07508         0.3585        -70.595      -30.98004      0.5122357      0.5574281
      3548.0000         0.8169        11.4867       3133.758       139.0767        51.7338       55.02241         0.3325       -72.1041      -32.48849      0.4685619      0.5358787
      3548.5000         0.7963         11.471       3218.086       141.1851        50.2565       53.17175         0.3014        -74.551      -34.93475      0.4291862      0.5009322
      3549.0000         0.7756        11.3547       3258.805       141.2747        47.6406       49.89783         0.2825       -77.5693      -37.95239      0.3595282      0.4578229
      3549.5000         0.7436         11.367        3350.02       140.6736        46.7917       48.83266         0.2656       -81.5266      -41.90905      0.3368651      0.4012992
      3550.0000         0.7234        11.3664        3295.23       140.0044        46.7986       48.83724         0.2737       -85.7448       -46.1266      0.3369626      0.3410486
      3550.5000         0.6997        11.2672       3066.793       136.0557        46.8549       48.90358         0.2923       -84.6232      -45.00436       0.338374      0.3570806
      3551.0000         0.6663        11.0574       2838.457       132.8911        47.2375       49.37779          0.311       -82.6023      -42.98281      0.3484636      0.3859598
      3551.5000         0.6454         10.767       2610.121       129.9365        49.4849         52.183         0.3296       -80.5826      -40.96247      0.4081489      0.4148219
      3552.0000         0.6239        10.7223       2381.785       133.1147        54.2233       58.10196         0.3536        -78.563      -38.94222      0.5340841      0.4436826
      3552.5000         0.6048         10.713       2192.422       117.3375        59.6703       64.90666         0.3903       -76.2354      -36.61397      0.6788651      0.4769433
      3553.0000         0.6174        10.6412       2143.422       120.2704        62.7095       68.70163           0.42       -73.5623      -33.94022      0.7596092      0.5151396
      3553.5000          0.633         10.546       2106.719       125.0258        65.0028       71.56421         0.4417        -70.149      -30.52628      0.8205151      0.5639103
      3554.0000         0.6485         10.487       2041.777       132.1094        66.1077       72.94128         0.4551       -67.2512      -27.62783      0.8498145      0.6053168
      3554.5000         0.6641         10.495       2015.436       131.2805        64.5626       71.00587         0.4644       -64.7422      -25.11819      0.8086355      0.6411688
      3555.0000         0.6876        10.5477        2017.68       132.7776        61.1268       66.70708         0.4737       -55.7706      -16.14594      0.7171718      0.7693438
      3555.5000         0.7118        10.6683       2013.754       136.6016        57.4659       62.12692          0.483       -56.8425      -17.21719      0.6197217      0.7540401
      3556.0000         0.7288        10.8855       2130.938       133.0874        56.6327       61.08138         0.4923       -59.0969      -19.47094      0.5974761      0.7218437
      3556.5000           0.75        11.1623        2054.25       131.0779        56.6239       61.06633         0.5023       -60.9539      -21.32729      0.5971559      0.6953244
      3557.0000         0.7788         10.933       1953.375       126.7155        57.0909       61.64604         0.5126       -63.1387      -23.51145      0.6094902      0.6641222
      3557.5000         0.8024        10.8919       1872.938       120.1271        57.2277       61.81299         0.5229       -66.4327       -26.8048      0.6130424      0.6170743
      3558.0000         0.8228        11.0081       1754.518       120.5557        58.8207       63.80021         0.5551       -66.7954      -27.16686      0.6553236       0.611902
      3558.5000         0.8399        11.3557       1717.906       124.0919        59.2559       64.34016         0.5948       -62.8331      -23.20391       0.666812      0.6685156
      3559.0000         0.8565        11.9519        1522.17       130.9543        57.2518         61.831         0.6265       -58.9305      -19.30066      0.6134255      0.7242762
      3559.5000         0.8705        12.1023       1456.842        137.271        56.0143       60.28008         0.6489       -56.2413      -16.61081      0.5804272      0.7627026
      3560.0000         0.8833        11.9129       1432.756       140.3884        56.4086       60.76891          0.633       -54.4918      -14.86067      0.5908279      0.7877048
      3560.5000         0.8914        12.0393       1415.262       142.4229        57.4348       62.04762         0.6106       -52.9877      -13.35592      0.6180345      0.8092011
      3561.0000         0.8766        11.9068       1429.283       140.7937        57.8665       62.58321         0.5882       -52.5424      -12.90998      0.6294299      0.8155718
      3561.5000         0.8526        11.4862       1470.527       139.6865        59.8854       65.10278         0.5658       -52.1517      -12.51863      0.6830379      0.8211625
      3562.0000         0.8276          11.22       1524.268       139.1892        62.0469       67.80061         0.5451       -51.7912      -12.15748      0.7404386      0.8263217
      3562.5000         0.7983        10.9725       1571.143       138.3777        63.7585       69.93608         0.5324       -51.4474      -11.81303      0.7858741      0.8312424
      3563.0000         0.7678        10.7525        1609.25       137.2791        69.3188       76.88242         0.5196       -51.3891      -11.75409      0.9336684      0.8320844
      3563.5000         0.7419        10.6751       1747.824       135.8975        70.3564       78.17537         0.5077       -52.7287      -13.09304      0.9611781      0.8129566
      3564.0000         0.7176        10.6018       1932.197       130.7913        70.8794       78.82508         0.4962       -54.1751       -14.5388      0.9750017      0.7923029
      3564.5000         0.7292        10.5391       1991.871        125.915        68.1348       75.39029         0.4848       -56.3171      -16.68015       0.901921      0.7617121
      3565.0000         0.7762        10.5998       1992.883         123.22        59.0941       64.08538         0.4734        -61.047       -21.4094      0.6613911      0.6941513
      3565.5000         0.8708        10.5034       1999.402       118.1583        52.9287       56.37458         0.4732       -73.9448      -34.30656      0.4973316      0.5099064
      3566.0000         0.9509        10.3542       2005.924       115.6979        48.1557       50.40429         0.4779       -76.5023      -36.86341       0.370304      0.4733799
      3566.5000         1.0242        10.0562       2000.111       108.6451         46.196       47.95062         0.4955       -78.0798      -38.44027      0.3180984      0.4508533
      3567.0000         1.0586        10.0223       1988.773        101.921        44.8266       46.23483         0.5406       -79.4995      -39.85931       0.281592      0.4305812
      3567.5000         1.0947        10.1656       1966.398       100.0436        43.9714        45.1618         0.5858       -81.9781      -42.33727      0.2587616      0.3951818
      3568.0000         1.1256        10.2479       1884.525        101.054        43.4124         44.459         0.6255       -81.2167      -41.57522      0.2438085      0.4060683
      3568.5000         1.1518        10.3849       1646.436       102.7534        41.2424       41.74246         0.6267       -79.5616      -39.91948      0.1860097      0.4297218
      3569.0000         1.1382        10.7255       1552.787        105.451        40.5115       40.82479         0.6078       -77.3135      -37.67073      0.1664849      0.4618467
      3569.5000         1.1186        11.0092       1489.131       112.7384        40.6057       40.93851         0.5872       -74.3151      -34.67168      0.1689044      0.5046902
