#------------------------------------------------------------------------------
# Created by    : vladimir.rabinovich
# Created on    : 09/19/2023 17:21:24
#------------------------------------------------------------------------------
~Version Information Section
VERS.           2.0     :   CWLS log ASCII Standard - VERSION 2.0
WRAP.           NO      :   One line per depth step
~Well Information Section
#MNEM       .UNIT                                         VALUE :DESCRIPTION
#------------------------------------------------------------------------------
STRT        .FT                                             682 :START DEPTH
STOP        .FT                                            8542 :STOP DEPTH
STEP        .FT                                             0.5 :STEP      
NULL        .                                           -999.25 :NULL      
COMP        .                       CORPUS CHRISTI OIL & GAS CO :COMPANY   
WELL        .                               OCS G08551 ST00BP00 :WELL      
FLD         .                                           WILDCAT :FIELD     
LOC         .                                                   :LOCATION  
CNTY        .                             GALVESTON LARGE BLOCK :LOCATION  
STAT        .                                             TEXAS :STATE     
CTRY        .                                     UNITED STATES :COUNTRY   
SRVC        .                                                   :SERVICE COMPANY
DATE        .                             9/13/2023 11:19:36 AM :LOG DATE  
API         .                                    42706401950000 :API NUMBER
UWI         .                                    42706401950000 :UNIQUE WELL ID
XCOORD      .                                   976199.22633255 :SURFACE X 
YCOORD      .                                  10415950.2633902 :SURFACE Y 
LAT         .                                         28.686063 :LATITUDE  
LON         .                                        -95.072067 :LONGITUDE 
ELEV        .FT                                              81 :ELEVATION VALUE
ELEV_TYPE   .                                                KB :ELEVATION REFERENCE TYPE
~Curve Information Section
#MNEM       .UNIT                                      API CODE :CURVE DESCRIPTION
#------------------------------------------------------------------------------
DEPT        .FT                                                 :DEPTH     
CALI        .IN                                                 :          
DPHI        .%                                                  :          
DRHO        .G/C3                                               :          
DT          .US/F                                               :          
GR          .GAPI                                               :          
GR_1        .GAPI                                               :          
GR_NORM     .GAPI                                               :GammaRay Normalized
ILD         .OHMM                                               :          
ILM         .OHMM                                               :          
NPHI        .%                                                  :          
SFL         .OHMM                                               :          
SP_NORM     .MV                                                 :SP Normalized
SPS         .MV                                                 :          
VSH_GR      .V/V                                                :Volume of Shale from GR
VSH_SP      .V/V                                                :Volume of Shale from SP
~A        DEPTH           CALI           DPHI           DRHO             DT             GR           GR_1        GR_NORM            ILD            ILM           NPHI            SFL        SP_NORM            SPS         VSH_GR         VSH_SP
# ...
      3232.0000        -999.25        -999.25        -999.25       142.7385        90.3783        -999.25        90.8177         0.8058         0.7964        -999.25         0.7812      -5.099777        -77.322              1       0.954415
      3232.5000        -999.25        -999.25        -999.25       141.6851        88.5043        -999.25        88.4752          0.818         0.8091        -999.25         0.7955      -5.294579       -77.5168              1      0.9515503
      3233.0000        -999.25        -999.25        -999.25       140.9763        86.0186        -999.25       85.36807         0.8306         0.8219        -999.25         0.8182       -5.13858       -77.3608              1      0.9538444
      3233.5000        -999.25        -999.25        -999.25       141.3352         84.713        -999.25       83.73607         0.8462         0.8341        -999.25         0.8384      -5.069481       -77.2917              1      0.9548606
      3234.0000        -999.25        -999.25        -999.25       141.2661        85.9408        -999.25       85.27083          0.861          0.845        -999.25         0.8562      -4.804878       -77.0271              1      0.9587518
      3234.5000        -999.25        -999.25        -999.25       140.8459        87.7415        -999.25        87.5217         0.8666         0.8514        -999.25         0.8601       -5.03878        -77.261              1      0.9553121
      3235.0000        -999.25        -999.25        -999.25       141.5159         89.314        -999.25       89.48732          0.864         0.8505        -999.25         0.8608      -5.279381       -77.5016              1      0.9517738
      3235.5000        -999.25        -999.25        -999.25        142.998        90.4015        -999.25       90.84669         0.8527         0.8442        -999.25         0.8515      -5.129379       -77.3516              1      0.9539797
      3236.0000        -999.25        -999.25        -999.25        144.511        90.4413        -999.25       90.89645         0.8386         0.8349        -999.25         0.8423      -4.458679       -76.6809              1      0.9638429
      3236.5000        -999.25        -999.25        -999.25       145.5186        89.1974        -999.25       89.34158          0.823         0.8254        -999.25         0.8295      -4.038979       -76.2612              1       0.970015
      3237.0000        -999.25        -999.25        -999.25       146.0789         88.299        -999.25       88.21857         0.8092         0.8128        -999.25         0.8168       -4.24498       -76.4672              1      0.9669856
      3237.5000        -999.25        -999.25        -999.25        146.335        89.8918        -999.25       90.20957         0.8007         0.8003        -999.25         0.8013      -4.653778        -76.876              1      0.9609739
      3238.0000        -999.25        -999.25        -999.25       146.2534        91.6387        -999.25        92.3932         0.7922         0.7893        -999.25         0.7847      -4.719482       -76.9417              1      0.9600076
      3238.5000        -999.25        -999.25        -999.25       145.7495        91.4099        -999.25       92.10719         0.7909         0.7843        -999.25         0.7809      -4.003281       -76.2255              1        0.97054
      3239.0000        -999.25        -999.25        -999.25       145.1379        88.6973        -999.25       88.71645           0.79         0.7793        -999.25         0.7806       -3.66478        -75.887              1      0.9755179
      3239.5000        -999.25        -999.25        -999.25       144.7207        84.6008        -999.25       83.59582         0.7939         0.7805        -999.25         0.7887      -3.919579       -76.1418              1      0.9717709
      3240.0000        -999.25        -999.25        -999.25        144.541        81.5059        -999.25       79.72719         0.8015         0.7886        -999.25         0.7962      -4.439278       -76.6615      0.9941955      0.9641283
      3240.5000        -999.25        -999.25        -999.25       144.6572         80.379        -999.25       78.31857          0.809         0.7968        -999.25         0.8025      -4.674179       -76.8964      0.9642248      0.9606738
      3241.0000        -999.25        -999.25        -999.25       144.9878        82.8772        -999.25       81.44131         0.8153         0.8052        -999.25         0.8026      -4.653877       -76.8761              1      0.9609724
      3241.5000        -999.25        -999.25        -999.25       145.4041        84.3269        -999.25       83.25344         0.8176         0.8136        -999.25         0.7985      -4.348778        -76.571              1      0.9654592
      3242.0000        -999.25        -999.25        -999.25       145.4448        86.0449        -999.25       85.40094         0.8107         0.8131        -999.25         0.7976      -4.090179       -76.3124              1      0.9692621
      3242.5000        -999.25        -999.25        -999.25       145.8916        89.7653        -999.25       90.05144         0.8093           0.81        -999.25         0.7981      -4.180779        -76.403              1      0.9679297
      3243.0000        -999.25        -999.25        -999.25       146.6592        94.6941        -999.25       96.21245         0.8094         0.8055        -999.25         0.7981      -4.460381       -76.6826              1       0.963818
      3243.5000        -999.25        -999.25        -999.25       147.3718        98.0259        -999.25       100.3772         0.8021         0.7996        -999.25         0.7969      -4.769676       -76.9919              1      0.9592695
      3244.0000        -999.25        -999.25        -999.25        147.198       100.0541        -999.25       102.9124          0.797         0.7928        -999.25         0.7868      -4.940475       -77.1627              1      0.9567577
      3244.5000        -999.25        -999.25        -999.25       146.5815         98.511        -999.25       100.9836         0.7908         0.7836        -999.25         0.7792       -4.99678        -77.219              1      0.9559297
      3245.0000        -999.25        -999.25        -999.25       146.0217         97.223        -999.25       99.37357         0.7789         0.7771        -999.25         0.7743      -4.679176       -76.9014              1      0.9606004
      3245.5000        -999.25        -999.25        -999.25       146.2944        96.5835        -999.25       99.27392         0.7722         0.7724        -999.25         0.7743      -4.431679       -76.6539              1        0.96424
      3246.0000        -999.25        -999.25        -999.25       146.3542         96.344        -999.25       99.91569         0.7666         0.7671        -999.25         0.7838      -4.259575       -76.4818              1      0.9667709
      3246.5000        -999.25        -999.25        -999.25       146.4509        96.5758        -999.25       101.1466         0.7607         0.7615        -999.25         0.7997      -4.333481       -76.5557              1      0.9656841
      3247.0000        -999.25        -999.25        -999.25       146.8762        95.2996        -999.25       100.4925         0.7491          0.755        -999.25         0.8105      -4.417679       -76.6399              1      0.9644459
      3247.5000        -999.25        -999.25        -999.25       146.6746        92.3726        -999.25       97.77488          0.742         0.7503        -999.25         0.8103      -4.427681       -76.6499              1      0.9642988
      3248.0000        -999.25        -999.25        -999.25       145.6697        88.5017        -999.25       93.87741         0.7466         0.7471        -999.25         0.8047      -4.068581       -76.2908              1      0.9695797
      3248.5000        -999.25        -999.25        -999.25       144.4639        83.0841        -999.25       88.04655         0.7548         0.7508        -999.25          0.799      -3.813782        -76.036              1      0.9733267
