#------------------------------------------------------------------------------
# Created by    : vladimir.rabinovich
# Created on    : 09/19/2023 17:20:01
#------------------------------------------------------------------------------
~Version Information Section
VERS.           2.0     :   CWLS log ASCII Standard - VERSION 2.0
WRAP.           NO      :   One line per depth step
~Well Information Section
#MNEM       .UNIT                                         VALUE :DESCRIPTION
#------------------------------------------------------------------------------
STRT        .FT                                            3470 :START DEPTH
STOP        .FT                                           12708 :STOP DEPTH
STEP        .FT                                             0.5 :STEP      
NULL        .                                           -999.25 :NULL      
COMP        .                                     INEXCO OIL CO :COMPANY   
WELL        .                                     ST TR 00794-L :WELL      
FLD         .                                       BLOCK 794-L :FIELD     
LOC         .                                                   :LOCATION  
CNTY        .                        MUSTANG ISLAND LARGE BLOCK :LOCATION  
STAT        .                                             TEXAS :STATE     
CTRY        .                                     UNITED STATES :COUNTRY   
SRVC        .                                                   :SERVICE COMPANY
DATE        .                             9/13/2023 11:18:55 AM :LOG DATE  
API         .                                    42702301710000 :API NUMBER
UWI         .                                    42702301710000 :UNIQUE WELL ID
XCOORD      .                                  319607.894357718 :SURFACE X 
YCOORD      .                                   10038241.944616 :SURFACE Y 
LAT         .                                        27.6026524 :LATITUDE  
LON         .                                       -97.0775955 :LONGITUDE 
ELEV        .FT                                               0 :ELEVATION VALUE
ELEV_TYPE   .                                                GL :ELEVATION REFERENCE TYPE
~Curve Information Section
#MNEM       .UNIT                                      API CODE :CURVE DESCRIPTION
#------------------------------------------------------------------------------
DEPT        .FT                                                 :DEPTH     
ASFL        .OHMM                                               :          
CILD        .MMHO                                               :          
DT          .US/F                                               :          
GR          .GAPI                                               :          
GR_NORM     .GAPI                                               :GammaRay Normalized
ILD         .OHMM                                               :          
ILM         .OHMM                                               :          
SP          .MV                                                 :          
SP_NORM     .MV                                                 :SP Normalized
VSH_GR      .V/V                                                :Volume of Shale from GR
VSH_SP      .V/V                                                :Volume of Shale from SP
~A        DEPTH           ASFL           CILD             DT             GR        GR_NORM            ILD            ILM             SP        SP_NORM         VSH_GR         VSH_SP
# ...
      6575.0000         0.9688       2192.398        73.8036        37.2271       35.91035         0.3802         0.5412      -134.1426       -65.5724     0.06192244              0
      6575.5000         1.0343       2161.598        74.5607        38.6494       38.78377         0.3857         0.5488      -133.3394      -64.78506       0.123059    0.003358364
      6576.0000         1.1463       2130.871        76.2817        40.0717       41.65722         0.3927         0.5627      -132.2134      -63.67491      0.1841961     0.02070451
      6576.5000          1.178       2099.391        77.7119         41.032       43.59832         0.3998         0.5788       -131.155      -62.63237      0.2254962     0.03699422
      6577.0000         1.1653        2022.09        78.8475         41.777       45.10498         0.4069         0.5955      -130.1572      -61.65042      0.2575529     0.05233717
      6577.5000         1.1544       1958.217        80.2546        41.2231       43.99045          0.414         0.6132      -129.1606      -60.66969      0.2338394     0.06766117
      6578.0000         1.1437       1902.221         81.652        40.6692       42.87595          0.421         0.6386      -128.2922      -59.81715      0.2101266     0.08098209
      6578.5000         1.1703       1856.467        82.1449        40.1152       41.76123         0.4307         0.6712      -127.5159      -59.05669      0.1864092     0.09286416
      6579.0000         1.2161       1819.988        81.9991        39.5613       40.64671         0.4421            0.7      -126.7394      -58.29605       0.162696      0.1047492
      6579.5000         1.2781       1790.686         81.406        39.0074       39.53222         0.4534         0.7179      -125.9025      -57.47501      0.1389833       0.117578
      6580.0000         1.3361       1777.713        80.8687        38.4535       38.41769         0.4648         0.7252      -126.9353      -58.52367      0.1152699      0.1011927
      6580.5000         1.3317       1774.002        80.6222        37.6891        36.8784         0.4761         0.7251      -129.1729      -60.77711     0.08251913     0.06598258
      6581.0000         1.3027       1771.904        81.6508         36.851       35.19038         0.4875         0.7238       -130.084      -61.70407     0.04660375     0.05149889
      6581.5000         1.2738       1769.805        85.0929        35.9233       33.32154         0.4988         0.7275      -130.5564      -62.19233    0.006841213     0.04386985
      6582.0000         1.2473       1767.707        87.6051        35.2551       31.97637         0.5078         0.7273      -131.0281      -62.67989              0     0.03625166
      6582.5000         1.2498       1766.969        88.1747        35.9245       33.33046         0.5159          0.733      -131.4795      -63.14715    0.007030974     0.02895081
      6583.0000          1.286       1766.746        87.9258        36.5933       34.68333          0.524         0.7403      -131.7239       -63.4074     0.03581546     0.02488434
      6583.5000         1.3287       1766.521        87.1499        37.2918       36.09614         0.5321         0.7443      -131.9685      -63.66786     0.06587528     0.02081466
      6584.0000         1.4103       1773.824        85.6309         38.015        37.5588         0.5394         0.7434      -132.1902      -63.90541     0.09699574     0.01710296
      6584.5000         1.4054       1788.125        83.6785        38.7383       39.02167         0.5317         0.7354      -132.3542      -64.08527      0.1281206     0.01429272
      6585.0000         1.3346       1802.414        81.6141        39.4718        40.5051          0.524         0.7264      -132.5186      -64.26552      0.1596829     0.01147628
      6585.5000         1.2807       1816.715        80.1036        40.2652       42.10942         0.5163         0.7144      -132.7446      -64.50738      0.1938175    0.007697225
      6586.0000         1.2328       1842.166        80.7767        40.8705       43.33414         0.5058         0.7058      -133.0286      -64.80723      0.2198753    0.003012061
      6586.5000         1.1831       1875.793        82.8569        40.3372        42.2612         0.4862         0.6983      -133.3191      -65.11359      0.1970469              0
      6587.0000         1.2037       1911.256        84.0303        39.8038       41.18805         0.4665         0.6783      -133.6726      -65.48295      0.1742139              0
      6587.5000         1.2865       1973.582        84.1453        39.2704       40.11492         0.4469         0.6411      -134.0747      -65.90091      0.1513812              0
      6588.0000         1.3377       2146.063        83.2318          38.37       38.30116         0.4272         0.6042      -134.6177      -66.45976      0.1127907              0
      6588.5000         1.2659        2387.25        82.2794        37.1509        35.8443         0.4076         0.5718      -135.3125      -67.17041     0.06051693              0
      6589.0000         1.1618       2477.695        82.3129        36.2414       34.01219         0.3916         0.5436      -135.0991      -66.97287     0.02153599              0
      6589.5000         1.0225       2539.926         84.012        37.0045       35.55536          0.378         0.5107      -135.3909      -67.28053     0.05436934              0
      6590.0000         0.8995       2613.027        88.0872         38.601       38.78033         0.3645         0.4804      -135.6992      -67.60468      0.1229857              0
      6590.5000         0.9036       2633.633        91.1385        39.9024       41.40976         0.3509          0.466      -136.2314      -68.15273      0.1789311              0
      6591.0000          0.943       2607.762        92.2018        41.1469        43.9244         0.3373         0.4628      -137.1458      -69.08298      0.2324341              0
      6591.5000         0.9738        2581.91        91.8153        42.2789         46.212         0.3369         0.4596      -137.6299      -69.58295      0.2811064              0
      6592.0000         0.9762       2556.039        90.4412        43.4364       48.55108         0.3455         0.4559      -137.8909       -69.8598      0.3308741              0
      6592.5000          0.949       2520.988        89.1631        43.9855        49.6624         0.3542         0.4536      -136.8613      -68.84605      0.3545191              0
      6593.0000         0.9217       2477.309        88.8895         43.174       48.02804         0.3629         0.4454      -134.8506      -66.85121      0.3197456              0
      6593.5000         0.8944       2433.633        89.5551        42.3612       46.39107         0.3715         0.4478       -134.542      -66.55848      0.2849164              0
      6594.0000         0.8672       2391.988         91.298        41.8278       45.31794         0.3802         0.4576      -134.1755      -66.20783      0.2620837              0
      6594.5000         0.8378       2360.148        92.6649        41.9615       45.59098         0.3859         0.4769      -133.9033      -65.95148      0.2678933              0
      6595.0000         0.8634       2328.309        92.0381         42.522       46.72532         0.3909         0.5048      -133.6895      -65.75353      0.2920281              0
      6595.5000         0.9401       2310.938        89.7985        43.0518       47.79768         0.3959          0.527      -133.4902       -65.5701      0.3148443              0
      6596.0000         1.0285       2340.121        87.5321        43.5513       48.80894         0.4009          0.542      -133.3005      -65.39626      0.3363604              0
      6596.5000         1.1719       2369.277        86.0277        44.0508       49.82016         0.4059         0.5347      -133.4578       -65.5694      0.3578758              0
      6597.0000         1.2073       2419.914        85.5884        44.5503       50.83139         0.4091         0.5093      -133.6392      -65.76666      0.3793912              0
