#------------------------------------------------------------------------------
# Created by    : vladimir.rabinovich
# Created on    : 09/19/2023 17:22:45
#------------------------------------------------------------------------------
~Version Information Section
VERS.           2.0     :   CWLS log ASCII Standard - VERSION 2.0
WRAP.           NO      :   One line per depth step
~Well Information Section
#MNEM       .UNIT                                         VALUE :DESCRIPTION
#------------------------------------------------------------------------------
STRT        .FT                                             270 :START DEPTH
STOP        .FT                                            9392 :STOP DEPTH
STEP        .FT                                             0.5 :STEP      
NULL        .                                           -999.25 :NULL      
COMP        .                                     TALOS ERT LLC :COMPANY   
WELL        .                               OCS G12363 ST00BP00 :WELL      
FLD         .                                 BRAZOS BLOCK 0453 :FIELD     
LOC         .                                                   :LOCATION  
CNTY        .                                BRAZOS LARGE BLOCK :LOCATION  
STAT        .                                             TEXAS :STATE     
CTRY        .                                     UNITED STATES :COUNTRY   
SRVC        .                                                   :SERVICE COMPANY
DATE        .                             9/13/2023 11:19:08 AM :LOG DATE  
API         .                                    42704401340000 :API NUMBER
UWI         .                                    42704401340000 :UNIQUE WELL ID
XCOORD      .                                  788791.944469438 :SURFACE X 
YCOORD      .                                  10354739.7167093 :SURFACE Y 
LAT         .                                         28.507622 :LATITUDE  
LON         .                                        -95.652007 :LONGITUDE 
ELEV        .FT                                             100 :ELEVATION VALUE
ELEV_TYPE   .                                                KB :ELEVATION REFERENCE TYPE
~Curve Information Section
#MNEM       .UNIT                                      API CODE :CURVE DESCRIPTION
#------------------------------------------------------------------------------
DEPT        .FT                                                 :DEPTH     
DPHI        .%                                                  :          
DT          .US/F                                               :          
GR          .GAPI                                               :          
GR_NORM     .GAPI                                               :GammaRay Normalized
ILD         .OHMM                                               :          
ILM         .OHMM                                               :          
LL          .OHMM                                               :          
NPHI        .%                                                  :          
SP          .MV                                                 :          
SP_NORM     .MV                                                 :SP Normalized
VSH_GR      .V/V                                                :Volume of Shale from GR
VSH_SP      .V/V                                                :Volume of Shale from SP
~A        DEPTH           DPHI             DT             GR        GR_NORM            ILD            ILM             LL           NPHI             SP        SP_NORM         VSH_GR         VSH_SP
# ...
      1561.5000        41.7148        -999.25        67.6644       83.73126         0.8393         0.7636         1.0878        49.7995       -44.2993        -1.0211              1        -999.25
      1562.0000        42.1204        -999.25        67.6207       83.67364         0.8366         0.7592         1.0712        50.1134        -44.249        -0.9733              1        -999.25
      1562.5000        42.1386        -999.25        68.1506       84.33731         0.8345         0.7558         1.0708        50.8328        -44.243        -0.9697              1        -999.25
      1563.0000        41.9841        -999.25        69.3387       85.82865          0.832         0.7521         1.0685         53.366       -44.4135        -1.1427              1        -999.25
      1563.5000        41.9211        -999.25        69.6635       86.23441         0.8279         0.7477         1.0641         56.485       -44.5986        -1.3303              1        -999.25
      1564.0000        42.0166        -999.25        70.3337       87.07451         0.8226         0.7453         1.0664        56.5219       -44.6389         -1.373              1        -999.25
      1564.5000         42.096        -999.25        71.7385       88.83836         0.8162         0.7436         1.0662        50.4464       -44.6752        -1.4118              1        -999.25
      1565.0000        42.0673        -999.25        72.7166       90.06562         0.8106          0.743         1.0648        46.6869       -44.6555        -1.3945              1        -999.25
      1565.5000        41.8166        -999.25        73.0498       90.48193         0.8075         0.7409         1.0643        47.0696       -44.6051        -1.3466              1        -999.25
      1566.0000        41.6431        -999.25        71.3071       88.28786         0.8072         0.7377         1.0621        51.1098       -44.5312        -1.2751              1        -999.25
      1566.5000        41.7998        -999.25        70.6157       87.41576          0.806         0.7343         1.0588        55.5183       -44.5015        -1.2479              1        -999.25
      1567.0000        42.1255        -999.25        69.9816       86.61572         0.8047         0.7325         1.0581        55.4418       -44.4736        -1.2224              1        -999.25
      1567.5000        42.6274        -999.25        69.6997       86.25857         0.8035         0.7326         1.0592         53.913        -44.407        -1.1583              1        -999.25
      1568.0000        42.8666        -999.25        70.5648       87.34374         0.8038         0.7343         1.0614        59.4834       -44.3105        -1.0643              1        -999.25
      1568.5000        42.6098        -999.25        71.6731       88.73475         0.8037         0.7315         1.0629        65.3987       -44.1863        -0.9425              1        -999.25
      1569.0000        42.2332        -999.25        72.4514       89.71078         0.8023         0.7192         1.0606        62.9579       -43.9037        -0.6624              1        -999.25
      1569.5000        42.0182        -999.25        71.4799       88.48645         0.8026         0.7187         1.0451        58.7855        -43.766        -0.5271              1        -999.25
      1570.0000        42.0568        -999.25        68.5332       84.77837         0.8122         0.7324         1.0144        54.1801       -43.7182        -0.4818              1        -999.25
      1570.5000        42.3453        -999.25        67.3037       83.22962         0.8438         0.7525         0.9867        51.0455       -43.7947        -0.5607              1        -999.25
      1571.0000        41.7833        -999.25        66.5585       82.28987         0.8691         0.7699         0.9719        47.5645       -43.9241        -0.6926              1        -999.25
      1571.5000        40.7203        -999.25        65.3043       80.71007         0.8897         0.7968          0.977        43.7851       -44.0186        -0.7895              1        -999.25
      1572.0000        39.1817        -999.25        63.8765       78.91196         0.9164         0.8216          1.004        41.3642       -44.1182        -0.8916      0.9768503        -999.25
      1572.5000         38.374        -999.25        61.0977         75.415         0.9435          0.839         1.0546        41.2083       -44.3272         -1.103      0.9024468        -999.25
      1573.0000        38.0056        -999.25        59.7667       73.73862         0.9753         0.8526         1.1074        48.0145       -44.5305        -1.3088      0.8667793        -999.25
      1573.5000        37.8286        -999.25        59.7003       73.65246         0.9952         0.8604         1.1508         52.557       -44.6423         -1.423      0.8649459        -999.25
      1574.0000        37.7709        -999.25        59.9774       73.99823         0.9956         0.8667         1.1614        54.4097       -44.6757        -1.4589      0.8723028        -999.25
      1574.5000         37.483        -999.25        60.4333       74.56884         0.9851         0.8682         1.1424        53.6766       -44.5635        -1.3492      0.8844434        -999.25
      1575.0000        37.3375        -999.25        60.9574       75.22523         0.9752         0.8637         1.1394        52.3203       -44.5321        -1.3202      0.8984092        -999.25
      1575.5000        37.2224        -999.25        61.2886       75.63903         0.9671         0.8424         1.1531        52.4824       -44.5248        -1.3154      0.9072134        -999.25
      1576.0000        37.2382        -999.25        61.7477       76.21366         0.9497          0.822         1.1737        54.2126       -44.5015        -1.2945      0.9194396        -999.25
      1576.5000        37.9434        -999.25        63.2053       78.04391         0.9322         0.8061         1.1743        54.4741       -44.5112        -1.3067       0.958381        -999.25
      1577.0000        39.2029        -999.25        64.7274       79.95525         0.9215         0.7931          1.116        50.4893       -44.5776        -1.3755      0.9990478        -999.25
      1577.5000        40.4463        -999.25         65.533        80.9656         0.9107         0.7905         1.0719         46.794       -44.6472        -1.4476              1        -999.25
      1578.0000        41.4395        -999.25        65.7271       81.20701         0.9021         0.8003         1.0415        44.5327       -44.6563        -1.4591              1        -999.25
      1578.5000        41.6783        -999.25         66.146        81.7311         0.8977         0.8113          1.023        43.3751       -44.5971        -1.4024              1        -999.25
      1579.0000        40.9788        -999.25        67.1974       83.05054         0.8976         0.8216          1.016        43.9533       -44.4862        -1.2939              1        -999.25
      1579.5000        39.5561        -999.25        67.8557       83.87566         0.9032         0.8312         1.0271        46.9528       -44.4564        -1.2666              1        -999.25
      1580.0000        38.2653        -999.25        67.8472        83.8623          0.919          0.841         1.0512        50.7574       -44.4885        -1.3012              1        -999.25
      1580.5000        37.6946        -999.25        67.5577       83.49561          0.948           0.86         1.0729        50.3364        -44.426        -1.2411              1        -999.25
      1581.0000        37.7446        -999.25        67.3634        83.2486         0.9816         0.8812         1.0783        47.4692        -44.315        -1.1326              1        -999.25
      1581.5000         37.888        -999.25        67.1285       82.95055         1.0211         0.9043         1.0715        45.8406       -44.2239        -1.0439              1        -999.25
