#------------------------------------------------------------------------------
# Created by    : vladimir.rabinovich
# Created on    : 09/19/2023 17:21:23
#------------------------------------------------------------------------------
~Version Information Section
VERS.           2.0     :   CWLS log ASCII Standard - VERSION 2.0
WRAP.           NO      :   One line per depth step
~Well Information Section
#MNEM       .UNIT                                         VALUE :DESCRIPTION
#------------------------------------------------------------------------------
STRT        .FT                                            1005 :START DEPTH
STOP        .FT                                            8973 :STOP DEPTH
STEP        .FT                                             0.5 :STEP      
NULL        .                                           -999.25 :NULL      
COMP        .                            MARITECH RESOURCES INC :COMPANY   
WELL        .                               OCS G06113 ST00BP00 :WELL      
FLD         .                              GALVESTON BLOCK 0343 :FIELD     
LOC         .                                                   :LOCATION  
CNTY        .                             GALVESTON LARGE BLOCK :LOCATION  
STAT        .                                             TEXAS :STATE     
CTRY        .                                     UNITED STATES :COUNTRY   
SRVC        .                                                   :SERVICE COMPANY
DATE        .                             9/13/2023 11:19:36 AM :LOG DATE  
API         .                                    42706402140000 :API NUMBER
UWI         .                                    42706402140000 :UNIQUE WELL ID
XCOORD      .                                  914498.553138379 :SURFACE X 
YCOORD      .                                  10427492.1426863 :SURFACE Y 
LAT         .                                         28.714711 :LATITUDE  
LON         .                                        -95.265111 :LONGITUDE 
ELEV        .FT                                              84 :ELEVATION VALUE
ELEV_TYPE   .                                                KB :ELEVATION REFERENCE TYPE
~Curve Information Section
#MNEM       .UNIT                                      API CODE :CURVE DESCRIPTION
#------------------------------------------------------------------------------
DEPT        .FT                                                 :DEPTH     
CALI        .IN                                                 :          
DPHI        .%                                                  :          
DRHO        .G/C3                                               :          
DT          .US/F                                               :          
GR          .GAPI                                               :          
ILD         .OHMM                                               :          
ILM         .OHMM                                               :          
NPHI        .%                                                  :          
SGRD        .OHMM                                               :          
SP          .MV                                                 :          
SP_NORM     .MV                                                 :SP Normalized
VSH_SP      .V/V                                                :Volume of Shale from SP
~A        DEPTH           CALI           DPHI           DRHO             DT             GR            ILD            ILM           NPHI           SGRD             SP        SP_NORM         VSH_SP
# ...
      8959.0000         9.8282         21.002        -0.1148        -999.25          0.461       20508.31         0.4437       100.1412         0.4899        -999.25      -0.429166              1
      8959.5000         9.6857        20.6931        -0.1182        -999.25          0.445       20501.97         0.4418       100.1487         0.4709        -999.25      0.1803769              1
      8960.0000         9.5139        19.3768        -0.1193        -999.25          0.422       20467.09          0.445       100.1213         0.4516        -999.25       0.873872              1
      8960.5000         9.4505        18.6588        -0.1132        -999.25         0.3742       20395.66       19911.63       100.1201         0.4403        -999.25        -999.25        -999.25
      8961.0000         9.4595        23.8253        -0.1433        -999.25         0.3263       20297.97       20325.53       100.1188         0.4476        -999.25        -999.25        -999.25
      8961.5000         9.5101        26.2246        -0.1787        -999.25          0.311       20190.66       20416.16       100.1176         0.4665        -999.25        -999.25        -999.25
      8962.0000         9.5393        27.8116        -0.2234        -999.25         0.3233       20109.16       20398.09       100.1162         0.4947        -999.25        -999.25        -999.25
      8962.5000         9.5463        28.0435        -0.2529        -999.25         0.3357       20028.03       20357.84        100.115         0.5208        -999.25        -999.25        -999.25
      8963.0000         9.2931        25.5425        -0.2578        -999.25          0.363       20015.06       20277.44       100.1136         0.5333        -999.25        -999.25        -999.25
      8963.5000          8.922        22.8411         -0.254        -999.25         0.3913       20017.84       20178.56       100.1124         0.5291        -999.25        -999.25        -999.25
      8964.0000         8.6555        22.5569        -0.2438        -999.25         0.4208       20020.63       20063.19       100.1111         0.5176        -999.25        -999.25        -999.25
      8964.5000         8.3881        22.7229        -0.2317        -999.25         0.4524       20023.41       20010.34       100.1099         0.5044        -999.25        -999.25        -999.25
      8965.0000           8.17        21.8194        -0.2197        -999.25         0.4839       20026.16       19992.69       100.1085         0.4979        -999.25        -999.25        -999.25
      8965.5000         8.0715        20.7798        -0.2078        -999.25         0.5143       20043.41       20008.16       100.1073           0.48        -999.25        -999.25        -999.25
      8966.0000          8.096        19.8868        -0.1955        -999.25         0.5447       20060.81        20030.5        100.106         0.4703        -999.25        -999.25        -999.25
      8966.5000         8.1938        18.9355        -0.1827        -999.25         0.5531       20092.34        20034.5       100.1047         0.4684        -999.25        -999.25        -999.25
      8967.0000         8.1588         17.857        -0.1671        -999.25           0.55       20140.63       20035.56       100.1034         0.4666        -999.25        -999.25        -999.25
      8967.5000         8.0189        16.7352        -0.1445        -999.25         0.5471       20188.94       20019.16       100.1022         0.4546        -999.25        -999.25        -999.25
      8968.0000         7.9353        14.8415        -0.1223        -999.25         0.6138       20221.22       20009.03        100.101         0.4451        -999.25        -999.25        -999.25
      8968.5000         7.8518        13.3427        -0.1076        -999.25         0.7062       20253.56       20031.81       100.0996         0.4381        -999.25        -999.25        -999.25
      8969.0000          7.811        11.6973        -0.1015        -999.25          0.775          20272       20048.41       100.0984         0.4333        -999.25        -999.25        -999.25
      8969.5000          7.715        10.7048        -0.0991        -999.25         0.7555       20274.81       20051.19        100.097         0.4333        -999.25        -999.25        -999.25
      8970.0000         7.6696        11.2276         -0.104        -999.25         0.7361       20277.66       20050.91       100.0958          0.433        -999.25        -999.25        -999.25
      8970.5000          7.643        12.6052        -0.1199        -999.25         0.6577       20280.47       20036.56       100.0945         0.4302        -999.25        -999.25        -999.25
      8971.0000         7.6153        13.3688        -0.1496        -999.25         0.5616       20283.25       20022.13       100.0933          0.448        -999.25        -999.25        -999.25
      8971.5000         7.5536        14.3239        -0.1824        -999.25         0.4976       20286.06       19987.34       100.0919         0.7135        -999.25        -999.25        -999.25
      8972.0000         7.4327        18.0754        -0.2033        -999.25         0.4535       20288.91       19960.84       100.0907         0.9155        -999.25        -999.25        -999.25
      8972.5000         7.2534        21.2435        -0.2646        -999.25         0.4798       20291.69       20130.81       100.0894         0.9087        -999.25        -999.25        -999.25
      8973.0000         6.8828        24.1484        -0.3684        -999.25          0.541       20307.06       20288.44       100.0881         0.9162        -999.25        -999.25        -999.25
