#------------------------------------------------------------------------------
# Created by    : vladimir.rabinovich
# Created on    : 09/19/2023 17:20:35
#------------------------------------------------------------------------------
~Version Information Section
VERS.           2.0     :   CWLS log ASCII Standard - VERSION 2.0
WRAP.           NO      :   One line per depth step
~Well Information Section
#MNEM       .UNIT                                         VALUE :DESCRIPTION
#------------------------------------------------------------------------------
STRT        .FT                                             504 :START DEPTH
STOP        .FT                                            9361 :STOP DEPTH
STEP        .FT                                             0.5 :STEP      
NULL        .                                           -999.25 :NULL      
COMP        .                                      SHELL OIL CO :COMPANY   
WELL        .                                OCS 00704 ST00BP00 :WELL      
FLD         .                                           WILDCAT :FIELD     
LOC         .                                                   :LOCATION  
CNTY        .                             GALVESTON LARGE BLOCK :LOCATION  
STAT        .                                             TEXAS :STATE     
CTRY        .                                     UNITED STATES :COUNTRY   
SRVC        .                                                   :SERVICE COMPANY
DATE        .                             9/13/2023 11:19:25 AM :LOG DATE  
API         .                                    42706000430000 :API NUMBER
UWI         .                                    42706000430000 :UNIQUE WELL ID
XCOORD      .                                  1136254.96267488 :SURFACE X 
YCOORD      .                                  10526383.5552877 :SURFACE Y 
LAT         .                                         28.996505 :LATITUDE  
LON         .                                        -94.577519 :LONGITUDE 
ELEV        .FT                                              42 :ELEVATION VALUE
ELEV_TYPE   .                                                KB :ELEVATION REFERENCE TYPE
~Curve Information Section
#MNEM       .UNIT                                      API CODE :CURVE DESCRIPTION
#------------------------------------------------------------------------------
DEPT        .FT                                                 :DEPTH     
ASN         .OHMM                                               :          
DT          .US/F                                               :          
LN          .OHMM                                               :          
SP          .MV                                                 :          
SP_NORM     .MV                                                 :SP Normalized
VSH_SP      .V/V                                                :Volume of Shale from SP
~A        DEPTH            ASN             DT             LN             SP        SP_NORM         VSH_SP
       504.0000         0.5683        -999.25         1.0344      -101.8591        -1.8591      0.9687739
       504.5000          0.572        -999.25         1.0573      -101.2195      -1.219498              1
       505.0000         0.5797        -999.25         1.0801      -100.1311     -0.1311035              1
       505.5000         0.5919        -999.25          1.103       -96.9924       2.101257              1
       506.0000         0.6549        -999.25         1.1258       -96.4202       1.558342              1
       506.5000         0.7335        -999.25         1.1498       -95.9216      0.9418182              1
       507.0000         0.7739        -999.25         1.1771       -95.1555      0.5927887              1
       507.5000         0.8207        -999.25         1.2045       -94.2246      0.4085693              1
       508.0000         0.8684        -999.25         1.2318       -93.2957      0.2223511              1
       508.5000         0.8935        -999.25         1.2592       -92.4204    -0.01747131              1
       509.0000         0.9142        -999.25         1.2866       -91.6606     -0.3727951              1
       509.5000         0.9293        -999.25         1.3139       -90.7241     -0.5514145              1
       510.0000          0.943        -999.25          1.337       -89.6885     -0.6309357              1
       510.5000         0.9499        -999.25         1.3584       -88.6531     -0.7106552              1
       511.0000         0.9568        -999.25         1.3799       -87.6527      -0.825386              1
       511.5000         0.9637        -999.25         1.4013       -86.7217      -1.009506              1
       512.0000         0.9706        -999.25         1.4228       -85.9484      -1.351326              1
       512.5000         0.9742        -999.25         1.4442       -85.2247      -1.742744      0.9788918
       513.0000         0.9772        -999.25         1.4656       -84.4945      -2.127663      0.9454206
       513.5000         0.9803        -999.25         1.4835       -83.5997      -2.347992      0.9262615
       514.0000         0.9833        -999.25         1.4983       -83.0396      -2.559959      0.9078296
       514.5000         0.9868        -999.25         1.5132       -82.7581      -2.304398      0.9300524
       515.0000         0.9918        -999.25         1.5281       -83.0764      -2.648628      0.9001193
       515.5000         0.9967        -999.25          1.543       -83.3948      -2.992958      0.8701776
       516.0000         1.0017        -999.25         1.5578       -83.7133      -3.337395      0.8402265
       516.5000         1.0066        -999.25         1.5727       -84.0316      -3.681625      0.8102934
       517.0000         1.0129        -999.25         1.5876       -84.3593      -4.035255       0.779543
       517.5000         1.0197        -999.25         1.6024       -84.6923      -4.394188      0.7483315
       518.0000         1.0266        -999.25         1.6171       -84.5703      -4.298119      0.7566853
       518.5000         1.0334        -999.25         1.6298       -84.2762      -4.029953      0.7800041
       519.0000         1.0449        -999.25         1.6425       -83.8252      -3.604897      0.8169655
       519.5000         1.0578        -999.25         1.6552       -83.3727      -3.178329      0.8540583
       520.0000         1.0523        -999.25         1.6679       -82.9202      -2.751755      0.8911518
       520.5000         1.0437        -999.25         1.6806       -82.8208      -2.678291      0.8975399
       521.0000         1.0347        -999.25         1.6933        -82.816      -2.699425      0.8957022
       521.5000         1.0214        -999.25          1.706       -82.8112      -2.720558      0.8938645
       522.0000         1.0081        -999.25         1.7187       -82.8064      -2.741684      0.8920275
       522.5000         0.9948        -999.25         1.7312       -82.7792      -2.740417      0.8921376
       523.0000         0.9836        -999.25          1.742       -82.7511      -2.738251       0.892326
       523.5000         0.9744        -999.25         1.7527        -82.723      -2.736092      0.8925138
       524.0000         0.9652        -999.25         1.7635       -82.6949      -2.733925      0.8927022
       524.5000         0.9561        -999.25         1.7743       -82.6067      -2.671654      0.8981171
       525.0000         0.9469        -999.25          1.785       -82.4077      -2.498589      0.9131662
       525.5000         0.9379        -999.25         1.7958       -82.2089      -2.325722      0.9281981
       526.0000         0.9291        -999.25         1.8065       -82.0059      -2.148651      0.9435955
       526.5000         0.9202        -999.25         1.8173       -81.6667      -1.835388      0.9708358
       527.0000         0.9114        -999.25         1.8281       -81.3278      -1.522415      0.9980509
       527.5000         0.9026        -999.25          1.839       -80.9187      -1.139252              1
       528.0000         0.8938        -999.25         1.8499       -80.3788     -0.6252823              1
       528.5000         0.8849        -999.25         1.8607       -80.2587     -0.5311203              1
       529.0000          0.876        -999.25         1.8716       -80.3418      -0.640152              1
       529.5000         0.8671        -999.25         1.8825       -80.4249     -0.7491837              1
       530.0000         0.8698        -999.25         1.8934       -80.5343     -0.8845215              1
       530.5000         0.8731        -999.25         1.9065       -80.6818      -1.057953              1
       531.0000          0.884        -999.25         1.9215        -80.493     -0.8950806              1
       531.5000         0.8953        -999.25         1.9365       -80.1937     -0.6217194              1
       532.0000         0.9066        -999.25         1.9515       -79.7052     -0.1591492              1
       532.5000          0.918        -999.25         1.9665       -79.2166      0.3035202              1
       533.0000         0.9311        -999.25         1.9815        -78.728      0.7661896              1
       533.5000         0.9131        -999.25         1.9965        -78.212       1.256248              1
       534.0000         0.8847        -999.25         2.0115       -77.6909       1.751411              1
       534.5000         0.8574        -999.25         2.0313       -77.1698       2.246582              1
       535.0000         0.8377        -999.25         2.0514       -76.8203       2.570152              1
       535.5000          0.818        -999.25         2.0716       -76.4995       2.865021              1
       536.0000         0.7984        -999.25         2.0917       -76.2981       3.040482              1
       536.5000         0.7818        -999.25         2.1119       -76.3081       3.004555              1
       537.0000          0.767        -999.25          2.132       -76.3181        2.96862              1
       537.5000         0.7521        -999.25         2.1416       -76.5088       2.751991              1
       538.0000         0.7373        -999.25         2.1475       -76.7109       2.523956              1
       538.5000         0.7264        -999.25         2.1513       -76.9131       2.295815              1
       539.0000         0.7163        -999.25         2.1377       -77.1152       2.067787              1
       539.5000         0.7062        -999.25         2.1241       -77.3174       1.839653              1
       540.0000          0.696        -999.25         2.1105       -77.5912       1.539917              1
       540.5000         0.6859        -999.25         2.0969       -77.8896       1.215584              1
       541.0000         0.6791        -999.25         2.0832       -78.1881      0.8911514              1
       541.5000         0.6742        -999.25         2.0696        -78.043       1.010323              1
