#------------------------------------------------------------------------------
# Created by    : vladimir.rabinovich
# Created on    : 09/19/2023 17:20:10
#------------------------------------------------------------------------------
~Version Information Section
VERS.           2.0     :   CWLS log ASCII Standard - VERSION 2.0
WRAP.           NO      :   One line per depth step
~Well Information Section
#MNEM       .UNIT                                         VALUE :DESCRIPTION
#------------------------------------------------------------------------------
STRT        .FT                                            1664 :START DEPTH
STOP        .FT                                            5300 :STOP DEPTH
STEP        .FT                                             0.5 :STEP      
NULL        .                                           -999.25 :NULL      
COMP        .                       CORPUS CHRISTI OIL & GAS CO :COMPANY   
WELL        .                                ST TR 00597-L NE/4 :WELL      
FLD         .                                           WILDCAT :FIELD     
LOC         .                                                   :LOCATION  
CNTY        .                      MATAGORDA ISLAND LARGE BLOCK :LOCATION  
STAT        .                                             TEXAS :STATE     
CTRY        .                                     UNITED STATES :COUNTRY   
SRVC        .                                                   :SERVICE COMPANY
DATE        .                             9/13/2023 11:12:01 AM :LOG DATE  
API         .                                    42703301570000 :API NUMBER
UWI         .                                    42703301570000 :UNIQUE WELL ID
XCOORD      .                                   499677.54355151 :SURFACE X 
YCOORD      .                                  10240770.6634848 :SURFACE Y 
LAT         .                                        28.1741034 :LATITUDE  
LON         .                                       -96.5406837 :LONGITUDE 
ELEV        .FT                                              79 :ELEVATION VALUE
ELEV_TYPE   .                                                KB :ELEVATION REFERENCE TYPE
~Curve Information Section
#MNEM       .UNIT                                      API CODE :CURVE DESCRIPTION
#------------------------------------------------------------------------------
DEPT        .FT                                                 :DEPTH     
ASFL        .OHMM                                               :          
CILD        .MMHO                                               :          
ILD         .OHMM                                               :          
SP          .MV                                                 :          
SP_NORM     .MV                                                 :SP Normalized
VSH_SP      .V/V                                                :Volume of Shale from SP
~A        DEPTH           ASFL           CILD            ILD             SP        SP_NORM         VSH_SP
# ...
      1892.0000         0.6602       1467.524         0.6814       -81.7122        1.80677              1
      1892.5000         0.6522        1467.52         0.6814       -81.4125       2.083549              1
      1893.0000         0.6482       1459.532         0.6852       -81.1128       2.360329              1
      1893.5000         0.6482       1427.588         0.7005       -81.4119       2.038307              1
      1894.0000         0.6522       1403.632         0.7124       -82.0103       1.416992              1
      1894.5000         0.6642       1379.675         0.7248       -83.2075      0.1968765              1
      1895.0000         0.6722       1363.704         0.7333       -84.1053     -0.7238464              1
      1895.5000         0.6883       1339.748         0.7464       -84.4043      -1.045761              1
      1896.0000         0.7003       1339.744         0.7464       -84.1046     -0.7689819              1
      1896.5000         0.7043       1315.788           0.76       -82.9068       0.405899              1
      1897.0000         0.7003       1323.769         0.7554       -82.3076      0.9821777              1
      1897.5000         0.6883       1419.575         0.7044       -82.0079       1.258965              1
      1898.0000         0.6803       1459.492         0.6852        -82.307      0.9369431              1
      1898.5000         0.6603       1507.393         0.6634        -82.606      0.6150208              1
      1899.0000         0.6483       1531.342          0.653       -82.6057      0.5924072              1
      1899.5000         0.6323       1539.322         0.6496        -82.306      0.8691864              1
      1900.0000         0.6163        1605.83         0.6227       -82.0062       1.146065              1
      1900.5000         0.6098       1672.339          0.598       -83.3598     -0.2304535              1
      1901.0000         0.5963       1698.181         0.5889       -82.9334       0.173027              1
      1901.5000         0.5843        1698.99         0.5886       -83.2328      -0.149292              1
      1902.0000         0.5843       1683.014         0.5942       -83.5319     -0.4713058              1
      1902.5000         0.5843       1675.026          0.597       -84.1304      -1.092728              1
      1903.0000         0.5883       1659.054         0.6028       -85.8965      -2.881744      0.9685091
      1903.5000         0.5843       1643.082         0.6086        -86.495      -3.503166      0.9463155
      1904.0000         0.5844       1619.127         0.6176       -85.8959      -2.926979      0.9668936
      1904.5000         0.5924       1595.171         0.6269       -82.9011     0.04489899              1
      1905.0000         0.6044       1563.232         0.6397        -82.302      0.6210785              1
      1905.5000         0.6084       1539.277         0.6497       -82.0022      0.8979645              1
      1906.0000         0.6244       1515.322         0.6599       -82.0019      0.8753433              1
      1906.5000         0.6404       1491.367         0.6705       -82.0016      0.8527222              1
      1907.0000         0.6444       1483.379         0.6741       -82.0012      0.8302078              1
      1907.5000         0.6444       1467.408         0.6815       -81.7015       1.106987              1
      1908.0000         0.6445       1459.421         0.6852       -81.7011       1.076698              1
      1908.5000         0.6445       1451.434          0.689       -81.7008       1.043594              1
      1909.0000         0.6445       1459.414         0.6852       -81.9999      0.7110825              1
      1909.5000         0.6485       1427.475         0.7005       -81.9996      0.6779633              1
      1910.0000         0.6565       1419.488         0.7045       -82.2987       0.345459              1
      1910.5000         0.6565       1411.501         0.7085       -82.5977     0.01304626              1
      1911.0000         0.6645       1403.514         0.7125       -82.8968      -0.319458              1
      1911.5000         0.6725       1387.543         0.7207       -83.7948       -1.25087              1
      1912.0000         0.6805       1371.573         0.7291       -83.7945      -1.283981              1
      1912.5000         0.6845       1355.603         0.7377       -83.4947      -1.017586              1
      1913.0000         0.6926       1331.649         0.7509       -82.2966      0.1471024              1
      1913.5000         0.7046       1307.695         0.7647       -81.0985        1.31179              1
      1914.0000         0.7206       1275.758         0.7838       -80.7988       1.578079              1
      1914.5000         0.7446       1243.821          0.804       -81.0979       1.245567              1
      1915.0000         0.7686       1211.884         0.8252       -80.7981       1.511955              1
      1915.5000         0.7886       1171.964         0.8533       -81.0972       1.179451              1
      1916.0000         0.8127       1140.027         0.8772       -81.3963      0.8469391              1
      1916.5000         0.8327       1084.141         0.9224       -81.0965       1.113335              1
      1917.0000         0.8567       1044.222         0.9577       -80.7967       1.379723              1
      1917.5000         0.8847       1020.269         0.9801       -80.2275       1.915512              1
      1918.0000         0.8807       996.3166         1.0037        -80.826         1.2836              1
      1918.5000         0.9367       964.3786         1.0369       -82.5924     -0.5162125              1
      1919.0000         0.9448       972.3619         1.0284       -83.4905      -1.447723              1
      1919.5000         0.9448       980.3427         1.0201       -83.1907      -1.181328              1
      1920.0000         0.9168       996.3068         1.0037       -81.9925    -0.01654053              1
      1920.5000         0.9008       1004.288         0.9957       -80.1954       1.747154              1
      1921.0000         0.8968       1036.218          0.965       -78.9972       2.911942              1
      1921.5000         0.8368       1060.165         0.9432        -78.398        3.47773              1
      1922.0000         0.8408       1100.078          0.909       -78.3976       3.444717              1
      1922.5000         0.7968       1139.999         0.8772       -79.2957       2.513206              1
      1923.0000         0.7808       1171.921         0.8533       -79.8943       1.881195              1
      1923.5000         0.7648       1211.833         0.8252       -80.7923       0.949791              1
      1924.0000         0.7448        1235.78         0.8092       -81.0914      0.6172791              1
      1924.5000         0.7208       1275.692         0.7839       -81.3906       0.284668              1
      1925.0000         0.7008       1323.587         0.7555       -81.0908      0.5510635              1
      1925.5000         0.6768       1371.482         0.7291        -80.791      0.8174515              1
      1926.0000         0.6551       1419.377         0.7045       -80.4911       1.083939              1
      1926.5000         0.6432       1451.305          0.689       -79.5924       1.949226              1
      1927.0000         0.6352       1491.216         0.6706       -78.9931       2.515114              1
      1927.5000         0.6299       1523.144         0.6565       -78.6932       2.781609              1
      1928.0000         0.6246       1539.106         0.6497       -78.6929       2.748497              1
      1928.5000         0.6152       1555.068         0.6431        -78.992       2.415993              1
      1929.0000         0.6153       1555.065         0.6431       -79.8901       1.484482              1
      1929.5000         0.6153       1579.009         0.6333       -80.1893       1.151871              1
