#------------------------------------------------------------------------------
# Created by    : vladimir.rabinovich
# Created on    : 09/19/2023 17:20:31
#------------------------------------------------------------------------------
~Version Information Section
VERS.           2.0     :   CWLS log ASCII Standard - VERSION 2.0
WRAP.           NO      :   One line per depth step
~Well Information Section
#MNEM       .UNIT                                         VALUE :DESCRIPTION
#------------------------------------------------------------------------------
STRT        .FT                                            2310 :START DEPTH
STOP        .FT                                           12118 :STOP DEPTH
STEP        .FT                                             0.5 :STEP      
NULL        .                                           -999.25 :NULL      
COMP        .                                   FOREST OIL CORP :COMPANY   
WELL        .                               OCS G01793 ST00BP00 :WELL      
FLD         .                                           WILDCAT :FIELD     
LOC         .                                                   :LOCATION  
CNTY        .                             GALVESTON LARGE BLOCK :LOCATION  
STAT        .                                             TEXAS :STATE     
CTRY        .                                     UNITED STATES :COUNTRY   
SRVC        .                                                   :SERVICE COMPANY
DATE        .                             9/13/2023 11:19:24 AM :LOG DATE  
API         .                                    42706001380000 :API NUMBER
UWI         .                                    42706001380000 :UNIQUE WELL ID
XCOORD      .                                  1024149.02927821 :SURFACE X 
YCOORD      .                                  10425384.3690734 :SURFACE Y 
LAT         .                                         28.714212 :LATITUDE  
LON         .                                        -94.923031 :LONGITUDE 
ELEV        .FT                                              60 :ELEVATION VALUE
ELEV_TYPE   .                                                KB :ELEVATION REFERENCE TYPE
~Curve Information Section
#MNEM       .UNIT                                      API CODE :CURVE DESCRIPTION
#------------------------------------------------------------------------------
DEPT        .FT                                                 :DEPTH     
ASN         .OHMM                                               :          
CALI        .IN                                                 :          
CILD        .MMHO                                               :          
DT          .US/F                                               :          
ILD         .OHMM                                               :          
RHOB        .G/C3                                               :          
SP          .MV                                                 :          
SP_NORM     .MV                                                 :SP Normalized
VSH_SP      .V/V                                                :Volume of Shale from SP
~A        DEPTH            ASN           CALI           CILD             DT            ILD           RHOB             SP        SP_NORM         VSH_SP
# ...
      8829.0000         0.7738         8.9641       1552.631       102.9288         0.7314         2.3958       -55.7166      -4.618797      0.9289416
      8829.5000         0.8049         8.9235       1491.729         102.01         0.7495         2.3925       -55.7498      -4.667397      0.9281939
      8830.0000         0.8319         8.8829       1425.986       101.2372         0.7684         2.3917        -55.783      -4.715996      0.9274462
      8830.5000         0.8589         8.7298       1381.045       100.6731         0.7873         2.3965       -55.8245      -4.776211      0.9265198
      8831.0000         0.8859         8.4845       1338.947       100.3372         0.8047         2.4014       -55.9564      -4.962987      0.9236463
      8831.5000         0.9129         8.2002       1306.027        99.8971         0.8148         2.4077       -56.0884      -5.149907      0.9207706
      8832.0000         0.9319         8.1775       1293.008        99.0956         0.7949         2.4147       -56.2203      -5.336678      0.9178973
      8832.5000           0.95         9.0647       1317.648        94.5518         0.7751         2.4217       -56.4861      -5.710918      0.9121397
      8833.0000         0.9229         9.2488       1342.289        92.1658         0.7553          2.427        -56.883      -6.268693      0.9035586
      8833.5000         0.8517         9.3976       1367.328        91.2944         0.7355         2.4306       -57.2798       -6.82633      0.8949795
      8834.0000         0.7947         9.4591       1394.813        91.2657         0.7156         2.4249       -57.9882      -7.820211       0.879689
      8834.5000         0.7587         9.4385       1422.246          92.47         0.6958         2.4182       -56.2961      -5.453385      0.9161018
      8835.0000         0.7254         9.4013       1468.982       103.1606          0.676          2.411       -55.8588      -4.843278      0.9254881
      8835.5000         0.6969         9.3643       1674.387       104.5618         0.6561         2.4009       -55.4208      -4.232198      0.9348893
      8836.0000         0.6754         9.3272       1850.012       105.5516         0.6363         2.3783       -55.1077      -3.795975      0.9416004
      8836.5000         0.6615         9.4211        1879.59       106.2628         0.6195         2.3692       -54.9833      -3.623928      0.9442472
      8837.0000         0.6484         9.4554       1903.633       106.7607         0.6096         2.3635       -54.8589      -3.451887       0.946894
      8837.5000         0.6393         9.4191       1919.742       107.2482         0.5997         2.3578       -54.7343      -3.279562      0.9495452
      8838.0000         0.6317         9.3827       1908.209       107.3623         0.5898         2.3514       -54.6098      -3.107377      0.9521942
      8838.5000         0.6329         9.3464       1896.674       106.9839         0.5834         2.3447        -54.428      -2.854981      0.9560772
      8839.0000         0.6352           9.31       1879.141       106.5975         0.5845         2.3379       -54.2365      -2.588994      0.9601693
      8839.5000         0.6379         9.4027       1853.703       106.1948         0.5856         2.3412       -54.0449      -2.322868      0.9642636
      8840.0000         0.6406         9.5181       1828.215       105.7922         0.5867         2.3457       -53.8533      -2.056747      0.9683577
      8840.5000         0.6429         9.6295       1802.627       105.3901          0.589         2.3525       -53.6617      -1.790626      0.9724519
      8841.0000         0.6451          9.701       1774.793       104.9863         0.5938         2.3598       -53.4702      -1.524644       0.976544
      8841.5000         0.6522         9.5933       1747.012       104.5818         0.5985          2.367       -53.2316      -1.192722      0.9816504
      8842.0000         0.6625         9.4745       1719.328       104.1766         0.6032         2.3734       -52.9039     -0.7360542      0.9886761
      8842.5000         0.6731         9.3501       1691.994       103.7715         0.6079         2.3735       -52.5762     -0.2793922      0.9957017
      8843.0000          0.681         9.4127        1664.66       103.3906         0.6122         2.3725       -52.2485      0.1772697              1
      8843.5000         0.6857         9.5068       1643.387        103.146         0.6151         2.3693       -51.9202      0.6347755              1
      8844.0000         0.6897         9.6011        1628.84       102.9016         0.6179         2.3661       -51.5925       1.091438              1
      8844.5000         0.6919         9.6489       1634.445        102.657         0.6208         2.3629       -51.2916       1.510582              1
      8845.0000         0.6942         9.6617       1640.051       102.4716         0.6236         2.3602        -50.995       1.923708              1
      8845.5000         0.6964         9.6718        1646.99        102.619         0.6265         2.3575       -50.6984       2.336828              1
      8846.0000         0.6976         9.5377       1656.566       102.8119         0.6263         2.3548       -50.4019       2.749809              1
      8846.5000         0.6971         9.3697       1666.156       103.0045         0.6224         2.3557       -50.1667       3.076978              1
      8847.0000         0.6966         9.0416       1675.732       103.1974         0.6185         2.3616       -49.9901       3.322095              1
      8847.5000         0.6941         8.8468       1685.322       103.3904         0.6146         2.3698       -49.8132       3.567638              1
      8848.0000         0.6884         8.6486       1694.938       103.5164         0.6106         2.3777       -49.9247       3.409424              1
      8848.5000         0.6789         8.5618       1705.736       103.6362         0.6067         2.3831       -50.2679       2.926828              1
      8849.0000          0.667         8.5031       1716.535       103.7559         0.6028         2.3885       -50.6119       2.443111              1
      8849.5000         0.6576         8.5474       1727.346       104.1174         0.6035          2.394       -51.5812       1.083971              1
      8850.0000         0.6502         8.5918       1738.145       104.5013         0.6091         2.3976        -53.054     -0.9800652      0.9849221
      8850.5000         0.6561         8.6362       1747.721       104.8853         0.6148         2.3959       -55.1199      -3.874439      0.9403933
      8851.0000          0.662         8.6806        1735.24       105.2144         0.6204         2.3911       -54.9006       -3.56954       0.945084
      8851.5000         0.6712         8.6842       1714.166        105.004         0.6196         2.3864       -54.2882      -2.714294      0.9582416
      8852.0000         0.6804         8.6844       1693.715       104.7799         0.6182         2.3827       -53.6938      -1.884251      0.9710115
      8852.5000         0.6897         8.6753       1673.289       104.3649         0.6168          2.386       -53.1509      -1.126312      0.9826722
      8853.0000         0.7008         8.6662       1657.639       103.5172         0.6153         2.3894       -53.0029     -0.9212227      0.9858273
      8853.5000         0.7119         8.6645       1645.992       102.6196         0.6139         2.3792       -53.3531      -1.413618      0.9782521
      8854.0000         0.7233         8.6893       1634.357       101.5164         0.6125         2.3679       -53.7032      -1.905881      0.9706787
      8854.5000           0.72         8.7141       1622.711       100.7703          0.611         2.3642       -54.0533      -2.398132      0.9631057
      8855.0000         0.7106         8.7501       1613.951       100.2131         0.6096         2.3604       -54.3583      -2.827248      0.9565039
