#------------------------------------------------------------------------------
# Created by    : vladimir.rabinovich
# Created on    : 09/19/2023 17:22:26
#------------------------------------------------------------------------------
~Version Information Section
VERS.           2.0     :   CWLS log ASCII Standard - VERSION 2.0
WRAP.           NO      :   One line per depth step
~Well Information Section
#MNEM       .UNIT                                         VALUE :DESCRIPTION
#------------------------------------------------------------------------------
STRT        .FT                                            3450 :START DEPTH
STOP        .FT                                            9344 :STOP DEPTH
STEP        .FT                                             0.5 :STEP      
NULL        .                                           -999.25 :NULL      
COMP        .                                  W&T OFFSHORE INC :COMPANY   
WELL        .                               OCS G04565 ST00BP00 :WELL      
FLD         .                              GALVESTON BLOCK 0303 :FIELD     
LOC         .                                                   :LOCATION  
CNTY        .                             GALVESTON LARGE BLOCK :LOCATION  
STAT        .                                             TEXAS :STATE     
CTRY        .                                     UNITED STATES :COUNTRY   
SRVC        .                                                   :SERVICE COMPANY
DATE        .                             9/13/2023 11:19:39 AM :LOG DATE  
API         .                                    42706403900000 :API NUMBER
UWI         .                                    42706403900000 :UNIQUE WELL ID
XCOORD      .                                  983096.827540607 :SURFACE X 
YCOORD      .                                  10485968.3003259 :SURFACE Y 
LAT         .                                        28.8789082 :LATITUDE  
LON         .                                       -95.0543314 :LONGITUDE 
ELEV        .FT                                              90 :ELEVATION VALUE
ELEV_TYPE   .                                                KB :ELEVATION REFERENCE TYPE
~Curve Information Section
#MNEM       .UNIT                                      API CODE :CURVE DESCRIPTION
#------------------------------------------------------------------------------
DEPT        .FT                                                 :DEPTH     
CDER        .MMHO                                               :          
DCAL        .IN                                                 :          
DPHI        .DEC                                                :          
DRHO        .G/CC                                               :          
DTLN        .US/F                                               :          
GR          .GAPI                                               :          
GR_NORM     .GAPI                                               :GammaRay Normalized
IDER        .OHMM                                               :          
IMER        .OHMM                                               :          
NPOR        .DEC                                                :          
RWA         .OHMM                                               :          
SFLA        .OHMM                                               :          
SP          .MV                                                 :          
SP_NORM     .MV                                                 :SP Normalized
TENS        .LB                                                 :          
VSH_GR      .V/V                                                :Volume of Shale from GR
VSH_SP      .V/V                                                :Volume of Shale from SP
~A        DEPTH           CDER           DCAL           DPHI           DRHO           DTLN             GR        GR_NORM           IDER           IMER           NPOR            RWA           SFLA             SP        SP_NORM           TENS         VSH_GR         VSH_SP
# ...
      7395.0000       1489.425          0.615          0.223          0.009        113.927         78.993       78.03127          0.671          0.707          0.426          0.101          0.859          0.588        3.75686        -999.25       0.958112              1
      7395.5000       1429.388          0.718          0.221          0.007         114.54         76.635       75.25178            0.7           0.74          0.426          0.107          0.855          2.104       5.422927        -999.25       0.898974              1
      7396.0000       1338.867          0.808          0.221          0.004        115.625           76.3        74.8569          0.747          0.776          0.424          0.117          0.849          2.789       6.257994        -999.25      0.8905724              1
      7396.5000        1270.81          0.862          0.222         -0.002        116.758         78.987       78.02419          0.787          0.799          0.424          0.114          0.841           3.28       6.899061        -999.25      0.9579616              1
      7397.0000       1247.349          0.872          0.227         -0.008        117.539         81.305       80.75654          0.802          0.781          0.419          0.111          0.833          3.685       7.454128        -999.25              1              1
      7397.5000       1281.723          0.855          0.231         -0.013         117.29         81.287       80.73532           0.78          0.763          0.418          0.113          0.822          4.092       7.950114        -999.25              1              1
      7398.0000       1317.349          0.817          0.229         -0.016         116.52         80.127       79.36797          0.759          0.744          0.426          0.116          0.811          4.573       8.455686        -999.25      0.9865525              1
      7398.5000       1347.709          0.767          0.224         -0.016        116.055         79.073       78.12556          0.742          0.726          0.438          0.114          0.801          4.886       8.793257        -999.25      0.9601182              1
      7399.0000       1370.802          0.728          0.217         -0.014        117.185         78.824       77.83205          0.729          0.719          0.436          0.106          0.791              5       8.931829        -999.25      0.9538735              1
      7399.5000       1392.758          0.749          0.217         -0.013        118.807           78.6       77.56802          0.718          0.712          0.431          0.099          0.786              5       8.956401        -999.25      0.9482557              1
      7400.0000       1401.935           0.76          0.222         -0.011        120.337         79.025       78.06898          0.713          0.709          0.429          0.101          0.781            5.1       9.080973        -999.25      0.9589146              1
      7400.5000       1409.245          0.752          0.229         -0.011        120.322          79.65        78.8057           0.71          0.714          0.432          0.109          0.778          5.358       9.363544        -999.25      0.9745894              1
      7401.0000       1412.429          0.715          0.229          -0.01        119.338         80.248        79.5106          0.708          0.719          0.436          0.119          0.776           5.51       9.540116        -999.25      0.9895872              1
      7401.5000       1414.427          0.679          0.223         -0.008        118.236         80.225       79.48348          0.707          0.724          0.435          0.129          0.784           5.36       9.414688        -999.25      0.9890103              1
      7402.0000       1397.038          0.678          0.215         -0.005        117.245         79.125       78.18686          0.716          0.738          0.459          0.137          0.796          5.079       9.158259        -999.25      0.9614226              1
      7402.5000       1379.881          0.655          0.209         -0.002        116.466          77.35       76.09457          0.725          0.752          0.485          0.138          0.815          4.712       8.815831        -999.25      0.9169058              1
      7403.0000       1345.533          0.605          0.203              0        115.702         76.425       75.00424          0.743          0.767          0.465          0.119          0.839          4.072       8.200403        -999.25      0.8937073              1
      7403.5000       1306.677          0.564          0.205         -0.003        114.599         76.375        74.9453          0.765          0.786          0.433          0.106          0.867          3.618       7.770975        -999.25      0.8924531              1
      7404.0000       1270.003          0.559          0.211         -0.006        113.122          77.35       76.09457          0.787          0.805          0.428          0.107          0.897          3.366       7.543547        -999.25      0.9169058              1
      7404.5000       1234.873          0.572          0.216         -0.008         111.67           78.9       77.92164           0.81          0.819          0.418          0.108           0.92          3.168       7.370118        -999.25      0.9557796              1
      7405.0000       1223.691           0.59          0.211         -0.008        111.879         79.325       78.42261          0.817          0.824          0.394          0.105           0.92           2.97        7.19669        -999.25      0.9664385              1
      7405.5000        1242.39          0.623          0.204         -0.006        113.651         76.326       74.88753          0.805          0.817          0.386            0.1            0.9           2.97       7.221262        -999.25       0.891224              1
      7406.0000       1276.813          0.674          0.199         -0.003        115.169           74.1       72.26364          0.783          0.789          0.397          0.098          0.881           2.97       7.245833        -999.25      0.8353966              1
      7406.5000       1308.216          0.718          0.199         -0.001        115.934           74.1       72.26364          0.764          0.765          0.408          0.095          0.863          3.168       7.468406        -999.25      0.8353966              1
      7407.0000       1315.097          0.748            0.2         -0.001        115.429         78.076       76.95034           0.76          0.748          0.411          0.091           0.86          3.537       7.861977        -999.25      0.9351136              1
      7407.5000        1313.37          0.777          0.201         -0.002        114.602         80.368       79.65205          0.761          0.747          0.403          0.088          0.867          3.933       8.282549        -999.25      0.9925967              1
      7408.0000       1283.862          0.808          0.198         -0.003        113.589         81.062       80.47009          0.779          0.764          0.392          0.093          0.879          4.328       8.702121        -999.25              1              1
      7408.5000       1238.543          0.832          0.195         -0.006        113.281         80.935        80.3204          0.807          0.791          0.381          0.096          0.889          4.541       8.939692        -999.25              1              1
      7409.0000       1218.472          0.862          0.189         -0.009        113.753         80.448       79.74634          0.821          0.809           0.38          0.101          0.882          4.527       8.950264        -999.25      0.9946029              1
      7409.5000       1240.387          0.909          0.187          -0.01        114.654         80.113       79.35146          0.806          0.785          0.391          0.104          0.876          4.402       8.849836        -999.25      0.9862013              1
