#------------------------------------------------------------------------------
# Created by    : vladimir.rabinovich
# Created on    : 09/19/2023 17:19:36
#------------------------------------------------------------------------------
~Version Information Section
VERS.           2.0     :   CWLS log ASCII Standard - VERSION 2.0
WRAP.           NO      :   One line per depth step
~Well Information Section
#MNEM       .UNIT                                         VALUE :DESCRIPTION
#------------------------------------------------------------------------------
STRT        .FT                                            4496 :START DEPTH
STOP        .FT                                            7801 :STOP DEPTH
STEP        .FT                                             0.5 :STEP      
NULL        .                                           -999.25 :NULL      
COMP        .                             HELIS WM G CO LLC THE :COMPANY   
WELL        .                               OCS G12508 ST00BP00 :WELL      
FLD         .                              GALVESTON BLOCK 0395 :FIELD     
LOC         .                                                   :LOCATION  
CNTY        .                             GALVESTON LARGE BLOCK :LOCATION  
STAT        .                                             TEXAS :STATE     
CTRY        .                                     UNITED STATES :COUNTRY   
SRVC        .                                                   :SERVICE COMPANY
DATE        .                             9/13/2023 11:19:03 AM :LOG DATE  
API         .                                    42706404300000 :API NUMBER
UWI         .                                    42706404300000 :UNIQUE WELL ID
XCOORD      .                                  908236.382466376 :SURFACE X 
YCOORD      .                                  10386259.9403327 :SURFACE Y 
LAT         .                                         28.601028 :LATITUDE  
LON         .                                        -95.282181 :LONGITUDE 
ELEV        .FT                                             103 :ELEVATION VALUE
ELEV_TYPE   .                                                KB :ELEVATION REFERENCE TYPE
~Curve Information Section
#MNEM       .UNIT                                      API CODE :CURVE DESCRIPTION
#------------------------------------------------------------------------------
DEPT        .FT                                                 :DEPTH     
AHT10       .OHMM                                               :          
AHT20       .OHMM                                               :          
AHT30       .OHMM                                               :          
AHT60       .OHMM                                               :          
AHT90       .OHMM                                               :          
CPCHM       .MMHO                                               :          
DCAL        .IN                                                 :          
DPHZ        .FRAC                                               :          
GR          .GAPI                                               :          
GR_NORM     .GAPI                                               :GammaRay Normalized
GRAM        .GAPI                                               :          
HDRA        .G/CC                                               :          
NPOR        .FRAC                                               :          
RACHM       .OHMM                                               :          
ROPS        .F/HR                                               :          
RPCHM       .OHMM                                               :          
RWA         .OHMM                                               :          
SP          .MV                                                 :          
SP_NORM     .MV                                                 :SP Normalized
TENS        .LB/F                                               :          
VSH_GR      .V/V                                                :Volume of Shale from GR
VSH_SP      .V/V                                                :Volume of Shale from SP
~A        DEPTH          AHT10          AHT20          AHT30          AHT60          AHT90          CPCHM           DCAL           DPHZ             GR        GR_NORM           GRAM           HDRA           NPOR          RACHM           ROPS          RPCHM            RWA             SP        SP_NORM           TENS         VSH_GR         VSH_SP
# ...
      4940.0000         0.7009         0.5666         0.5195         0.4776         0.4697       1951.532         0.3824         0.2293        58.1214       69.46931         63.996         0.0577         0.4051          0.646        438.794          0.575         0.0319          -58.5      -29.06981           2538      0.7759429      0.5527722
      4940.5000         0.7205          0.568         0.5264         0.4756         0.4666       1704.557         0.2502         0.2275        57.8809       69.07866         67.104         0.0573         0.3861          0.674        438.794          0.601         0.0312        -59.625      -30.64481           2543      0.7676311      0.5285414
      4941.0000         0.7463         0.5826          0.537         0.4862         0.4774       1648.965         0.2983         0.2398        52.1944       59.76715         72.024         0.0505         0.3998          0.684        438.794          0.652         0.0357       -59.5625      -30.55731           2565      0.5695137      0.5298876
      4941.5000          0.758         0.5963         0.5498         0.4942         0.4833       1597.594         0.2261         0.2614        50.0273       56.22062         72.777         0.0444         0.3662          0.751        172.873          0.723         0.0436       -60.8125      -32.30731           2585      0.4940557      0.5029645
      4942.0000         0.6709         0.5482         0.4984         0.4501         0.4378       1512.303         0.1059         0.2818        48.8246       54.25382         70.166         0.0364         0.3169          0.772        172.873          0.751         0.0464         -62.25      -34.31981           2569       0.452209       0.472003
      4942.5000         0.5756         0.4985         0.4535         0.4123         0.3998       1380.545         0.1781         0.2882        59.1445       71.16171         68.839         0.0299         0.3624          0.778        172.873           0.73         0.0445       -62.0625      -34.05731           2525      0.8119512      0.4760414
      4943.0000         0.5203         0.4696         0.4289         0.3937         0.3795       1388.906         0.3945         0.2909        57.6997       68.79834         69.871         0.0229         0.4446          0.779        172.873          0.709         0.0431         -65.25      -38.51981           2512      0.7616668      0.4073876
      4943.5000         0.4879         0.4507         0.4116         0.3803          0.365       1395.397         0.5147         0.2963        53.8014         62.416         70.268         0.0205         0.3744          0.776        168.664          0.709          0.043       -66.3125      -40.00731           2532      0.6258723      0.3845029
      4944.0000         0.4661         0.4333         0.3997         0.3725          0.357       1405.161         0.4185         0.3043        49.2753       55.00528         73.082         0.0279         0.3781          0.782        168.664          0.712         0.0446          -66.5      -40.26981           2533      0.4681975      0.3804645
      4944.5000         0.4764         0.4312         0.4025         0.3792         0.3627       1410.414         0.6589         0.2921        57.1826       67.96119         74.388         0.0428         0.4143          0.792        168.664          0.728         0.0415            -65      -38.16981           2569      0.7438551      0.4127722
      4945.0000         0.5203         0.4501         0.4227          0.403          0.385       1394.998          0.671         0.2716         65.436       81.48403         76.805          0.056         0.3603          0.792        168.664           0.72         0.0377       -60.5625      -31.95731           2551              1      0.5083491
      4945.5000         0.5785         0.4952         0.4747         0.4553          0.433       1380.545         0.4425         0.2478        70.2467       89.36753         78.413         0.0598         0.3649          0.793        113.963          0.711         0.0348       -57.3125      -27.40731           2593              1      0.5783491
      4946.0000         0.6538         0.5436         0.5239         0.5068          0.486       1393.024         0.0819         0.2341        72.1422       92.47578          80.47         0.0643         0.3493          0.794        113.963          0.719         0.0345       -54.9375      -24.08231           2623              1       0.629503
      4946.5000         0.7117         0.5869         0.5751         0.5643         0.5445       1405.503        -0.0864         0.2304        68.5303       86.56256          79.49         0.0735         0.3955          0.799        113.963          0.728         0.0374       -53.5625      -22.15731           2576              1      0.6591184
      4947.0000         0.7199         0.6176         0.6173         0.6136         0.5991       1404.307        -0.1105         0.2294        66.5608       83.33971         78.787         0.0844         0.3463          0.796        113.963          0.728         0.0408       -51.3125      -19.00731           2518              1      0.7075799
      4947.5000         0.7171         0.6375         0.6438         0.6485         0.6377       1392.092        -0.1465         0.2316        64.6806       80.26314         81.131         0.0799         0.3455          0.792         90.461          0.687         0.0443        -49.125      -15.94481           2518              1      0.7546952
      4948.0000         0.7275         0.6648         0.6742         0.6852         0.6793       1380.545         0.0578          0.236        65.1622       81.05534         80.828         0.0637          0.403          0.796         90.461          0.683         0.0492        -47.375      -13.49481           2533              1      0.7923875
      4948.5000         0.7407         0.6949         0.7053         0.7229         0.7196       1371.782         0.4425         0.2313        56.9484       67.60394         78.288         0.0498         0.4169          0.806         90.461          0.743         0.0498       -45.5625      -10.95731           2546      0.7362541       0.831426
      4949.0000         0.7669         0.7289         0.7385         0.7628          0.759       1363.018         0.9956         0.2237        54.7836       64.06118         76.863          0.045         0.4006          0.813         90.461          0.755         0.0489       -47.1875      -13.23231           2603      0.6608762       0.796426
      4949.5000         0.7887         0.7688         0.7804         0.8098         0.7958       1354.255         1.3322         0.2159        49.6605       55.67254         77.804         0.0471         0.3434          0.816         97.913          0.752         0.0475       -47.3125      -13.40731           2601      0.4823945      0.7937337
      4950.0000         0.7764         0.7667         0.7835         0.8104         0.7936       1351.328         0.8753         0.2241        53.1275         61.355         77.818         0.0496         0.3021          0.814         97.913           0.74         0.0514            -47      -12.96981           2600      0.6032979      0.8004645
      4950.5000         0.7353         0.7406          0.753         0.7844         0.7714       1351.328         0.8273         0.2439        54.8113       64.11644          76.47         0.0462         0.3445          0.813         97.913          0.727         0.0599          -46.5      -12.26981           2554      0.6620519      0.8112337
      4951.0000         0.7122         0.7153          0.735         0.7658          0.765       1351.328         0.8753         0.2568        60.4977       73.43439         73.111         0.0381         0.3961          0.803         97.913          0.722         0.0663         -46.25      -11.91981           2555      0.8603061      0.8166183
      4951.5000         0.7022         0.7075         0.7319         0.7587         0.7635       1367.474         1.5245         0.2641        61.9425       75.80437         70.233         0.0245         0.4165          0.799        162.913          0.724         0.0704       -44.9375      -10.08231           2580      0.9107312      0.8448876
