#------------------------------------------------------------------------------
# Created by    : vladimir.rabinovich
# Created on    : 09/19/2023 17:22:51
#------------------------------------------------------------------------------
~Version Information Section
VERS.           2.0     :   CWLS log ASCII Standard - VERSION 2.0
WRAP.           NO      :   One line per depth step
~Well Information Section
#MNEM       .UNIT                                         VALUE :DESCRIPTION
#------------------------------------------------------------------------------
STRT        .FT                                            3080 :START DEPTH
STOP        .FT                                           13004 :STOP DEPTH
STEP        .FT                                             0.5 :STEP      
NULL        .                                           -999.25 :NULL      
COMP        .                                     INEXCO OIL CO :COMPANY   
WELL        .                                     ST TR 00006-L :WELL      
FLD         .                                           WILDCAT :FIELD     
LOC         .                                                   :LOCATION  
CNTY        .                           HIGH ISLAND LARGE BLOCK :LOCATION  
STAT        .                                             TEXAS :STATE     
CTRY        .                                     UNITED STATES :COUNTRY   
SRVC        .                                                   :SERVICE COMPANY
DATE        .                             9/13/2023 11:19:15 AM :LOG DATE  
API         .                                    42708302350000 :API NUMBER
UWI         .                                    42708302350000 :UNIQUE WELL ID
XCOORD      .                                  1306008.37969423 :SURFACE X 
YCOORD      .                                  10751503.0860356 :SURFACE Y 
LAT         .                                          29.62091 :LATITUDE  
LON         .                                         -94.05279 :LONGITUDE 
ELEV        .FT                                              84 :ELEVATION VALUE
ELEV_TYPE   .                                                KB :ELEVATION REFERENCE TYPE
~Curve Information Section
#MNEM       .UNIT                                      API CODE :CURVE DESCRIPTION
#------------------------------------------------------------------------------
DEPT        .FT                                                 :DEPTH     
DT          .US/F                                               :          
GR          .GAPI                                               :          
GR_NORM     .GAPI                                               :GammaRay Normalized
ILD         .OHMM                                               :          
SFL         .OHMM                                               :          
SP          .MV                                                 :          
SP_NORM     .MV                                                 :SP Normalized
VSH_GR      .V/V                                                :Volume of Shale from GR
VSH_SP      .V/V                                                :Volume of Shale from SP
~A        DEPTH             DT             GR        GR_NORM            ILD            SFL             SP        SP_NORM         VSH_GR         VSH_SP
# ...
      3106.5000       136.0952        38.7704       72.24509         0.5782         0.9754       -75.0919      -30.24342      0.8350018      0.4671053
      3107.0000       138.2305        37.7911       69.11282         0.5766         0.9356       -75.4545      -30.60601      0.7683578      0.4602639
      3107.5000       141.1316        37.1255       66.85793         0.5785         0.8976       -75.5521      -30.70362      0.7203816      0.4584223
      3108.0000       143.9001        36.7356       65.37418         0.5802         0.8679        -75.368      -30.51951      0.6888123       0.461896
      3108.5000       147.2122        36.4011       64.04532         0.5659         0.8438       -76.2314      -31.38292      0.6605387      0.4456054
      3109.0000       150.5706           36.3       63.36931         0.5414          0.826       -77.0344      -32.18592      0.6461555      0.4304544
      3109.5000       153.6748        36.3079       62.99817         0.5048         0.8174       -76.9491      -32.10061      0.6382589      0.4320639
      3110.0000       153.9819        36.6855       63.66098         0.4449           0.82       -76.2239      -31.37542      0.6523612      0.4457469
      3110.5000       152.2168        37.3367       65.08904         0.6747         0.8402       -75.0914      -30.24292      0.6827456      0.4671148
      3111.0000       150.6685        38.0545        66.7034         0.6474         0.8654       -73.4434      -28.59491      0.7170936      0.4982092
      3111.5000       150.7102        38.7987       68.39159          0.605         0.8732       -70.0529      -25.20442      0.7530127      0.5621808
      3112.0000       150.9802        39.4453       69.80679         0.6089         0.8687       -66.1532      -21.30471      0.7831233      0.6357601
      3112.5000       148.7542        39.7587       70.29009         0.6311         0.8641       -62.6071      -17.75862      0.7934062      0.7026676
      3113.0000       145.0037        40.0927       70.83103         0.6512         0.8643       -60.4885      -15.64001      0.8049155      0.7426412
      3113.5000       141.9622        40.7385       72.24397         0.6683         0.8732       -58.8384      -13.98992      0.8349782      0.7737752
      3114.0000       139.9465        41.7424       74.65851         0.6814         0.8916       -58.4559      -13.60741      0.8863512      0.7809922
      3114.5000       141.3145        42.8128       77.25905         0.6925         0.9064       -57.8739      -13.02542      0.9416819      0.7919732
      3115.0000       143.8018        43.0823       77.61954         0.7023         0.9016       -56.7491      -11.90062      0.9493518      0.8131959
      3115.5000       145.0137        42.4009       75.32049         0.7062         0.8753       -57.9446      -13.09612      0.9004359      0.7906393
      3116.0000       146.0999        42.1289       74.16644         0.7062         0.8318       -75.6025      -30.75402      0.8758816      0.4574714
      3116.5000       148.7717        42.4237        74.5977         0.7015          0.805      -113.4452      -68.59671      0.8850575              0
      3117.0000       151.9124        43.0592       75.98188         0.6893         0.8059      -123.4622      -78.61371      0.9145081              0
      3117.5000       153.8665        43.9562        78.0974         0.6401         0.8113      -122.9469      -78.09842      0.9595191              0
      3118.0000       154.2866        45.0059       80.64008         0.4431         0.7914       -54.4221      -9.573616              1      0.8571016
      3118.5000       154.2778        45.6414       82.33358         0.5104         0.7542        -49.175      -4.326515              1      0.9561035
      3119.0000       153.6929        45.9568       83.20925         0.6013          0.711       -50.8486      -6.000114              1      0.9245262
      3119.5000       152.2441         45.483        81.8776         0.6182          0.676       -54.6408      -9.792316              1      0.8529752
      3120.0000       149.8704        44.7073       79.70155         0.6065         0.6817       -59.6832      -14.83472      0.9936499      0.7578355
      3120.5000        145.457         44.315       78.59786         0.5976         0.7609       -63.4453      -18.59682      0.9701673      0.6868525
      3121.0000       141.3132        44.6787       79.60861         0.5861         0.8632        -66.255      -21.40651      0.9916726      0.6338394
      3121.5000       138.5635        45.2655       81.24335         0.5802         0.9296       -68.5018      -23.65332              1      0.5914469
      3122.0000        138.179        45.0427       80.61373          0.581          0.922       -70.3527      -25.50422              1      0.5565242
      3122.5000       143.6233        44.0379       77.79692         0.5801         0.9015       -71.8706      -27.02211       0.953126      0.5278847
      3123.0000       148.5476        42.5928       73.74863         0.5748         0.8933        -73.333      -28.48452      0.8669921      0.5002921
      3123.5000       151.6604        41.1031       69.57561         0.5672         0.9075       -74.3075      -29.45902      0.7782046      0.4819053
      3124.0000       154.7083        39.5474       65.21802         0.5749         0.9103       -74.4918      -29.64331      0.6854897       0.478428
      3124.5000        156.375        38.5115        62.3142         0.5916         0.8702        -70.876      -26.02752      0.6237063      0.5466506
      3125.0000       154.7947        38.1209       61.21527         0.5951         0.8186       -70.7977      -25.94921      0.6003249       0.548128
      3125.5000       149.6462        38.7064       62.84637         0.5812         0.7936       -69.4551      -24.60662      0.6350291        0.57346
      3126.0000       144.5339        39.8265       65.97268         0.5842         0.7868       -64.5804      -19.73191      0.7015464      0.6654356
      3126.5000       143.8337        40.3224       67.35323         0.5906         0.7824        -62.394      -17.54552      0.7309197      0.7066883
      3127.0000       146.7061        40.3385       67.39173         0.5946         0.7727       -61.0061      -16.15762       0.731739      0.7328752
      3127.5000       148.8838        40.2173       67.04628         0.5916         0.7592       -59.9784      -15.12992       0.724389      0.7522657
      3128.0000       149.6819        40.2252        67.0619         0.5875         0.7374       -59.4662      -14.61772      0.7247214      0.7619299
      3128.5000       149.6877        40.5356       67.92354         0.5813         0.7098       -59.3429      -14.49442       0.743054      0.7642563
      3129.0000       149.0872        40.9483       69.07134         0.5718          0.689       -60.4781      -15.62962      0.7674754      0.7428374
      3129.5000       148.3826        41.4023       70.33465          0.562         0.7012        -61.931      -17.08252      0.7943542      0.7154242
      3130.0000       147.8206        41.8209       71.49894         0.5533         0.7485       -64.1826      -19.33412      0.8191264      0.6729411
      3130.5000       147.5474        41.9781       71.93214         0.5463         0.8223        -67.062      -22.21351      0.8283435      0.6186129
      3131.0000       147.4211         41.907       71.72681          0.546         0.8928       -66.8169      -21.96842      0.8239748      0.6232374
      3131.5000        147.561        41.5192       70.63568         0.5542         0.8655       -62.3798      -17.53131      0.8007592      0.7069563
      3132.0000       147.9111        41.8351       71.51273         0.5724         0.8113       -57.0508      -12.20232      0.8194197      0.8075035
      3132.5000        148.394        42.0712        72.1666         0.5908         0.7588       -53.4415      -8.593018       0.833332      0.8756034
