#------------------------------------------------------------------------------
# Created by    : vladimir.rabinovich
# Created on    : 09/19/2023 17:20:33
#------------------------------------------------------------------------------
~Version Information Section
VERS.           2.0     :   CWLS log ASCII Standard - VERSION 2.0
WRAP.           NO      :   One line per depth step
~Well Information Section
#MNEM       .UNIT                                         VALUE :DESCRIPTION
#------------------------------------------------------------------------------
STRT        .FT                                             510 :START DEPTH
STOP        .FT                                            9509 :STOP DEPTH
STEP        .FT                                             0.5 :STEP      
NULL        .                                           -999.25 :NULL      
COMP        .                       BLUE DOLPHIN EXPLORATION CO :COMPANY   
WELL        .                                OCS 00714 ST00BP00 :WELL      
FLD         .                              GALVESTON BLOCK 0288 :FIELD     
LOC         .                                                   :LOCATION  
CNTY        .                             GALVESTON LARGE BLOCK :LOCATION  
STAT        .                                             TEXAS :STATE     
CTRY        .                                     UNITED STATES :COUNTRY   
SRVC        .                                                   :SERVICE COMPANY
DATE        .                             9/13/2023 11:19:25 AM :LOG DATE  
API         .                                    42706000660000 :API NUMBER
UWI         .                                    42706000660000 :UNIQUE WELL ID
XCOORD      .                                  1093932.46617998 :SURFACE X 
YCOORD      .                                  10479390.8980397 :SURFACE Y 
LAT         .                                         28.865655 :LATITUDE  
LON         .                                       -94.7077791 :LONGITUDE 
ELEV        .FT                                              83 :ELEVATION VALUE
ELEV_TYPE   .                                                KB :ELEVATION REFERENCE TYPE
~Curve Information Section
#MNEM       .UNIT                                      API CODE :CURVE DESCRIPTION
#------------------------------------------------------------------------------
DEPT        .FT                                                 :DEPTH     
ASN         .OHMM                                               :          
CALI        .IN                                                 :          
DT          .US/F                                               :          
IL          .OHMM                                               :          
SP          .MV                                                 :          
SP_NORM     .MV                                                 :SP Normalized
VSH_SP      .V/V                                                :Volume of Shale from SP
~A        DEPTH            ASN           CALI             DT             IL             SP        SP_NORM         VSH_SP
# ...
      7109.5000         0.8976        -999.25        -999.25         0.8865       -51.4335      -2.596291      0.9787039
      7110.0000         0.9021        -999.25        -999.25         0.8789       -50.8499      -2.012691      0.9995467
      7110.5000         0.8882        -999.25        -999.25         0.8721       -50.4417      -1.604492              1
      7111.0000          0.843        -999.25        -999.25         0.8631       -50.6407      -1.803493              1
      7111.5000         0.8037        -999.25        -999.25         0.8524       -51.1482      -2.310993      0.9888931
      7112.0000          0.779        -999.25        -999.25         0.8637        -51.675      -2.837791      0.9700789
      7112.5000         0.7633        -999.25        -999.25         0.8675       -52.1142      -3.276993      0.9543931
      7113.0000         0.7487        -999.25        -999.25         0.8712       -52.8578      -4.020592       0.927836
      7113.5000         0.7328        -999.25        -999.25         0.8729       -53.5851       -4.74789      0.9018611
      7114.0000         0.7225        -999.25        -999.25         0.8745       -53.5621      -4.724892      0.9026824
      7114.5000         0.7319        -999.25        -999.25         0.8761       -53.0258      -4.188591       0.921836
      7115.0000         0.7561        -999.25        -999.25         0.8786       -52.5545      -3.717293      0.9386681
      7115.5000         0.7853        -999.25        -999.25         0.8812       -52.1367      -3.299492      0.9535896
      7116.0000         0.8187        -999.25        -999.25         0.8837       -52.0734      -3.236191      0.9558503
      7116.5000         0.8498        -999.25        -999.25         0.8844       -52.5972      -3.759991      0.9371432
      7117.0000         0.8738        -999.25        -999.25         0.8837       -53.8058      -4.968594      0.8939788
      7117.5000         0.8918        -999.25        -999.25         0.8829        -55.967      -7.129791      0.8167931
      7118.0000         0.9102        -999.25        -999.25           0.88       -58.6404      -9.803192      0.7213145
      7118.5000         0.9314        -999.25        -999.25         0.8749       -59.7306      -10.89339      0.6823789
      7119.0000         0.9524        -999.25        -999.25         0.8699       -59.5211      -10.68389       0.689861
      7119.5000         0.9681        -999.25        -999.25         0.8723       -57.3757      -8.538494      0.7664824
      7120.0000         0.9695        -999.25        -999.25         0.8758       -54.8483      -6.011093      0.8567467
      7120.5000           0.95        -999.25        -999.25         0.8785       -53.0667      -4.229492      0.9203753
      7121.0000         0.9393        -999.25        -999.25         0.8804       -51.6076      -2.770393       0.972486
      7121.5000         0.9279        -999.25        -999.25         0.8821       -50.6764      -1.839191              1
      7122.0000         0.9221        -999.25        -999.25         0.8811       -50.2462      -1.408993              1
      7122.5000         0.9235        -999.25        -999.25           0.88       -49.7564     -0.9191933              1
      7123.0000         0.9259        -999.25        -999.25         0.8773       -49.0588     -0.2215919              1
      7123.5000         0.9266        -999.25        -999.25         0.8736       -48.2063       0.630909              1
      7124.0000          0.917        -999.25        -999.25         0.8699        -47.854      0.9832077              1
      7124.5000         0.9004        -999.25        -999.25         0.8634       -47.9767       0.860508              1
      7125.0000         0.8847        -999.25        -999.25         0.8568       -48.5433      0.2939072              1
      7125.5000         0.8712        -999.25        -999.25         0.8514       -49.0825     -0.2452927              1
      7126.0000         0.8641        -999.25        -999.25         0.8473       -49.4987     -0.6614914              1
      7126.5000         0.8778        -999.25        -999.25         0.8434       -50.1821      -1.344891              1
      7127.0000         0.8979        -999.25        -999.25         0.8511       -51.0145      -2.177292      0.9936681
      7127.5000         0.9181        -999.25        -999.25         0.8588       -51.9244      -3.087193      0.9611717
      7128.0000         0.9361        -999.25        -999.25         0.8664       -52.8511      -4.013893      0.9280753
      7128.5000         0.9466        -999.25        -999.25         0.8728       -53.6036      -4.766392      0.9012003
      7129.0000         0.9447        -999.25        -999.25         0.8792       -54.1968      -5.359592      0.8800145
      7129.5000         0.9437        -999.25        -999.25         0.8856       -54.6786      -5.841393      0.8628074
      7130.0000         0.9494        -999.25        -999.25          0.892       -55.0035      -6.166294      0.8512038
      7130.5000         0.9589        -999.25        -999.25         0.8984       -54.9491      -6.111893      0.8531467
      7131.0000         0.9587        -999.25        -999.25         0.9012       -54.4843      -5.647091      0.8697467
      7131.5000          0.948        -999.25        -999.25         0.9016       -53.8317      -4.994492      0.8930539
      7132.0000         0.9349        -999.25        -999.25         0.9025       -53.3829      -4.545692      0.9090824
      7132.5000         0.9294        -999.25        -999.25         0.9044       -53.1786      -4.341393      0.9163789
      7133.0000         0.9244        -999.25        -999.25         0.9063       -53.5093      -4.672092      0.9045681
      7133.5000         0.9201        -999.25        -999.25         0.9057       -54.4225      -5.585293      0.8719538
      7134.0000         0.9165        -999.25        -999.25         0.9048       -55.2054      -6.368191      0.8439932
      7134.5000         0.9126        -999.25        -999.25         0.9039       -55.7509      -6.913692       0.824511
      7135.0000         0.9202        -999.25        -999.25          0.903       -55.9491      -7.111893      0.8174324
      7135.5000         0.9316        -999.25        -999.25         0.9021       -55.2279      -6.390694      0.8431895
      7136.0000          0.934        -999.25        -999.25         0.9027       -54.8303      -5.993092      0.8573896
      7136.5000          0.926        -999.25        -999.25         0.9044        -55.037      -6.199791      0.8500075
      7137.0000         0.9124        -999.25        -999.25         0.9062       -55.7839      -6.946693      0.8233324
      7137.5000         0.8909        -999.25        -999.25         0.9028       -56.4557      -7.618492      0.7993396
      7138.0000         0.8762        -999.25        -999.25         0.8986       -56.7879      -7.950691      0.7874753
      7138.5000         0.8789        -999.25        -999.25         0.8923       -56.7856      -7.948391      0.7875575
      7139.0000         0.8942        -999.25        -999.25         0.8839       -56.2748      -7.437592      0.8058003
      7139.5000         0.9139        -999.25        -999.25         0.8756       -55.1516      -6.314392      0.8459145
      7140.0000         0.9288        -999.25        -999.25         0.8675       -54.0428      -5.205593      0.8855146
      7140.5000         0.9395        -999.25        -999.25         0.8595       -53.0308      -4.193592      0.9216574
      7141.0000         0.9454        -999.25        -999.25         0.8527       -51.8985      -3.061291      0.9620968
      7141.5000         0.9545        -999.25        -999.25         0.8472       -51.1942      -2.356991      0.9872503
      7142.0000         0.9649        -999.25        -999.25          0.842       -51.1441      -2.306892      0.9890395
      7142.5000         0.9667        -999.25        -999.25          0.839       -51.5464       -2.70919      0.9746718
