#------------------------------------------------------------------------------
# Created by    : vladimir.rabinovich
# Created on    : 09/19/2023 17:20:39
#------------------------------------------------------------------------------
~Version Information Section
VERS.           2.0     :   CWLS log ASCII Standard - VERSION 2.0
WRAP.           NO      :   One line per depth step
~Well Information Section
#MNEM       .UNIT                                         VALUE :DESCRIPTION
#------------------------------------------------------------------------------
STRT        .FT                                             502 :START DEPTH
STOP        .FT                                           11475 :STOP DEPTH
STEP        .FT                                             0.5 :STEP      
NULL        .                                           -999.25 :NULL      
COMP        .                                      SHELL OIL CO :COMPANY   
WELL        .                                OCS 00730 ST00BP00 :WELL      
FLD         .                                           WILDCAT :FIELD     
LOC         .                                                   :LOCATION  
CNTY        .                             GALVESTON LARGE BLOCK :LOCATION  
STAT        .                                             TEXAS :STATE     
CTRY        .                                     UNITED STATES :COUNTRY   
SRVC        .                                                   :SERVICE COMPANY
DATE        .                             9/13/2023 11:19:42 AM :LOG DATE  
API         .                                    42706000250000 :API NUMBER
UWI         .                                    42706000250000 :UNIQUE WELL ID
XCOORD      .                                  958538.282477158 :SURFACE X 
YCOORD      .                                   10357465.718335 :SURFACE Y 
LAT         .                                         28.524406 :LATITUDE  
LON         .                                        -95.123893 :LONGITUDE 
ELEV        .FT                                              80 :ELEVATION VALUE
ELEV_TYPE   .                                                KB :ELEVATION REFERENCE TYPE
~Curve Information Section
#MNEM       .UNIT                                      API CODE :CURVE DESCRIPTION
#------------------------------------------------------------------------------
DEPT        .FT                                                 :DEPTH     
ASN         .OHMM                                               :          
CILD        .MMHO                                               :          
ILD         .OHMM                                               :          
LAT         .OHMM                                               :          
LN          .OHMM                                               :          
SP          .MV                                                 :          
SP_NORM     .MV                                                 :SP Normalized
VSH_SP      .V/V                                                :Volume of Shale from SP
~A        DEPTH            ASN           CILD            ILD            LAT             LN             SP        SP_NORM         VSH_SP
# ...
     10709.0000         0.8093       1495.633         0.7855        -999.25        -999.25       -46.7516      -2.849159      0.9579737
     10709.5000         0.8146       1472.223         0.7957        -999.25        -999.25       -46.6976      -2.795162      0.9592009
     10710.0000          0.842       1446.369         0.8059        -999.25        -999.25       -46.6437      -2.741261      0.9604259
     10710.5000         0.8519       1420.516         0.8161        -999.25        -999.25       -46.5633      -2.660862      0.9622532
     10711.0000         0.8604       1394.662         0.8263        -999.25        -999.25       -46.4064       -2.50396      0.9658191
     10711.5000          0.867       1333.982         0.8366        -999.25        -999.25       -46.2379      -2.335461      0.9696486
     10712.0000         0.8718       1309.373         0.8472        -999.25        -999.25       -46.0317      -2.129261       0.974335
     10712.5000         0.8791       1279.211         0.8577        -999.25        -999.25       -45.8256      -1.923161      0.9790191
     10713.0000         0.8918       1252.689         0.8683        -999.25        -999.25       -45.6191       -1.71666      0.9837123
     10713.5000         0.9089       1230.301         0.8788        -999.25        -999.25        -45.675       -1.77256      0.9824418
     10714.0000         0.9228       1207.914         0.8893        -999.25        -999.25       -45.7339      -1.831459      0.9811032
     10714.5000         0.9324       1185.525         0.8999        -999.25        -999.25       -45.7927      -1.890263      0.9797668
     10715.0000         0.9388       1162.869         0.9104        -999.25        -999.25       -45.7672      -1.864761      0.9803463
     10715.5000         0.9427       1138.348         0.9209        -999.25        -999.25        -45.613       -1.71056      0.9838509
     10716.0000         0.9466       1113.828         0.9315        -999.25        -999.25       -45.4589      -1.556461      0.9873531
     10716.5000         0.9472       1093.926         0.9372        -999.25        -999.25       -45.3047       -1.40226      0.9908577
     10717.0000         0.9478       1076.758         0.9428        -999.25        -999.25       -45.1506      -1.248161        0.99436
     10717.5000         0.9495       1059.588         0.9485        -999.25        -999.25       -44.9766      -1.074162      0.9983145
     10718.0000         0.9519       1042.441         0.9542        -999.25        -999.25       -44.6804     -0.7779617              1
     10718.5000         0.9543       1025.273         0.9599        -999.25        -999.25       -44.3842     -0.4817619              1
     10719.0000         0.9659       1019.576         0.9447        -999.25        -999.25        -44.088     -0.1855621              1
     10719.5000         0.9777        1024.65         0.9291        -999.25        -999.25       -43.7918      0.1106377              1
     10720.0000         0.9905       1039.221         0.9136        -999.25        -999.25       -43.4956      0.4068375              1
     10720.5000         1.0034       1053.791         0.8981        -999.25        -999.25       -43.1994      0.7030373              1
     10721.0000         1.0144       1068.361         0.8825        -999.25        -999.25       -42.9037      0.9987373              1
     10721.5000         1.0245       1082.932          0.867        -999.25        -999.25       -43.3828      0.5196381              1
     10722.0000         1.0363       1097.502         0.8633        -999.25        -999.25       -44.1172     -0.2147598              1
     10722.5000         1.0506       1112.096         0.8671        -999.25        -999.25       -44.8527     -0.9502602              1
     10723.0000         0.9853        1119.27         0.8709        -999.25        -999.25       -45.5872      -1.684761      0.9844372
     10723.5000         0.9632       1125.355         0.8747        -999.25        -999.25       -46.3227      -2.420261      0.9677213
     10724.0000         0.9626        1131.43         0.8785        -999.25        -999.25       -46.8876      -2.985161      0.9548827
     10724.5000         0.9619       1137.516         0.8823        -999.25        -999.25       -47.4139      -3.511459      0.9429214
     10725.0000         0.9611       1143.602         0.8831        -999.25        -999.25       -47.6539      -3.751461      0.9374668
     10725.5000         0.9584       1149.688          0.884        -999.25        -999.25       -47.8497      -3.947262      0.9330168
     10726.0000         0.9557       1155.762         0.8849        -999.25        -999.25       -47.6385      -3.736061      0.9378168
     10726.5000         0.9505       1161.848         0.8857        -999.25        -999.25       -47.3754      -3.472961      0.9437963
     10727.0000         0.9439       1167.934         0.8866        -999.25        -999.25       -47.1122      -3.209763      0.9497781
     10727.5000         0.9365        1174.02         0.8874        -999.25        -999.25       -46.8491      -2.946659      0.9557577
     10728.0000         0.9286        1180.76         0.8883        -999.25        -999.25       -46.5859       -2.68346      0.9617395
     10728.5000         0.9208       1187.967         0.8892        -999.25        -999.25       -46.3665      -2.464062      0.9667259
     10729.0000         0.9135       1195.164         0.8862        -999.25        -999.25       -46.5644      -2.661961      0.9622282
     10729.5000         0.9062       1202.361         0.8808        -999.25        -999.25       -46.8738      -2.971359      0.9551964
     10730.0000         0.8997       1202.006         0.8754        -999.25        -999.25       -47.1832      -3.280762      0.9481645
     10730.5000         0.8934       1192.299           0.87        -999.25        -999.25       -47.4926       -3.59016      0.9411327
     10731.0000          0.887        1182.57         0.8646        -999.25        -999.25       -47.8021      -3.899662      0.9340986
     10731.5000         0.8805       1199.695         0.8592        -999.25        -999.25       -48.1115      -4.209061      0.9270668
     10732.0000          0.874       1235.588         0.8538        -999.25        -999.25       -48.3613      -4.458862      0.9213895
     10732.5000         0.8688        1271.48         0.8484        -999.25        -999.25       -48.4675       -4.56506      0.9189759
     10733.0000         0.8638        1301.91         0.8429        -999.25        -999.25       -48.5738       -4.67136        0.91656
     10733.5000         0.8587       1324.166         0.8375        -999.25        -999.25       -48.6801       -4.77766      0.9141441
     10734.0000         0.8536       1346.465         0.8321        -999.25        -999.25       -48.7863      -4.883862      0.9117304
     10734.5000         0.8498       1368.721         0.8267        -999.25        -999.25       -48.8546       -4.95216      0.9101782
     10735.0000         0.8479        1391.02         0.8208        -999.25        -999.25        -48.842       -4.93956      0.9104645
     10735.5000         0.8461       1428.289         0.8129        -999.25        -999.25       -48.8295      -4.927059      0.9107487
     10736.0000          0.844       1469.691          0.805        -999.25        -999.25       -48.8083      -4.905861      0.9112304
     10736.5000         0.8419       1503.408         0.7972        -999.25        -999.25        -48.779       -4.87656      0.9118963
     10737.0000         0.8369        1522.33         0.7893        -999.25        -999.25        -48.809      -4.906559      0.9112146
     10737.5000         0.8283       1541.254         0.7815        -999.25        -999.25       -49.3442      -5.441761      0.8990509
     10738.0000         0.8144       1559.289         0.7736        -999.25        -999.25       -49.8782      -5.975761      0.8869145
