#------------------------------------------------------------------------------
# Created by    : vladimir.rabinovich
# Created on    : 09/19/2023 17:20:01
#------------------------------------------------------------------------------
~Version Information Section
VERS.           2.0     :   CWLS log ASCII Standard - VERSION 2.0
WRAP.           NO      :   One line per depth step
~Well Information Section
#MNEM       .UNIT                                         VALUE :DESCRIPTION
#------------------------------------------------------------------------------
STRT        .FT                                            3470 :START DEPTH
STOP        .FT                                           12708 :STOP DEPTH
STEP        .FT                                             0.5 :STEP      
NULL        .                                           -999.25 :NULL      
COMP        .                                     INEXCO OIL CO :COMPANY   
WELL        .                                     ST TR 00794-L :WELL      
FLD         .                                       BLOCK 794-L :FIELD     
LOC         .                                                   :LOCATION  
CNTY        .                        MUSTANG ISLAND LARGE BLOCK :LOCATION  
STAT        .                                             TEXAS :STATE     
CTRY        .                                     UNITED STATES :COUNTRY   
SRVC        .                                                   :SERVICE COMPANY
DATE        .                             9/13/2023 11:18:55 AM :LOG DATE  
API         .                                    42702301710000 :API NUMBER
UWI         .                                    42702301710000 :UNIQUE WELL ID
XCOORD      .                                  319607.894357718 :SURFACE X 
YCOORD      .                                   10038241.944616 :SURFACE Y 
LAT         .                                        27.6026524 :LATITUDE  
LON         .                                       -97.0775955 :LONGITUDE 
ELEV        .FT                                               0 :ELEVATION VALUE
ELEV_TYPE   .                                                GL :ELEVATION REFERENCE TYPE
~Curve Information Section
#MNEM       .UNIT                                      API CODE :CURVE DESCRIPTION
#------------------------------------------------------------------------------
DEPT        .FT                                                 :DEPTH     
ASFL        .OHMM                                               :          
CILD        .MMHO                                               :          
DT          .US/F                                               :          
GR          .GAPI                                               :          
GR_NORM     .GAPI                                               :GammaRay Normalized
ILD         .OHMM                                               :          
ILM         .OHMM                                               :          
SP          .MV                                                 :          
SP_NORM     .MV                                                 :SP Normalized
VSH_GR      .V/V                                                :Volume of Shale from GR
VSH_SP      .V/V                                                :Volume of Shale from SP
~A        DEPTH           ASFL           CILD             DT             GR        GR_NORM            ILD            ILM             SP        SP_NORM         VSH_GR         VSH_SP
# ...
     10850.0000         0.6567       1979.797       131.9492        67.4745        67.6896          0.481         0.4577        -49.239      -3.624966      0.7380766       0.909484
     10850.5000         0.6551       1995.938       132.3237        67.9661       68.54753         0.4803         0.4554       -49.1102      -3.496166      0.7563304      0.9139253
     10851.0000         0.6527       2012.076       132.8442        68.6252       69.69779         0.4791         0.4521       -48.8967      -3.282669      0.7808041      0.9212873
     10851.5000         0.6493       2028.215       133.4084        69.2855       70.85016         0.4778         0.4479       -48.6835      -3.069466      0.8053225      0.9286391
     10852.0000         0.6459       2045.082       134.0518        69.9446       72.00045         0.4766         0.4433       -48.4749      -2.860867      0.8297968      0.9358322
     10852.5000         0.6426       2063.066       134.7893        70.5686       73.08946         0.4754         0.4388       -48.3495      -2.735466      0.8529673      0.9401563
     10853.0000         0.6392       2081.074        135.094        71.1914       74.17637         0.4741         0.4351       -48.2237      -2.609669       0.876093      0.9444942
     10853.5000          0.635       2099.059       135.1909        71.6262        74.9352         0.4729         0.4332       -48.0979      -2.483868      0.8922384      0.9488322
     10854.0000         0.6306       2122.066       135.3237        71.9395       75.48197         0.4717         0.4296       -48.0259      -2.411869      0.9038717      0.9513149
     10854.5000         0.6262       2146.434       135.8186         72.024       75.62946         0.4696         0.4256       -47.9583      -2.344269      0.9070097      0.9536459
     10855.0000         0.6219       2168.711       135.9739        71.8759       75.37098          0.467         0.4214       -47.8907      -2.276669      0.9015102       0.955977
     10855.5000         0.6176       2187.449       135.9419        71.7274       75.11181         0.4645         0.4181       -47.8447      -2.230667      0.8959959      0.9575632
     10856.0000         0.6149       2189.652        135.981         71.579       74.85283          0.462         0.4161       -47.8006      -2.186565      0.8904857       0.959084
     10856.5000         0.6122       2191.316       135.5962         71.833       75.29611         0.4595          0.414       -47.7623      -2.148266      0.8999173      0.9604046
     10857.0000         0.6095       2192.977       134.2742        72.1365       75.82578         0.4569          0.411       -47.7239      -2.109867      0.9111867      0.9617287
     10857.5000         0.6069       2193.953       132.7578        72.5435        76.5361         0.4544         0.4097       -47.6856      -2.071568         0.9263      0.9630494
     10858.0000         0.6042       2193.875       132.8418        73.0248       77.37605         0.4517         0.4098       -47.6473      -2.033268      0.9441712      0.9643701
     10858.5000         0.6024       2193.797       134.7559        73.5061       78.21603          0.449         0.4102       -47.6089      -1.994865      0.9620431      0.9656943
     10859.0000         0.6032       2193.719       136.8254        73.9874       79.05601         0.4462         0.4102       -47.5537      -1.939667       0.979915      0.9675977
     10859.5000         0.6039       2193.641       137.9075        74.4688       79.89615         0.4434         0.4097       -47.4964      -1.882366      0.9977904      0.9695736
     10860.0000         0.6047       2193.563       137.2998        74.9501       80.73613         0.4406         0.4099       -47.4391      -1.825066              1      0.9715495
     10860.5000         0.6055       2193.484       136.1592        74.6635       80.23595         0.4378         0.4106       -47.3818      -1.767769              1      0.9735252
     10861.0000         0.6063       2193.406       135.7012        73.6863       78.53053         0.4351         0.4114       -47.3245      -1.710468      0.9687347      0.9755011
     10861.5000         0.6086       2193.328       135.5918        72.7091        76.8251         0.4334         0.4118       -47.2672      -1.653168      0.9324489       0.977477
     10862.0000         0.6111       2190.348       135.0464         71.969       75.53345         0.4318         0.4123       -47.1988      -1.584766      0.9049671      0.9798356
     10862.5000         0.6136       2184.148       134.5229        71.4877        74.6935         0.4303         0.4138       -47.1262      -1.512169      0.8870957       0.982339
     10863.0000         0.6161       2177.957       135.0342        71.0051       73.85123         0.4287         0.4163       -47.1568      -1.542767       0.869175      0.9812839
     10863.5000         0.6186       2171.758       136.0205        70.5227       73.00935         0.4271         0.4188       -47.1874      -1.573368      0.8512627      0.9802287
     10864.0000         0.6212       2157.863       135.9912        70.4546        72.8905         0.4255         0.4214       -47.3953      -1.781269       0.848734      0.9730597
     10864.5000         0.6238       2143.277       135.1602        70.3998       72.79488         0.4266         0.4245       -47.6982      -2.084167      0.8466995      0.9626149
     10865.0000         0.6265       2128.691       134.8064        70.3448        72.6989         0.4315          0.427       -48.0005      -2.361687      0.8446574      0.9530453
     10865.5000         0.6291       2114.105        134.312        70.2899       72.60305         0.4365         0.4297       -48.2678      -2.599766      0.8426181      0.9448357
     10866.0000         0.6318       2099.543        133.479        70.2573       72.54618         0.4414          0.434       -48.5121      -2.814846      0.8414081      0.9374191
     10866.5000         0.6343       2084.859       132.6362        70.3129       72.64321         0.4488         0.4391       -48.7564      -3.029926      0.8434726      0.9300026
     10867.0000         0.6368       2066.852       132.2739        70.3569       72.71999         0.4638         0.4461       -48.9523      -3.196606      0.8451062       0.924255
     10867.5000         0.6393       2048.867       132.1362        70.0963       72.26519         0.4788         0.4538       -49.1334      -3.348484      0.8354295      0.9190178
     10868.0000         0.6419       2030.861       132.5134        69.5781       71.36082         0.4938         0.4625       -49.3142      -3.500065      0.8161877      0.9137909
     10868.5000         0.6444       2012.877       133.0347        68.7026       69.83289         0.5088         0.4733        -49.495      -3.651642      0.7836784      0.9085641
     10869.0000         0.6469       1986.303       132.7507        67.9105       68.45049         0.5237          0.484       -49.5945      -3.721924      0.7542657      0.9061406
     10869.5000         0.6543        1951.84       132.2581        67.1293       67.08714         0.5395         0.4966       -49.6675      -3.765701      0.7252582       0.904631
     10870.0000         0.6621       1917.377       131.5371        66.3165       65.66861         0.5554         0.5098       -49.7297      -3.798679      0.6950768      0.9034938
     10870.5000         0.6699       1877.283        130.157        64.8291       63.07279         0.5713         0.5227       -49.7381      -3.777859      0.6398466      0.9042118
     10871.0000         0.6833        1818.26         128.52        63.1118       60.07573         0.5872         0.5358       -49.7465      -3.757038      0.5760792      0.9049297
     10871.5000         0.6966       1759.236       125.3245        63.0078       59.89421         0.6031         0.5498       -49.7548      -3.736118      0.5722173      0.9056511
     10872.0000         0.7042       1677.301       122.5714        63.5363       60.81658         0.6184         0.5651       -49.8008      -3.752899      0.5918422      0.9050725
