#------------------------------------------------------------------------------
# Created by    : vladimir.rabinovich
# Created on    : 09/19/2023 17:22:21
#------------------------------------------------------------------------------
~Version Information Section
VERS.           2.0     :   CWLS log ASCII Standard - VERSION 2.0
WRAP.           NO      :   One line per depth step
~Well Information Section
#MNEM       .UNIT                                         VALUE :DESCRIPTION
#------------------------------------------------------------------------------
STRT        .FT                                            2180 :START DEPTH
STOP        .FT                                            6738 :STOP DEPTH
STEP        .FT                                             0.5 :STEP      
NULL        .                                           -999.25 :NULL      
COMP        .                          SEAGULL ENERGY E & P INC :COMPANY   
WELL        .                               OCS G08131 ST00BP00 :WELL      
FLD         .                              GALVESTON BLOCK 0384 :FIELD     
LOC         .                                                   :LOCATION  
CNTY        .                             GALVESTON LARGE BLOCK :LOCATION  
STAT        .                                             TEXAS :STATE     
CTRY        .                                     UNITED STATES :COUNTRY   
SRVC        .                                                   :SERVICE COMPANY
DATE        .                             9/13/2023 11:19:36 AM :LOG DATE  
API         .                                    42706401890000 :API NUMBER
UWI         .                                    42706401890000 :UNIQUE WELL ID
XCOORD      .                                  986765.057424596 :SURFACE X 
YCOORD      .                                  10402321.6077632 :SURFACE Y 
LAT         .                                          28.64909 :LATITUDE  
LON         .                                        -95.038398 :LONGITUDE 
ELEV        .FT                                             100 :ELEVATION VALUE
ELEV_TYPE   .                                                KB :ELEVATION REFERENCE TYPE
~Curve Information Section
#MNEM       .UNIT                                      API CODE :CURVE DESCRIPTION
#------------------------------------------------------------------------------
DEPT        .FT                                                 :DEPTH     
CALN        .IN                                                 :          
DRHO        .G/CM3                                              :          
GR          .GAPI                                               :          
GR_NORM     .GAPI                                               :GammaRay Normalized
ILD         .OHMM                                               :          
ILM         .OHMM                                               :          
NPSS        .V/V                                                :Neutron Porosity Sandstone
RHOB        .G/CM3                                              :          
SFL         .OHMM                                               :          
SP          .MV                                                 :          
SP_NORM     .MV                                                 :SP Normalized
TENN        .LB                                                 :          
VSH_GR      .V/V                                                :Volume of Shale from GR
VSH_SP      .V/V                                                :Volume of Shale from SP
~A        DEPTH           CALN           DRHO             GR        GR_NORM            ILD            ILM           NPSS           RHOB            SFL             SP        SP_NORM           TENN         VSH_GR         VSH_SP
# ...
      2540.0000        19.5686          0.022        36.7961        34.9682         0.6629         0.7517         0.3366          2.131         1.2334       -56.0023      -50.75701       1568.627     0.04187669      0.2748998
      2540.5000        19.6861          0.025        37.6057       35.69122         0.6393         0.7319         0.3414          2.131         1.2004        -56.996      -51.75221       1529.412     0.05726007      0.2606827
      2541.0000        19.6858         0.0119        39.8152       37.67415         0.6222         0.7126          0.339          2.115           1.19       -56.3902      -51.14791       1529.412     0.09944997      0.2693156
      2541.5000        19.6461         0.0019        41.6264        39.2986          0.611            0.7         0.3342          2.103         1.1479       -53.9893      -48.74851       1529.412      0.1340128      0.3035927
      2542.0000        19.6064        -0.0032        42.8357       40.38135         0.5946         0.6751          0.327          2.091         1.0295       -50.7971      -45.55781       1568.627        0.15705      0.3491742
      2542.5000        19.4485        -0.0023        43.6452       41.10427         0.5785         0.6629          0.333          2.082         0.9081          -47.2      -41.96221       1529.412      0.1724314      0.4005399
      2543.0000        19.1917         0.0037        45.0565       42.36882         0.5733         0.6629         0.3408           2.08         0.8256          -41.6       -36.3637       1490.196      0.1993366      0.4805185
      2543.5000        18.8733         0.0117        48.0656       45.07138         0.5838          0.669          0.348          2.082         0.8102       -35.4608      -30.22601       1490.196       0.256838      0.5681999
      2544.0000        18.6124         0.0206        54.8395       51.16227            0.6            0.7         0.3552          2.092          0.834       -28.7238      -23.49051       1490.196      0.3864313      0.6644214
      2544.5000        18.5314         0.0406           62.8       58.32109         0.6165         0.7261         0.3612         2.1089         0.8748       -21.7143      -16.48251       1490.196      0.5387467      0.7645356
      2545.0000        18.7305         0.0475           68.8       63.71547          0.651         0.7465          0.379         2.1267         0.8667       -15.3033        -10.073       1490.196      0.6535207         0.8561
      2545.5000        19.2668         0.0415        72.3776       66.92969         0.6751         0.7677         0.3915         2.1336         0.8668       -11.0941      -5.865304       1490.196      0.7219083      0.9162099
      2546.0000        17.9484         0.0314        73.3716       67.81866         0.7131         0.7895         0.4089         2.1287         0.8588         -8.502      -3.274703       1490.196      0.7408227      0.9532185
      2546.5000           17.2         0.0224        71.1911       65.85059         0.7401         0.8047         0.4259         2.1168          0.851        -6.3201      -1.094303       1490.196      0.6989488      0.9843671
      2547.0000        16.7019         0.0093           68.2       63.15297         0.7684         0.8278           0.44         2.1109         0.8126        -6.1168     -0.8925018       1490.196      0.6415524        0.98725
      2547.5000         16.821         0.0023           67.2       62.24734         0.7906         0.8436         0.4425         2.1069         0.7615        -6.7024      -1.479601       1568.627      0.6222839      0.9788628
      2548.0000        16.6416        -0.0018           68.6       63.50172         0.8132         0.8674         0.4413          2.102         0.7835        -7.6806      -2.459301       1568.627      0.6489727      0.9648671
      2548.5000        16.5814        -0.0089        70.1993       64.93547          0.844         0.8836         0.4425            2.1         0.8755         -8.657        -3.4372       1529.412      0.6794781      0.9508972
      2549.0000        16.6209        -0.0079        71.3965       66.00732         0.8677            0.9         0.4456         2.1069         0.9526        -9.2367        -4.0184       1490.196      0.7022835      0.9425943
      2549.5000        16.9601        -0.0019        71.5979       66.18296         0.8838         0.9173         0.4481         2.1245         0.9805        -9.4243      -4.207499       1490.196      0.7060204      0.9398929
      2550.0000        18.0604          0.003        71.3995       65.99878            0.9         0.9262         0.4408         2.1461         0.9623        -9.6115      -4.396198       1490.196      0.7021017      0.9371971
      2550.5000          18.66          0.008        70.6055       65.27855         0.9089         0.9443         0.4249         2.1612         0.9264        -9.0191      -3.805298       1491.338      0.6867777      0.9456386
      2551.0000           18.6          0.009        70.2152       64.92165          0.918         0.9445           0.42         2.1684         0.9356        -9.0181      -3.805797       1493.242      0.6791841      0.9456315
      2551.5000        18.0175          0.011        69.4253       64.20512         0.9096         0.9448         0.4188         2.1694         0.9183        -9.0172      -3.806397       1495.146      0.6639388      0.9456229
      2552.0000        17.4363          0.013         67.835       62.76823         0.9016         0.9362          0.411         2.1694         0.8376        -9.8032      -4.593895        1497.43      0.6333665      0.9343729
      2552.5000        17.0553          0.012        65.8468       60.97322         0.8854         0.9365         0.4008         2.1663         0.7633            -11      -5.792195       1499.334       0.595175      0.9172543
      2553.0000        16.7359          0.006        63.6567       58.99651         0.8695         0.9194         0.3894         2.1531         0.7218          -14.2      -8.993694       1501.237      0.5531172      0.8715187
      2553.5000        16.4769          0.001        61.2666        56.8398         0.8538         0.9112         0.3828         2.1373         0.8226          -18.4      -13.19519       1503.141      0.5072297      0.8114972
      2554.0000        16.3771         -0.001        59.4829       55.22884         0.8382         0.9032         0.3792         2.1235         0.9372          -21.6      -16.39669       1505.045      0.4729539      0.7657615
      2554.5000        16.7734         -0.002        59.6898       55.40942         0.8151         0.8868         0.3792         2.1157         1.0955            -26      -20.79819       1467.733      0.4767962      0.7028829
      2555.0000          18.08         -0.002         60.896       56.48938         0.7927         0.8872          0.387         2.1137         1.2334          -29.4      -24.19969       1469.636       0.499774      0.6542901
      2555.5000           18.1         -0.001        60.7058       56.31257         0.7854         0.8793         0.3978         2.1098         1.2334       -32.7707      -27.57189       1471.921      0.4960122      0.6061159
      2556.0000          18.36         -0.001        57.9332       53.81161         0.7712         0.8796          0.396          2.101         1.2001        -35.734      -30.53669        1513.04      0.4428002      0.5637615
      2556.5000          18.86              0        55.1617       51.31164         0.7574         0.8716         0.3774          2.095         1.1784       -38.8877      -33.69189       1514.944      0.3896093      0.5186872
      2557.0000        19.4144              0        53.1796       49.52212         0.7439         0.8636          0.348          2.098         1.2001       -40.0632      -34.86889       1516.848      0.3515344       0.501873
      2557.5000         20.821          0.001        52.7848       49.16117          0.744         0.8556         0.3241         2.1157         1.2222       -40.4543      -35.26149       1518.751      0.3438548      0.4962644
