#------------------------------------------------------------------------------
# Created by    : vladimir.rabinovich
# Created on    : 09/19/2023 17:20:24
#------------------------------------------------------------------------------
~Version Information Section
VERS.           2.0     :   CWLS log ASCII Standard - VERSION 2.0
WRAP.           NO      :   One line per depth step
~Well Information Section
#MNEM       .UNIT                                         VALUE :DESCRIPTION
#------------------------------------------------------------------------------
STRT        .FT                                            2979 :START DEPTH
STOP        .FT                                           11003 :STOP DEPTH
STEP        .FT                                             0.5 :STEP      
NULL        .                                           -999.25 :NULL      
COMP        .                                        TEXACO USA :COMPANY   
WELL        .                               OCS G01821 ST00BP00 :WELL      
FLD         .                                           WILDCAT :FIELD     
LOC         .                                                   :LOCATION  
CNTY        .                           HIGH ISLAND LARGE BLOCK :LOCATION  
STAT        .                                             TEXAS :STATE     
CTRY        .                                     UNITED STATES :COUNTRY   
SRVC        .                                                   :SERVICE COMPANY
DATE        .                             9/13/2023 11:19:15 AM :LOG DATE  
API         .                                    42708300170000 :API NUMBER
UWI         .                                    42708300170000 :UNIQUE WELL ID
XCOORD      .                                  1345073.13508324 :SURFACE X 
YCOORD      .                                  10640242.4404634 :SURFACE Y 
LAT         .                                         29.315788 :LATITUDE  
LON         .                                        -93.927032 :LONGITUDE 
ELEV        .FT                                              74 :ELEVATION VALUE
ELEV_TYPE   .                                                KB :ELEVATION REFERENCE TYPE
~Curve Information Section
#MNEM       .UNIT                                      API CODE :CURVE DESCRIPTION
#------------------------------------------------------------------------------
DEPT        .FT                                                 :DEPTH     
ASN         .OHMM                                               :          
CILD        .MMHO                                               :          
ILD         .OHMM                                               :          
SP          .MV                                                 :          
SP_NORM     .MV                                                 :SP Normalized
VSH_SP      .V/V                                                :Volume of Shale from SP
~A        DEPTH            ASN           CILD            ILD             SP        SP_NORM         VSH_SP
# ...
     10959.0000         0.6418        1802.09         0.4834       -41.5167      -1.516701      0.9920508
     10959.5000         0.6506       1773.996         0.4861       -41.8062      -1.806198      0.9875969
     10960.0000         0.6593         1745.9         0.4888        -42.095      -2.095001      0.9831538
     10960.5000         0.6681       1717.807         0.4914       -42.3845      -2.384499         0.9787
     10961.0000         0.6769       1689.711         0.4941       -42.5389      -2.538898      0.9763246
     10961.5000         0.6856        1675.84         0.4968        -42.462      -2.462002      0.9775077
     10962.0000         0.6917       1662.016         0.4995       -42.3851      -2.385101      0.9786907
     10962.5000         0.6977       1648.193         0.5022       -42.3082      -2.308201      0.9798738
     10963.0000         0.7037       1634.396         0.5049       -42.0521      -2.052101      0.9838138
     10963.5000         0.7097       1620.574         0.5074       -41.7446      -1.744598      0.9885446
     10964.0000         0.7157        1606.75         0.5099       -41.4377      -1.437698      0.9932662
     10964.5000         0.7209       1592.953         0.5124       -41.1307      -1.130699      0.9979892
     10965.0000         0.7207       1584.469         0.5149       -40.8232     -0.8232002              1
     10965.5000         0.7204       1591.531         0.5174       -40.5164     -0.5163994              1
     10966.0000         0.7201        1598.58         0.5198       -40.2094     -0.2094002              1
     10966.5000         0.7199       1605.641         0.5223       -39.9025     0.09749985              1
     10967.0000         0.7196       1612.701         0.5248       -39.8505      0.1495018              1
     10967.5000         0.7186       1619.762         0.5227       -39.9511     0.06626511              1
     10968.0000          0.711       1626.824         0.5197       -40.1372    -0.03173447              1
     10968.5000         0.7034       1640.934         0.5167       -40.6116     -0.4180336              1
     10969.0000         0.6958       1655.729         0.5137       -41.0853     -0.8036308              1
     10969.5000         0.6895       1670.525         0.5107        -41.559      -1.189228      0.9970888
     10970.0000          0.693        1685.32         0.5077       -42.0334      -1.575531      0.9911457
     10970.5000         0.6965       1700.092         0.5096       -42.5071      -1.961128      0.9852134
     10971.0000            0.7       1712.766         0.5279       -42.9815      -2.347427      0.9792703
     10971.5000         0.7138       1651.387         0.5463       -43.4553      -2.733128      0.9733365
     10972.0000          0.732       1590.008          0.567       -44.0173      -3.207027      0.9660457
     10972.5000         0.7502       1554.029          0.591       -44.7133      -3.814926      0.9566935
     10973.0000         0.7683       1522.342          0.615       -45.4106      -4.424126      0.9473211
     10973.5000         0.7865       1490.605          0.639       -46.1065      -5.031925      0.9379704
     10974.0000         0.8047       1458.867          0.663       -46.8025      -5.639828       0.928618
     10974.5000         0.8229       1427.131         0.6869       -47.4997      -6.248924      0.9192473
     10975.0000         0.8425       1395.393         0.7003       -48.1957      -6.856827      0.9098949
     10975.5000          0.873       1363.656         0.7102       -48.9502      -7.523224      0.8996427
     10976.0000         0.9034       1336.109         0.7045       -49.8068      -8.291725      0.8878196
     10976.5000         0.9338       1309.912         0.6936       -50.6633       -9.06012      0.8759981
     10977.0000         0.9643       1293.994         0.6826       -51.5212      -9.829918      0.8641551
     10977.5000         0.9704       1333.416         0.6717       -51.9072      -10.12782       0.859572
     10978.0000          0.945       1372.938         0.6608       -49.5715      -7.704018      0.8968613
     10978.5000         0.9195       1412.459         0.6499       -47.3005      -5.344917      0.9331551
     10979.0000         0.8941       1452.281         0.6382       -47.6292      -5.585518      0.9294536
     10979.5000         0.8673       1493.898          0.626       -48.6551      -6.523319      0.9150258
     10980.0000         0.8402       1535.516         0.6137       -49.6835      -7.463615      0.9005598
     10980.5000         0.8131       1577.234         0.6015       -50.7119      -8.403915      0.8860936
     10981.0000          0.786       1618.852         0.5892       -51.1104      -8.714317      0.8813182
     10981.5000          0.759        1660.57         0.5769       -49.6611      -7.176914      0.9049705
     10982.0000         0.7321       1688.613         0.5647       -48.2094      -5.637115      0.9286597
     10982.5000         0.7204       1707.002         0.5524       -46.7577      -4.097317      0.9523489
     10983.0000         0.7093       1725.416         0.5402       -45.5873      -2.838814      0.9717106
     10983.5000         0.7164        1743.83         0.5279       -44.8142      -1.977615      0.9849598
     10984.0000         0.7235       1759.998         0.5176        -44.041       -1.11631      0.9982106
     10984.5000         0.7306       1770.402         0.5176       -43.2679     -0.2551079              1
     10985.0000         0.7377       1711.668         0.5176       -42.4959      0.6049919              1
     10985.5000         0.7448       1645.398         0.5176       -42.3939      0.7950897              1
     10986.0000         0.7519        1579.23         0.5176         -43.04      0.2370911              1
     10986.5000          0.759       1512.961         0.5231       -43.6862     -0.3210068              1
     10987.0000         0.7717       1468.598         0.5305       -44.3323     -0.8790054              1
     10987.5000         0.7846       1431.771         0.5379       -44.9785      -1.437107      0.9932753
     10988.0000         0.7975       1395.992         0.5453       -45.6038      -1.974308      0.9850106
     10988.5000         0.8105       1439.904         0.5526       -45.7377      -2.020107       0.984306
     10989.0000         0.8114       1483.918           0.56       -45.6583      -1.852604       0.986883
     10989.5000         0.7802       1527.832         0.5674       -44.9125      -1.018703      0.9997122
     10990.0000          0.738       1602.783         0.5747       -44.1667      -0.184803              1
     10990.5000         0.6949        1685.82         0.5821        -43.421      0.6489944              1
     10991.0000         0.6519       1768.855         0.5895       -42.6752       1.482895              1
     10991.5000         0.6624       1816.785         0.5968       -42.8433       1.402897              1
     10992.0000          0.681        1835.35         0.6042       -43.8891      0.4452019              1
     10992.5000         0.6997       1853.189         0.6127       -44.8752     -0.4527969              1
     10993.0000         0.7183       1783.826         0.6238       -45.8638      -1.353298      0.9945647
     10993.5000         0.7369       1714.363         0.6349        -46.124      -1.525398       0.991917
     10994.0000         0.7556         1644.9         0.6461       -46.2628      -1.576096       0.991137
     10994.5000         0.7742       1575.537         0.6572       -46.4539      -1.679096      0.9895524
     10995.0000         0.8075       1506.074         0.6683        -46.795      -1.762409      0.9882706
     10995.5000         0.8472       1454.789         0.6795       -48.3488      -2.191357      0.9816715
     10996.0000         0.8869       1447.229         0.6906        -53.705      -6.422699      0.9165739
     10996.5000         0.9267        1439.68         0.7017       -61.1453      -12.73814      0.8194132
