#------------------------------------------------------------------------------
# Created by    : vladimir.rabinovich
# Created on    : 09/19/2023 17:22:25
#------------------------------------------------------------------------------
~Version Information Section
VERS.           2.0     :   CWLS log ASCII Standard - VERSION 2.0
WRAP.           NO      :   One line per depth step
~Well Information Section
#MNEM       .UNIT                                         VALUE :DESCRIPTION
#------------------------------------------------------------------------------
STRT        .FT                                            3984 :START DEPTH
STOP        .FT                                           14348 :STOP DEPTH
STEP        .FT                                             0.5 :STEP      
NULL        .                                           -999.25 :NULL      
COMP        .                                  CNG PRODUCING CO :COMPANY   
WELL        .                               OCS G07292 ST00BP00 :WELL      
FLD         .                                           WILDCAT :FIELD     
LOC         .                                                   :LOCATION  
CNTY        .                           HIGH ISLAND LARGE BLOCK :LOCATION  
STAT        .                                             TEXAS :STATE     
CTRY        .                                     UNITED STATES :COUNTRY   
SRVC        .                                                   :SERVICE COMPANY
DATE        .                             9/13/2023 11:19:59 AM :LOG DATE  
API         .                                    42708402890000 :API NUMBER
UWI         .                                    42708402890000 :UNIQUE WELL ID
XCOORD      .                                  1158246.84135722 :SURFACE X 
YCOORD      .                                  10525039.0147689 :SURFACE Y 
LAT         .                                         28.993597 :LATITUDE  
LON         .                                        -94.508673 :LONGITUDE 
ELEV        .FT                                             101 :ELEVATION VALUE
ELEV_TYPE   .                                                KB :ELEVATION REFERENCE TYPE
~Curve Information Section
#MNEM       .UNIT                                      API CODE :CURVE DESCRIPTION
#------------------------------------------------------------------------------
DEPT        .FT                                                 :DEPTH     
CALX        .IN                                                 :          
DTL         .US/F                                               :          
GR          .GAPI                                               :          
GR_NORM     .GAPI                                               :GammaRay Normalized
ILD         .OHMM                                               :          
ILM         .OHMM                                               :          
LL3         .OHMM                                               :          
SP          .MV                                                 :          
SP_NORM     .MV                                                 :SP Normalized
VSH_GR      .V/V                                                :Volume of Shale from GR
VSH_SP      .V/V                                                :Volume of Shale from SP
~A        DEPTH           CALX            DTL             GR        GR_NORM            ILD            ILM            LL3             SP        SP_NORM         VSH_GR         VSH_SP
# ...
      4659.0000        17.1081       124.9078         47.705       80.79235            1.4         1.4827         1.2614       -45.0624      -2.935448              1       0.958065
      4659.5000        17.1108       128.0134        47.1918       79.81483         1.3702         1.4071         1.2239       -45.1175      -2.994488      0.9960601      0.9572216
      4660.0000        17.1122       131.6152        46.9824       79.41597         1.3293         1.3157         1.1315       -42.6288     -0.5097275      0.9875738      0.9927182
      4660.5000        17.1044       134.9822        47.6351       80.65921          1.292          1.306         1.0898       -40.7982       1.316933              1              1
      4661.0000        17.1037       137.2273        49.6931        84.5792         1.2534         1.2991         1.0942       -40.9839       1.127293              1              1
      4661.5000        17.1046        137.738        52.2548       89.45863         1.2002         1.2839          1.063       -44.6867      -2.579449              1      0.9631507
      4662.0000        17.0994       137.7527         53.894       92.58091         1.1488         1.2654         1.0252       -44.0469      -1.943592              1      0.9722344
      4662.5000        17.0944       137.9158        53.7321       92.27254         1.1147         1.2661         1.0651         -42.66     -0.5606308              1       0.991991
      4663.0000        17.0895       138.1978        52.3134       89.57025         1.1038         1.2675         1.0692       -42.3785     -0.2830734              1      0.9959561
      4663.5000        17.0847       138.1594        50.4462       86.01368         1.1039         1.2545         1.0581       -41.3947      0.6967888              1              1
      4664.0000        17.0856       137.5024        48.7994       82.87691         1.1049         1.2508         1.0844        -41.624      0.4635468              1              1
      4664.5000        17.0876       136.0068        48.6691       82.62872         1.1113         1.2635         1.1052       -41.7478      0.3358078              1              1
      4665.0000        17.0872       134.7964        50.0369       85.23405         1.1321         1.2831         1.1024       -41.1224      0.9572678              1              1
      4665.5000        17.0869       133.7915         52.012       88.99616         1.1687         1.3206         1.0707       -40.7988       1.276924              1              1
      4666.0000        17.0865       130.7002        51.1326       87.32111         1.1987         1.3812         1.1053       -42.1729     -0.1011162              1      0.9985555
      4666.5000        17.0862       129.0496        46.4462       78.39462         1.2557         1.4553           1.13       -43.5557      -1.487854       0.965843      0.9787449
      4667.0000        17.0883       126.9636        43.6514        73.0712         1.2947         1.5214         1.1585       -41.9669     0.09700394      0.8525787              1
      4667.5000        17.0908       125.4644        43.1728       72.15958         1.3339         1.5615         1.2466       -42.2794     -0.2194366      0.8331825      0.9968652
      4668.0000        17.0946        124.391        45.3668       76.33863         1.3678         1.5812         1.2742       -42.5294     -0.4733772      0.9220985      0.9932375
      4668.5000        17.0981       123.6958        46.4055       78.31712          1.388         1.5746         1.2823       -43.7749      -1.722816      0.9641939      0.9753883
      4669.0000        17.1004       124.0376        46.1278       77.78816         1.3993         1.5523         1.2766       -45.9525      -3.904358      0.9529396      0.9442235
      4669.5000        17.1016       125.5956        46.3699       78.24931         1.3932         1.5036         1.2131       -41.9222      0.1220016      0.9627513              1
      4670.0000        17.1016       126.9812        48.3051       81.93539         1.3752         1.4575          1.164       -41.9795      0.0607605              1              1
      4670.5000        17.0998       127.8138        50.3392       85.80988         1.3687         1.4381         1.1611       -46.1578      -4.121479              1      0.9411218
      4671.0000        17.0975       127.9761        50.0854       85.32645         1.3524         1.4238         1.1496       -42.6111     -0.5787201              1      0.9917326
      4671.5000        17.0952       127.7618        48.0834       81.51312         1.3294         1.4178          1.137       -42.2686     -0.2401581              1      0.9965692
      4672.0000        17.0947       127.3011        47.5929       80.57881         1.3102         1.4199         1.1376       -41.9745     0.05000305              1              1
      4672.5000        17.0944       128.0967        48.2283       81.78912         1.3027         1.4117         1.1614       -41.1678      0.8527603              1              1
      4673.0000        17.0899       129.1797         50.307       85.74854         1.3047         1.4102         1.1743       -42.3945     -0.3778801              1      0.9946017
      4673.5000        17.0862       129.9563         50.295       85.72568         1.3045         1.4101         1.1619        -42.489     -0.4763184              1      0.9931955
      4674.0000        17.0859       130.3218          47.95         81.259         1.3124         1.4163         1.1487       -41.2534      0.7553406              1              1
      4674.5000        17.0865       130.4065         45.528       76.64568         1.3203         1.4223         1.1549        -41.921     0.08379745      0.9286315              1
      4675.0000        17.0904       129.8459        45.7056       76.98397         1.3234         1.4333         1.1521       -41.9528     0.04805756      0.9358292              1
      4675.5000        17.0945       127.7902        47.0897       79.62034         1.3282         1.4445         1.1456       -41.3643       0.632618      0.9919221              1
      4676.0000        17.0992       127.1132        47.8774       81.12071         1.3334         1.4442         1.1609       -40.5305       1.462479              1              1
      4676.5000        17.1039       127.2271        47.0684       79.57979         1.3302         1.4428         1.1524       -40.6653       1.323738      0.9910593              1
      4677.0000        17.1032       127.8059        46.3903       78.28816         1.3226         1.4348         1.1655       -40.7346       1.250496      0.9635779              1
      4677.5000        17.1024       129.0293        48.4487       82.20892         1.3051         1.4185          1.154       -41.8705      0.1106567              1              1
      4678.0000        17.0997       130.2561        52.8115       90.51901         1.2943         1.3937         1.1665       -41.8958     0.08141327              1              1
      4678.5000        17.0935       131.5093         55.338       95.33139         1.2768         1.3667         1.1971       -38.7786       3.194675              1              1
      4679.0000        17.0873        132.426         53.814       92.42853          1.258         1.3383         1.0908       -39.9562       2.013134              1              1
      4679.5000        17.0819       133.2507        50.5495       86.21044         1.2559         1.3169         1.1213       -43.4348      -1.469406              1      0.9790085
      4680.0000        17.0796       133.5181        48.2201       81.77348           1.26         1.3013         1.0843       -42.9185     -0.9570465              1      0.9863279
      4680.5000        17.0773       133.4753        48.2163       81.76625         1.2642         1.2958         1.0961       -40.1819       1.775612              1              1
      4681.0000        17.0749       132.6052        48.5809       82.46074         1.2617          1.312         1.1395       -40.4348       1.518772              1              1
