#------------------------------------------------------------------------------
# Created by    : vladimir.rabinovich
# Created on    : 09/19/2023 17:21:52
#------------------------------------------------------------------------------
~Version Information Section
VERS.           2.0     :   CWLS log ASCII Standard - VERSION 2.0
WRAP.           NO      :   One line per depth step
~Well Information Section
#MNEM       .UNIT                                         VALUE :DESCRIPTION
#------------------------------------------------------------------------------
STRT        .FT                                            2690 :START DEPTH
STOP        .FT                                            8272 :STOP DEPTH
STEP        .FT                                             0.5 :STEP      
NULL        .                                           -999.25 :NULL      
COMP        .                        PG&E RESOURCES OFFSHORE CO :COMPANY   
WELL        .                               OCS G09053 ST00BP00 :WELL      
FLD         .                              GALVESTON BLOCK 0427 :FIELD     
LOC         .                                                   :LOCATION  
CNTY        .                             GALVESTON LARGE BLOCK :LOCATION  
STAT        .                                             TEXAS :STATE     
CTRY        .                                     UNITED STATES :COUNTRY   
SRVC        .                                                   :SERVICE COMPANY
DATE        .                             9/13/2023 11:11:09 AM :LOG DATE  
API         .                                    42706402380000 :API NUMBER
UWI         .                                    42706402380000 :UNIQUE WELL ID
XCOORD      .                                  948581.259723803 :SURFACE X 
YCOORD      .                                  10360666.4777899 :SURFACE Y 
LAT         .                                         28.532718 :LATITUDE  
LON         .                                        -95.155068 :LONGITUDE 
ELEV        .FT                                             119 :ELEVATION VALUE
ELEV_TYPE   .                                                KB :ELEVATION REFERENCE TYPE
~Curve Information Section
#MNEM       .UNIT                                      API CODE :CURVE DESCRIPTION
#------------------------------------------------------------------------------
DEPT        .FT                                                 :DEPTH     
CALI        .IN                                                 :          
DRHO        .G/C3                                               :          
DT          .US/F                                               :          
GR          .GAPI                                               :          
GR_1        .GAPI                                               :          
GR_NORM     .GAPI                                               :GammaRay Normalized
ILD         .OHMM                                               :          
ILM         .OHMM                                               :          
NPHI        .%                                                  :          
RFOC        .OHMM                                               :          
RHOB        .G/C3                                               :          
SP          .MV                                                 :          
SP_NORM     .MV                                                 :SP Normalized
VSH_GR      .V/V                                                :Volume of Shale from GR
VSH_SP      .V/V                                                :Volume of Shale from SP
~A        DEPTH           CALI           DRHO             DT             GR           GR_1        GR_NORM            ILD            ILM           NPHI           RFOC           RHOB             SP        SP_NORM         VSH_GR         VSH_SP
# ...
      3489.0000        -999.25        -999.25       139.6462        82.6831        -999.25       74.12503         0.8694         0.8363        -999.25         1.0634        -999.25       -46.8631    -0.04671097      0.8750007              1
      3489.5000        -999.25        -999.25       139.5037        81.8347        -999.25        73.1618         0.8813         0.8471        -999.25         1.0642        -999.25       -46.7714     0.03533936      0.8545063              1
      3490.0000        -999.25        -999.25       139.4543        82.8956        -999.25       74.35938         0.8899         0.8558        -999.25         1.0625        -999.25       -46.4446      0.3524895      0.8799867              1
      3490.5000        -999.25        -999.25       139.5681        86.4294        -999.25       78.35562         0.8942         0.8612        -999.25         1.0641        -999.25       -45.7736        1.01384      0.9650132              1
      3491.0000        -999.25        -999.25       140.0874        89.1018        -999.25       81.37699         0.8963         0.8629        -999.25         1.0653        -999.25       -45.0572       1.720592              1              1
      3491.5000        -999.25        -999.25       141.0396        90.2095        -999.25       82.62755         0.8947         0.8635        -999.25         1.0661        -999.25       -44.8757       1.892441              1              1
      3492.0000        -999.25        -999.25       142.0444        89.6842        -999.25       82.02996         0.8915         0.8668        -999.25         1.0669        -999.25       -45.4363       1.322197              1              1
      3492.5000        -999.25        -999.25       143.4768        89.4834        -999.25       81.79964         0.8881         0.8664        -999.25         1.0651        -999.25       -46.1689      0.5799484              1              1
      3493.0000        -999.25        -999.25       144.5435        90.4019        -999.25       82.83607         0.8846         0.8602        -999.25         1.0531        -999.25        -46.541      0.1981964              1              1
      3493.5000        -999.25        -999.25       144.5547        92.4377        -999.25       85.13698         0.8806         0.8552        -999.25         1.0341        -999.25       -46.8001    -0.07054901              1              1
      3494.0000        -999.25        -999.25       143.8315        94.0181        -999.25       86.92249         0.8767         0.8572        -999.25          1.024        -999.25       -46.9744     -0.2544975              1              1
      3494.5000        -999.25        -999.25       142.5974        92.9318        -999.25       85.69002         0.8758         0.8553        -999.25         1.0377        -999.25       -47.0513     -0.3410492              1              1
      3495.0000        -999.25        -999.25       141.5208        90.0271        -999.25        82.3996         0.8743          0.851        -999.25         1.0583        -999.25       -47.0358     -0.3351974              1              1
      3495.5000        -999.25        -999.25       141.2988        88.7803        -999.25       80.98547         0.8723         0.8441        -999.25         1.0596        -999.25       -46.9852     -0.2942429              1              1
      3496.0000        -999.25        -999.25       142.7654        89.4158        -999.25       81.70162         0.8691         0.8358        -999.25         1.0293        -999.25       -46.9843     -0.3029938              1              1
      3496.5000        -999.25        -999.25       145.9172        90.3257        -999.25       82.72831         0.8621         0.8285        -999.25         1.0085        -999.25       -47.1087     -0.4370422              1              1
      3497.0000        -999.25        -999.25       147.0256          90.34        -999.25       82.74142         0.8522         0.8247        -999.25         0.9976        -999.25        -47.348     -0.6859894              1              1
      3497.5000        -999.25        -999.25       147.4709        89.3973        -999.25       81.67146          0.842         0.8178        -999.25         0.9976        -999.25       -47.7229      -1.070541              1      0.9981912
      3498.0000        -999.25        -999.25       147.1511        88.0605        -999.25       80.15548         0.8316         0.8102        -999.25         1.0058        -999.25       -48.2291      -1.586388              1      0.9849644
      3498.5000        -999.25        -999.25       146.6323        86.4872        -999.25       78.37185          0.821         0.8027        -999.25         1.0075        -999.25       -48.7084      -2.075336      0.9653585      0.9724272
      3499.0000        -999.25        -999.25       146.7271        85.2468        -999.25       76.96498         0.8112         0.7969        -999.25         0.9954        -999.25       -48.6796      -2.056187      0.9354251      0.9729183
      3499.5000        -999.25        -999.25       147.9258        86.4258        -999.25       78.29621         0.8025         0.7893        -999.25         0.9677        -999.25       -48.4182      -1.804436      0.9637492      0.9793735
      3500.0000        -999.25        -999.25       149.6533        90.1229        -999.25       82.47727         0.7963         0.7818        -999.25         0.9547        -999.25       -47.8989      -1.294781              1      0.9924415
      3500.5000        -999.25        -999.25       150.3271         92.444        -999.25       85.10106         0.7938         0.7754        -999.25         0.9528        -999.25       -47.3137     -0.7192345              1              1
      3501.0000        -999.25        -999.25       150.1687        93.5411        -999.25       86.33961         0.7859         0.7694        -999.25         0.9599        -999.25       -46.8577     -0.2728806              1              1
      3501.5000        -999.25        -999.25       148.8459        94.5929        -999.25        87.5269         0.7748         0.7637        -999.25         0.9714        -999.25       -46.5048     0.07037354              1              1
      3502.0000        -999.25        -999.25       147.0356        91.9512        -999.25       84.53413         0.7648         0.7591        -999.25         0.9804        -999.25       -46.2696      0.2959213              1              1
      3502.5000        -999.25        -999.25        145.561        88.6643        -999.25       80.81115         0.7587         0.7547        -999.25          0.981        -999.25       -46.3658      0.1900749              1              1
      3503.0000        -999.25        -999.25       145.1697        89.7395        -999.25       82.02493         0.7554         0.7504        -999.25         0.9699        -999.25       -46.6749     -0.1286736              1              1
      3503.5000        -999.25        -999.25       146.2483        91.3578        -999.25       83.85334         0.7533         0.7471        -999.25         0.9587        -999.25       -46.9293     -0.3927231              1              1
      3504.0000        -999.25        -999.25       149.2083        91.9678        -999.25       84.54061         0.7539         0.7441        -999.25         0.9625        -999.25       -46.7388     -0.2118721              1              1
      3504.5000        -999.25        -999.25        150.031        89.7032        -999.25       81.97462         0.7559         0.7408        -999.25         0.9763        -999.25       -46.3209      0.1963806              1              1
      3505.0000        -999.25        -999.25       149.8696        88.9535        -999.25       81.12308         0.7587          0.738        -999.25         0.9859        -999.25       -45.8552      0.6524277              1              1
      3505.5000        -999.25        -999.25        149.167        88.7821        -999.25       80.92603         0.7616         0.7358        -999.25         0.9905        -999.25       -45.4949       1.003082              1              1
