#------------------------------------------------------------------------------
# Created by    : vladimir.rabinovich
# Created on    : 09/19/2023 17:21:24
#------------------------------------------------------------------------------
~Version Information Section
VERS.           2.0     :   CWLS log ASCII Standard - VERSION 2.0
WRAP.           NO      :   One line per depth step
~Well Information Section
#MNEM       .UNIT                                         VALUE :DESCRIPTION
#------------------------------------------------------------------------------
STRT        .FT                                            4000 :START DEPTH
STOP        .FT                                            8085 :STOP DEPTH
STEP        .FT                                             0.5 :STEP      
NULL        .                                           -999.25 :NULL      
COMP        .                             WALTER OIL & GAS CORP :COMPANY   
WELL        .                               OCS G09047 ST00BP00 :WELL      
FLD         .                              GALVESTON BLOCK 0351 :FIELD     
LOC         .                                                   :LOCATION  
CNTY        .                             GALVESTON LARGE BLOCK :LOCATION  
STAT        .                                             TEXAS :STATE     
CTRY        .                                     UNITED STATES :COUNTRY   
SRVC        .                                                   :SERVICE COMPANY
DATE        .                             9/13/2023 11:19:36 AM :LOG DATE  
API         .                                    42706402000000 :API NUMBER
UWI         .                                    42706402000000 :UNIQUE WELL ID
XCOORD      .                                  1036183.96101641 :SURFACE X 
YCOORD      .                                  10437562.0132666 :SURFACE Y 
LAT         .                                        28.7482272 :LATITUDE  
LON         .                                       -94.8860948 :LONGITUDE 
ELEV        .FT                                              80 :ELEVATION VALUE
ELEV_TYPE   .                                                KB :ELEVATION REFERENCE TYPE
~Curve Information Section
#MNEM       .UNIT                                      API CODE :CURVE DESCRIPTION
#------------------------------------------------------------------------------
DEPT        .FT                                                 :DEPTH     
CALI        .IN                                                 :          
DRHO        .G/C3                                               :          
GR          .GAPI                                               :          
GR_NORM     .GAPI                                               :GammaRay Normalized
ILD         .OHMM                                               :          
ILM         .OHMM                                               :          
NPHI        .%                                                  :          
RHOB        .G/C3                                               :          
SFL         .OHMM                                               :          
SP          .MV                                                 :          
SP_NORM     .MV                                                 :SP Normalized
VSH_GR      .V/V                                                :Volume of Shale from GR
VSH_SP      .V/V                                                :Volume of Shale from SP
~A        DEPTH           CALI           DRHO             GR        GR_NORM            ILD            ILM           NPHI           RHOB            SFL             SP        SP_NORM         VSH_GR         VSH_SP
# ...
      4551.0000        10.7086         0.1165        78.9127       73.95206         0.6391         0.6784        45.3442         2.2234         0.7886       -45.9695      0.7963753      0.8713204              1
      4551.5000        10.7001         0.1173        79.9514        75.0934         0.6463         0.6866        45.2385         2.2215         0.8048       -45.8177      0.9503593      0.8956043              1
      4552.0000        10.6934         0.1041        79.9576       75.08751         0.6515         0.6887        45.2167         2.2223         0.8213        -45.681       1.089237      0.8954789              1
      4552.5000        10.6866         0.0766        79.2699       74.31062         0.6541         0.6908        45.1935         2.2327         0.8432       -45.6187       1.153721      0.8789493              1
      4553.0000        10.6803         0.0504        78.1357       73.03761         0.6567         0.6922        44.9861         2.2414         0.8659       -45.9543      0.8203011      0.8518641              1
      4553.5000        10.6755         0.0308           76.9       71.65184         0.6593         0.6903        44.7787         2.2389         0.8477       -46.4478      0.3289795      0.8223796              1
      4554.0000        10.6707         0.0426        76.0891       70.73807         0.6612         0.6885        44.6219         2.2332         0.8289       -46.5712      0.2077599      0.8029376              1
      4554.5000         10.666         0.0543        75.9404       70.56006         0.6611         0.6867        44.5741          2.234         0.8274       -46.5221      0.2590408      0.7991502              1
      4555.0000        10.6581         0.0541        76.3453       70.99717          0.661         0.6849        44.5262         2.2356         0.8307       -46.4559      0.3274231      0.8084504              1
      4555.5000        10.6458         0.0465        76.9113       71.61328         0.6609         0.6766        44.4784         2.2338         0.8387       -46.4684      0.3171043      0.8215592              1
      4556.0000        10.6335         0.0537        77.5964       72.36172         0.6518         0.6681        44.4501         2.2261         0.8263       -46.5874      0.2002831      0.8374835              1
      4556.5000        10.6213         0.0726        78.2306       73.05361         0.6384         0.6597        44.4222         2.2195         0.8114       -46.4272      0.3626633      0.8522045              1
      4557.0000        10.6129         0.0881        78.8086       73.68306         0.6253         0.6515        44.3931         2.2151         0.8051       -45.8707      0.9213409       0.865597              1
      4557.5000          10.61         0.1018        80.0475       75.04684         0.6186         0.6471        44.2764         2.2108         0.8015       -45.5313       1.262924      0.8946136              1
      4558.0000        10.6071          0.108        81.2732       76.39594          0.618         0.6473        44.1596         2.2152          0.798       -45.6342       1.162205      0.9233179              1
      4558.5000        10.6042         0.0998        81.1398       76.23495         0.6174         0.6475        44.0367          2.222         0.7994       -45.9487       0.849884      0.9198925              1
      4559.0000        10.6128         0.0917        80.4471       75.45249         0.6186         0.6477        43.8982         2.2306          0.801       -46.2953      0.5054665      0.9032445              1
      4559.5000        10.6239         0.0854        79.7544       74.67005         0.6212         0.6483        43.7608         2.2362         0.8027       -46.6419      0.1610451      0.8865969              1
      4560.0000         10.635         0.0849        80.6335       75.63406         0.6237         0.6489        43.7241         2.2338          0.799       -46.7747     0.03042603      0.9071076              1
      4560.5000        10.6408         0.0858        81.6473       76.74772         0.6233         0.6494        43.6874         2.2362         0.7969        -46.841    -0.03369141      0.9308025      0.9995187
      4561.0000        10.6422         0.0895        81.7792       76.88149          0.622         0.6475         43.665         2.2405         0.7997        -46.563      0.2464867      0.9336488              1
      4561.5000        10.6436         0.0932        81.1716        76.1936         0.6207         0.6441        43.7559         2.2479         0.8212       -46.4096      0.4020691      0.9190128              1
      4562.0000        10.6432         0.0934        80.0461       74.93027         0.6194         0.6407        43.8467         2.2552         0.8398       -46.6879       0.125946      0.8921334              1
      4562.5000        10.6347         0.0934        80.0599       74.93283         0.6173         0.6353        43.9809         2.2545         0.8409       -46.8793    -0.06327057      0.8921879      0.9990962
      4563.0000        10.6262          0.092        80.8268       75.77216         0.6153         0.6287        44.2067          2.242         0.8252       -46.9932     -0.1749878      0.9100459      0.9975002
      4563.5000        10.6177         0.0894        82.5199        77.6406         0.6133         0.6222        44.4319         2.2302         0.8116       -47.0923     -0.2719116      0.9498001      0.9961156
      4564.0000        10.6136         0.0877        82.7483        77.8816         0.6027         0.6156        44.6514         2.2239          0.802       -47.1726      -0.350029      0.9549276      0.9949996
      4564.5000        10.6221         0.0923        84.2648       79.55383         0.5919         0.6089        44.8708         2.2326         0.7993       -47.2529     -0.4281502      0.9905069      0.9938836
      4565.0000        10.6306         0.1013        86.5369        82.0656         0.5813         0.6054        45.8094         2.2349         0.7972       -47.3331     -0.5061684              1       0.992769
      4565.5000        10.6391         0.1225        87.8544       83.51671         0.5774         0.6084        47.2729         2.2295         0.7979        -47.427     -0.5978851              1      0.9914588
      4566.0000         10.649         0.1328        88.3961       84.10583         0.5772         0.6113        48.7224         2.2167         0.7975       -47.5233      -0.692009              1      0.9901142
      4566.5000        10.6591          0.121        86.1877       81.63926          0.577         0.6149        49.6714         2.2052         0.7968       -47.5813     -0.7478256              1      0.9893168
      4567.0000        10.6693         0.1079        83.4742       78.61148         0.5839         0.6186        50.2518         2.1997         0.7984       -47.5917     -0.7560501       0.970457      0.9891993
      4567.5000         10.679         0.1047        82.9817       78.05148         0.5945         0.6222        49.4772         2.1989         0.8011        -47.602     -0.7641678       0.958542      0.9890833
      4568.0000         10.685         0.1098        82.8356       77.87637         0.6053         0.6293        47.6389         2.2096         0.8039       -47.3973     -0.5572853      0.9548165      0.9920388
      4568.5000         10.691         0.1322        83.4281       78.52193         0.6199          0.638        45.7018         2.2207         0.8087       -47.1419     -0.2997055      0.9685518      0.9957185
      4569.0000         10.697         0.1521        85.0817       80.34648         0.6354         0.6469        44.1457         2.2329         0.8142       -46.8864    -0.04202271              1      0.9993997
      4569.5000        10.6946         0.1466        84.0629       79.20171         0.6518         0.6573        42.9465          2.245         0.8196       -46.6466       0.199955       0.983015              1
